Mode,Time,Freq,North-Vision,East-Vision,Down-Vision,Yaw-Vision,North-Desired,East-Desired,Down-Desired,Roll-UAV,Pitch-UAV,Yaw-UAV,Roll-Control,Pitch-Control,Yaw-Control,Thrust-Control,northVraw,eastVraw,downVraw,N-Velocity,E-Velocity,D-Velocity,yawVraw,yawRate,Q-Size
GUIDED_NOGPS,0.021275043487548828,47.04296818044168,-27.48533412207945,38.07613620024515,57.07921793957386,-1.317790876868566,-25.874665970353384,44.20491701586497,61.523758378587864,-0.475509819249207,0.12650537539281762,4.115466024480891,3.349370278281538,-0.9793076758225684,-10.0,0.508889080878028,-26.748025270515257,44.237471536645025,63.08204914559505,-1.3716328889131546,5.0055693835020065,14.650505781173706,-0.8465653914345226,-0.9026580571933156,0
GUIDED_NOGPS,0.03828763961791992,58.79151131170979,-28.132384275228997,42.12818664865711,62.359521943333064,-1.0076546591294608,-25.874305095817782,44.204928104904845,61.523574258293344,-0.39446316808380594,0.08388724946797269,4.223060713815633,-2.2353862266876137,-0.49445144598355173,2.994161087685052,0.49832810462992055,-25.886592551465817,45.86007242279902,63.553948038953486,1.132760290056467,4.1228629648685455,8.947083353996277,-0.4603748678593832,-2.7915405755797007,0
GUIDED_NOGPS,0.06103014945983887,43.982508939525815,-27.89377841103289,42.62721625605612,62.540550716935705,-0.9801939829138248,-25.871827794372706,44.20500422802186,61.5223002744658,-0.3668780083776814,0.11254140048027034,4.298964606061984,-0.12564665509451897,-0.03542475765005075,-0.346297317537614,0.4979634991150602,-25.76072752283699,45.744916572287025,63.81074511286421,-2.29226928204298,4.495773836970329,1.381579227745533,-0.5233470939475728,-2.2214255393323827,0
GUIDED_NOGPS,0.09322357177734375,31.065926984808872,-27.803286584212938,42.9850973670918,62.8055585827355,-0.9989080257474322,-25.865250393637325,44.20520633997997,61.51888715228673,-0.28651405596416424,0.20481915047742022,4.369826111153574,-0.03992943412889591,-0.10888712324792164,-0.7157393268972608,0.49742665713910245,-26.525707749929158,45.19685659830016,63.895310469332586,-3.2196689397096634,3.409004583954811,5.40907084941864,-0.6735381916764626,-3.2236441691275064,0
GUIDED_NOGPS,0.12738728523254395,29.281039911199848,-27.721368655715622,43.389526586271316,63.29057267648245,-0.9900350311919639,-25.852731011407993,44.20559103858029,61.512329347193564,-0.1550493229036827,0.10459356824646135,4.427049862906764,-0.07204648114368749,-0.10911705295478828,-0.5417050136039437,0.4964435133414222,-26.36990417868313,45.984192608365376,65.39764086589761,-2.2827183827757835,1.9980119541287422,7.818230241537094,-0.6761618678151742,-0.397604948380306,0
GUIDED_NOGPS,0.16016936302185059,30.505582102361576,-27.656606823175487,43.763520096789385,63.666407375767655,-0.9961497539621537,-25.832566219418784,44.20621066717791,61.50166444170366,0.01362937568449599,-0.09769198892538743,4.516265366958647,-0.08811927611837443,-0.11270568051943773,-0.634606095511578,0.495670514131872,-26.02866714060373,46.47896182935915,64.75935940332008,-3.9814356714487076,1.0638751089572906,8.060481399297714,-0.593872027904087,-1.6014654900696041,0
GUIDED_NOGPS,0.1981666088104248,26.320834876029945,-27.656019638251138,44.02988443733673,64.03470997003915,-1.0267710372006775,-25.80318770710204,44.207113417198684,61.48597254223844,0.055455146304766556,-0.1194635303998138,4.591052950162525,-0.06169937345918277,-0.13619378381016214,-0.7772834633181892,0.4949025251443986,-26.583449933735448,45.73083881746581,64.89906852993528,-4.030795767903328,2.293851040303707,9.644431620836258,-0.9901656542884352,-0.8585416519007917,0
GUIDED_NOGPS,0.2299516201019287,31.466562635977613,-27.5738250914324,44.30076594510951,64.32157557363641,-1.1212513463479046,-25.76315894534889,44.20834343065596,61.46437567594738,-0.019771850182453084,-0.20764263328642713,4.704408050288526,-0.09281687035846554,-0.11164938856999194,-1.2688789130166027,0.4942856002046219,-26.4200799714607,45.75024911396278,65.06430274664517,1.1333094909787178,3.262076899409294,3.794286400079727,-1.060247546757302,-3.93759850698365,0
GUIDED_NOGPS,0.26351499557495117,29.800943557096573,-27.52272630108985,44.58624273703937,64.61447596786412,-1.185601153535557,-25.711171850269807,44.209940902667356,61.43603718753209,-0.17544853663357202,-0.3154991109654505,4.773845887824992,-0.10979820821579113,-0.12482845262523465,-1.0949658253107395,0.49364312243933595,-26.534706952502027,46.773701417797014,66.43887838162095,-0.589972548186779,2.7927178889513016,2.5941817089915276,-1.0933576387674573,-2.784999388788944,0
GUIDED_NOGPS,0.29665064811706543,30.182883213517268,-27.50104312935265,44.93563330463135,64.89600626229686,-1.2704833754406182,-25.646043446955122,44.21194218397157,61.400161136070366,-0.3290038623780202,-0.29441132878985926,4.8546372073093105,-0.15116844507925076,-0.13961582039011727,-1.2735255207307161,0.493008309747547,-26.01509219042231,47.83939735264241,66.90832470998137,-4.075612872838974,3.3430811017751694,1.24454777687788,-0.9899364091604259,-4.401432811537808,0
GUIDED_NOGPS,0.3301105499267578,29.889713951797955,-27.551838554836245,45.112818719455085,65.17482731428858,-1.369310014712125,-25.56671253323558,44.214379883445126,61.35599169184027,-0.46120254728958726,-0.15233669726655627,4.973972991827304,-0.11034295011861629,-0.17525562092809327,-1.4122018580817737,0.4923623287551034,-26.75190857774824,46.1839287536437,65.44288927896571,-4.921099171042442,2.1511081606149673,9.120040386915207,-1.2755408151384922,-4.172875898888964,0
GUIDED_NOGPS,0.367018461227417,27.098488176767024,-27.604636013938958,45.331619769556006,65.49537162331264,-1.4777367143203457,-25.472236343442876,44.21728297061913,61.302812533144156,-0.263111159825056,-0.11750534718128289,5.12449328566146,-0.13028921585865685,-0.18593714078187112,-1.4751412455306991,0.49161488181966306,-26.752740840677532,47.029825527976634,66.27789552835337,-4.921099171042442,2.1511081606149673,9.120040386915207,-1.4662985800490917,-4.172875898888964,0
GUIDED_NOGPS,0.39754271507263184,32.767232017999575,-27.66261412190497,45.50408289808518,65.61978032998077,-1.5970347821606206,-25.36178721217017,44.220676878196066,61.23994624313274,-0.27530897054819964,-0.10686844145679211,5.2077532916439155,-0.13887010010939055,-0.21293543085028413,-1.7467800824818864,0.49124033182630394,-27.185646641492994,46.642500990657155,65.07037505279243,-3.1540479511022568,1.402194518595934,2.4156538769602776,-1.461766188690902,-4.647152282023602,0
GUIDED_NOGPS,0.4313497543334961,29.585271919305917,-27.663679768285615,45.65409410092315,65.89039855544327,-1.6439312263117098,-25.23464923803266,44.22458360456656,61.16675370662915,-0.2548689891267018,-0.13639330151602755,5.301609055463176,-0.1345549951657091,-0.2038822271581415,-1.2616301521673023,0.49055271030237174,-26.059813336231883,47.3819793802677,66.22094753975837,-4.810531437397003,-0.43036467395722866,9.675464779138565,-1.3662425772710405,-2.058690305941305,0
GUIDED_NOGPS,0.46506190299987793,29.666463906296418,-27.814012662073225,45.7787079173825,65.97930251809754,-1.724631528850219,-25.090214947428073,44.22902181632616,61.082633506952995,-0.2237478725037734,-0.13480979152606887,5.402946437744539,-0.13692912833295787,-0.2740801229253587,-1.5134010917140892,0.4902066619777109,-27.802410381986984,47.180932254553554,65.05441398252889,-6.896241009235382,-0.998955499380827,2.889927476644516,-1.6514956266385599,-2.655675946713688,0
GUIDED_NOGPS,0.49828147888183594,30.10835062128967,-27.89135908450159,45.932725811674246,66.11335548429163,-1.8043838945118351,-24.92798195829725,44.23400695079209,60.987021322744404,-0.1814562482975536,-0.07679944077031012,5.489036703364319,-0.15547756061252535,-0.2747385749502119,-1.5623940679062451,0.48974733167690554,-27.491744474488947,47.72392137910651,66.38373815632346,-3.852944076061249,-0.3859848715364933,1.2370663695037365,-1.7611300570737185,-2.480698879895832,0
GUIDED_NOGPS,0.5366659164428711,26.056432875691122,-27.930267243141724,46.0900595383445,66.19183402692752,-1.9256842289868805,-24.74754964388465,44.23955131852004,60.87938932478809,-0.1761223774838761,-0.2923373792009819,5.580882684020303,-0.15995203490007157,-0.2747900044636497,-1.7882844193682583,0.48937511059572114,-27.66950305869482,47.92462329382652,66.2847678404414,-1.1107360944151878,0.02621843887027353,-0.7856396958231926,-1.745630835734838,-5.313806065773527,0
GUIDED_NOGPS,0.5730361938476562,27.503632786885245,-28.041924798062958,46.26184205120235,66.34034709476596,-1.9940157115530452,-24.548615796498893,44.24566420582093,60.75924557283743,-0.2479045974116689,-0.1744370549866019,5.725112800515701,-0.18401444185063082,-0.33449468544141786,-1.6195365049396295,0.48883779695614293,-27.984559443757018,48.091476138312,66.3644018489729,-4.090366885066032,0.3703056136146188,2.277216874063015,-1.749768962732646,-1.7349446753679898,0
GUIDED_NOGPS,0.6030380725860596,33.333630034650476,-28.040156956109065,46.32160938837312,66.44668402886944,-2.0833131308935524,-24.33097329127331,44.25235197727768,60.62613341243846,-0.37609609571455405,-0.34793687995303113,5.733457157247341,-0.1513761008197246,-0.3176814011467608,-1.7739343608218947,0.48835889876713806,-27.195551944165835,46.65050569634009,65.73916912527395,-0.7378448732197285,0.11270291870459914,4.317524656653404,-2.1169072295601072,-2.8437665498511455,0
GUIDED_NOGPS,0.6380879878997803,28.536368646287617,-28.0712547133819,46.426128002304246,66.5361442745065,-2.129168136809647,-24.094506749926463,44.259618178261974,60.479630871754026,-0.2529936219518573,-0.3439428201141604,5.845033419981377,-0.1712196628586329,-0.34962156801920086,-1.5426901392903574,0.48788697319449503,-26.582855865337947,47.83700044992398,66.11376943569286,-4.651733115315437,-1.06889633461833,1.9198700785636902,-2.012299500906604,-0.6962761007368583,0
GUIDED_NOGPS,0.671511173248291,29.9229792394949,-28.116500805517255,46.45082501724453,66.54373810496273,-2.2379385278583794,-23.83918920452269,44.26746363745106,60.31935005838773,-0.29922583842235134,-0.22064515235158932,5.943960172372549,-0.15103659462981417,-0.3826105452215595,-1.9855110932394393,0.48755122390685,-27.40993169382567,46.645954006500006,65.69914514971187,-2.8538424521684647,-1.3726169243454933,-1.0526605881750584,-2.3867599997663085,-3.355042281163154,0
GUIDED_NOGPS,0.7040002346038818,30.78523824902381,-28.1498910346542,46.512911104930495,66.5639242467352,-2.31106847477256,-23.565078761232645,44.27588656934449,60.144936556208066,-0.21434841162792515,-0.2348127522787676,6.014897236431832,-0.16736707234765283,-0.40913332374777717,-1.8366579260403866,0.48716202461894575,-26.8349992535908,47.64237582799399,66.0786221232257,-4.100478067994118,-2.0589547231793404,-1.2080548331141472,-2.2795411377372994,-2.0035826321703496,0
GUIDED_NOGPS,0.7490606307983398,22.19490305647278,-28.149820659891226,46.570378598110764,66.54257814253756,-2.3981123441892627,-23.272315264093823,44.284882676780924,59.95606882217246,-0.2718807491933822,-0.20172059247176163,6.057159885694932,-0.1650436984658838,-0.4011887620244987,-1.8333124268198033,0.4868269813592698,-27.094512495254985,47.61392889870814,65.93571644316276,-1.4270057901740074,-1.635262742638588,-2.567688934504986,-2.363186462122357,-3.019142755848624,0
GUIDED_NOGPS,0.776787519454956,36.075379520922034,-28.210799112778574,46.609004112476505,66.46470708589098,-2.4503677161916424,-22.961116958771115,44.294445253454846,59.75245758315131,-0.24092734573108932,-0.29861789822536733,6.089774038981743,-0.17017390744762356,-0.49078273637891834,-1.8356430991183037,0.4865755009945207,-28.235966706737,47.09130504887993,64.93014229811186,-1.395933423191309,-1.941816322505474,-4.673422500491142,-2.5529437041298424,0.9650630410404891,0
GUIDED_NOGPS,0.8072712421417236,32.81055118356619,-28.23862009155396,46.677077992749425,66.32330957418574,-2.551213084625935,-22.63177715631732,44.304565286433416,59.53384523275205,-0.3322130374317213,-0.29467458455759565,6.219574100195019,-0.1840554312567459,-0.5027609969630983,-2.1969474040925556,0.48642107131713264,-28.18659173845267,47.70452512020975,66.01187887351375,-0.49581434577703476,-0.19389367662370205,-8.793799579143524,-2.601405813276058,-4.201461521225936,0
GUIDED_NOGPS,0.8401393890380859,30.429670042659392,-28.260957976707825,46.748468834940034,66.38514728431443,-2.566752505809677,-22.28466089693371,44.31523155867317,59.30000522814321,-0.3768837552640741,-0.44545191762012626,6.204487066092107,-0.18791674740317282,-0.5221064272556668,-1.6339787511528727,0.48582971588765755,-27.083873919928056,48.37312169859568,67.19186951716758,-3.565507009625435,-1.9639508798718452,-0.534910149872303,-2.410929536804578,0.2727998898844249,0
GUIDED_NOGPS,0.8732542991638184,30.202443959588976,-28.245990336374316,46.800556167221345,66.42066290809755,-2.6633646198655248,-21.920201613730544,44.32643075153683,59.05074148687848,-0.3882348359735477,-0.3849498084674624,6.2486049654885125,-0.18610709043173068,-0.5403141490784287,-2.181704036390645,0.4852601571575618,-27.266376494298044,48.40431001068241,67.11487385237027,-0.23293038830161095,-3.1098438426852226,-1.9113190472126007,-2.4550108124038355,-4.290587805931787,0
GUIDED_NOGPS,0.9082615375518799,28.569606975001705,-28.425064044354173,46.7772500510462,66.47077072729117,-2.6796295562240573,-21.538897796487618,44.33814754731008,58.785887783720725,-0.35782192459018497,-0.27153112888524217,6.288304586265565,-0.1662151679978322,-0.6348218020392541,-1.700580290669231,0.4846302341128591,-27.589552607874346,47.6629365398386,65.78792366514983,-11.989764124155045,-5.247006565332413,3.3312518149614334,-2.6035665042136387,0.8599265794767176,0
GUIDED_NOGPS,0.9425253868103027,29.189138029423635,-28.536210956605473,46.790247717977536,66.49076701694939,-2.7313103005412933,-21.141309655414794,44.3503647317183,58.505307147466105,-0.25423831720638634,-0.39976475558148455,6.292100037009976,-0.17825556923008493,-0.6595788846953958,-1.9428979014908583,0.4840290802610334,-28.910809789453484,48.04209395024658,66.35707431997002,-3.4530289471149445,-3.918204829096794,-0.20902580581605434,-2.779060722759711,-0.9257574368011814,0
GUIDED_NOGPS,0.9782166481018066,28.022742608986135,-28.61352960309835,46.80207211986253,66.45594713072582,-2.754818748436681,-20.728055784912545,44.36306329644338,58.208891257768094,-0.3650243590699634,-0.18528155443915742,6.324908850688133,-0.17901540024654294,-0.680600385124824,-1.7836512989800068,0.4835058882540846,-28.910809789453484,48.04209395024658,66.35707431997002,-1.5922119840979576,-3.7141256034374237,-3.38338166475296,-2.779060722759711,0.4984770240244625,0
GUIDED_NOGPS,1.0083441734313965,33.2014343499909,-28.617061549666307,46.7292599508564,66.35503386137592,-2.8349100661149,-20.29980982733248,44.37622254164046,57.896559841961526,-0.2887465139665535,-0.4202903544914456,6.305941415363007,-0.1483602081804532,-0.7192782491751931,-2.2334118167505634,0.48308305196117124,-28.28916652478623,46.381615898867565,65.30360990801275,1.0801728814840317,-3.8087960332632065,-4.199528694152832,-2.930203387591966,-2.5907667380403527,0
GUIDED_NOGPS,1.0419933795928955,29.721331339772252,-28.68639567032786,46.682198443477304,66.28084477833045,-2.8544425313527597,-19.857297136737895,44.389820178454734,57.568260071886684,-0.3413271778271628,-0.2450731905160077,6.34432451717754,-0.1577349299670366,-0.7630237875608341,-1.8285942523733074,0.4825748305871125,-29.11720289246609,46.910500497680346,64.72044271956725,-1.3533085584640503,-3.7712179124355316,-0.5568036809563637,-2.9684797088056376,0.643878517962517,0
GUIDED_NOGPS,1.0755505561828613,29.80623796360122,-28.735544482256852,46.624969086191925,66.19763631622176,-2.902248763498397,-19.401291442664295,44.4038324315382,57.22396596071333,-0.4511162788761825,-0.266689058372232,6.3165154019718335,-0.1524661405786447,-0.7987154223073971,-2.029069780571076,0.4820526592889831,-29.11482626390422,46.911854497076575,64.76187512271957,0.34832400269806385,-4.424305632710457,-1.6050085425376892,-2.9793864759357858,-0.8427808836692815,0
GUIDED_NOGPS,1.1109817028045654,28.230403704551268,-28.814993282310763,46.58411740969269,66.13287042630904,-2.9019272063920423,-18.932611513879948,44.418234141566415,56.86367775976477,-0.37083396856758816,-0.3470061599569111,6.294014197524873,-0.1571198925396407,-0.8385046649826984,-1.739353948759336,0.48146161466691145,-29.079398914473558,47.7106405179524,66.02734266384272,-2.131847105920315,-5.743067339062691,-4.318087548017502,-2.9589501274522023,1.8076987831899078,0
GUIDED_NOGPS,1.1441442966461182,30.157275256864704,-28.870266008694696,46.53478176572774,66.22477648181797,-2.8780964198391854,-18.452117822146406,44.432998867755316,56.487421355341915,-0.2750488897512103,-0.40757102147257446,6.245975769544881,-0.15139056193671685,-0.8840828936667834,-1.5833670168126124,0.4805252897470479,-27.90056144139664,47.74191501005101,66.87259915063201,-4.073553159832954,-6.19276650249958,2.991297096014023,-2.7663491925258175,2.67467433133349,0
GUIDED_NOGPS,1.1770837306976318,30.364243156957425,-28.836645769356895,46.47385182313571,66.31064505733313,-2.854254951536958,-17.960709205979036,44.44809899037795,56.09524766554735,-0.43111849884259007,-0.3880717118462607,6.196625518357423,-0.14315517696874813,-0.8944194787144953,-1.5676435540241496,0.47956920521642843,-27.99687995331622,47.50479201363411,66.9096534140127,1.5368041582405567,-6.274847686290741,2.803536131978035,-2.7625949462137944,2.166532376190048,0
GUIDED_NOGPS,1.2111146450042725,29.389782290330945,-28.83244303838776,46.41787859337882,66.43393790489033,-2.873201057382308,-17.459319534407594,44.46350581328126,55.68723203710933,-0.3735933649922733,-0.669192799852171,6.127895886060523,-0.14339336953105616,-0.9362310457248728,-1.8352857999817906,0.478506588264438,-28.16013528828405,47.56154500326162,66.7865417236766,0.052964931819587946,-6.035367771983147,5.6387759745121,-2.8005582437999585,-0.36039813320689623,0
GUIDED_NOGPS,1.2442243099212646,30.20701178232939,-28.881435500730436,46.351107100925084,66.58090631568966,-2.8611562051082813,-16.948914370736723,44.47918966640285,55.26347364220594,-0.2645305585119493,-0.6541123291341646,6.116191076257237,-0.13740514938523996,-0.9988644667654756,-1.6438293678101732,0.47736513465303254,-28.16013528828405,47.56154500326162,66.7865417236766,-3.5097897052764893,-6.65040984749794,7.194049656391144,-2.8005582437999585,1.532008015739275,0
GUIDED_NOGPS,1.2771742343902588,30.35479388605836,-28.87130300982881,46.272180327495,66.67761942668162,-2.903174516564302,-16.430487636306502,44.495120008287785,54.82409487528905,-0.30944033296525253,-0.8602550688871129,6.070533396089817,-0.12967537652842145,-1.0197178965666875,-1.9967121585227396,0.47629295089721485,-28.08240241651395,47.18330606468369,66.8835391242778,0.05472180200740695,-6.365665793418884,3.9340022951364517,-2.815337076396041,-1.9211717040790917,0
GUIDED_NOGPS,1.3115966320037842,29.05829944367851,-28.933888486293153,46.08434684535608,66.89388800706107,-2.8820917829003565,-15.90505827425298,44.51126552860532,54.369240749908414,-0.36500920458774244,-0.8452522915709154,6.054347128417357,-0.08946646816199819,-1.0799198261401792,-1.606609585499408,0.4749507054856947,-28.526868742442012,45.71775124892025,66.65429355384751,-3.5724952816963196,-9.108392149209976,12.343278527259827,-2.9090050605810385,2.175401803714133,0
GUIDED_NOGPS,1.3454487323760986,29.543801815889385,-28.941385575733516,45.925720411356245,66.92029998637649,-2.8501273643660014,-15.373666913268728,44.52759425066569,53.899078295535745,-0.17880765568389603,-0.7901697507616715,6.081461698761838,-0.08720644393556044,-1.1063223722358613,-1.5208010315920082,0.4739575566183185,-28.526868742442012,45.71775124892025,66.65429355384751,0.18375839572399855,-7.228532433509827,0.2659508027136326,-2.9090050605810385,2.8087601228075374,0
GUIDED_NOGPS,1.386889934539795,24.132656701303784,-28.96263937624708,45.77576269552905,67.01100688068067,-2.821829102815434,-14.837372531363359,44.54407363393691,53.41379595438875,-0.24099868919140421,-0.8544920967749146,6.05175549851416,-0.08913429641945289,-1.1197343913665767,-1.5570784937487248,0.4728055781474162,-28.526868742442012,45.71775124892025,66.65429355384751,-1.0240205563604832,-7.03069344162941,4.676840826869011,-2.9090050605810385,2.442596456167504,0
GUIDED_NOGPS,1.4117543697357178,40.23236005064651,-28.897702218015304,45.626819409141845,66.95313274828219,-2.824789166033199,-14.297249119624073,44.56067067656149,52.913602978255184,-0.13322532104075813,-0.8770752634919154,6.0212036354698695,-0.057084422800613877,-1.2121252152889932,-1.718723364659876,0.471920940459946,-29.590029884687567,45.58116851075546,64.93714351799039,7.773149758577347,-6.891614943742752,0.5092333070933819,-2.767204168245868,0.006811459510648107,0
GUIDED_NOGPS,1.446542739868164,28.749573311581933,-28.89550239346573,45.51712664378205,66.96622918893674,-2.8226201929049206,-13.754382345976179,44.577352017873274,52.39872882531691,-0.22306992286779675,-0.8090073591317138,5.967965725984205,-0.07891287594891278,-1.218145494883019,-1.6806806235504992,0.4708649992727603,-29.50618648220215,46.10837042050517,66.25811152609256,2.45493296533823,-7.587670534849167,2.0149612799286842,-2.669934050752156,-0.14522028048163768,0
GUIDED_NOGPS,1.4928534030914307,21.595745009499584,-28.894788116743968,45.3789502719727,67.02947941505343,-2.841720504391315,-13.209866218943667,44.59408404091414,51.869422556973944,-0.2828110262169595,-0.5616916520925469,5.957493765326106,-0.07449479322387632,-1.2105468881223855,-1.7856811302067723,0.46967988628384105,-29.12273942680475,45.920931394671,67.62241618126288,1.8441298976540565,-7.362546771764755,0.19065355882048607,-2.8356759464255434,-0.8088442350044268,0
GUIDED_NOGPS,1.5201416015625,36.65228295538952,-28.97081795693557,45.17251832772382,67.19561449391735,-2.8323352603392857,-12.66479975140971,44.61083297495083,51.32595223466856,-0.18919722718513168,-0.7318707778227335,5.970552233245524,-0.019608090297878022,-1.3697756306855216,-1.6306018296659426,0.4682606754815024,-29.12273942680475,45.920931394671,67.62241618126288,-2.604172006249428,-8.980418741703033,5.29744029045105,-2.8356759464255434,1.2169856039531237,0
GUIDED_NOGPS,1.5536892414093018,29.813229461353654,-28.997689075230852,45.032197275540106,67.29796267160556,-2.7960873183354087,-12.120283624377194,44.6275649979917,50.768604316709286,-0.3434099052763407,-0.8997280127610859,5.901674471221,-0.043504794000685895,-1.3508933489046937,-1.461975593437508,0.46694128329020745,-28.81963156864513,45.69701982089068,67.6686535514728,-1.6692740842700005,-8.707806468009949,3.9308875799179077,-2.9247511712827112,2.6720289136905797,0
GUIDED_NOGPS,1.5872106552124023,29.836345917184175,-29.02831791094414,44.8254819880191,67.3668768081386,-2.7254701836627415,-11.577416850729307,44.64424633930347,50.19768305509497,-0.42432262070098603,-0.8900970191445448,5.917007392134033,-0.010569260701873563,-1.3935621680152792,-1.2143457993788278,0.46566161249391275,-28.532523551194075,44.67383786019234,65.72723001811661,-2.373482659459114,-8.84438306093216,6.817556917667389,-2.492831116018646,3.5948993149069612,0
GUIDED_NOGPS,1.6213817596435547,29.268780137191825,-29.045669568766595,44.618138267404866,67.31493267818273,-2.753712863615834,-11.03729343899002,44.66084338192806,49.61350989233889,-0.3292245095047234,-0.8237844734010364,5.9446303846848565,-0.00027283565611392613,-1.4256684929721484,-1.8178400847389682,0.46459715442831234,-28.532523551194075,44.67383786019234,65.72723001811661,-1.5223878435790539,-9.215446561574936,-0.8009297773241997,-2.492831116018646,-2.5023046892312863,0
GUIDED_NOGPS,1.6549692153930664,29.77851615193468,-29.0830588161782,44.41308836677148,67.30581799243619,-2.711114721956409,-10.500999057084652,44.67732276519928,49.01642285829274,-0.27748385219031985,-1.0523235101641621,5.867357039509917,0.012116819123604891,-1.4737783153996742,-1.3730011618555387,0.4634212097317131,-27.639637177864735,45.07546222439068,66.36384620885677,-5.47085739672184,-10.475938022136688,0.11283550411462784,-2.2123507058894427,1.094480398216833,0
GUIDED_NOGPS,1.693274974822998,26.108822449220963,-29.16142979585188,44.20115277824021,67.31053644036066,-2.6820305034523217,-9.96960769610039,44.69365148725965,48.40677596697074,-0.18781438068246856,-1.083310157437806,5.835674353271167,0.018773591371781903,-1.505269717282571,-1.4572395138987835,0.46219247905322014,-28.581215939617547,44.79622402450709,66.71854718167754,-5.47085739672184,-10.475938022136688,0.11283550411462784,-2.487260297766856,1.094480398216833,0
GUIDED_NOGPS,1.722687005996704,34.00603210637263,-29.07592238535622,43.96324919476314,67.24040824799934,-2.6536770846058015,-9.444178334046882,44.70979700757718,47.784938613373654,-0.1785963733868752,-1.0205760438500024,5.763292277315603,0.06060384885770757,-1.528475969801621,-1.3990995053724133,0.4610890607307486,-28.581215939617547,44.79622402450709,66.71854718167754,5.78392893075943,-10.920166224241257,-4.890236631035805,-2.487260297766856,1.0187041451305958,0
GUIDED_NOGPS,1.7558960914611816,30.11764705882353,-28.998989376155883,43.771182073715735,67.24247426339541,-2.567637182263506,-8.925751599616667,44.72572734946211,47.151294970312875,-0.066271724691047,-1.0656080146564255,5.673554263792213,0.05077151157482662,-1.5416343974183224,-1.0234176396047365,0.4598176414138349,-28.356206398449366,44.40213547252014,66.73699621330249,3.747265785932541,-10.35739853978157,0.6415410898625851,-2.3694123532743108,4.338654835328929,0
GUIDED_NOGPS,1.7883613109588623,30.805361536484153,-28.907164314984662,43.55925006102089,67.26646159428914,-2.447620739823095,-8.415346435945771,44.74141120258371,46.50624338523447,-0.01298896540852796,-1.225513415297002,5.601645605323497,0.07408144338437775,-1.5678226557529515,-0.7299670243723562,0.4584795635818907,-27.03973543063412,44.34694860105299,66.56073988977855,1.2355475686490536,-10.425477474927902,2.210289053618908,-2.0372297775828656,5.4545497975844555,0
GUIDED_NOGPS,1.8254597187042236,26.95914641984831,-28.816887452473058,43.35229376331682,67.28964574376263,-2.328903953577866,-7.913956764374348,44.75681802548702,45.85019577704321,0.11009846059365362,-1.219967621856069,5.556453658680107,0.08022668788390255,-1.5787808661065068,-0.7562073729958734,0.45712110006656115,-27.03973543063412,44.34694860105299,66.56073988977855,1.2355475686490536,-10.425477474927902,2.210289053618908,-2.0372297775828656,5.4545497975844555,0
GUIDED_NOGPS,1.856989860534668,31.723839561919025,-28.804184332390168,43.039545376258076,67.3490468611047,-2.2970834775634126,-7.422548148206978,44.771918148109656,45.1835770329267,0.1646070787496313,-1.2268454089068603,5.485183622898786,0.14267185520185888,-1.6571293430809453,-1.174361040900171,0.455669060343644,-27.995092661504778,42.21417135196316,66.43095823938847,-1.0796703398227692,-11.346026510000229,4.861152544617653,-2.5154762664281622,1.52697203188686,0
GUIDED_NOGPS,1.889923095703125,30.370839156281907,-28.608363733650844,42.821169773058,67.25394050208605,-2.299851594622699,-6.9420544564734215,44.786682874298556,44.50682440517935,0.3477339486294877,-1.0961878387876303,5.470499569956904,0.12369056661125227,-1.6086341534873094,-1.3965840729569081,0.45450576780618657,-26.930854560514604,43.29187412434786,66.2132215488422,8.087577670812607,-10.094329714775085,-3.995153307914734,-1.9729558505058171,-1.918407611899352,0
GUIDED_NOGPS,1.9234871864318848,29.797767815912305,-28.408295062495036,42.57993088415871,67.1778928910895,-2.2374333716146375,-6.4733745276890815,44.80108458432677,43.820386908026485,0.26493260585805445,-1.1012437795990264,5.387461545122474,0.14849869477037514,-1.6250249863815565,-0.9588378960052848,0.45328498803387396,-27.822900572818128,42.58295871564893,66.4553974541202,11.083632707595825,-9.131070226430893,-3.6166712641716003,-2.1112108789681927,2.5047571540301443,0
GUIDED_NOGPS,1.9572384357452393,29.63606944257986,-28.2750050771612,42.35455175503866,67.0657772827991,-2.1704620477476095,-6.017368833615485,44.81509683741023,43.124724714448384,0.35967146511223036,-1.1414175649148663,5.346194395930904,0.15385774785545892,-1.6579398888088723,-0.9167433015961279,0.45211789486329856,-27.822900572818128,42.58295871564893,66.4553974541202,6.640111654996872,-8.707351237535477,-5.834002420306206,-2.1112108789681927,2.9034387109783735,0
GUIDED_NOGPS,1.9956278800964355,26.051739451797836,-28.12320036940162,42.09286123240622,66.95817326896108,-2.10306063954972,-5.574856143020888,44.82869447422451,42.42030855300433,0.33054380323159366,-1.105731640770548,5.271812355208995,0.17712594081544078,-1.6640687696433962,-0.8998504097741471,0.4509242705680865,-27.808958948236906,41.93162125258636,65.07964077061851,7.8212447464466095,-9.193214774131775,-1.621604710817337,-2.0683198537549807,2.760537493163367,0
GUIDED_NOGPS,2.02912974357605,29.85354743195536,-27.957222580647993,41.80505036349209,66.73738703735772,-2.0241319668888655,-5.146610185440828,44.84185371942159,41.707619104656686,0.34209367979851163,-0.9060264076711897,5.226677611399905,0.2098430049765197,-1.6809064099102133,-0.7588283292484979,0.44994046413459793,-27.849350860949343,40.92704131072916,64.65757164488303,9.025923907756805,-9.043790400028229,-7.620908319950104,-2.1704951919873396,3.953515409070719,0
GUIDED_NOGPS,2.069492816925049,24.778779464760444,-27.757185952458595,41.56566247688458,66.67764945098025,-1.9717705451794802,-4.733356314938568,44.85455228414667,40.98714639959495,0.32411237971523327,-0.7690549146336647,5.131109177646263,0.20518911486657912,-1.6750073381974981,-0.9115145192990879,0.44861899389722937,-25.926583957535676,40.87348565253839,65.13664276143007,6.452129781246185,-7.353867590427399,0.9640679694712162,-1.79241587849627,1.4874558657220454,0
GUIDED_NOGPS,2.1000678539276123,32.71177663391047,-27.546022351276747,41.22396189452663,66.49441996369889,-1.8395252071128458,-4.335768173865766,44.86676946855489,40.259389214059766,0.19106701815084912,-0.9632096051761827,5.0270119720533915,0.27553796957825033,-1.69299501968857,-0.2728937044074011,0.44752993850072176,-26.532621468738704,39.56054739735758,65.1358849664584,8.295151591300964,-8.461371064186096,-6.763149052858353,-2.1243614794383117,6.840103189593025,0
GUIDED_NOGPS,2.140178680419922,24.9349265798704,-27.406326006500112,40.992033303402195,66.30223778496618,-1.8045212984390302,-3.954464356622843,44.87848626432814,39.52485446716705,0.16636189041758243,-0.9903203335392559,4.947688716353802,0.2398516851768415,-1.7099162127543106,-0.9091906963708054,0.44644523336440173,-26.018814535573895,39.99667957861852,64.40054963743523,4.268810898065567,-9.046415239572525,-5.900947377085686,-1.7744684177381302,0.9166656012422482,0
GUIDED_NOGPS,2.1586759090423584,54.08236841426619,-27.268533493133194,40.753074653409534,66.08998325886256,-1.775254304306029,-3.5900050734196682,44.8896854571918,38.784056617732006,0.20556855029541757,-0.8722231611385619,4.909969850436053,0.32629409750165866,-1.789311850467338,-0.7530776606056746,0.4453881467177389,-25.771590521436483,39.848757013694765,64.37956663288779,3.7231847643852234,-9.339600056409836,-6.873674690723419,-1.7383448422486303,-0.48889789715693116,0
GUIDED_NOGPS,2.192466974258423,29.596545203082222,-26.96841666756315,40.54584136357227,65.88843632128349,-1.745020440780924,-3.242888814036071,44.900351729431556,38.03751706109317,0.16717109441145706,-0.9448481356964844,4.775874027121662,0.2744174951311866,-1.6837920262773614,-0.8685950787931387,0.44429816147961937,-25.45370759530493,38.724855737806806,64.3973579638264,16.242744028568268,-7.790588587522507,-8.253517001867294,-1.682189226010165,1.5146631772288508,0
GUIDED_NOGPS,2.2257983684539795,30.00689665040278,-26.69815729499855,40.24755006747129,65.6639539262474,-1.669013521701796,-2.913549011582269,44.910471762410126,37.2857635259365,0.02220134313414133,-0.9536413639226411,4.638757552646833,0.32388937812181606,-1.6929442746654508,-0.5416137469821467,0.4432436191993782,-24.983140611285044,39.225852196006755,63.85028229788911,10.012558847665787,-8.804628252983093,-6.961590051651001,-1.4936468410001869,2.5880703074220786,0
GUIDED_NOGPS,2.2680070400238037,23.69663276836158,-26.48300429678946,39.93335384025257,65.45422914047411,-1.5535805184311742,-2.60235070625955,44.92003433908405,36.52932947111943,-0.009458904865968518,-1.0219150810924422,4.4775236802126885,0.32943344139165065,-1.7038401944389439,-0.3880278494407292,0.4421502006612906,-25.122367970491396,38.400766540925446,63.88016983436964,6.855542957782745,-8.416201174259186,-6.431059539318085,-1.6321740745265818,5.66191263323875,0
GUIDED_NOGPS,2.2970519065856934,34.43316640669896,-26.210065059514754,39.543704767997944,65.24310761250196,-1.4125763653611123,-2.3095872091207426,44.92903044652048,35.7687534824949,-0.002940022911720254,-1.1915632129755132,4.354721574690914,0.41997817278256455,-1.6907834914731523,0.1316006903417385,0.44105129173998586,-23.94506065634514,38.44941636408149,62.84979841266424,5.350522696971893,-9.822633117437363,-2.329856902360916,-1.157079110389646,4.931185271771759,0
GUIDED_NOGPS,2.331620931625366,28.930823509936058,-25.90525163579592,39.26356512812744,64.88903880246893,-1.2715115080734218,-2.035476765830687,44.937453378413906,35.004578669735416,-0.06871733262030824,-1.0958285068042641,4.244187769578952,0.386392145668442,-1.6710445610640308,0.04804834454936291,0.44023107973453296,-23.693791256482026,38.19934403613225,62.73113701105563,11.238069832324982,-9.5377616584301,-13.856084644794464,-1.1010984019778811,6.525541388689026,0
GUIDED_NOGPS,2.3695271015167236,26.386074396542504,-25.586687055526074,38.954883405411586,64.52546163158068,-1.1207957417733725,-1.780159220426917,44.945298837603,34.23735206315714,-0.13360127492979973,-1.3676813482715846,4.036501353712727,0.42583230394509203,-1.6553801526148462,0.26750521906790337,0.4394237808631529,-23.693791256482026,38.19934403613225,62.73113701105563,11.238069832324982,-9.5377616584301,-13.856084644794464,-1.1010984019778811,6.525541388689026,0
GUIDED_NOGPS,2.397517442703247,35.735132740346934,-25.229332661874036,38.66840526247555,64.15291973338991,-0.9980962669222051,-1.5436926790800598,44.952565038587295,33.467624010543894,-0.0946055371632284,-1.4480983947337278,3.9093620780679945,0.4365710180320402,-1.6296957097812097,0.13499875673886097,0.438629408554308,-23.493049139661313,38.05720424567302,62.566705208948775,14.28842544555664,-9.301060438156128,-14.838552474975586,-1.0487814556446056,5.262574524356554,0
GUIDED_NOGPS,2.430638313293457,30.20353141112423,-24.8442098464315,38.37351772599487,63.73608509048467,-0.9262436080210745,-1.3260501738544619,44.95925281004404,32.695947573971296,-0.14260807996965158,-1.3774520406009936,3.712943766784999,0.45919700708980615,-1.603965784715712,-0.1272563347321744,0.43791972496697323,-23.334562557232253,37.96357354596702,62.402754222653115,15.627390146255493,-9.468184411525726,-17.221084237098694,-0.9747300344210283,1.8962837754040345,0
GUIDED_NOGPS,2.465575933456421,28.6255673170765,-24.44413183120643,38.04549116745787,63.28360802611243,-0.7751375147925785,-1.127116326468716,44.96536569734493,31.92287792663072,0.05964645453634786,-1.4819407014106718,3.5317907148535705,0.4896599984523535,-1.581281801101219,0.4015133634874169,0.4372785398010366,-22.320366029224765,37.40490371597009,61.31994583906078,14.211709797382355,-10.81441193819046,-16.793283820152283,-0.55324531289683,5.787739231902371,0
GUIDED_NOGPS,2.4988958835601807,30.01548612403212,-24.03209083901983,37.736491574200485,62.88504327191793,-0.6576409314392351,-0.9466840120561173,44.97091006507288,31.148971749653384,0.06029312137231732,-1.4428424574456973,3.3462185305291436,0.5104714103777664,-1.5525826498583222,0.30912218673702707,0.4365278569554709,-22.320366029224765,37.40490371597009,61.31994583906078,15.515276789665222,-10.09596437215805,-13.776536285877228,-0.55324531289683,3.904497702718476,0
GUIDED_NOGPS,2.5340964794158936,28.415346155670125,-23.52318417979957,37.43411818240399,62.494184575734764,-0.4845665762276597,-0.7844510229253316,44.97589519953881,30.374786628934523,0.04903471512410168,-1.4550888799058244,3.129622132890638,0.5283303806474184,-1.4964570818135254,0.7055085931722664,0.4357612041063995,-21.9877816259409,37.142085286948216,60.916162359855505,21.76753729581833,-9.859073162078857,-12.9426509141922,-0.37516806680528125,7.164620844985963,0
GUIDED_NOGPS,2.5719618797302246,26.411329475400958,-23.001766852880287,37.12399228526667,62.08949453335339,-0.30342596704974956,-0.6400167323207242,44.98033341129841,29.60088045195721,0.1471588269063048,-1.3124093230737257,2.8971297506193974,0.545755490050389,-1.469781123225972,0.7640712679648968,0.4350227718372076,-21.550248129534186,36.77761425841895,60.517606343160054,21.76753729581833,-9.859073162078857,-12.9426509141922,-0.19347596688804602,7.164620844985963,0
GUIDED_NOGPS,2.611135721206665,25.53221123116725,-22.52654188533972,36.77447931934509,61.77483364906238,-0.1526646963700403,-0.512878758183227,44.984240137668905,28.827810804616597,0.11775187432163803,-1.1668870201647266,2.759851272595192,0.5792681582330514,-1.453318557514312,0.6809590327057551,0.43410595431110843,-21.109732047887455,36.5733244366788,60.11246521922688,15.524101257324219,-10.251794010400772,-5.133844539523125,0.003151704178349521,4.303425146476826,0
GUIDED_NOGPS,2.6388931274414062,36.03168221569335,-22.054902730251232,36.4471315638508,61.437696701705704,-0.0393167136622071,-0.40242962691049655,44.98763404524584,28.056134368044013,0.26944981549866587,-1.2591269106367504,2.5938896285949298,0.6308285328498815,-1.385769777013787,0.7944494223260137,0.43323687533267663,-21.109732047887455,36.5733244366788,60.11246521922688,16.25949889421463,-10.034175962209702,-7.69282653927803,0.003151704178349521,2.474866538674876,0
GUIDED_NOGPS,2.6727192401885986,29.569211897325992,-21.66675305699491,36.19811138517793,61.32347462621088,0.09192659621429236,-0.30795343711780987,44.990537132419846,27.286406315430767,0.32997305554907447,-1.1289087137802227,2.5005042940547533,0.6044272413500319,-1.4071577770544637,0.8326785600269874,0.43192586337843974,-20.702567824845964,36.38192128925392,60.00839519575034,16.743984818458557,-10.935156792402267,0.9587875567376614,0.09675167992392343,5.7077782072890315,0
GUIDED_NOGPS,2.7059590816497803,30.087400648474937,-21.16583153898812,35.8726847618129,60.96120618009079,0.22682074304737843,-0.22862252339825062,44.99297483189339,26.519179708852484,0.440504939670333,-0.9586219592097556,2.3458762817650696,0.6510342681332358,-1.3363521039590973,0.94679177186167,0.4311159470575234,-19.22624484040707,35.2933114105671,58.16409607120326,17.281660437583923,-10.105747729539871,-7.195772975683212,0.7676189505365859,3.059684837771116,0
GUIDED_NOGPS,2.7393593788146973,29.9439145582272,-20.669945061689216,35.57759532258711,60.63599213164052,0.38784245183890564,-0.16349412008354847,44.994976113197616,25.75500489609302,0.5588477854377358,-0.765854810924955,2.2411605171654885,0.6634035649824734,-1.3011679910877514,1.2032865592352373,0.430238025528905,-19.22624484040707,35.2933114105671,58.16409607120326,18.194293975830078,-9.334826469421387,-6.0987439006567,0.7676189505365859,5.19661666820221,0
GUIDED_NOGPS,2.774127244949341,28.765544201357933,-20.14361964207454,35.29373753249521,60.26453092684656,0.4997249543336351,-0.11150702500449228,44.99657358520901,24.994428907468453,0.5852091673436645,-0.6502950004400679,2.120868933050516,0.674763981395635,-1.2608645875810944,0.9392621725125028,0.4294597959612438,-18.38303640922164,34.937982104467594,57.59442338628766,18.466103076934814,-8.15877765417099,-8.082249760627747,1.0013168789764373,1.8300872895155633,0
GUIDED_NOGPS,2.8094537258148193,28.313109221007156,-19.60040364637936,34.97825723438868,59.81418527042897,0.6361375211882407,-0.07147826325140016,44.99780359866629,24.237994852651404,0.5631093965930006,-0.6346920202505557,1.9218833244132423,0.704892032307698,-1.216003987792901,1.1584823101598964,0.42884761916444486,-18.462390095819543,34.24874834575101,57.07475472080704,20.449726283550262,-8.690174669027328,-11.923088878393173,0.9847337879369058,3.4878698237260384,0
GUIDED_NOGPS,2.841529369354248,31.18418450420443,-19.075165593853047,34.68031191571336,59.381291655003125,0.7626046252776951,-0.04209975093461793,44.99870634868706,23.486241317494738,0.540009963624282,-0.6470686431917361,1.8613507728940042,0.7299129485367443,-1.164671726358167,1.2636680903510538,0.4282098993249832,-18.213919185400023,34.09973621006983,56.88590864594501,20.449726283550262,-8.690174669027328,-11.923088878393173,1.0382541479248562,3.4878698237260384,0
GUIDED_NOGPS,2.884478807449341,23.28461350565141,-18.58266974935803,34.4082319050033,58.953808164712186,0.8525730437466311,-0.021934958945415417,44.999325977284684,22.739701760855887,0.39085816222336145,-0.6853510530768642,1.7798703513554546,0.7153142527934578,-1.1810109392093096,0.9219374634705108,0.4275717871922874,-17.83557136430477,33.95269589950457,56.728493945385424,19.394633173942566,-8.245368301868439,-12.809285521507263,1.1076092930116737,1.7194238175310763,0
GUIDED_NOGPS,2.908020257949829,42.48730234301401,-18.131653537478186,34.14330154427477,58.585440611594656,0.9728421841260806,-0.009415576716030216,44.999710675885,21.998903911420832,0.38055300759139893,-0.6764923510842106,1.7254269134812827,0.7823490840440243,-1.0691655934374127,1.6054495258451698,0.4268269265996524,-17.83557136430477,33.95269589950457,56.728493945385424,16.044074296951294,-7.395393401384354,-8.938872814178467,1.1076092930116737,1.4605663714550572,0
GUIDED_NOGPS,2.942781686782837,28.776793616597942,-17.7525614073177,33.98883155450727,58.29937102819714,1.0347165398590212,-0.0028381759806492823,44.99991278784311,21.264369164528127,0.32463753054895733,-0.6512803619495481,1.7099907926787599,0.7257540872821527,-1.1218730541728816,0.9785564429280471,0.425929996272662,-16.194671751894415,34.27359679776624,56.369998843051036,16.044074296951294,-7.395393401384354,-8.938872814178467,1.3971388868451267,1.4605663714550572,0
GUIDED_NOGPS,2.9747846126556396,31.252963749487723,-17.20247319447417,33.75524217298167,57.8554318508207,1.1090703431810203,-0.00036087453556632454,44.99998891096013,20.53661197899293,0.48978945028702936,-0.8197933484090747,1.6783183517237645,0.7674054967965759,-1.018736071240827,1.1291230389525233,0.42536236025634444,-15.927660252138441,34.13351194297029,56.16447174842122,19.518092274665833,-7.068789750337601,-13.744720816612244,1.4343941838279042,0.3242435940524916,0
GUIDED_NOGPS,3.0091259479522705,29.12427958392934,-16.66779570682471,33.54100877257847,57.45514970816345,1.1705842368340675,3.552713678800501e-14,45.0,19.816139273931206,0.5733781591232917,-0.7154863279426364,1.6934360149562355,0.7705020674414744,-0.9954248925433306,1.061056141773098,0.42472197913153553,-15.478879222945631,33.953247235119434,55.70782918103703,19.459068775177002,-6.996035575866699,-11.706040799617767,1.5469959162219578,-0.05658043331073938,0
GUIDED_NOGPS,3.041682720184326,30.718950035887445,-16.02966516027633,33.29752020194703,56.84858502216141,1.2514628668418988,0.0,45.0,19.10344982558356,0.6503996410725867,-0.6849181364773618,1.6883745246161388,0.7967092053170746,-0.9096354493468806,1.2458287857276649,0.4245097296068443,-13.941876742239785,33.18418024077793,54.705996330481014,21.978896856307983,-6.553114950656891,-21.812129020690918,1.6564520886240972,0.8232482501903375,0
GUIDED_NOGPS,3.0759263038635254,29.208855338203445,-15.319703652124778,33.09364877124215,56.350092945182055,1.2795621888619342,0.0,45.0,18.399033664139502,0.6910001531289937,-0.7204780756480051,1.7059496685676394,0.7932146602090037,-0.846894540888882,0.9323709417382152,0.4240978814379149,-13.418380029495218,33.07045872308666,54.01380665400455,27.343112230300903,-4.92914654314518,-14.71455842256546,1.746451312136928,-2.1219784119038203,0
GUIDED_NOGPS,3.110901117324829,28.595317634546422,-14.687098358939254,32.852734919255475,55.83192146422461,1.2881112020254457,0.0,45.0,17.703371470561414,0.6913976381221767,-0.7362938589188457,1.7219757469597223,0.8164340319814518,-0.8294354759779061,0.8216569516575154,0.4237429000126736,-13.286561760278182,32.36490662997801,54.15137327401104,22.040589153766632,-5.467239022254944,-16.42920821905136,1.6552032584676497,-2.9784657776900247,0
GUIDED_NOGPS,3.143786668777466,30.412900980335287,-14.05056667952758,32.58127437127756,55.3241570259388,1.2714838206162815,0.0,45.0,17.01693397340855,0.6744412666207968,-0.8039874902568718,1.8661199524819656,0.8454297092194483,-0.770337367286004,0.6612073069879373,0.4233855538949395,-13.069580982468223,31.412090334923867,53.65288368023619,22.234147787094116,-5.249433219432831,-14.995744824409485,1.608624343586535,-4.162590914659394,0
GUIDED_NOGPS,3.1777660846710205,29.4353647924094,-13.605958134483723,32.366498929664985,54.82092720843749,1.312920062663107,0.0,45.0,16.3401813456612,0.5977055853995846,-0.9609922482951615,1.9425431525486498,0.8399695362752859,-0.8022241597782769,1.0322220770711708,0.42303850827444744,-11.823497188756846,31.57398859664486,52.349030444085386,10.160991549491882,-4.264961928129196,-13.983139395713806,1.626805881063259,-0.07091059707624925,0
GUIDED_NOGPS,3.2138426303863525,27.72195454034726,-13.058583477204207,32.165535759509964,54.30778299012372,1.287235300665745,0.0,45.0,15.673562601544667,0.5226995962248251,-1.1547371808483318,2.05503636817876,0.8423442559820433,-0.7446449582990088,0.6308940115373651,0.4227315592228419,-11.823497188756846,31.57398859664486,52.349030444085386,17.602702975273132,-3.5094160586595535,-14.903965592384338,1.626805881063259,-4.082654222594973,0
GUIDED_NOGPS,3.2438061237335205,33.38111723929359,-12.444303054074881,31.969416951131286,53.77981699963593,1.2620382944031925,0.0,45.0,15.017514993353423,0.4524830637621255,-1.2059141874736505,2.1523524765862785,0.8629573579602474,-0.6431870561989277,0.585712490261712,0.422475395987435,-10.892640594121875,31.307284354249088,51.70237710229166,21.410195529460907,-3.649545833468437,-15.701812505722046,1.5250253769859214,-3.510469639029141,0
GUIDED_NOGPS,3.280379295349121,27.344229377595525,-11.847941228953,31.79101794179361,53.30545902732644,1.204999241646681,0.0,45.0,14.372463408275017,0.4102544320427432,-1.0660189999453897,2.3037158718961077,0.8544344776349689,-0.6510214509146284,0.4159599300943421,0.42213400876189716,-9.888802507474614,31.073497733023054,51.086370522226744,21.784384548664093,-3.8897234946489334,-14.249475300312042,1.4364105321871277,-4.850331626811264,0
GUIDED_NOGPS,3.3129050731658936,33.56302413417835,-11.201218044614068,31.59299239633828,52.8584794632813,1.1751392347499723,0.0,45.0,13.738819765214267,0.36726306029214084,-1.0976937887779123,2.3811379871289065,0.8823161616706309,-0.5490926998509309,0.5046884108577547,0.42176068060386596,-9.549617510885799,31.04959047770862,50.869911436497695,20.99165916442871,-3.6866363137960434,-9.72670093178749,1.3896840491584161,-3.2137423158216922,0
GUIDED_NOGPS,3.345754623413086,28.11384141028219,-10.576554900557875,31.44890430062156,52.50285333358331,1.1110927460966558,0.0,45.0,13.11698241161718,0.3469694210096958,-1.1242175477591876,2.48126941413494,0.8644022026354851,-0.5479066757379181,0.3061746445117775,0.42122825815606774,-7.924229843834351,31.302041111419634,51.182098665753145,20.484398305416107,-3.275204822421074,-9.02373343706131,1.2176463918312104,-4.591076002050974,0
GUIDED_NOGPS,3.379812240600586,29.367146748072788,-9.827479555465434,31.28306876421096,51.94480446808538,1.0950880763544215,0.0,45.0,12.507335520295179,0.4269509095101187,-1.1588513026062066,2.6338485831170315,0.8813052156744696,-0.4472032608231939,0.5613512479190034,0.4211250621044196,-7.260489138569925,31.583322981389195,49.81739058588208,22.81603515148163,-3.7512004375457764,-15.118364989757538,1.0761867734440063,-1.2852309331491871,0
GUIDED_NOGPS,3.417699098587036,26.397366748273974,-9.188359908896974,31.14302435851902,51.506281515814,1.0209309023480426,0.0,45.0,11.910248486248996,0.47195929481956395,-1.256030700508619,2.678842667717902,0.8762136649109797,-0.46136558990278254,0.2266867673414104,0.42080793394087,-7.260489138569925,31.583322981389195,49.81739058588208,20.813295245170593,-4.157405346632004,-11.188274621963501,1.0761867734440063,-4.7784490084387565,0
GUIDED_NOGPS,3.445554733276367,35.91044443873663,-8.50527517212832,30.9197095411476,51.0151142385318,0.9779160832612026,0.0,45.0,11.326075323492937,0.661515987390194,-1.2473406721719529,2.8061396780437797,0.9308019361941567,-0.3343905926767314,0.2780116453445589,0.4206219221699223,-6.82557069392931,30.577596743325834,49.275734427555946,16.99235737323761,-4.750178009271622,-9.67729389667511,1.0215302016351058,-2.624291440920891,0
GUIDED_NOGPS,3.4799201488494873,29.102051011628877,-7.9101412506974125,30.746653835689397,50.57211233203104,0.9227194748780136,0.0,45.0,10.755154061878635,0.7397730398881738,-1.1669675950525915,2.860960910756418,0.9114776387782528,-0.3662331422845151,0.23301436367702555,0.4203660834596952,-6.174891750685777,29.479989767164156,49.013987394331124,23.691442608833313,-3.5275693982839584,-15.364788472652435,0.7302302869830448,-2.6224472898449878,0
GUIDED_NOGPS,3.5268349647521973,21.317286385167417,-7.132937431771891,30.619639792086414,49.996295368196634,0.8815680418855618,0.0,45.0,10.19780614391933,0.7785335096543499,-1.3058300366340052,2.9005713121874375,0.8949049952268807,-0.32003317626647126,0.3536386755104547,0.4204030215514454,-4.516882502316669,31.07393583639559,47.772625141572476,26.01715326309204,-3.1961653381586075,-17.00570434331894,0.6247953036471262,-1.413849371636051,0
GUIDED_NOGPS,3.547844886779785,47.61601162500284,-6.335254153631608,30.486166733056223,49.4758382295597,0.8448242352525315,0.0,45.0,9.654335821613977,0.7652914270401348,-1.1242590625027364,2.9774922622898865,0.9357162957481456,-0.04660707972053354,0.15398706431124937,0.4203569951841086,-4.516882502316669,31.07393583639559,47.772625141572476,24.097339808940887,-2.6680219918489456,-11.66316270828247,0.6247953036471262,-1.0841034198768795,0
GUIDED_NOGPS,3.5792887210845947,31.81335093028724,-5.891525990519156,30.462306492667835,49.09415626538096,0.7823226862238801,0.0,45.0,9.125029553271013,0.7122809948703436,-0.9470873705271907,3.032427046897476,0.8834550813825571,-0.259670170745502,0.07303065327249997,0.4200617465757801,-4.017430225994,30.84035128006458,47.51003832904509,22.730794548988342,-2.0173341035842896,-17.776256799697876,0.6022714050733144,-3.2067665582449933,0
GUIDED_NOGPS,3.615159749984741,27.88228333632478,-5.166906313322688,30.368794078927248,48.670371076722645,0.7491372611643912,0.0,45.0,8.610155400332722,0.7373013118214226,-1.0559003948551333,3.0104530476770752,0.9064396443031499,-0.14363110503456253,0.2606032155801833,0.41987956864722015,-2.8962274136500152,30.85188999251824,46.824578915431445,24.515406787395477,-2.2287333384156227,-9.583006799221039,0.4780550014550008,-0.7260879554732599,0
GUIDED_NOGPS,3.648045778274536,30.412239422832904,-4.389565227908292,30.224302269926564,48.18186712774837,0.761944108940691,0.0,45.0,8.109962424199118,0.6959317097923016,-0.8525260695110087,3.0521477240220065,0.9305089309501333,-0.06334002232645285,0.5334667939920883,0.41985619059290147,-2.945975490199367,30.05705814384825,47.041232182947425,25.670430064201355,-2.67188660800457,-12.911628186702728,0.3132277686182398,2.701364149288961,0
GUIDED_NOGPS,3.6852471828460693,26.88346216462203,-3.6870626615618645,30.06485744877828,47.732669181241064,0.7719141933262693,0.0,45.0,7.624680083052105,0.5845213993107559,-0.8467301737525769,3.0504689915900647,0.9397497166922585,-0.05691328769561264,0.516660614911597,0.41978402180362206,-1.5987055216179327,29.048283464231044,45.92479570692326,22.327715158462524,-2.3992059752345085,-11.081638932228088,0.3141003343185853,2.3127554138192083,0
GUIDED_NOGPS,3.7182223796844482,30.330867411505224,-2.906775800648279,29.87100969853301,47.22784234259425,0.7226115702966025,0.0,45.0,7.1545176286794785,0.48572666166963535,-0.8107010326024654,3.046701075045745,0.9659703047002743,0.045085496491103355,0.13486021159182476,0.41985335057217044,-1.39114527095209,28.617810832550507,45.965118584277754,22.895433008670807,-2.454375848174095,-12.030278891324997,0.24013820776317246,-1.1934705433012394,0
GUIDED_NOGPS,3.7508459091186523,30.656755472718636,-2.181016675658644,29.736250623960803,46.708053527070334,0.7098730212634913,0.0,45.0,6.699663503298858,0.4619412215761535,-0.7135163519756167,3.0647169796421228,0.9561769545009271,0.08154726030091586,0.3478643694460803,0.419983219952457,-0.3809314269740384,29.167468224159528,45.07535401945313,24.594277143478394,-2.3627355694770813,-15.990132093429565,0.2886900005491908,0.7632183579053301,0
GUIDED_NOGPS,3.784177303314209,30.00775537653641,-1.3901273137956758,29.58198188459948,46.27269506853405,0.6511570895501854,0.0,45.0,6.260284736381969,0.5633024561587593,-0.7744443607756278,3.062917865126059,0.9697580760249194,0.15125893544350755,0.03799722005495543,0.41997517933569584,0.7473562355621794,28.69801743868757,44.57346764423242,26.795431971549988,-2.5382526218891144,-9.75710153579712,0.2757277172502093,-2.1181129517204162,0
GUIDED_NOGPS,3.820612907409668,27.449633507853402,-0.5578150256620827,29.427096148658794,45.760312731821934,0.6548131163181996,0.0,45.0,5.836526341478553,0.6867371012307008,-0.5149188901822699,3.059426998129948,0.9747329186516275,0.20098280120009543,0.4129952451855269,0.42015242721931323,2.0823438112316843,28.637658292247416,43.81506504012611,26.620882749557495,-2.782541885972023,-13.421046733856201,0.25431232974949747,1.7761497125267958,0
GUIDED_NOGPS,3.856518268585205,27.854878235055818,0.2747499861597912,29.302915226485688,45.338986491222066,0.594888904080415,0.0,45.0,5.428510713040559,0.6669736820630044,-0.3393235845228219,3.0469311670434096,0.9737092975624326,0.26093395770815236,0.02357521165200621,0.42017904844363696,2.6981841858187656,29.218474968139923,43.12189155813911,22.456340491771698,-1.9905425608158112,-4.531164467334747,0.33286997763033677,-2.393734776949114,0
GUIDED_NOGPS,3.8854544162750244,34.56597056254223,1.1175523268728416,29.17576246881447,44.89399309920604,0.6114624058574052,0.0,45.0,5.036337023246027,0.7432280483911424,-0.24185889282042913,3.0103465394147055,0.9893930269008921,0.3800429434660558,0.48141835223380525,0.42028468784808,3.0728763714911826,29.20114255663736,42.870328029311366,24.754415452480316,-2.778671868145466,-7.141681760549545,0.3291694594476252,2.2608276199937167,0
GUIDED_NOGPS,3.9188365936279297,29.959528282344873,1.7974118234866912,29.051002719976687,44.500197498389305,0.5786645539013375,0.0,45.0,4.660080618823137,0.9753933819950161,0.5620967143268405,2.9360825328993916,0.9909264234919378,0.339455365793234,0.15074585668282464,0.42031976624086764,3.9794325745909314,28.500862902696788,42.62175436109819,23.443998396396637,-3.130802884697914,-10.157033801078796,0.26352997211031975,-0.8202988891293613,0
GUIDED_NOGPS,3.9596798419952393,24.485851892933244,2.558369661297299,28.94749909386484,44.083991407169805,0.5773109812185878,0.0,45.0,4.299792417874549,0.7654361416731744,0.828363101383325,2.861279154883058,0.9847664495831445,0.37539124876125646,0.3397565967101463,0.4204316020214095,4.354971560643364,28.451723959406273,42.374108999613185,23.838210105895996,-0.882372073829174,-8.839236944913864,0.2804271055627169,1.1042255840585602,0
GUIDED_NOGPS,3.986524820327759,37.261173544174476,3.364755013135875,28.86543452907872,43.63107080462357,0.5833411213162061,0.0,45.0,3.9554983067011946,0.632462230290811,0.9759919840427442,2.8380106213715286,0.9940375992978908,0.5559152906752025,0.39640308913138067,0.4206488550041553,6.031058144938988,28.80312405172701,41.10831073631335,23.838210105895996,-0.882372073829174,-8.839236944913864,0.45441528319520297,1.1042255840585602,0
GUIDED_NOGPS,4.0233728885650635,27.142152707223794,4.023833692573773,28.820177101523896,43.20875572619705,0.6549461553707129,0.0,45.0,3.627198536626416,0.16825744133503287,0.9864281929294063,2.738183778113796,0.9775126786536412,0.4677102858914666,0.7728695099903364,0.42083688562085875,7.6423176722178905,28.59326928450637,40.10951320028667,22.219908237457275,-0.12580917682498693,-10.939151793718338,0.6013127864749908,4.471815776500674,0
GUIDED_NOGPS,4.05295205116272,33.81194376370437,4.979550995242699,28.726783385183367,42.58950994890049,0.6274033678445443,0.0,45.0,3.314867120819791,0.06199355833117282,0.8348773409433718,2.6752141297213328,1.0006171050903563,0.6834230536354502,0.1897776853070385,0.42145071434383863,7.6423176722178905,28.59326928450637,40.10951320028667,26.642924547195435,-0.5632845684885979,-15.532226860523224,0.6013127864749908,-1.5678827305811207,0
GUIDED_NOGPS,4.087001085281372,29.37413946452458,5.738974070879664,28.669089992284608,42.08357469765981,0.6020378744605547,0.0,45.0,3.0184512311218654,0.00819099764043201,0.7037210602930251,2.5841502057253147,0.9901693367596909,0.6350555368085753,0.21232890436894447,0.4218697530669241,8.068577308362347,28.54912711915674,39.864339565229656,26.642924547195435,-0.5632845684885979,-15.532226860523224,0.644364727357718,-1.5678827305811207,0
GUIDED_NOGPS,4.120195388793945,30.131494252873562,6.466737621013714,28.57826020758472,41.5935662437343,0.6680796234544167,0.0,45.0,2.7378705948671254,-0.025719050639256568,0.4728283296697423,2.4540683992087753,1.0047746469593166,0.6837701670016937,0.7989266024986554,0.42228860870226564,8.890017779262148,28.538177444187298,39.38683141413762,18.12262237071991,-2.0763175562024117,-11.364909261465073,0.724383616570582,3.833598204699628,0
GUIDED_NOGPS,4.154130935668945,29.472181233048047,7.161968156621779,28.469810811255044,41.10121527040136,0.7236848609168681,0.0,45.0,2.4730168917094133,-0.04877075232506448,0.3198594396985632,2.3244303415448755,1.0147898280731198,0.7192357885862017,0.762170628997332,0.4227436032426161,9.244295434555712,28.493569882435537,39.16339092901196,17.780278623104095,-3.5350263118743896,-12.577608227729797,0.7814489630940153,3.0082667468124367,0
GUIDED_NOGPS,4.188095569610596,29.446730835386873,7.911448596445379,28.3482103299518,40.530315196876174,0.7795323320233128,0.0,45.0,2.2237531504446437,-0.2214052777010177,0.3986955108112602,2.1602091151224974,1.0242807650785815,0.7884994454411511,0.7966129438871116,0.423386875907137,11.210635197150872,28.37243488276591,37.76847580698228,17.495061457157135,-4.244247451424599,-14.39448744058609,1.0669585911571893,2.204815799931381,0
GUIDED_NOGPS,4.221466779708862,29.97130280683702,8.641107776329273,28.231261478966136,39.97138275786016,0.8371992147219228,0.0,45.0,1.9899131458358497,-0.1394465294771555,0.3385625253584679,1.9833313347246735,1.0289919649997448,0.8384234916838654,0.8475679844165112,0.4240370607759514,11.504704226377067,28.358047181887905,37.52928498783997,17.495061457157135,-4.244247451424599,-14.39448744058609,1.1191257313696243,2.204815799931381,0
GUIDED_NOGPS,4.254852771759033,29.961668416804176,9.377278941086447,28.112111422289242,39.38935692572311,0.951651524209908,0.0,45.0,1.7713007954365807,-0.12043218996233912,0.4740608052889594,1.8610220700401974,1.0342618182820804,0.8942750458593378,1.2568126464744762,0.4247638877394269,12.125977571155572,28.322920144675443,36.98133801922958,18.658125400543213,-4.614683985710144,-15.971916913986206,1.2592421106372513,5.341698850796566,0
GUIDED_NOGPS,4.2953197956085205,24.71366282495463,10.071070472966616,27.98947045687814,38.8602817628919,1.0103327912982343,0.0,45.0,1.567689556415381,-0.06099983250800208,0.347862468243675,1.6729588943811258,1.035388438965761,0.8952402424000514,0.8969358536590448,0.42541481558704697,12.412173670161721,28.285173245942772,36.701888881012366,17.22090244293213,-5.064582079648972,-13.400551676750183,1.3539425644715235,1.7334333892924187,0
GUIDED_NOGPS,4.328543186187744,30.105109028007064,10.963843777937102,27.828155573726974,38.10382210571724,1.1190598121547086,0.0,45.0,1.3788218223798125,-0.04156938506234385,0.45735624365237093,1.5650590876895552,1.058381753975656,1.05680485712627,1.3253373914208337,0.42654999943332517,12.993027962707632,28.254100275445406,36.12207332272341,21.794331073760986,-6.173636764287949,-21.42632007598877,1.494554742505016,4.061136138501671,0
