E-kp,E-ki,E-kd,E-I-Tot,E-P,E-I,E-D,E-PID,N-kp,N-ki,N-kd,N-I-Tot,N-P,N-I,N-D,N-PID,D-kp,D-ki,D-kd,D-I-Tot,D-P,D-I,D-D,D-PID,Y-kp,Y-ki,Y-kd,Y-I-Tot,Y-P,Y-I,Y-D,Y-PID,errorN,desiredN,actualN,errorE,desiredE,actualE,errorD,desiredD,actualD,errorY,desiredY,actualY,roll,pitch,yaw-rate,thrust,dt,Time,Mode
0.16,0.015,0.11,1.3168385354476329,6.395392834369256,0.019752578031714492,13.75,20.16514541240097,0.17,0.015,0.08,-0.3283920671073782,-1.694557441802335,-0.004925881006610673,-10.0,-11.699483322808945,0.002,8e-05,0,0.3082460730680536,0.01871295031485931,2.4659685845444292e-05,0.0,0.018737610000704754,0.2,0.02,0.0,0.00022752416953130243,0.0013812498688114344,4.550483390626049e-06,0.0,0.0013858003522020605,-9.96798495177844,-10.0,-0.032015048221558894,39.971205214807846,40.0,0.028794785192154965,9.356475157429655,10.0,0.6435248425703445,0.006906249344057171,0,-0.006906249344057171,4.000482118100667,3.9995178237828624,-0.0013858003522020605,0.5187376100007047,0.032944679260253906,0.03322863578796387,STABILIZE
0.16,0.015,0.11,2.6522237376934816,6.395491416540288,0.039783356065402224,6.876014351471114,13.311289124076804,0.17,0.015,0.08,-0.6613498805456421,-1.6942812729083665,-0.009920248208184632,-4.998054939076402,-6.702256460192953,0.002,8e-05,0,0.6202241588950222,0.018676756776803374,4.961793271160178e-05,0.0,0.018726374709514975,0.2,0.02,0.0,0.00041411230893210967,0.0011170211804421275,8.282246178642194e-06,0.0,0.0011253034266207698,-9.966360428872743,-10.0,-0.03363957112725611,39.971821353376804,40.0,0.028178646623195795,9.338378388401686,10.0,0.661621611598313,0.005585105902210638,0,-0.005585105902210638,4.000389894943536,3.999610067048242,-0.0011253034266207698,0.518726374709515,0.033408164978027344,0.06658005714416504,STABILIZE
0.16,0.015,0.11,3.9896186651112133,6.395713981213312,0.0598442799766682,4.585534031245346,11.041092292435327,0.17,0.015,0.08,-0.9948147247826087,-1.6943703991108285,-0.01492222087173913,-3.332454489700054,-5.041747109682622,0.002,8e-05,0,0.9329232939433175,0.018692442570079175,7.46338635154654e-05,0.0,0.01876707643359464,0.2,0.02,0.0,0.0005611062262647548,0.0008786961810646088,1.1222124525295097e-05,0.0,0.0008899183055899039,-9.966884700651931,-10.0,-0.0331152993480691,39.9732123825832,40.0,0.02678761741680189,9.346221285039586,10.0,0.6537787149604143,0.004393480905323044,0,-0.004393480905323044,4.000306711069523,3.999693265410753,-0.0008899183055899039,0.5187670764335947,0.033457279205322266,0.10009407997131348,STABILIZE
0.16,0.015,0.11,5.327672459648081,6.395993398692146,0.07991508689472121,3.4405852882928065,9.916493773879674,0.17,0.015,0.08,-1.3283920727832679,-1.6941814538819935,-0.019925881091749018,-2.4986767703730384,-4.212784105346781,0.002,8e-05,0,1.2461484366158777,0.018715483945952998,9.969187492927022e-05,0.0,0.01881517582088227,0.2,0.02,0.0,0.0007266101867330157,0.000988901046929503,1.4532203734660314e-05,0.0,0.0010034332506641632,-9.965773258129373,-10.0,-0.0342267418706283,39.97495874182591,40.0,0.02504125817408841,9.357741972976498,10.0,0.6422580270235019,0.004944505234647515,0,-0.004944505234647515,4.000345176689824,3.9996547935208677,-0.0010034332506641632,0.5188151758208823,0.033472299575805664,0.13351964950561523,STABILIZE
0.16,0.015,0.11,6.665013320072831,6.396458215061689,0.09997519980109247,2.7543787946023066,9.250812209465089,0.17,0.015,0.08,-1.6617705821027131,-1.6941973271370103,-0.024926558731540694,-1.9989860758672187,-3.7181099617357694,0.002,8e-05,0,1.5592375782491548,0.01871869086736352,0.0001247390062599324,0.0,0.018843429873623453,0.2,0.02,0.0,0.000859909453152438,0.0007969576165864361,1.719818906304876e-05,0.0,0.000814155805649485,-9.965866630217707,-10.0,-0.03413336978229319,39.977863844135555,40.0,0.022136155864443115,9.35934543368176,10.0,0.6406545663182397,0.003984788082932181,0,-0.003984788082932181,4.0002585762182665,3.7178317620558046,-0.000814155805649485,0.5188434298736234,0.03345203399658203,0.1669769287109375,STABILIZE
0.16,0.015,0.11,8.094812773590462,6.3963880456895525,0.12142219160385692,0.004109026881778845,6.521919264175189,0.17,0.015,0.08,-2.0182516973143727,-1.6944358940580182,-0.030273775459715588,0.0003861246113058314,-1.7243235449064278,0.002,8e-05,0,1.8940144432682975,0.018720831198683428,0.0001515211554614638,0.0,0.018872352354144892,0.2,0.02,0.0,0.0008831791948603457,0.00013012515262241777,1.7663583897206915e-05,-0.0,0.00014778873651962468,-9.967269965047166,-10.0,-0.03273003495283431,39.977425285559704,40.0,0.022574714440298238,9.360415599341714,10.0,0.6395844006582866,0.0006506257631120889,0,-0.0006506257631120889,4.000019580404619,1.7242781225481956,-0.00014778873651962468,0.5188723523541449,0.03576517105102539,0.20279145240783691,STABILIZE
0.16,0.015,0.11,9.475388757002987,6.396504208867354,0.1421308313550448,0.004165809550784529,6.542800849773183,0.17,0.015,0.08,-2.362350352193926,-1.693925436331118,-0.03543525528290889,0.0009993119909082336,-1.7283613796231188,0.002,8e-05,0,2.2175506596706036,0.018737657278585212,0.0001774040527736483,0.0,0.01891506133135886,0.2,0.02,0.0,0.000879845816202205,-1.9305321540363744e-05,1.75969163240441e-05,-0.0,-1.7084052163196439e-06,-9.964267272535988,-10.0,-0.03573272746401248,39.97815130542096,40.0,0.02184869457903959,9.368828639292605,10.0,0.6311713607073947,-9.652660770181871e-05,0,9.652660770181871e-05,3.999997088211601,1.7283681184491468,1.7084052163196439e-06,0.5189150613313589,0.03453326225280762,0.23730039596557617,STABILIZE
0.16,0.015,0.11,10.812631638372768,6.396445470413881,0.16218947457559152,0.0030096778223119573,6.561644622811785,0.17,0.015,0.08,-2.695715645132627,-1.69425091503638,-0.0404357346769894,0.0003342271725673275,-1.7343524225408022,0.002,8e-05,0,2.530389318343593,0.018705048360300968,0.00020243114546748743,0.0,0.018907479505768456,0.2,0.02,0.0,0.0009467236823308661,0.00039987184623431244,1.893447364661732e-05,-0.0,0.00041880631988092977,-9.966181853155176,-10.0,-0.03381814684482516,39.97778419008676,40.0,0.02221580991324363,9.352524180150484,10.0,0.6474758198495156,0.001999359231171562,0,-0.001999359231171562,4.000060518488761,1.7342128398788232,-0.00041880631988092977,0.5189074795057684,0.033449649810791016,0.2707538604736328,STABILIZE
0.16,0.015,0.11,12.165538329150902,6.396417629462725,0.1824830749372635,0.0017487468848170437,6.580649451284806,0.17,0.015,0.08,-3.033110196271707,-1.6948683520138093,-0.04549665294407561,-0.001914217930609609,-1.7422792228884945,0.002,8e-05,0,2.8470092043323074,0.018711868992715465,0.00022776073634658462,-0.0,0.01893962972906205,0.2,0.02,0.0,0.0011059429361435797,0.0009409673713822262,2.2118858722871596e-05,-0.0,0.0009630862301050978,-9.969813835375348,-10.0,-0.030186164624653032,39.97761018414203,40.0,0.022389815857968287,9.355934496357733,10.0,0.6440655036422663,0.004704836856911131,0,-0.004704836856911131,4.000143053587698,1.7419507574392057,-0.0009630862301050978,0.518939629729062,0.033841609954833984,0.30458736419677734,STABILIZE
0.16,0.015,0.11,13.501427212723476,6.3962147392487,0.20252140819085213,-0.0009966441391575543,6.597739503300394,0.17,0.015,0.08,-3.366416226659562,-1.6956054737165343,-0.05049624339989343,-0.003945633064972883,-1.7500473501814007,0.002,8e-05,0,3.1601771156994882,0.018743037268841002,0.0002528141692559591,0.0,0.018995851438096963,0.2,0.02,0.0,0.0012811260967711157,0.001048467735465239,2.5622521935422314e-05,0.0,0.0010740902574006613,-9.974149845391377,-10.0,-0.025850154608622954,39.97634212030437,40.0,0.023657879695629287,9.3715186344205,10.0,0.6284813655794994,0.005242338677326195,0,-0.005242338677326195,4.000160105712313,1.7496813585749276,-0.0010740902574006613,0.518995851438097,0.0334169864654541,0.33800482749938965,STABILIZE
0.16,0.015,0.11,14.838307058060462,6.396441446247025,0.2225746058709069,0.0002052905185735274,6.619221342636506,0.17,0.015,0.08,-3.6999956790947635,-1.6957986409764148,-0.05549993518642145,-0.0038614976367598503,-1.755160073799596,0.002,8e-05,0,3.473744749945711,0.018753714281897465,0.0002778995799956569,0.0,0.019031613861893122,0.2,0.02,0.0,0.001668402671626396,0.002316206597778129,3.336805343252792e-05,0.0,0.002349574651210657,-9.975286123390674,-10.0,-0.024713876609325326,39.97775903904391,40.0,0.022240960956087717,9.376857140948733,10.0,0.6231428590512671,0.011581032988890645,0,-0.011581032988890645,4.00035468380162,1.7543515293254761,-0.002349574651210657,0.5190316138618931,0.033440589904785156,0.37145423889160156,STABILIZE
0.16,0.015,0.11,16.185427180549823,6.3965938889417,0.24278140770824733,0.0003648265620246856,6.639740123211972,0.17,0.015,0.08,-4.036195351079491,-1.6961672734978133,-0.06054293026619236,-0.006282353593767022,-1.7629925573577727,0.002,8e-05,0,3.789789640857067,0.018758635403825965,0.00030318317126856536,0.0,0.01906181857509453,0.2,0.02,0.0,0.0019898142788806667,0.0019077173301724549,3.979628557761334e-05,0.0,0.0019475136157500682,-9.977454549987137,-10.0,-0.022545450012862674,39.978711805885624,40.0,0.02128819411437482,9.379317701912981,10.0,0.6206822980870188,0.009538586650862274,0,-0.009538586650862274,4.000293447115572,1.7623266139575573,-0.0019475136157500682,0.5190618185750945,0.03369593620300293,0.4051508903503418,STABILIZE
0.16,0.015,0.11,17.84423978340356,6.39662068059124,0.2676635967510534,0.0006950642816242906,6.664979341623917,0.17,0.015,0.08,-4.450114918889316,-1.6958919090295042,-0.06675172378333974,-0.004741935814678359,-1.7673855686275222,0.002,8e-05,0,4.179183054589718,0.018769464667703035,0.00033433464436717744,0.0,0.01910379931207021,0.2,0.02,0.0,0.0024428610341865778,0.0021837670506594845,4.885722068373156e-05,0.0,0.002232624271343216,-9.975834758997083,-10.0,-0.02416524100291745,39.97887925369525,40.0,0.02112074630475629,9.384732333851517,10.0,0.6152676661484835,0.010918835253297421,0,-0.010918835253297421,4.000336737370595,1.7666232580366465,-0.002232624271343216,0.5191037993120702,0.04149222373962402,0.4466519355773926,STABILIZE
0.16,0.015,0.11,19.179528939277038,6.396537847698154,0.2876929340891556,0.0004671826893912584,6.6846979644767,0.17,0.015,0.08,-4.783388297906349,-1.6962865376062124,-0.07175082446859524,-0.004136779689724374,-1.772174141764532,0.002,8e-05,0,4.492716571020582,0.018774295023949283,0.0003594173256816466,0.0,0.01913371234963093,0.2,0.02,0.0,0.0027943488155811654,0.002104698528034555,5.588697631162331e-05,0.0,0.0021605855043461786,-9.978156103565954,-10.0,-0.02184389643404586,39.97836154811346,40.0,0.021638451886536098,9.387147511974641,10.0,0.6128524880253592,0.010523492640172777,0,-0.010523492640172777,4.0003254270366915,1.771439433495419,-0.0021605855043461786,0.5191337123496309,0.03340029716491699,0.48003268241882324,STABILIZE
0.16,0.015,0.11,20.518452793741787,6.396644041833173,0.3077767919061268,0.00173800278101965,6.706158836520319,0.17,0.015,0.08,-5.1175755381628445,-1.69634861076851,-0.07676363307244266,-0.002235147065756555,-1.775347390906709,0.002,8e-05,0,4.807236460508453,0.0187825447506021,0.0003845789168406763,0.0,0.019167123667442776,0.2,0.02,0.0,0.0031613559127702962,0.002191698349496349,6.322711825540592e-05,0.0,0.002254925467751755,-9.978521239814764,-10.0,-0.02147876018523614,39.97902526145733,40.0,0.020974738542670218,9.39127237530105,10.0,0.608727624698951,0.010958491747481746,0,-0.010958491747481746,4.0003394829060355,1.7745823113911425,-0.002254925467751755,0.5191671236674428,0.033490657806396484,0.5135397911071777,STABILIZE
0.16,0.015,0.11,21.88757157787655,6.396636425204001,0.32831357366814823,0.0007752545352304223,6.725725253407379,0.17,0.015,0.08,-5.459373900383731,-1.6967171670143533,-0.08189060850575597,-0.002704380222306087,-1.7813121557424154,0.002,8e-05,0,5.129088180449703,0.01879647386285611,0.0004103270544359762,0.0,0.019206800917292086,0.2,0.02,0.0,0.003540874760461595,0.00221642938630029,7.081749520923191e-05,-0.0,0.0022872468815095222,-9.98068921773149,-10.0,-0.01931078226850972,39.97897765752501,40.0,0.021022342474993936,9.398236931428055,10.0,0.6017630685719448,0.01108214693150145,0,-0.01108214693150145,4.000344466487214,1.7805384426180795,-0.0022872468815095222,0.5192068009172921,0.034245967864990234,0.5477781295776367,STABILIZE
0.16,0.015,0.11,23.226303763672675,6.396730191175011,0.3483945564550901,0.0005382232215521203,6.745662970851653,0.17,0.015,0.08,-5.793573153055413,-1.6966753146163267,-0.08690359729583119,-0.0015571012318947597,-1.7851360131440526,0.002,8e-05,0,5.443794634772377,0.018796629929816178,0.0004355035707817902,0.0,0.019232133500597968,0.2,0.02,0.0,0.003918468949207287,0.002255275712338818,7.836937898414574e-05,0.0,0.0023336450913229636,-9.980443027154863,-10.0,-0.019556972845136994,39.97956369484382,40.0,0.020436305156183762,9.398314964908089,10.0,0.6016850350919117,0.011276378561694089,0,-0.011276378561694089,4.000351255029651,1.7843487388418602,-0.0023336450913229636,0.5192321335005979,0.03348541259765625,0.5812933444976807,STABILIZE
0.16,0.015,0.11,24.57172880274419,6.396918507732762,0.36857593204116285,0.0012188928469966376,6.766713332620922,0.17,0.015,0.08,-6.129313091652773,-1.6960679896077293,-0.09193969637479159,-0.0004831455864821792,-1.7884908315690031,0.002,8e-05,0,5.760038761469135,0.0187950633468992,0.0004608031009175308,0.0,0.01925586644781673,0.2,0.02,0.0,0.004197108821241069,0.0016560162240953037,8.394217642482138e-05,-0.0,0.001739958400520125,-9.976870527104289,-10.0,-0.023129472895711177,39.98074067332976,40.0,0.01925932667023622,9.3975316734496,10.0,0.6024683265503996,0.008280081120476518,0,-0.008280081120476518,4.0002584214065395,1.7879127541836157,-0.001739958400520125,0.5192558664478167,0.03365182876586914,0.6149182319641113,STABILIZE
0.16,0.015,0.11,25.9097593205657,6.397112409581616,0.3886463898084855,0.002356571130886493,6.788115370520988,0.17,0.015,0.08,-6.463081961093793,-1.6954802281836825,-0.09694622941640689,0.0022818554692124334,-1.7901446021308771,0.002,8e-05,0,6.074600517327369,0.01879896315123625,0.00048596804138618954,0.0,0.01928493119262244,0.2,0.02,0.0,0.0043735973847100085,0.0010547378819828579,8.747194769420018e-05,-0.0,0.0011422098296770581,-9.973413106962838,-10.0,-0.026586893037161965,39.981952559885094,40.0,0.01804744011490645,9.399481575618125,10.0,0.6005184243818755,0.005273689409914289,0,-0.005273689409914289,4.000164753772135,1.7897764215726593,-0.0011422098296770581,0.5192849311926224,0.03346586227416992,0.6483969688415527,STABILIZE
0.16,0.015,0.11,27.259185163440904,6.397222032339687,0.40888777745161353,0.002367185419624682,6.808476995210925,0.17,0.015,0.08,-6.799722857172849,-1.6956578083198859,-0.10199584285759274,0.001961089305996568,-1.795692561871482,0.002,8e-05,0,6.3918868233486,0.018801986768627564,0.0005113509458678881,0.0,0.019313337714495452,0.2,0.02,0.0,0.004558866535334737,0.0010978816458747217,9.117733070669473e-05,-0.0,0.0011890589765814164,-9.974457695999329,-10.0,-0.025542304000671645,39.98263770212304,40.0,0.017362297876953682,9.400993384313782,10.0,0.5990066156862185,0.005489408229373609,0,-0.005489408229373609,4.000172023798857,1.7953093206401851,-0.0011890589765814164,0.5193133377144955,0.033750295639038086,0.6821434497833252,STABILIZE
0.16,0.015,0.11,28.601298126442774,6.397488124297122,0.4290194718966416,0.0034877877686386254,6.829995383962403,0.17,0.015,0.08,-7.134502734810665,-1.6955425864950109,-0.10701754102215998,0.003297063707337854,-1.7992630638098328,0.002,8e-05,0,6.70758558173396,0.018810628401840335,0.0005366068465387169,0.0,0.01934723524837905,0.2,0.02,0.0,0.0047107915896477575,0.0009052318597095202,9.421583179295516e-05,-0.0,0.0009994476915024754,-9.973779920558886,-10.0,-0.026220079441114263,39.98430077685701,40.0,0.015699223142989705,9.405314200920166,10.0,0.594685799079833,0.004526159298547601,0,-0.004526159298547601,4.000142122791716,1.7989470726671577,-0.0009994476915024754,0.519347235248379,0.03356599807739258,0.7157127857208252,STABILIZE
0.16,0.015,0.11,29.939900932080313,6.39738738310411,0.4490985139812047,0.002689007193022766,6.849174904278337,0.17,0.015,0.08,-7.468375263490326,-1.6953545793356148,-0.11202562895235489,0.003707967129225769,-1.803672241158744,0.002,8e-05,0,7.0224461683845805,0.01880958578594281,0.0005617956934707665,0.0,0.01937138147941358,0.2,0.02,0.0,0.004794095484924265,0.0004976525582877591,9.58819096984853e-05,-0.0,0.0005935344679862444,-9.972673996091851,-10.0,-0.027326003908149696,39.98367114440069,40.0,0.016328855599312984,9.404792892971406,10.0,0.5952071070285938,0.0024882627914387953,0,-0.0024882627914387953,4.000078326788464,1.8034985259444523,-0.0005935344679862444,0.5193713814794135,0.033478736877441406,0.749190092086792,STABILIZE
0.16,0.015,0.11,31.276364886808235,6.397325033969215,0.46914547330212353,0.001663072939795049,6.8681335802111345,0.17,0.015,0.08,-7.801670806566353,-1.695116735850352,-0.1170250620984953,0.002679101657376959,-1.8094626962914704,0.002,8e-05,0,7.336858642790969,0.018812692126830316,0.0005869486914232776,0.0,0.019399640818253593,0.2,0.02,0.0,0.004887180322753358,0.0005569678490209062,9.774360645506717e-05,-0.0,0.0006547114554759734,-9.971274916766776,-10.0,-0.028725083233224334,39.983281462307595,40.0,0.016718537692405736,9.406346063415159,10.0,0.5936539365848419,0.002784839245104531,0,-0.002784839245104531,4.000087943510987,1.8092682756983387,-0.0006547114554759734,0.5193996408182536,0.03342556953430176,0.7826271057128906,STABILIZE
0.16,0.015,0.11,32.613489710699426,6.397476737096575,0.48920234566049137,0.0014901502600687753,6.888169233017135,0.17,0.015,0.08,-8.135152188744122,-1.6952638271171814,-0.12202728283116183,0.0006121364712135509,-1.8166789734771298,0.002,8e-05,0,7.651602640591896,0.018823667096132583,0.0006121282112473517,0.0,0.019435795307379936,0.2,0.02,0.0,0.004992456633063815,0.0006296184302922239,9.98491326612763e-05,-0.0,0.0007294675629535003,-9.972140159512831,-10.0,-0.027859840487169156,39.984229606853596,40.0,0.01577039314640401,9.41183354806629,10.0,0.5881664519337096,0.0031480921514611196,0,-0.0031480921514611196,4.0000998106129755,1.816459192442252,-0.0007294675629535003,0.5194357953073799,0.03344130516052246,0.8160662651062012,STABILIZE
0.16,0.015,0.11,33.95150843831172,6.397602976814786,0.5092726265746758,0.001562263929099411,6.908437867318562,0.17,0.015,0.08,-8.468777735467196,-1.6948970750450447,-0.12703166603200794,0.0021388673144791272,-1.8197898737625735,0.002,8e-05,0,7.966685603767937,0.01883172168632341,0.000637334848301435,0.0,0.019469056534624846,0.2,0.02,0.0,0.005039036968230003,0.00027839902832678,0.00010078073936460007,-0.0,0.0003791797676913801,-9.969982794382615,-10.0,-0.030017205617385443,39.985018605092414,40.0,0.014981394907583871,9.415860843161704,10.0,0.584139156838296,0.0013919951416339,0,-0.0013919951416339,4.000044210429592,1.8196926936319517,-0.0003791797676913801,0.5194690565346248,0.0334630012512207,0.8495297431945801,STABILIZE
0.16,0.015,0.11,35.30488789313653,6.3975260288822335,0.5295733183970479,0.0001596549955105049,6.927259002274791,0.17,0.015,0.08,-8.806317105626038,-1.6952972463354232,-0.13209475658439057,0.000703060953605191,-1.8266889419662087,0.002,8e-05,0,8.285301586261228,0.01882652010446849,0.0006628241269008983,0.0,0.019489344231369388,0.2,0.02,0.0,0.0050898754878609545,0.00030039686158357345,0.00010179750975721909,-0.0,0.00040219437134079257,-9.972336743149548,-10.0,-0.027663256850451987,39.98453768051396,40.0,0.015462319486037424,9.413260052234245,10.0,0.5867399477657556,0.001501984307917867,0,-0.001501984307917867,4.00004788449344,1.826584083052621,-0.00040219437134079257,0.5194893442313694,0.03384757041931152,0.8833708763122559,STABILIZE
0.16,0.015,0.11,36.64275929772127,6.397399951530632,0.549641389465819,5.531315262968288e-05,6.947096654149081,0.17,0.015,0.08,-9.140013184526074,-1.6953882683675394,-0.13710019776789112,-8.150482243384605e-05,-1.8325699709578644,0.002,8e-05,0,8.600430721980583,0.01883595753923223,0.0006880344577584467,0.0,0.019523991996990675,0.2,0.02,0.0,0.005058926731879359,-0.0001849874821097284,0.00010117853463758718,-0.0,-8.380894747214121e-05,-9.972872166867878,-10.0,-0.02712783313212182,39.98374969706645,40.0,0.016250302933549024,9.417978769616115,10.0,0.5820212303838848,-0.000924937410548642,0,0.000924937410548642,3.999970415929396,1.8326345435318308,8.380894747214121e-05,0.5195239919969907,0.033460378646850586,0.9168393611907959,STABILIZE
0.16,0.015,0.11,37.97974826580787,6.397419666939323,0.5696962239871181,0.0003928646281035879,6.967508755554545,0.17,0.015,0.08,-9.473506043117931,-1.6954793100160752,-0.14210259064676897,-0.0010074623250978698,-1.8385893629879422,0.002,8e-05,0,8.915535774280238,0.018847007219688423,0.0007132428619424191,0.0,0.019560250081630842,0.2,0.02,0.0,0.00500675631226889,-0.0003120407838201368,0.0001001351262453778,-0.0,-0.000211905657574759,-9.973407705976912,-10.0,-0.026592294023087996,39.983872918370764,40.0,0.01612708162923305,9.42350360984421,10.0,0.5764963901557889,-0.001560203919100684,0,0.001560203919100684,3.9999499324500922,1.838698285087825,0.000211905657574759,0.5195602500816309,0.03343820571899414,0.9503629207611084,STABILIZE
0.16,0.015,0.11,39.35368295414036,6.397402005480434,0.5903052443121054,-0.000301562245817556,6.9874056875467225,0.17,0.015,0.08,-9.816302877213877,-1.695911927855578,-0.14724454315820815,-0.0017784177238517886,-1.844934888737638,0.002,8e-05,0,9.239425072517687,0.018851424158785036,0.000739154005801415,0.0,0.01959057816458645,0.2,0.02,0.0,0.004895625631302121,-0.0006468171734477402,9.791251262604241e-05,-0.0,-0.0005489046608216977,-9.975952516797518,-10.0,-0.02404748320248198,39.98376253425271,40.0,0.016237465747289397,9.425712079392518,10.0,0.5742879206074817,-0.0032340858672387004,0,0.0032340858672387004,3.999895855453996,1.8451606675851573,0.0005489046608216977,0.5195905781645864,0.0343623161315918,0.9846639633178711,STABILIZE
0.16,0.015,0.11,40.690764764511655,6.3976814471659305,0.6103614714676748,0.0003287657336058,7.008371684367211,0.17,0.015,0.08,-10.14990033477301,-1.6959627219695521,-0.15224850502159515,-0.002952905117446415,-1.8511641321085937,0.002,8e-05,0,9.554618891887268,0.018851778877709176,0.0007643695113509815,0.0,0.01961614838906016,0.2,0.02,0.0,0.004830421068279928,-0.0003899892473686793,9.660842136559856e-05,-0.0,-0.0002933808260030807,-9.976251305703247,-10.0,-0.023748694296752887,39.985509044787065,40.0,0.014490955212933768,9.425889438854588,10.0,0.574110561145412,-0.0019499462368433964,0,0.0019499462368433964,3.999936997047808,1.8513002629647968,0.0002933808260030807,0.5196161483890601,0.03343915939331055,1.0180933475494385,STABILIZE
0.16,0.015,0.11,42.037569038248996,6.397764938618984,0.6305635355737349,0.0009821920351740913,7.029310666227893,0.17,0.015,0.08,-10.4860215597996,-1.6964797112263392,-0.15729032339699398,-0.003284805114138195,-1.8570548397374713,0.002,8e-05,0,9.87219314810383,0.018857282025399998,0.0007897754518483065,0.0,0.019647057477248306,0.2,0.02,0.0,0.004672771135536365,-0.0009361115344952398,9.345542271072731e-05,-0.0,-0.0008426561117845125,-9.979292418978465,-10.0,-0.020707581021534412,39.98603086636865,40.0,0.01396913363134903,9.428641012699998,10.0,0.5713589873000009,-0.004680557672476199,0,0.004680557672476199,3.999848281722271,1.85738159810949,0.0008426561117845125,0.5196470574772483,0.03368186950683594,1.051788330078125,STABILIZE
0.16,0.015,0.11,43.37559182029238,6.3975767809519555,0.6506338773043856,0.0007271491530304246,7.048937807409372,0.17,0.015,0.08,-10.82011493533548,-1.6972616638895657,-0.1623017240300322,-0.005228072813915025,-1.864791460733513,0.002,8e-05,0,10.18776765378072,0.01886096557242131,0.0008150214123024577,0.0,0.019675986984723767,0.2,0.02,0.0,0.0044009815934110295,-0.0016244066313198136,8.801963186822059e-05,-0.0,-0.001536386999451593,-9.983892140526857,-10.0,-0.016107859473142833,39.98485488094972,40.0,0.015145119050279399,9.430482786210654,10.0,0.5695172137893458,-0.008122033156599068,0,0.008122033156599068,3.9997356140216667,1.865358466877439,0.001536386999451593,0.5196759869847237,0.033463239669799805,1.085254192352295,STABILIZE
0.16,0.015,0.11,44.71347527347665,6.397594321475959,0.6707021291021497,0.000718159635243481,7.069014610213353,0.17,0.015,0.08,-11.154240817570251,-1.697608231019961,-0.16731361226355376,-0.0059466681641359735,-1.8708685114476507,0.002,8e-05,0,10.503288615384422,0.018859780979596102,0.0008402630892307538,0.0,0.019700044068826854,0.2,0.02,0.0,0.004073858566521341,-0.0019553276616439065,8.147717133042682e-05,-0.0,-0.0018738504903134797,-9.985930770705652,-10.0,-0.014069229294347478,39.984964509224746,40.0,0.01503549077525767,9.429890489798051,10.0,0.5701095102019492,-0.009776638308219532,0,0.009776638308219532,3.9996807070033866,1.8715510223211218,0.0018738504903134797,0.5197000440688269,0.03345966339111328,1.1186916828155518,STABILIZE
0.16,0.015,0.11,46.05057144037428,6.397522071257771,0.6907585716056142,0.0004917531810058237,7.088772396044391,0.17,0.015,0.08,-11.48813592202466,-1.697415404878853,-0.1723220388303699,-0.00421902928540398,-1.873956472994627,0.002,8e-05,0,10.818562774052625,0.01885591177462666,0.00086548502192421,0.0,0.019721396796550873,0.2,0.02,0.0,0.0037181200731885686,-0.0021276002046779455,7.436240146377137e-05,-0.0,-0.0020532378032141743,-9.98479649928737,-10.0,-0.015203500712630344,39.98451294536107,40.0,0.015487054638929458,9.427955887313331,10.0,0.5720441126866684,-0.010638001023389727,0,0.010638001023389727,3.999651997036986,1.874699113264983,0.0020532378032141743,0.5197213967965508,0.033440351486206055,1.152132272720337,STABILIZE
0.16,0.015,0.11,47.3879267467696,6.3974848258614205,0.710818901201544,-0.0008104108046834377,7.107493316258282,0.17,0.015,0.08,-11.822181057466855,-1.6978391734100458,-0.1773327158620028,-0.005268520157189324,-1.880440409429238,0.002,8e-05,0,11.133929837699375,0.018857703657813137,0.00089071438701595,0.0,0.01974841804482909,0.2,0.02,0.0,0.003375951939660954,-0.002046030168336921,6.751903879321909e-05,-0.0,-0.0019785111295437022,-9.98728925535321,-10.0,-0.012710744646790992,39.984280161633876,40.0,0.015719838366123513,9.428851828906568,10.0,0.5711481710934314,-0.010230150841684606,0,0.010230150841684606,3.999664183954182,1.881154578711841,0.0019785111295437022,0.5197484180448291,0.0334470272064209,1.185615062713623,STABILIZE
0.16,0.015,0.11,48.72720792410514,6.397349200493288,0.730908118861577,-0.0017079885883425486,7.126549330766522,0.17,0.015,0.08,-12.156812679124263,-1.6983383208403737,-0.18235219018686394,-0.005226408198014292,-1.8859169192252518,0.002,8e-05,0,11.449056147648953,0.018815812179010315,0.0009159244918119163,-0.0,0.01973173667082223,0.2,0.02,0.0,0.0030143363611737617,-0.0021591630374841898,6.028672722347524e-05,-0.0,-0.0020988763102607146,-9.99022541670808,-10.0,-0.009774583291920696,39.98343250308305,40.0,0.016567496916949784,9.407906089505158,10.0,0.592093910494842,-0.010795815187420949,0,0.010795815187420949,3.999644579776717,1.8866705758247238,0.0020988763102607146,0.5197317366708223,0.03349590301513672,1.2190792560577393,STABILIZE
0.16,0.015,0.11,50.06560958980019,6.397382841793947,0.7509841438470028,-0.0007966629454968222,7.147570322695453,0.17,0.015,0.08,-12.491391659337,-1.699195951208868,-0.187370874890055,-0.005438500964805872,-1.8920053270637287,0.002,8e-05,0,11.763591153752225,0.018792946306440614,0.000941087292300178,-0.0,0.01973403359874079,0.2,0.02,0.0,0.0027281906520018337,-0.0017096732776767005,5.4563813040036676e-05,-0.0,-0.0016551094646366639,-9.995270301228635,-10.0,-0.0047296987713660605,39.98364276121217,40.0,0.016357238787832924,9.396473153220306,10.0,0.6035268467796943,-0.008548366388383502,0,0.008548366388383502,3.9997176736994313,1.892602094560274,0.0016551094646366639,0.5197340335987408,0.03347373008728027,1.2525591850280762,STABILIZE
0.16,0.015,0.11,51.40337505392905,6.397759513420388,0.7710506258089357,0.000679336124379719,7.1694894753537035,0.17,0.015,0.08,-12.825865635077294,-1.6995705712378628,-0.1923879845261594,-0.005517530242562867,-1.8974760860065851,0.002,8e-05,0,12.078087751110104,0.018800694625075377,0.0009662470200888084,-0.0,0.019766941645164186,0.2,0.02,0.0,0.0025218200574842436,-0.0012336891908262388,5.043640114968487e-05,0.0,-0.0011832527896765538,-9.997473948458016,-10.0,-0.0025260515419846465,39.98599695887742,40.0,0.014003041122581245,9.400347312537688,10.0,0.599652687462311,-0.006168445954131193,0,0.006168445954131193,3.99979569512888,1.8979067137758252,0.0011832527896765538,0.5197669416451642,0.033455848693847656,1.2860949039459229,STABILIZE
0.16,0.015,0.11,52.740384613096126,6.397791896469248,0.7911057691964418,0.0011095813168336519,7.190007246982523,0.17,0.015,0.08,-13.160175437129814,-1.699705369199222,-0.1974026315569472,-0.00643966668000189,-1.9035476674361713,0.002,8e-05,0,12.39261729069778,0.018813389606838746,0.0009914093832558224,-0.0,0.019804798990094567,0.2,0.02,0.0,0.0023779929645669773,-0.0008602928483660778,4.755985929133955e-05,0.0,-0.0008127329890747383,-9.998266877642482,-10.0,-0.001733122357516882,39.9861993529328,40.0,0.01380064706720252,9.406694803419372,10.0,0.5933051965806284,-0.004301464241830389,0,0.004301464241830389,3.9998570804316063,1.9038479609261967,0.0008127329890747383,0.5198047989900946,0.03343677520751953,1.3194773197174072,STABILIZE
0.16,0.015,0.11,54.07721269607869,6.397881518171604,0.8111581904411803,0.0016312973536498484,7.210671005966434,0.17,0.015,0.08,-13.494649112028902,-1.7007932103083754,-0.20241973668043353,-0.008309718636658745,-1.9115226656254676,0.002,8e-05,0,12.70729613420556,0.01882513898632976,0.001016583690736445,-0.0,0.019841722677066204,0.2,0.02,0.0,0.0022208869949624293,-0.000939860360620203,4.4417739899248585e-05,0.0,-0.0008954426207209544,-10.004665942990442,-10.0,0.004665942990442224,39.986759488572524,40.0,0.013240511427474852,9.41256949316488,10.0,0.5874305068351202,-0.004699301803101015,0,0.004699301803101015,3.99984320672774,1.9118507323517298,0.0008954426207209544,0.5198417226770662,0.0334317684173584,1.3528931140899658,STABILIZE
0.16,0.015,0.11,55.41533516534248,6.3979622537649,0.8312300274801372,0.00251977346459797,7.231712054709635,0.17,0.015,0.08,-13.829658563066257,-1.7018912607781775,-0.20744487844599385,-0.009995499324312027,-1.9193316385484835,0.002,8e-05,0,13.022364820218474,0.018830465883692422,0.001041789185617478,0.0,0.0198722550693099,0.2,0.02,0.0,0.002050623943582136,-0.0010175979786637929,4.1012478871642724e-05,0.0,-0.0009765854997921502,-10.011125063401044,-10.0,0.01112506340104439,39.98726408603063,40.0,0.012735913969369515,9.415232941846211,10.0,0.5847670581537882,-0.005087989893318964,0,0.005087989893318964,3.9998295434027047,1.919686839684045,0.0009765854997921502,0.5198722550693099,0.03346371650695801,1.3864152431488037,STABILIZE
0.16,0.015,0.11,56.754524862058005,6.398050732704717,0.85131787293087,0.00274485402421853,7.252113459659805,0.17,0.015,0.08,-14.164787242457662,-1.7011637272998983,-0.2124718086368649,-0.005539505236667071,-1.9191750411734303,0.002,8e-05,0,13.33750431028461,0.018819948083782723,0.0010670003448227689,0.0,0.019886948428605493,0.2,0.02,0.0,0.0018560049034792162,-0.0011622536515762955,3.7120098069584324e-05,0.0,-0.0011251335535067113,-10.006845454705283,-10.0,0.006845454705283248,39.98781707940448,40.0,0.012182920595524383,9.409974041891362,10.0,0.5900259581086387,-0.005811268257881477,0,0.005811268257881477,3.9998053256295942,1.9195807343605464,0.0011251335535067113,0.5198869484286055,0.03348994255065918,1.4198298454284668,STABILIZE
0.16,0.015,0.11,58.09324438797125,6.398264163478881,0.8713986658195687,0.0020733953905935267,7.271736224689043,0.17,0.015,0.08,-14.499715930803388,-1.7008023853300602,-0.21749573896205082,-0.0034697488813327667,-1.9217678731734438,0.002,8e-05,0,13.652701650632736,0.01883064196921234,0.001092216132050619,0.0,0.01992285810126296,0.2,0.02,0.0,0.00168328708208114,-0.0010318575191203623,3.36657416416228e-05,0.0,-0.0009981917774787394,-10.004719913706236,-10.0,0.004719913706235854,39.989151021743005,40.0,0.010848978256995047,9.41532098460617,10.0,0.5846790153938292,-0.005159287595601811,0,0.005159287595601811,3.999826935205826,1.922128051604145,0.0009981917774787394,0.5199228581012629,0.033477067947387695,1.4533395767211914,STABILIZE
0.16,0.015,0.11,59.42913127050402,6.397985406950809,0.8914369690575603,0.0007929171301547243,7.290215293138524,0.17,0.015,0.08,-14.833898511910226,-1.700537868666907,-0.22250847767865337,-0.0023451120530225793,-1.9253914583985832,0.002,8e-05,0,13.967221911565764,0.018829214377648715,0.0011173777529252611,0.0,0.019946592130573974,0.2,0.02,0.0,0.0014363060861822714,-0.0014785877721165946,2.8726121723645428e-05,-0.0,-0.0014498616503929491,-10.003163933334747,-10.0,0.0031639333347466946,39.987408793442555,40.0,0.012591206557441998,9.414607188824357,10.0,0.5853928111756422,-0.007392938860582973,0,0.007392938860582973,3.999751531277617,1.9259075668672632,0.0014498616503929491,0.5199465921305739,0.03340768814086914,1.4867322444915771,STABILIZE
0.16,0.015,0.11,60.76686410734058,6.397877037557467,0.9115029616101087,-2.1089684629026435e-05,7.309358909482946,0.17,0.015,0.08,-15.168567471404144,-1.7006340628558,-0.22752851207106214,0.000446771500797579,-1.9277158034260646,0.002,8e-05,0,14.282285260094815,0.018835380535480718,0.0011425828208075854,0.0,0.019977963356288302,0.2,0.02,0.0,0.0012087219853290777,-0.0013605623006954979,2.4174439706581556e-05,-0.0,-0.0013363878609889163,-10.003729781504706,-10.0,0.0037297815047066946,39.986731484734165,40.0,0.013268515265835988,9.417690267740358,10.0,0.582309732259641,-0.006802811503477489,0,0.006802811503477489,3.9997710912960938,1.9281907156738032,0.0013363878609889163,0.5199779633562883,0.03345441818237305,1.5202124118804932,STABILIZE
0.16,0.015,0.11,62.10444848242556,6.397942132707731,0.9315667272363833,-8.524837914245378e-05,7.329423611564971,0.17,0.015,0.08,-15.503158712257544,-1.700445147069411,-0.23254738068386316,0.004066612492371385,-1.9289259152609028,0.002,8e-05,0,14.597495233000554,0.018846429465198853,0.0011677996186400445,0.0,0.0200142290838389,0.2,0.02,0.0,0.0008544541562173453,-0.0021181701808464025,1.7089083124346905e-05,-0.0,-0.0021010810977220556,-10.002618512173006,-10.0,0.0026185121730066454,39.98713832942332,40.0,0.01286167057668563,9.423214732599426,10.0,0.5767852674005739,-0.010590850904232013,0,0.010590850904232013,3.999643378933537,1.929665263178625,0.0021010810977220556,0.5200142290838389,0.03345036506652832,1.5536565780639648,STABILIZE
0.16,0.015,0.11,63.44258771419956,6.397996816582314,0.9516388157129934,-0.00022382676846113416,7.349411805526846,0.17,0.015,0.08,-15.837851466089749,-1.7002702841932964,-0.2375677719913462,0.0025138097129506188,-1.935324246471692,0.002,8e-05,0,14.912913265107306,0.018851210671817442,0.0011930330612085847,0.0,0.020044243733026025,0.2,0.02,0.0,0.00037208783899476966,-0.0028829008304363385,7.441756779895393e-06,-0.0,-0.0028754590736564433,-10.00158990701939,-10.0,0.0015899070193908156,39.98748010363946,40.0,0.012519896360533534,9.42560533590872,10.0,0.5743946640912803,-0.014414504152181692,0,0.014414504152181692,3.9995129834667162,1.9363305074450459,0.0028754590736564433,0.520044243733026,0.03346395492553711,1.5871174335479736,STABILIZE
0.16,0.015,0.11,65.028445349569,6.397854120975629,0.975426680243535,-0.0015951732248359273,7.371685627994328,0.17,0.015,0.08,-16.23464739644271,-1.7008510555576346,-0.24351971094664066,0.00011968559521693622,-1.9442510809090583,0.002,8e-05,0,15.286745584124821,0.01885198101517256,0.001222939646729986,0.0,0.020074920661902546,0.2,0.02,0.0,-0.00017902946192072008,-0.0027792281098909404,-3.5805892384144018e-06,-0.0,-0.002782808699129355,-10.005006209162556,-10.0,0.005006209162556105,39.98658825609768,40.0,0.013411743902318196,9.425990507586281,10.0,0.5740094924137198,-0.013896140549454702,0,0.013896140549454702,3.9995283365231247,1.9452211573403702,0.002782808699129355,0.5200749206619025,0.039659738540649414,1.6267814636230469,STABILIZE
0.16,0.015,0.11,66.36715332682768,6.3976622098321165,0.9955072999024152,-0.0012360290009276818,7.391933480733604,0.17,0.015,0.08,-16.569524363239836,-1.7003944185768782,-0.24854286544859752,0.0006581597896047639,-1.948279124235871,0.002,8e-05,0,15.602468786891409,0.01886044639140769,0.001248197502951313,0.0,0.020108643894359002,0.2,0.02,0.0,-0.0008975826034555705,-0.004292441254409385,-1.7951652069111412e-05,-0.0,-0.004310392906478497,-10.002320109275754,-10.0,0.0023201092757544487,39.985388811450726,40.0,0.01461118854927141,9.430223195703846,10.0,0.5697768042961548,-0.021462206272046924,0,0.021462206272046924,3.9992699209835636,1.949777332171398,0.004310392906478497,0.520108643894359,0.033479928970336914,1.660254716873169,STABILIZE
0.16,0.015,0.11,67.70445773138029,6.397606157138437,1.0155668659707042,-0.0010210677537679247,7.412151955355374,0.17,0.015,0.08,-16.904012672479876,-1.7001886317822668,-0.25356019008719816,0.0015078868467770453,-1.952240935022688,0.002,8e-05,0,15.917878531803458,0.01886133141416157,0.0012734302825442767,0.0,0.020134761696705847,0.2,0.02,0.0,-0.001782056988698452,-0.005289108778821861,-3.5641139773969044e-05,-0.0,-0.00532474991859583,-10.001109598719216,-10.0,0.0011095987192156125,39.98503848211523,40.0,0.014961517884767886,9.430665707080786,10.0,0.5693342929192144,-0.026445543894109302,0,0.026445543894109302,3.9990984940871597,1.954086974258841,0.00532474991859583,0.5201347616967058,0.033445119857788086,1.6937172412872314,STABILIZE
0.16,0.015,0.11,69.04065201756391,6.397722647622315,1.0356097802634587,-0.0008093220285952538,7.432523105857178,0.17,0.015,0.08,-17.238314146097988,-1.7006816592494172,-0.2585747121914698,-0.0004122588678018826,-1.959668630308689,0.002,8e-05,0,16.23292717819842,0.01885573341565312,0.0012986341742558737,0.0,0.020154367589908993,0.2,0.02,0.0,-0.002832064446846603,-0.006284318609789702,-5.664128893693207e-05,-0.0,-0.006340959898726634,-10.004009760290689,-10.0,0.0040097602906889514,39.985766547639464,40.0,0.014233452360537992,9.42786670782656,10.0,0.5721332921734396,-0.03142159304894851,0,0.03142159304894851,3.998924696173152,1.9618619765295413,0.006340959898726634,0.520154367589909,0.033416748046875,1.7271318435668945,STABILIZE
0.16,0.015,0.11,70.37831385257728,6.397856630193082,1.0556747077886592,-0.00048330731299479614,7.4530480306687465,0.17,0.015,0.08,-17.572933852938775,-1.7004686142197993,-0.2635940077940816,-0.0003046705375587706,-1.9643672925514397,0.002,8e-05,0,16.54838510165998,0.01885991020242912,0.0013238708081327985,0.0,0.020183781010561917,0.2,0.02,0.0,-0.0038314230516833876,-0.005974747231081447,-7.662846103366776e-05,-0.0,-0.006051375692115115,-10.002756554234113,-10.0,0.0027565542341122786,39.98660393870676,40.0,0.013396061293239888,9.42995510121456,10.0,0.5700448987854405,-0.029873736155407234,0,0.029873736155407234,3.9989752449467297,1.966452605670708,0.006051375692115115,0.520183781010562,0.033452749252319336,1.7605936527252197,STABILIZE
0.16,0.015,0.11,71.71714102432803,6.397912910770055,1.0757571153649204,0.00024254655864330377,7.473912572693618,0.17,0.015,0.08,-17.90789953966019,-1.7007601283562375,-0.2686184930949028,0.00025412055161353473,-1.9691245008995266,0.002,8e-05,0,16.86406792312149,0.018857094120817035,0.0013491254338497192,0.0,0.020206219554666754,0.2,0.02,0.0,-0.004901212470954693,-0.006390312806778104,-9.802424941909387e-05,-0.0,-0.006488337056197198,-10.004471343271984,-10.0,0.004471343271984086,39.98695569231284,40.0,0.013044307687162183,9.428547060408517,10.0,0.5714529395914829,-0.03195156403389052,0,0.03195156403389052,3.998901276131118,1.9713548345743666,0.006488337056197198,0.5202062195546667,0.033481597900390625,1.7940869331359863,STABILIZE
0.16,0.015,0.11,73.05453887036978,6.397916351628107,1.0958180830555466,0.0010448595660498535,7.494779294249703,0.17,0.015,0.08,-18.242516998118017,-1.7008087178790956,-0.27363775497177023,-0.0011662943940468893,-1.9756127672449129,0.002,8e-05,0,17.179394143180147,0.018855933421207415,0.001374351531454412,-0.0,0.020230284952661826,0.2,0.02,0.0,-0.005882704009153023,-0.005869140566332684,-0.00011765408018306046,-0.0,-0.005986794646515745,-10.004757163994679,-10.0,0.0047571639946792765,39.986977197675664,40.0,0.013022802324338875,9.427966710603707,10.0,0.5720332893962932,-0.02934570283166342,0,0.02934570283166342,3.998987607749664,1.977661224569497,0.005986794646515745,0.5202302849526619,0.03344583511352539,1.8275282382965088,STABILIZE
0.16,0.015,0.11,74.3922896099684,6.398053853418221,1.1158843441495259,0.0018404541451969639,7.515778651712944,0.17,0.015,0.08,-18.577151466341746,-1.7004830316105997,-0.2786572719951262,-0.0008291279089542927,-1.97996943151468,0.002,8e-05,0,17.4949042281825,0.018862356560416505,0.0013995923382546,0.0,0.020261948898671105,0.2,0.02,0.0,-0.00680210833547729,-0.005496538161748028,-0.0001360421667095458,-0.0,-0.0056325803284575735,-10.00284136241529,-10.0,0.002841362415290168,39.98783658386388,40.0,0.012163416136117334,9.431178280208252,10.0,0.5688217197917484,-0.027482690808740138,0,0.027482690808740138,3.999049820929975,1.9818878574360612,0.0056325803284575735,0.5202619488986711,0.033453941345214844,1.8609821796417236,STABILIZE
0.16,0.015,0.11,75.72997275900175,6.398004171019228,1.1359495913850262,0.0011569205993272908,7.535110683003582,0.17,0.015,0.08,-18.911757321386975,-1.7004103411071,-0.28367635982080464,0.0007639873242255169,-1.983322713603679,0.002,8e-05,0,17.810487040089686,0.01886751122961396,0.001424838963207175,0.0,0.020292350192821135,0.2,0.02,0.0,-0.007719916492860132,-0.005487230312512984,-0.00015439832985720265,0.0,-0.005641628642370187,-10.002413771218235,-10.0,0.002413771218235168,39.987526068870174,40.0,0.012473931129823574,9.43375561480698,10.0,0.5662443851930192,-0.02743615156256492,0,0.02743615156256492,3.9990498250199655,1.9852378908594417,0.005641628642370187,0.5202923501928212,0.033452510833740234,1.894468069076538,STABILIZE
0.16,0.015,0.11,77.06738989996792,6.398008655733998,1.1560108484995189,0.0006246526058109366,7.554644156839328,0.17,0.015,0.08,-19.246315748677105,-1.700508671596073,-0.28869473623015657,-0.00011210940905465383,-1.9893155172352843,0.002,8e-05,0,18.126009405242907,0.01886766254047732,0.0014500807524194328,0.0,0.02031774329289675,0.2,0.02,0.0,-0.00856868213146896,-0.005075463870032594,-0.0001713736426293792,0.0,-0.0052468375126619735,-10.002992185859252,-10.0,0.0029921858592522744,39.98755409833748,40.0,0.012445901662517116,9.43383127023866,10.0,0.5661687297613397,-0.02537731935016297,0,0.02537731935016297,3.999118504467883,1.9910869931611848,0.0052468375126619735,0.5203177432928967,0.03344583511352539,1.9278812408447266,STABILIZE
0.16,0.015,0.11,78.40517833424002,6.398097342223015,1.1760776750136002,0.0007580283532837111,7.574933045589899,0.17,0.015,0.08,-19.580892097552155,-1.7001513417758303,-0.2937133814632823,0.0017126168192701733,-1.9921521064198422,0.002,8e-05,0,18.441603494042134,0.018866975235384362,0.0014753282795233707,0.0,0.020342303514907734,0.2,0.02,0.0,-0.009251340148083284,-0.004081094149356145,-0.0001850268029616657,0.0,-0.0042661209523178105,-10.000890245740177,-10.0,0.0008902457401763178,39.98810838889384,40.0,0.011891611106155133,9.433487617692181,10.0,0.5665123823078193,-0.020405470746780723,0,0.020405470746780723,3.9992902560095414,1.9935765506496483,0.0042661209523178105,0.5203423035149077,0.03345465660095215,1.9613423347473145,STABILIZE
0.16,0.015,0.11,79.74292995331231,6.397966865983175,1.1961439492996846,0.00020761607966166608,7.594318431362521,0.17,0.015,0.08,-19.915519904135138,-1.7004249426486848,-0.29873279856202706,0.0010796252328204364,-1.9980781159778913,0.002,8e-05,0,18.757225086059197,0.018868753914444824,0.0015005780068847359,0.0,0.02036933192132956,0.2,0.02,0.0,-0.009871497520136696,-0.003707476654788577,-0.0001974299504027339,0.0,-0.0039049066051913108,-10.002499662639321,-10.0,0.0024996626393221067,39.98729291239484,40.0,0.012707087605156183,9.434376957222412,10.0,0.5656230427775872,-0.018537383273942883,0,0.018537383273942883,3.9993533357146833,1.999372164870162,0.0039049066051913108,0.5203693319213296,0.03345441818237305,1.9948041439056396,STABILIZE
0.16,0.015,0.11,81.08108901099381,6.397909278317158,1.2162163351649071,-0.0005941490972087553,7.613531464384856,0.17,0.015,0.08,-20.250214273093597,-1.7002300350877666,-0.30375321409640393,0.0007115192460220507,-2.0032717299381484,0.002,8e-05,0,19.07296882674741,0.018870139133719002,0.001525837506139793,0.0,0.020395976639858794,0.2,0.02,0.0,-0.010351628955549516,-0.0028694621052389358,-0.00020703257911099031,0.0,-0.003076494684349926,-10.001353147575097,-10.0,0.0013531475750967637,39.986932989482234,40.0,0.013067010517763315,9.4350695668595,10.0,0.5649304331404995,-0.014347310526194678,0,0.014347310526194678,3.999498239715406,2.004273298350988,0.003076494684349926,0.5203959766398588,0.033464908599853516,2.028256416320801,STABILIZE
0.16,0.015,0.11,82.41823447051928,6.3978491477439405,1.2362735170577892,-0.0006371876672826116,7.633485477134447,0.17,0.015,0.08,-20.584502908522598,-1.6994402227685388,-0.308767543627839,0.002729959892643606,-2.0054778065037344,0.002,8e-05,0,19.38844834540998,0.018868462993568872,0.0015510758676327986,0.0,0.02041953886120167,0.2,0.02,0.0,-0.010599738656718283,-0.0014839152584911518,-0.00021199477313436565,0.0,-0.0016959100316255174,-9.99670719275611,-10.0,-0.0032928072438887686,39.986557173399625,40.0,0.013442826600371799,9.434231496784436,10.0,0.565768503215564,-0.007419576292455758,0,0.007419576292455758,3.999740265037242,2.0059957738287593,0.0016959100316255174,0.5204195388612016,0.03343987464904785,2.0617058277130127,STABILIZE
0.16,0.015,0.11,83.75641785954666,6.397706549259287,1.2563462678931998,-0.0012415016977503316,7.652811315454737,0.17,0.015,0.08,-20.919195746716202,-1.7001374712447526,-0.313787936200743,0.001045801655762221,-2.0128796057897334,0.002,8e-05,0,19.703460811037587,0.018825496293793237,0.0015762768648830072,-0.0,0.020401773158676244,0.2,0.02,0.0,-0.010907887519612693,-0.0018415319739165702,-0.00021815775039225386,0.0,-0.0020596897243088243,-10.000808654380897,-10.0,0.0008086543808968928,39.985665932870546,40.0,0.014334067129452323,9.412748146896618,10.0,0.587251853103382,-0.00920765986958285,0,0.00920765986958285,3.9996764705836716,2.013522395719396,0.0020596897243088243,0.5204017731586762,0.03346657752990723,2.0951733589172363,STABILIZE
0.16,0.015,0.11,85.3427761123538,6.397719980223211,1.280141641685307,-0.001559457401617179,7.676302164506901,0.17,0.015,0.08,-21.31583224266523,-1.6995954775262754,-0.31973748363997845,0.0013263170465851555,-2.0180066441196685,0.002,8e-05,0,20.076893747581693,0.01882550296547126,0.0016061514998065355,-0.0,0.020431654465277796,0.2,0.02,0.0,-0.011235187491942286,-0.0016499847755024296,-0.00022470374983884573,0.0,-0.0018746885253412753,-9.997620456036913,-10.0,-0.0023795439630871894,39.98574987639507,40.0,0.014250123604927998,9.41275148273563,10.0,0.5872485172643704,-0.008249923877512147,0,0.008249923877512147,3.99970938911962,2.018582576537181,0.0018746885253412753,0.5204316544652778,0.0396730899810791,2.134831666946411,STABILIZE
0.16,0.015,0.11,86.77029561458836,6.397447152699025,1.3015544342188254,-0.0020739316235602696,7.6969276552942905,0.17,0.015,0.08,-21.672766451480783,-1.699580613580493,-0.3250914967722117,0.002135225198012818,-2.022536885154692,0.002,8e-05,0,20.412912326079613,0.018823395187425904,0.0016330329860863692,-0.0,0.020456428173512273,0.2,0.02,0.0,-0.011585207281683146,-0.001960772780827863,-0.00023170414563366293,0.0,-0.0021924769264615256,-9.997533021061722,-10.0,-0.0024669789382780398,39.984044704368905,40.0,0.01595529563109682,9.411697593712953,10.0,0.5883024062870478,-0.009803863904139313,0,0.009803863904139313,3.999653865755777,2.0232212943610763,0.0021924769264615256,0.5204564281735122,0.03570222854614258,2.1705524921417236,STABILIZE
0.16,0.015,0.11,88.12329579212381,6.397130037918646,1.3218494368818572,-0.003125822720078697,7.715853652080424,0.17,0.015,0.08,-22.010985744126252,-1.6990831814579057,-0.33016478616189376,0.00297053962636946,-2.0262774279934304,0.002,8e-05,0,20.731401114999603,0.01882311466185136,0.0016585120891999684,-0.0,0.020481626751051328,0.2,0.02,0.0,-0.011871838655582483,-0.0016940298699012085,-0.00023743677311164967,0.0,-0.0019314666430128582,-9.994606949752386,-10.0,-0.005393050247614127,39.98206273699154,40.0,0.017937263008464436,9.41155733092568,10.0,0.5884426690743205,-0.008470149349506042,0,0.008470149349506042,3.99970040765934,2.026868733826979,0.0019314666430128582,0.5204816267510514,0.033840179443359375,2.2043755054473877,STABILIZE
0.16,0.015,0.11,89.4615535185549,6.396831516568325,1.3419233027783233,-0.004104836357220262,7.734649982989427,0.17,0.015,0.08,-22.3456080318729,-1.699452206597301,-0.3351841204780935,-0.0002900189027608111,-2.0349263459781555,0.002,8e-05,0,21.046126810571707,0.018804741500339905,0.0016836901448457366,-0.0,0.020488431645185642,0.2,0.02,0.0,-0.012275588619124998,-0.002412390790458738,-0.0002455117723825,-0.0,-0.0026579025628412378,-9.996777685866476,-10.0,-0.0032223141335244263,39.98019697855203,40.0,0.01980302144797078,9.402370750169952,10.0,0.5976292498300478,-0.012061953952293689,0,0.012061953952293689,3.9995715170210886,2.035768384121739,0.0026579025628412378,0.5204884316451857,0.03347301483154297,2.2378623485565186,STABILIZE
0.16,0.015,0.11,90.7988729197105,6.396674707715048,1.3619830937956574,-0.004163533001883286,7.7544942685088225,0.17,0.015,0.08,-22.67992653207063,-1.6990590362938942,-0.34019889798105946,0.002777088413318604,-2.036480845861635,0.002,8e-05,0,21.36104699666732,0.01882910308866756,0.0017088837597333856,0.0,0.020537986848400944,0.2,0.02,0.0,-0.012865624911731197,-0.003527831707861448,-0.00025731249823462396,-0.0,-0.0037851442060960723,-9.994464919375847,-10.0,-0.005535080624153363,39.97921692321905,40.0,0.020783076780954424,9.41455154433378,10.0,0.5854484556662215,-0.01763915853930724,0,0.01763915853930724,3.9993728566209916,2.0377121949099117,0.0037851442060960723,0.5205379868484009,0.03345036506652832,2.2713265419006348,STABILIZE
0.16,0.015,0.11,92.13591110917561,6.396469390317633,1.382038666637634,-0.00505420391163862,7.773453853043629,0.17,0.015,0.08,-23.01410742520581,-1.6986623774279084,-0.34521161137808715,0.0026075591004892725,-2.041266429705506,0.002,8e-05,0,21.676085880723818,0.018839557038320316,0.0017340868704579055,0.0,0.020573643908778222,0.2,0.02,0.0,-0.013641964315576086,-0.004642566749699497,-0.0002728392863115217,-0.0,-0.004915406036011019,-9.992131631928872,-10.0,-0.007868368071128323,39.977933689485205,40.0,0.02206631051479632,9.419778519160158,10.0,0.5802214808398424,-0.02321283374849748,0,0.02321283374849748,3.999172672293004,2.042886823646258,0.004915406036011019,0.5205736439087782,0.03344440460205078,2.3047804832458496,STABILIZE
0.16,0.015,0.11,93.47258984237592,6.396345670526602,1.4020888476356388,-0.004512239404984406,7.793922278757257,0.17,0.015,0.08,-23.348130410338598,-1.6982834566770486,-0.35022195615507895,0.003634981820458403,-2.0448704310116694,0.002,8e-05,0,21.991223460182187,0.01885016236439503,0.001759297876814575,0.0,0.020609460241209607,0.2,0.02,0.0,-0.014426064092872155,-0.0046901445829850225,-0.0002885212818574431,-0.0,-0.004978665864842465,-9.98990268633558,-10.0,-0.010097313664420246,39.977160440791266,40.0,0.022839559208736586,9.425081182197516,10.0,0.5749188178024831,-0.02345072291492511,0,0.02345072291492511,3.9991627152061633,2.0465074289947545,0.004978665864842465,0.5206094602412096,0.03343605995178223,2.338239908218384,STABILIZE
0.16,0.015,0.11,94.80871518282572,6.396388534847473,1.4221307277423858,-0.003047386888982084,7.815471875700877,0.17,0.015,0.08,-23.682042744977984,-1.6984354121117182,-0.35523064117466974,0.0018235914255310037,-2.051842461860857,0.002,8e-05,0,22.306222394687364,0.018849799417768247,0.0017844977915749893,0.0,0.020634297209343237,0.2,0.02,0.0,-0.015258748235445272,-0.004982851478693409,-0.00030517496470890544,-0.0,-0.005288026443402314,-9.990796541833635,-10.0,-0.009203458166365057,39.977428342796706,40.0,0.022571657203296094,9.424899708884123,10.0,0.5751002911158766,-0.024914257393467042,0,0.024914257393467042,3.9991074072597996,2.0535816111114324,0.005288026443402314,0.5206342972093433,0.033421993255615234,2.371644973754883,STABILIZE
0.16,0.015,0.11,96.15123624948629,6.396389404532296,1.4422685437422942,-0.001817564013610209,7.83684038426098,0.17,0.015,0.08,-24.01755941089285,-1.698465861325476,-0.36026339116339273,0.0027758590296611168,-2.0559533934592076,0.002,8e-05,0,22.622829604606824,0.01885578421466401,0.001809826368368546,0.0,0.020665610583032554,0.2,0.02,0.0,-0.01618517957282267,-0.005517432591549149,-0.00032370359145645337,-0.0,-0.005841136183005602,-9.99097565485574,-10.0,-0.00902434514426062,39.97743377832685,40.0,0.022566221673153954,9.427892107332005,10.0,0.5721078926679952,-0.027587162957745746,0,0.027587162957745746,3.99900962190758,2.0578791023689966,0.005841136183005602,0.5206656105830325,0.03358197212219238,2.4052116870880127,STABILIZE
0.16,0.015,0.11,97.48693651713371,6.396041785744377,1.4623040477570057,-0.002603491791079967,7.855742341710304,0.17,0.015,0.08,-24.351539151193865,-1.6992267673680606,-0.36527308726790797,-0.00047369195888694927,-2.0649735465948558,0.002,8e-05,0,22.93791459768001,0.0188599271723833,0.0018350331678144009,0.0,0.0206949603401977,0.2,0.02,0.0,-0.01713055944306961,-0.005658725707369119,-0.00034261118886139217,-0.0,-0.006001336896230511,-9.995451572753296,-10.0,-0.004548427246703924,39.975261160902356,40.0,0.024738839097644818,9.42996358619165,10.0,0.570036413808349,-0.028293628536845594,0,0.028293628536845594,3.9989797933401814,2.066948562638524,0.006001336896230511,0.5206949603401977,0.03341317176818848,2.4386284351348877,STABILIZE
0.16,0.015,0.11,98.82392739931942,6.396106279759616,1.4823589109897912,-0.0014942216446287202,7.876970969104779,0.17,0.015,0.08,-24.685772324147468,-1.6988917858185346,-0.370286584862212,-0.0006472814791831764,-2.06982565215993,0.002,8e-05,0,23.25327988102758,0.018858672636757504,0.0018602623904822066,0.0,0.02071893502723971,0.2,0.02,0.0,-0.01794952767486762,-0.0048973855395366825,-0.0003589905534973524,-0.0,-0.005256376093034035,-9.993481093050203,-10.0,-0.006518906949796149,39.9756642484976,40.0,0.0243357515024002,9.429336318378752,10.0,0.5706636816212477,-0.02448692769768341,0,0.02448692769768341,3.9991150377863187,2.0715349731275623,0.005256376093034035,0.5207189350272398,0.033445119857788086,2.472106695175171,STABILIZE
0.16,0.015,0.11,100.16185863454925,6.39590868532937,1.5024278795182386,-0.0017972021413231634,7.896539362706285,0.17,0.015,0.08,-25.020236731083425,-1.6988197773058535,-0.37530355096625134,-0.0015113983894830159,-2.0756347266615878,0.002,8e-05,0,23.569189082872995,0.018877337962659498,0.0018855351266298397,0.0,0.020762873089289337,0.2,0.02,0.0,-0.018702670868642277,-0.004500450927073014,-0.00037405341737284555,0.0,-0.00487450434444586,-9.993057513563844,-10.0,-0.0069424864361565435,39.97442928330856,40.0,0.02557071669143848,9.43866898132975,10.0,0.5613310186702505,-0.02250225463536507,0,0.02250225463536507,3.999184510004996,2.077205520274684,0.00487450434444586,0.5207628730892894,0.03346967697143555,2.5055482387542725,STABILIZE
0.16,0.015,0.11,101.51664383851111,6.396016546267898,1.5227496575776667,-0.0015359396222321506,7.917230264223332,0.17,0.015,0.08,-25.358902860754668,-1.6987905520906654,-0.38038354291132,-0.0010023248100289423,-2.0801764198120143,0.002,8e-05,0,23.889081371206565,0.01887786679413918,0.0019111265096965254,0.0,0.020788993303835705,0.2,0.02,0.0,-0.0195426395134767,-0.0049569235541880195,-0.00039085279026953397,0.0,-0.005347776344457553,-9.992885600533326,-10.0,-0.007114399466674347,39.97510341417436,40.0,0.024896585825638286,9.43893339706959,10.0,0.5610666029304091,-0.024784617770940095,0,0.024784617770940095,3.9990997972518514,2.0819065178730125,0.005347776344457553,0.5207889933038357,0.033890724182128906,2.5394506454467773,STABILIZE
0.16,0.015,0.11,102.85371421791564,6.396030640312938,1.5428057132687345,-0.0014815610248529818,7.937354792556819,0.17,0.015,0.08,-25.693115482554063,-1.6986662332672433,-0.38539673223831095,-0.0005671674277798521,-2.084630132933334,0.002,8e-05,0,24.204811540107457,0.01887914676619955,0.0019363849232085968,0.0,0.020815531689408147,0.2,0.02,0.0,-0.02033968509572122,-0.0047659495381541205,-0.0004067937019144244,0.0,-0.0051727432400685445,-9.992154313336725,-10.0,-0.007845686663275285,39.97519150195586,40.0,0.024808498044134826,9.439573383099775,10.0,0.5604266169002254,-0.023829747690770602,0,0.023829747690770602,3.9991326406407146,2.08629358281515,0.0051727432400685445,0.5208155316894082,0.0334475040435791,2.572908878326416,STABILIZE
0.16,0.015,0.11,104.1902287203535,6.396061468881842,1.5628534308053024,7.572729576160073e-05,7.958990626982906,0.17,0.015,0.08,-26.027159244404565,-1.6985223183754086,-0.39040738866606844,0.001981270886546536,-2.086948436154931,0.002,8e-05,0,24.520469093587124,0.01888274604849161,0.00196163752748697,0.0,0.02084438357597858,0.2,0.02,0.0,-0.02113496628029666,-0.004757400062168584,-0.0004226993256059332,0.0,-0.005180099387774517,-9.991307755149462,-10.0,-0.008692244850538272,39.97538418051151,40.0,0.024615819488487487,9.441373024245804,10.0,0.5586269757541967,-0.023787000310842916,0,0.023787000310842916,3.999133234716632,2.0886089021533922,0.005180099387774517,0.5208443835759786,0.03343343734741211,2.606363296508789,STABILIZE
0.16,0.015,0.11,105.52828076134894,6.395893902495463,1.582924211420234,-0.000877753166267716,7.977940360749429,0.17,0.015,0.08,-26.36157598345993,-1.6984203801329736,-0.3954236397518989,0.0013252285424500292,-2.092518791342423,0.002,8e-05,0,24.836492872252034,0.018882435969220346,0.001986919429780163,0.0,0.02086935539900051,0.2,0.02,0.0,-0.02193688752467387,-0.004791483290681724,-0.0004387377504934774,0.0,-0.0052302210411752014,-9.990708118429255,-10.0,-0.009291881570743973,39.974336890596646,40.0,0.025663109403352678,9.441217984610173,10.0,0.558782015389828,-0.023957416453408622,0,0.023957416453408622,3.9991246933370532,2.094191151557798,0.0052302210411752014,0.5208693553990005,0.03347277641296387,2.639824628829956,STABILIZE
0.16,0.015,0.11,106.8656913730609,6.39578898692615,1.6029853705959134,-0.0004971699356173357,7.998277187586446,0.17,0.015,0.08,-26.69593778106557,-1.698927914733631,-0.40043906671598356,-0.00030499139980299974,-2.0996719728494173,0.002,8e-05,0,25.152389852780093,0.018883602494359848,0.0020121911882224077,0.0,0.020895793682582254,0.2,0.02,0.0,-0.022635319342601067,-0.004175066440047487,-0.0004527063868520213,0.0,-0.0046277728268995086,-9.993693616080181,-10.0,-0.0063063839198198544,39.97368116828844,40.0,0.026318831711565693,9.441801247179924,10.0,0.5581987528200759,-0.020875332200237434,0,0.020875332200237434,3.999234733152748,2.101129206572988,0.0046277728268995086,0.5208957936825822,0.033457279205322266,2.6732633113861084,STABILIZE
0.16,0.015,0.11,108.20194258030098,6.395896076951782,1.6230291387045146,-0.000494279632309984,8.018430936023988,0.17,0.015,0.08,-27.029802185023524,-1.697900923258187,-0.4054470327753528,0.00250540082093657,-2.100842555212603,0.002,8e-05,0,25.467897964311096,0.018877037134315735,0.002037431837144888,-0.0,0.020914468971460622,0.2,0.02,0.0,-0.02329513643047889,-0.003947724706438106,-0.0004659027286095778,0.0,-0.0044136274350476835,-9.98765248975404,-10.0,-0.012347510245958617,39.97435048094864,40.0,0.025649519051361726,9.438518567157868,10.0,0.5614814328421324,-0.019738623532190528,0,0.019738623532190528,3.9992760140467896,2.1022204464000067,0.0044136274350476835,0.5209144689714607,0.03342771530151367,2.7066915035247803,STABILIZE
