Mode,Time,Freq,North-Vision,East-Vision,Down-Vision,Yaw-Vision,North-Desired,East-Desired,Down-Desired,Roll-UAV,Pitch-UAV,Yaw-UAV,Roll-Control,Pitch-Control,Yaw-Control,Thrust-Control,northVraw,eastVraw,downVraw,yawVraw,zGyro
GUIDED_NOGPS,0.004189252853393555,240.16857535501603,243.6361500881863,-3.2134462114905857,36.6310934939958,0.0018068681797695151,245.91090696443976,1.1316634383645376,50,1.3584327385268584,-0.6353243463573107,99.29223581365956,-10.0,10.0,-0.0036137363595390303,0.5026737813012009,243.6361500881863,-3.2134462114905857,36.6310934939958,4.518977317603557,0.0
GUIDED_NOGPS,0.01786661148071289,73.14285714285714,241.8970629374661,-3.6048681096055586,36.43252078010827,0.002180270503560301,245.91076956825438,1.1316600516695265,50,1.3618170972605996,-0.5948094251089405,99.2950293610301,-0.6783132228068659,2.7442920925701846,-0.004360541007120602,0.5027134958439784,240.15797578674594,-3.9962900077205314,36.23394806622074,1.09302136752855,-0.2291831180523293
GUIDED_NOGPS,0.04818105697631836,32.99120612896629,241.3173672205594,-3.735342075643883,36.366329875479096,-0.002621875856950986,245.9098188826246,1.1316366181057018,50,1.4370455478310606,-0.6889049392402393,99.26452573619682,-0.3026631503844798,0.656038730029419,0.005243751713901972,0.5027267340249042,240.15797578674594,-3.9962900077205314,36.23394806622074,1.09302136752855,-1.0313240312354819
GUIDED_NOGPS,0.09172415733337402,22.97229174996303,241.45071687348153,-4.0464757554014135,36.43635299458355,-0.021501995208379053,245.90727190664407,1.131573837390048,50,1.3473680455148493,-0.7122433754690556,99.19767184460073,-0.3644354719948068,0.2058894146060313,0.043003990416758106,0.5027127294010832,241.85076583224793,-4.9798767946740075,36.64642235189691,4.852374898408968,-1.260507149287811
GUIDED_NOGPS,0.12845945358276367,27.234148653650113,240.85098848591574,-4.301232164431562,36.42475321660377,-0.08154884436979018,245.90237827225863,1.1314532136106261,50,0.97465508123442,-0.39350816889962065,99.0906496104958,-0.37306521080698246,0.6281664645514731,0.16309768873958036,0.5027150493566792,238.45207493565266,-5.320257800552158,36.378354104684625,-2.6127442418589055,-2.6929016371148693
GUIDED_NOGPS,0.16529178619384766,27.151640697320637,240.66941121145646,-4.781234572550185,36.472926965245904,-0.1830150722895601,245.8944197941579,1.1312570441318004,50,0.6565170893305381,-0.10158414954555671,98.93398556150322,-0.49482459097922704,0.41032824093627124,0.3660301445791202,0.5027054146069508,239.7615248391602,-5.613458252083694,36.871962237206475,3.23217569647764,-4.354479242994256
GUIDED_NOGPS,0.2019054889678955,27.321252231008742,240.5397131582713,-5.104668221422817,36.60052979944305,-0.31488145712395466,245.88271001966703,1.1309684084994645,50,0.3961841089503847,0.10269685673046054,98.76273905863266,-0.4430079825208234,0.38787079162036414,0.6297629142479093,0.5026798940401114,239.7615248391602,-5.613458252083694,36.871962237206475,3.23217569647764,-4.870141258611998
GUIDED_NOGPS,0.23309850692749023,32.06286740817185,240.1486305648455,-5.555458292163437,36.96859573441852,-0.4748468550242608,245.86659377863847,1.1305711573462685,50,0.1719038952379602,0.288464501859026,98.60562421715487,-0.5540545541973014,0.5858640388768698,0.9496937100485217,0.5026062808531163,237.4110524108649,-6.250240361423632,38.074277741098086,-0.14733429781495033,-5.443099053742821
GUIDED_NOGPS,0.2693214416503906,27.615361824562328,239.2574140793484,-5.841996895293255,37.496488637276144,-0.6310168205415296,245.84544673334352,1.130049901296845,50,-0.011329683007464432,0.36836015942757416,98.4176369206286,-0.46521913770607226,0.8816736185851607,1.2620336410830593,0.5025007022725447,236.50641820420944,-6.412569810323097,39.28588686618501,0.7989482042100065,-5.729577951308232
GUIDED_NOGPS,0.3065972328186035,26.83066687989765,238.90636592505254,-6.10632841721876,38.36527581854263,-0.825818544413645,245.81867492836412,1.129389999873036,50,-0.17336235406916947,0.5034305119983085,98.18826550792123,-0.4645552288760148,0.5931588233634432,1.65163708882729,0.5023269448362915,237.34959055237917,-6.641915410179685,40.72229001101708,-0.02460917486548908,-6.302535746439056
GUIDED_NOGPS,0.34045934677124023,29.541720958733332,238.25357838019372,-6.27310120245162,39.249792469974984,-1.0488739976863113,245.78571434048456,1.1285775503991191,50,-0.24887533804745696,0.561350302716605,98.0247371188128,-0.43888855723315257,0.8246483086260774,2.0977479953726226,0.502150041506005,234.93567542787542,-6.447322178247994,41.29454549436823,-0.037987536550247114,-6.932789321082962
GUIDED_NOGPS,0.37502622604370117,28.935813234725977,237.23174274734623,-6.296212928669924,40.444886395059356,-1.2739737229820374,245.74603042858308,1.127599376907034,50,-0.43280870385790376,0.7408572790580604,97.69801501986522,-0.3722087716956575,1.086511671670293,2.5479474459640747,0.5019110227209881,233.6760807694679,-5.72901688317521,42.84743186262834,-1.808115663270101,-7.505747116213785
GUIDED_NOGPS,0.40645313262939453,31.82711103017058,236.6347434765731,-6.19196823302024,41.3995172193654,-1.5119954897638814,245.69911768352364,1.1264430190416097,50,-0.47644107285385595,0.7964566197275509,97.47272123009236,-0.30377374308888333,0.9014132429630239,3.023990979527763,0.5017200965561269,233.6760807694679,-5.72901688317521,42.84743186262834,-1.808115663270101,-7.62033867523995
GUIDED_NOGPS,0.4478118419647217,24.183165262714844,236.10564628239655,-5.995638977376798,42.31013099211759,-1.722709359597417,245.6444991780476,1.1250967209657903,50,-0.5667427904271829,0.9580531325179404,97.16571788727862,-0.2721987035936273,0.8103621099558446,3.445418719194834,0.5015379738015765,235.52874728574793,-5.430923532105888,43.83895572994599,0.02042907318727316,-7.16197243913529
GUIDED_NOGPS,0.48089170455932617,30.234229818276184,235.2880867272056,-5.481000199074783,43.06978535725807,-1.9945963159082583,245.58172611666538,1.1235494202658616,50,-0.6201953172631738,1.028078259601321,96.9595691177493,-0.07606365041687807,1.0811912548599418,3.9891926318165165,0.5013860429285484,233.22104839763267,-4.0687215186696095,44.520561836719466,-3.078635476537471,-6.818197762056797
GUIDED_NOGPS,0.5145664215087891,29.70449217781744,234.9412738241883,-4.862407479415358,43.90347036467761,-2.214523623603088,245.51037738554828,1.1217907368566782,50,-0.6968005311990684,1.1367302408752393,96.71925574199157,0.0010926180681504194,0.8092660383584357,4.429047247206176,0.5012193059270644,234.6365491867264,-3.3543585799508677,45.46297053146596,-0.2583764045910897,-6.875493541569879
GUIDED_NOGPS,0.5544123649597168,25.1052199989226,234.5295604288555,-4.2119489787313595,44.45240982293096,-2.41998981175313,245.43005910242,1.119810961886889,50,-0.7072539756412142,1.2244117271282202,96.46077406304161,-0.0022872897897680544,0.8324017028220595,4.83997962350626,0.5011095180354138,233.21271104154675,-2.4767243797552134,45.5921291538951,1.8546507670155705,-6.359831525952138
GUIDED_NOGPS,0.5864095687866211,31.263912699950804,233.66627019504597,-3.420616639692926,45.01168623285666,-2.6558694444598165,245.34040416644837,1.117601046644165,50,-0.7182052234799776,1.275998971990563,96.34516628114997,0.17294797564330014,1.2004336749581266,5.311738888919633,0.5009976627534287,230.44326868190308,-1.7723551879830421,45.64381391225689,-5.230175014912845,-5.7868737308213145
GUIDED_NOGPS,0.6243715286254883,26.342159473446213,233.4896778923899,-2.501167544629907,45.57623170666889,-2.8028652345486047,245.24107180813718,1.115152591460425,50,-0.8304085829571852,1.4133184311497884,96.11899139697417,0.20220328227418022,0.7598740367710215,5.605730469097209,0.5008847536586662,233.52293700662693,-0.8336780567907915,46.66168309900714,5.830093062611937,-4.698253920072751
GUIDED_NOGPS,0.6619012355804443,26.651314995202604,233.48199509233942,-1.7304409820116882,46.101311854427344,-2.9762115400344467,245.13174713921777,1.1124578346170622,50,-0.8614286341247386,1.5424359003328862,95.94855768661485,0.18483961836050086,0.6604568404904005,5.952423080068893,0.5007797376291145,233.6146183690642,-0.21508870557851584,47.14596257551174,-7.5442550675169855,-3.896113006889598
GUIDED_NOGPS,0.7024428844451904,24.671941083392646,233.0036671256834,-0.9161834869452654,46.39389940583797,-3.107016059555449,245.01214070254068,1.109509641250171,50,-0.902698397998101,1.5926096162021537,95.83845503719424,0.21945268313014213,0.9167209247779806,6.214032119110898,0.5007212201188324,229.84945703621997,0.7169288953812448,46.92590828851909,-2.7680275588397336,-2.807493196141034
GUIDED_NOGPS,0.7354512214660645,30.304350967443607,232.1466061095047,-0.1548412800000528,46.66782760964254,-3.206990705866262,244.88198802196746,1.1063014922557732,50,-0.8526943162801732,1.6232075830233414,95.78494050504719,0.2959773519883157,1.2177511374459347,6.413981411732524,0.5006664344780715,228.6722591563184,1.3299866549708501,46.96177017291795,-9.379185407357781,-1.432394487827058
GUIDED_NOGPS,0.7714009284973145,27.821804770622727,231.81638619539882,0.6203764369859235,47.0816975583781,-3.237027998877862,244.74104915226226,1.1028274731950451,50,-0.8613599053462153,1.638372950858297,95.78341054267311,0.3129860827081668,0.900449538800423,6.474055997755724,0.5005836604883244,230.57928908478604,2.103733396946839,47.71316365593471,-3.4677385865669947,-0.17188733853924698
GUIDED_NOGPS,0.8079240322113037,27.386544086920185,231.51815309779965,1.3475388288072296,47.461885412737146,-3.2423483751899234,244.58910822898363,1.0990822631995432,50,-0.7778878433343721,1.6581079286914024,95.7927747320252,0.32386475439865337,0.8860379108049455,6.484696750379847,0.5005076229174525,232.25068440593304,2.8021339023157394,48.562622370802366,0.7530075763135358,0.8021409131831525
GUIDED_NOGPS,0.8434309959411621,28.167839681942727,231.05821065976374,2.0791740894430504,47.671761075409215,-3.2012673761569315,244.4259730183761,1.0950611238764312,50,-0.6897441453736518,1.6299447108659126,95.88429926690335,0.3676314387848207,0.9912212777037228,6.402534752313863,0.5004656477849182,229.5331715372593,3.443087597600589,48.19534088887207,4.4539334099805785,2.177239621497128
GUIDED_NOGPS,0.8821144104003906,25.873676028795796,230.66019166379834,2.648123532516549,47.82619806741663,-3.126382773610461,244.25147446726194,1.0907598882137068,50,-0.615029826620793,1.6387866041899057,95.99662172780423,0.3050878233676059,0.956643007981596,6.252765547220922,0.5004347603865167,227.2591167141799,3.5616761107487385,47.69809324855612,-9.579280202994525,3.380450991271857
GUIDED_NOGPS,0.9279172420501709,21.833393196429036,229.78385175228667,3.159626235634707,47.966338087268184,-3.0047918923130608,244.0654662529329,1.086174949485428,50,-0.5150339361811023,1.6216483789018745,96.21819306447944,0.269876667620941,1.1833616568026843,6.0095837846261215,0.5004067323825464,226.51221771453362,3.8875001705616388,47.66247027217574,-6.729850144373586,4.698253920072751
GUIDED_NOGPS,0.9569284915924072,34.47278704693022,229.2617195180952,3.6003140605839503,48.03164962525496,-2.8386094720504027,243.86782433304174,1.081303250156939,50,-0.4676666810087696,1.5619621305094833,96.38107258561674,0.3555543856335055,1.1257348288887552,5.677218944100805,0.5003936700749491,229.43756049553247,4.307172521693057,48.03972134586854,-8.01549751477323,5.271211715203574
GUIDED_NOGPS,0.9927918910980225,27.892481413010227,229.39409316257422,3.9361752865593784,47.98799762957944,-2.6697047767427744,243.65844649549416,1.0761422707900978,50,-0.44814605372172606,1.4604452423189953,96.61911150838084,0.28111877375699335,0.6938133866429187,5.339409553485549,0.5004024004740841,230.90844619205242,4.481440032192878,48.344362392424806,-0.5947101872402101,6.41712730546522
GUIDED_NOGPS,1.0304412841796875,26.569938996192803,229.37444105102475,4.117899684579075,47.873716365585565,-2.4604548101715062,243.43725190834027,1.0706900189485022,50,-0.43173513685859527,1.4336098559568384,96.87137088499692,0.21951313355790897,0.7644058084761024,4.9209096203430125,0.5004252567268829,228.51504226392248,4.351709587699068,47.62393456890271,-2.2636677712743705,6.932789321082962
GUIDED_NOGPS,1.0638248920440674,29.9605983113562,229.00859777705125,4.256980200331177,47.74295191024555,-2.2323232515308824,243.20418066966644,1.0649450181027162,50,-0.42863385744943927,1.4330815835132202,97.13324716796438,0.21242575733698574,0.9611189552783342,4.464646503061765,0.5004514096179509,227.65254289299799,4.2570786895092505,47.044270971856044,1.55277685657623,7.16197243913529
GUIDED_NOGPS,1.0969946384429932,30.16204632566033,228.27124219659174,4.230704082088318,47.512654484614764,-2.0142889066479253,242.95919335748692,1.0589062965354967,50,-0.4451789234967373,1.4220390886160137,97.22114487239328,0.13451028081530975,1.2118131634280256,4.0285778132958505,0.500497469103077,226.3518397622571,3.756119579347343,46.51098314402178,-7.266454109684062,7.047380880109126
GUIDED_NOGPS,1.1289987564086914,31.24784134339589,227.98876414566448,4.080999500287737,47.182085372448206,-1.7944498044830017,242.70227057963552,1.05257337624702,50,-0.5074174748437447,1.3526482086300922,97.5694708596856,0.06612872868965668,0.9337273730544995,3.5888996089660035,0.5005635829255104,227.27334712984126,3.558649612690158,46.38687578503577,-4.402206410392822,7.333859777674538
GUIDED_NOGPS,1.171128511428833,23.74277692238022,227.8649445345324,3.7780186434716625,46.70334820765751,-1.5777057652754496,242.4334125236574,1.045946261860108,50,-0.6046335316520931,1.3483001528931444,97.89369310939692,0.009190766776565704,0.8408692541797038,3.155411530550899,0.5006593303584685,226.26855982512345,2.9665357481125048,45.95067656847133,-5.810928974391572,7.333859777674538
GUIDED_NOGPS,1.2037711143493652,30.667290594291064,228.0706811728203,3.483980672093004,46.39738886886481,-1.306354062154844,242.15263850670067,1.0390254295254562,50,-0.6144518218622806,1.320091364899286,98.16352656274745,-0.0289714387892578,0.588576458813941,2.612708124309688,0.500720522226227,228.15811082083675,2.8815197308057767,46.0941378749392,0.6701264810195653,6.990085100596044
GUIDED_NOGPS,1.2364163398742676,30.622733943212598,227.86741657403076,3.107751336022686,46.128026556309,-1.0870327547850447,241.8599865254081,1.0318118158268579,50,-0.6396351562189408,1.3661890586596426,98.32917231049859,-0.08707868813523072,0.8247412083953627,2.1740655095700894,0.5007743946887382,227.8114437052165,2.37593200915766,45.69745940907699,0.49761125826350394,6.875493541569879
GUIDED_NOGPS,1.2682058811187744,31.468451300211576,227.40639363045887,2.756795809949689,45.89815133857892,-0.8677558455899538,241.55551280580883,1.0243068066864325,50,-0.618917805084117,1.3529775518141338,98.63043146422035,-0.09786683195463429,0.989027009589355,1.7355116911799076,0.5008203697322842,227.22026264347724,2.0013419489823567,45.36160705537139,0.9975161129380439,6.932789321082962
GUIDED_NOGPS,1.3026621341705322,29.02893685937143,227.22151300377132,2.4077529439584433,45.65826777609724,-0.6664707083036764,241.2392913532101,1.0165122262698514,50,-0.5969747551583933,1.3342893004713325,98.83834242255554,-0.09967783443939776,0.8066368081073894,1.3329414166073528,0.5008683464447805,227.03599725042204,1.813435282733928,45.18745797262738,1.145128333665312,6.589014644004467
GUIDED_NOGPS,1.3370599746704102,29.082477586481858,227.16222298564566,2.1492049072362867,45.4586140746511,-0.4552419848017112,240.9114135020889,1.0084303258915646,50,-0.5543169154187844,1.390262273832764,98.99093567880278,-0.06809967425467126,0.7131178334813697,0.9104839696034224,0.5009082771850698,227.17822274799275,1.6737955645017233,44.952408061240625,4.82685175347882,6.302535746439056
GUIDED_NOGPS,1.3761589527130127,25.57642797470593,227.23609175070578,1.8486336197296644,45.23179710596235,-0.2613653120732566,240.57198746598363,1.0000637729200268,50,-0.5070687083092509,1.3363254438959369,99.22276595961137,-0.08455629705600284,0.635822876461251,0.5227306241465132,0.5009536405788075,226.9427898827382,1.3786632932726652,44.96005303149543,6.296712159470289,5.500394833255903
GUIDED_NOGPS,1.4163329601287842,24.89733118054896,227.34058605185209,1.6489716924700002,45.10893265754923,-0.06497862335194682,240.2211378873859,0.991415639682925,50,-0.5076697649562121,1.2289543365348075,99.47471797771479,-0.051583375277596905,0.5917143330169748,0.12995724670389364,0.5009782134684901,228.10930153901177,1.3776223728593384,45.08313716701142,0.34874516076880013,4.755549699585833
GUIDED_NOGPS,1.4552507400512695,25.7013370589605,227.7458976877031,1.526761761574024,45.02409957756004,0.11820206945591988,239.85900538763212,0.9824893923724043,50,-0.5838264275627071,1.1616111259177149,99.64638112212472,-0.027023172389998493,0.3807040180501397,-0.23640413891183976,0.500995180084488,229.5110529119315,1.3902922945024756,44.937441655425424,0.6971466382928355,4.068000345428845
GUIDED_NOGPS,1.4930329322814941,26.473008198842443,227.75727640071156,1.5032825057412724,44.83612652210435,0.273051084827838,239.48574611679527,0.9732888799502941,50,-0.6373264989186236,1.099247763535796,99.79383124592697,0.012882476650623156,0.5502838969156327,-0.546102169655676,0.5010327746955792,228.24914052490473,1.6960390035701698,44.247592695348956,5.994847671569232,3.4377467707849396
GUIDED_NOGPS,1.521820306777954,34.75011391975079,227.78969228790564,1.5830200901804712,44.613149910305374,0.4013117232634139,239.10153130357654,0.9638183230533353,50,-0.6999494084890029,1.0565635635348591,99.85362955211042,0.07287315861763072,0.439563489142162,-0.8026234465268278,0.501077370017939,228.07077080276937,2.0724834866977178,43.83752500224577,6.085181408879038,2.864788975654116
GUIDED_NOGPS,1.5633330345153809,24.092595251908484,227.94740288902153,1.78423985896208,44.29958706006998,0.46598291224096905,238.70654680519704,0.9540823028984066,50,-0.6952808141087405,0.899574653669878,99.98288405196374,0.11473571719027596,0.4312899669719126,-0.9319658244819381,0.501140082587986,228.48194745240468,2.384762137180708,43.39223878031846,0.37341579474122,2.119943841984046
GUIDED_NOGPS,1.6014792919158936,26.22325034699211,228.2498628290935,2.115384418731573,43.904332485366986,0.57126077441989,238.3009926572895,0.944085750187751,50,-0.6313568602231796,0.8651162425854578,100.03596828219308,0.19300900329805903,0.2849855171511728,-1.14252154883978,0.5012191335029266,229.45567677099768,3.0333451717068036,43.10686429349641,6.409607325803137,1.8907607239317168
GUIDED_NOGPS,1.6409990787506104,25.309429704141298,228.49666350479535,2.5862405932963584,43.427712829089074,0.6501408432836995,237.88508262379003,0.9338339340142021,50,-0.400525067693898,0.735087583478398,100.13386538356687,0.26808811187133963,0.2819245083088036,-1.300281686567399,0.5013144574341822,229.15262815360765,3.744573167326403,42.55434337403591,8.424380416537943,1.6615776058793874
GUIDED_NOGPS,1.6749281883239746,29.50265532788903,228.94915038993847,3.153325161383152,43.02557026657648,0.7184933543098994,237.45904374682965,0.9233324507664114,50,-0.19865686576282746,0.6359151577205169,100.18243485875483,0.37433983653527747,0.04613980872239276,-1.4369867086197987,0.5013948859466847,230.56268496388296,4.531461844004137,42.23687988278599,3.26598410612705,1.3178029288008934
GUIDED_NOGPS,1.7098877429962158,28.599607244163213,229.36862715691032,3.8329092947099155,42.632903004862605,0.7634080519141111,237.02311589662614,0.9125872130340736,50,0.04725192902902257,0.5666225684256202,100.23106580564533,0.44910917859867017,0.027806610128082554,-1.5268161038282222,0.5014734193990275,231.46511567478646,5.470404153331536,41.87418869367637,5.963825425223575,1.1459155902616465
GUIDED_NOGPS,1.7484636306762695,25.93671504455424,229.66770839005085,4.704440583727499,42.23164579846179,0.8115610003502879,236.57755132137572,0.9016044385131543,50,0.316423987948179,0.4599349068683152,100.28575513032962,0.5431139699805574,0.08532107398757782,-1.6231220007005758,0.5015536708403077,231.90370277705594,6.742418582268627,41.385952748314374,10.755574881604403,1.088619810748564
GUIDED_NOGPS,1.7928876876831055,22.509601038994493,230.0837831539137,5.673206092937797,41.7249953435397,0.8596702150935255,236.1226141971446,0.890390638911116,50,0.5018694936078432,0.29101173553261767,100.33976826628609,0.5774981683190273,0.02789505827341271,-1.719340430187051,0.501655000931292,231.5777386358078,7.8771727177582935,40.57361201888599,10.727445413054141,0.9167324722093172
GUIDED_NOGPS,1.8180627822875977,39.737603031738516,230.94181083749015,7.028521567765007,41.17464786985717,0.8935499257763952,235.65858017776088,0.8789526088521447,50,0.6582479019549016,0.24026423041221628,100.3649306831884,1.1612865129369367,-0.711788027419713,-1.7870998515527905,0.5017650704260286,234.9349922713811,10.52115054146245,39.80260600562321,6.519411853384497,0.7448451336700702
GUIDED_NOGPS,1.853738784790039,28.036229220002273,231.63470103695596,8.510056698498447,40.55589602890487,0.9124735257850157,235.18573594470607,0.867297414782376,50,0.8128349864704184,0.21446164335775927,100.39244951535439,1.0317548462756343,-0.3812970693328291,-1.8249470515700315,0.501888820794219,234.02506904813114,11.939137497671336,39.14312067802451,10.861546429263058,0.6302535746439055
GUIDED_NOGPS,1.8901216983795166,27.49173472464376,232.37122279215947,10.071268173915605,39.91239133543321,0.9463157003224801,234.70437875700694,0.8554323838751228,50,0.9605052771516808,0.1848050153424168,100.4255417818831,1.1392851559170238,-0.4789062705820484,-1.8926314006449603,0.5020175217329134,235.3478508126257,13.276461530417327,38.656665226318104,8.978023117002493,0.8021409131831525
GUIDED_NOGPS,1.926574468612671,27.439218097842442,233.1541325279656,11.662899596417503,39.21149233415828,0.9735354523575702,234.214816001127,0.8433650929361002,50,1.0980317764201222,0.07117259886394271,100.46394110539691,1.2236930800916896,-0.5784237712363206,-1.9470709047151404,0.5021577015331683,235.41590604005637,14.70057569477812,37.88145774193969,8.999166706030167,0.5729577951308232
GUIDED_NOGPS,1.9581191539764404,31.71040833453039,233.75721751786756,13.32040662937963,38.56845289310415,0.9907017995421649,233.71736474085847,0.8311033573086535,50,1.1805082316387303,0.0577147783214904,100.4760851817412,1.433313536729077,-0.6316854374734389,-1.9814035990843297,0.5022863094213792,235.3873648830985,16.164707882568937,37.35841481361534,7.385537526832934,0.2291831180523293
GUIDED_NOGPS,1.9943101406097412,27.640293648596998,234.6450241166417,14.735366382844592,38.116526074246444,0.9905649781757639,233.21235126721376,0.8186552197789845,50,1.3089485515986448,-0.007055905577740516,100.47564804963432,1.2993499505747366,-0.7974791168428654,-1.9811299563515279,0.5023766947851507,238.56756846497973,17.59594930878725,37.542971911334696,4.933233432363252,-0.2864788975654116
GUIDED_NOGPS,2.025306463241577,32.269586157550954,235.6054235495123,16.147044641258827,37.73861772610667,0.9973861277082595,232.70011064831724,0.8060289394813763,50,1.4357677688477393,0.01589502413738327,100.47758782335859,1.4726595942281844,-1.066161702683796,-1.994772255416519,0.5024522764547786,239.58689824002082,18.997528789742525,37.2535789373256,6.263866910495793,0.0
GUIDED_NOGPS,2.0590007305145264,29.685150715180512,236.52175658122354,17.612496670191295,37.31495897891869,0.9981743104134208,232.18098627929692,0.7932329808034227,50,1.5172664397979776,-0.03689190610007516,100.47452106842127,1.50866608259609,-1.0508703386405795,-1.9963486208268415,0.5025370082042162,238.90840288949786,20.603721675079655,36.53837149037821,8.556080977461022,-0.17188733853924698
GUIDED_NOGPS,2.093714952468872,28.816334943285263,236.95902050658688,19.083647962348394,36.93454311571479,0.9918006443498476,231.65532943217622,0.7802760022912525,50,1.5674024829051043,-0.08610205836826831,100.46518419982586,1.5730007506033856,-0.8209199679649072,-1.9836012886996952,0.5026130913768571,238.43310367428805,22.056332155563616,35.9793784259202,7.90715432523767,-0.4583662361046586
GUIDED_NOGPS,2.135998487472534,23.652801588017685,237.92814209913018,20.60462220893416,36.7234680054324,0.9673377250407574,231.12349880576548,0.7671668455547564,50,1.6460509372590375,-0.20875587407985988,100.40039985554829,1.537094093871873,-1.0598053211476537,-1.9346754500815149,0.5026553063989135,241.7780417884775,23.769579115497756,36.30303926220338,3.3691409332112414,-1.088619810748564
GUIDED_NOGPS,2.1688456535339355,30.45154170629533,239.26310858465703,22.243199744949486,36.486005145696645,0.9379697166307704,230.5858600755539,0.753914524172815,50,1.6719669161258872,-0.37258673918291624,100.37404898573037,1.8431644684548227,-1.6043007131128313,-1.875939433261541,0.5027027989708607,246.02758269684043,25.788836988863896,36.3556576126559,2.171334480576917,-1.0313240312354819
GUIDED_NOGPS,2.2033815383911133,28.960987667960172,240.23916093660372,23.863150942024625,36.10631537889062,0.9200350928699036,230.04278544360105,0.7405282125985229,50,1.6641625712255015,-0.4051725311764157,100.35751992793894,1.8779836909066532,-1.4390500009660998,-1.8400701857398072,0.5027787369242219,243.22432485563002,27.09728477511821,35.35513010329546,2.8054659674097735,-0.6302535746439055
GUIDED_NOGPS,2.2349424362182617,31.694593267087317,240.96116840283418,25.452978588583584,35.69395853706695,0.9009860691833996,229.4946531884286,0.7270172350644173,50,1.6395748507088075,-0.5393060806138004,100.3411752852551,2.009877679137776,-1.4381700624914484,-1.8019721383667993,0.5028612082925866,241.16342461294218,28.55285990787446,34.47658728125984,6.368250058723675,-0.6875493541569879
GUIDED_NOGPS,2.2714297771453857,27.413214119984577,241.5518495935664,27.090120811616025,35.409926976599756,0.8901545541996646,228.94184721491212,0.713391054487704,50,1.6625852244140515,-0.7073553079008537,100.31519324565238,2.0106808027319456,-1.3373463950715152,-1.7803091083993292,0.50291801460468,243.29301799083774,30.242043270725826,34.55922062358426,4.185515360508802,-0.34377467707849396
GUIDED_NOGPS,2.3071846961975098,27.97489511842114,242.353148634196,28.76279094811694,34.968120514326785,0.8835951669756159,228.38475660417257,0.699659261375483,50,1.6711008694834708,-1.006699767499181,100.3112932076363,2.110813495821189,-1.5402570588953453,-1.7671903339512318,0.5030063758971346,245.9972905650579,32.13292979800231,34.09400695083851,5.152074418432633,-0.11459155902616465
GUIDED_NOGPS,2.342884063720703,28.01993453136482,243.12517122426422,30.29821844647684,34.3310862790728,0.8814145878131657,227.8237751634682,0.6858315627299761,50,1.6726235747815605,-1.0622869418942125,100.31118392460958,2.1337509860451,-1.6151486174087868,-1.7628291756263315,0.5031337827441854,245.0845836100437,33.46597448066339,33.17048643638596,3.3147132770752705,0.057295779513082325
GUIDED_NOGPS,2.37347149848938,32.69724112662441,244.10224927065477,32.21460758998563,33.59548984532592,0.8865087189492745,227.2593009760862,0.6719177709537533,50,1.7309695052710423,-1.2647775047927607,100.3211764913653,2.545661349177666,-1.9719954900256023,-1.773017437898549,0.5032809020309348,246.24972804541255,36.679230492662185,31.677147934561063,6.385404219707667,0.2291831180523293
GUIDED_NOGPS,2.412015676498413,25.947465449191444,244.66121005277162,33.83988170694318,33.03560197598617,0.905360733066998,226.69173595123425,0.6579277927549587,50,1.8377260023285764,-1.5647175782310545,100.35284124835748,2.2966934131332986,-1.616875398859203,-1.810721466133996,0.5033928796048027,246.24972804541255,36.679230492662185,31.677147934561063,6.385404219707667,0.7448451336700702
GUIDED_NOGPS,2.4481756687164307,27.66490558072963,244.45117208431918,35.60186000797809,31.889221438695603,0.9385535917510326,226.12148537393242,0.6438716180525376,50,1.9134424912595758,-1.806593573204835,100.39133619451968,2.499758004405401,-1.2580041052977426,-1.8771071835020652,0.5036221557122609,244.34727894922077,39.05193477590034,28.827317937131436,5.505377114246443,1.260507149287811
GUIDED_NOGPS,2.4867987632751465,25.89699989503646,244.97586396538424,37.29796836932661,30.71800366770256,0.9824692377900334,225.54895745490467,0.629759308881463,50,2.0300304052971083,-1.997549867585936,100.45324502915668,2.4943830346211078,-1.6889582446621993,-1.9649384755800667,0.5038563992664595,247.4218599041507,40.6134716047449,28.23791809587332,4.7758573831526405,1.604281826366305
GUIDED_NOGPS,2.5224571228027344,28.051417182755713,245.8271199138832,39.026130271885094,29.477525851367545,1.0352114544498978,224.97456288047073,0.6156009882979614,50,2.1592896009054843,-2.153912961368215,100.52647831743755,2.665876309580761,-2.01864028502043,-2.0704229088997956,0.5041044948297265,247.97347220093405,42.10678399345578,26.96809735471087,3.3532661195531404,1.7188733853924698
GUIDED_NOGPS,2.5617854595184326,25.43451420809431,246.43080272502462,40.332449223244005,28.302363529536535,1.0975938378917849,224.39871436243766,0.6014068292847405,50,2.2558206644452743,-2.2101070621040253,100.60409658716557,2.4759442146326553,-1.878852297837874,-2.1951876757835698,0.5043395272940927,248.12248047996903,43.21082524945675,25.801336325405988,3.194165673173984,2.119943841984046
GUIDED_NOGPS,2.603081464767456,24.222129822129823,246.78042527248118,41.88787955762767,26.956436479879198,1.1657528547764828,223.82182618799158,0.5871870436562154,50,2.3700634757199657,-2.195342540995985,100.67322493175527,2.6403126191190136,-1.7988105581523508,-2.3315057095529657,0.5046087127040242,248.79427094471052,44.45638216458053,24.947512686274404,1.1500640994441653,2.0053522829578814
GUIDED_NOGPS,2.644516706466675,24.13737857373049,247.38869885825878,43.25820252999293,25.98113446829465,1.2474960873807515,223.24431376958935,0.5729518709637336,50,2.4754893665498163,-2.2436629277226516,100.80064211072187,2.624211770102792,-1.985002961583537,-2.494992174761503,0.5048037731063411,249.95077229626452,45.90354963772662,23.950807879208675,2.8079825491586945,2.3491269600363753
GUIDED_NOGPS,2.6856276988983154,24.3310264814224,247.90850490038605,44.7065368905805,24.965669326802264,1.3440676116101231,222.6665931948504,0.5587115674008049,50,2.5597813714271784,-2.243436677706395,100.89625792891287,2.740923010641796,-2.023363733665664,-2.6881352232202462,0.5050068661346395,250.40817638243064,47.85514340768276,23.1605923884114,-0.527063155185715,2.7501974166279517
GUIDED_NOGPS,2.7245137691497803,25.720407424895598,248.53929530998573,46.118869481002605,24.133004526066607,1.4396156412924788,222.0890807764482,0.5444763947083233,50,2.6368301741331535,-2.3271214360778605,101.01227552215471,2.82924100233068,-2.184447969642944,-2.8792312825849575,0.5051733990947866,251.2960513222102,49.168446945566295,22.80477335103257,4.474517528528892,2.521014298575622
GUIDED_NOGPS,2.7576286792755127,30.207229332161813,248.99811146930915,47.35573900665257,23.39455266122186,1.5391253258815163,221.51219260200213,0.5302566090797978,50,2.7396851390707293,-2.384624798700198,101.1192840958813,2.9081992165056367,-2.250971840463981,-3.0782506517630326,0.5053210894677557,248.01780822380795,49.39517287770654,22.109077001182236,3.845541541431402,2.9220847551671985
GUIDED_NOGPS,2.7902944087982178,30.62094542799781,249.52488628248247,48.64324445909091,22.880551785022906,1.6430403628799706,220.93634408396903,0.5160624500665771,50,2.8328659948226282,-2.4763111236843334,101.2471520673331,3.0085056733090285,-2.3704527533432747,-3.286080725759941,0.5054238896429954,251.63605840953713,50.89390942677226,22.37750830527965,0.017430589890196302,3.4377467707849396
GUIDED_NOGPS,2.83004093170166,25.166226659626552,249.68117023943276,49.71583120376627,22.440168271015587,1.75351363918556,220.3619495095351,0.5019041294830757,50,2.937279736994848,-2.495490294873729,101.36491818900247,2.8672839853800394,-2.1123700116804796,-3.50702727837112,0.5055119663457969,249.2237438565366,51.26648336110344,21.748890309172072,4.790813394970328,3.666929888837269
GUIDED_NOGPS,2.872300863265991,23.667750090285303,249.87717303399813,50.57395357789254,22.054335836255227,1.8968798835733593,219.78942159050735,0.48779182031200063,50,3.1250723731297634,-2.5320049130634406,101.55473597622628,2.807074429459159,-2.1586130484341566,-3.7937597671467187,0.505589132832749,249.69050283649202,52.145755278314105,21.231430214609617,2.093474532341915,4.1252961249419275
GUIDED_NOGPS,2.902771472930908,32.826215241091624,250.06935906941592,51.331491608474025,21.683168026572456,2.058519564291507,219.2191710132055,0.4737356456095798,50,3.2505102913409285,-2.601059406232739,101.69067040108789,2.920161056954172,-2.3407961464668254,-4.117039128583014,0.5056633663946855,250.33175922805265,52.956137098473725,20.948934302618703,1.91896628532659,4.354479242994256
GUIDED_NOGPS,2.9347875118255615,31.24411701168776,250.32156275963422,52.24534740410335,21.355024735733245,2.1868394529618684,218.6516059883536,0.45974566741078515,50,3.3804753443113427,-2.688130230885238,101.82958961861677,3.0300555415270156,-2.4080714719338596,-4.373678905923737,0.5057289950528534,251.96840181801065,53.96445185585318,20.46836054698619,-0.005802544609309734,4.583662361046586
GUIDED_NOGPS,2.9690611362457275,29.184466694963017,250.3341965786305,52.91992273596999,20.852144006281524,2.3225911917617426,218.08713180097158,0.44583187563456206,50,3.503817461664372,-2.6823548790551692,102.00246853669897,2.927361025207874,-2.272964127139097,-4.645182383523485,0.5058295711987437,250.50924693440092,54.26678608610549,19.86310465802103,0.45306383919860593,4.583662361046586
GUIDED_NOGPS,3.005922794342041,27.134777742555297,250.11612156495778,53.55831561889827,20.398709027570234,2.465797634471726,217.52615036026722,0.4320041769890559,50,3.6046498368339774,-2.7662513732909053,102.15334058527537,2.9189408069152067,-2.141125009510642,-4.931595268943452,0.5059202581944859,249.55145121282845,54.45844777574485,19.48171541561563,6.390380732205628,4.469070802020421
GUIDED_NOGPS,3.0386552810668945,30.61424035619138,250.21130854220877,54.14213895666747,19.847890071606187,2.6206343611345813,216.96905974952767,0.4182723838768343,50,3.682419224497389,-2.8147064428102686,102.26330663091258,2.966668525090208,-2.401979767623041,-5.2412687222691625,0.5060304219856787,248.7793040418159,55.06487196716013,18.477335434789378,3.1942334871261266,4.354479242994256
GUIDED_NOGPS,3.068072557449341,33.973529459411296,249.85421424624363,54.56388593040475,19.353570298040324,2.757701988177953,216.41625377601116,0.404646203300121,50,3.725615048355842,-2.818801141217691,102.40399486743651,2.931595396490457,-2.1462457762427896,-5.515403976355906,0.506129285940392,248.7793040418159,55.06487196716013,18.477335434789378,3.1942334871261266,4.5263665815335035
GUIDED_NOGPS,3.1058056354522705,26.506133127737158,249.73573879454898,54.831403274011265,18.84372071291984,2.87383323476802,215.8681215208387,0.39113522576601545,50,3.8040636129548466,-2.824681934093072,102.57013238880789,2.833068154320072,-2.2697539210721698,-5.74766646953604,0.506231255857416,248.27594024297966,55.30203857388574,17.919112621383757,4.319189491468222,4.010704565915763
GUIDED_NOGPS,3.1334030628204346,36.25718780795629,249.81482495036224,55.23540267530615,18.402168506065433,3.018324537717473,215.32504688888585,0.3777489141917234,50,3.8710549621079777,-2.83817881477984,102.68431949135217,2.982540416756382,-2.5387230344765492,-6.036649075434946,0.5063195662987869,250.32319208299808,56.286783092579846,17.65534362374901,3.088362316912267,3.724225668350351
GUIDED_NOGPS,3.1705572605133057,26.917104663624755,249.81375405723043,55.601069738673154,18.03689414769211,3.109896277682979,214.78740815867428,0.36449659280978186,50,3.979106847230287,-2.762432870658045,102.88195101498648,2.9237721580202236,-2.407102314547298,-6.219792555365958,0.5063926211704616,250.32319208299808,56.286783092579846,17.65534362374901,3.088362316912267,3.4377467707849396
GUIDED_NOGPS,3.2023584842681885,31.456414948588915,249.35867238882838,55.80791624304209,17.841689501214482,3.2267676305794484,214.25557753226354,0.35138743607328604,50,4.074791821086642,-2.7835752943469965,102.97411758764663,2.8873544610906023,-2.1763323366877096,-6.453535261158897,0.5064316620997571,248.3277484707943,56.09910448900478,17.501312202401234,2.4576544143095447,2.864788975654116
GUIDED_NOGPS,3.240290641784668,26.368159329087742,249.28744551535686,56.127279506574475,17.68211873225824,3.3003062326497243,213.72992068514284,0.33843045756111545,50,4.126783221048779,-2.7565768372184056,103.07027299078207,2.9376219412056583,-2.3989737274083525,-6.600612465299449,0.5064635762535483,249.93943194662867,56.66168828482202,17.679481590008177,2.0630078459870305,2.0626480624709638
GUIDED_NOGPS,3.2837154865264893,23.033097381094898,248.77248950179063,56.33088975878267,17.61206240788912,3.361879721490601,213.21079631612253,0.32563449888316187,50,4.241227736347397,-2.769551208433668,103.14009118447795,2.8933650774653112,-2.166017972239438,-6.723759442981202,0.5064775875184222,245.43180310429833,56.320089834926705,17.568830999538154,3.6616500637728677,0.8594366926962349
GUIDED_NOGPS,3.3170957565307617,29.961454389599258,248.1951785921999,56.334585412399335,17.608125170340422,3.4000204344875997,212.69855569722603,0.31300821858555405,50,4.346082666051317,-2.8844751176346564,103.12658790048883,2.8266558157921455,-2.1249687893302944,-6.800040868975199,0.506478374965932,244.16081676509037,56.30526136066325,17.63565743600552,4.804195915115272,-0.2864788975654116
GUIDED_NOGPS,3.361947536468506,22.31392577459993,247.82222648170034,56.46888648583861,17.61409672965909,3.3780322034414594,212.1935422235813,0.3005600810558846,50,4.473166446409044,-2.9696330624327287,103.0877172939223,2.8845026551018074,-2.2355946229606474,-6.756064406882919,0.5064771806540682,245.79568715781937,56.95828845977621,17.68520142034236,-0.409525221417951,-1.3750987083139758
GUIDED_NOGPS,3.3911631107330322,34.21994142075076,247.45308524728335,56.74677883307912,17.627282978123237,3.337176031278791,211.69609096331277,0.288298345428438,50,4.493855943178659,-2.985447084795424,103.03263181826614,3.008594404226658,-2.275060292708062,-6.674352062557582,0.5064745434043754,245.3228103676439,57.488566225207336,17.567243444721964,3.6743924060674686,-2.177239621497128
GUIDED_NOGPS,3.4270076751708984,27.903986375006653,246.77563711908533,56.96669051805786,17.556078157777428,3.2397170178290544,211.20652820743285,0.27623105448941576,50,4.50814939467738,-3.029348125685681,102.88509973219386,2.9693408581367255,-2.075066252281793,-6.479434035658109,0.5064887843684445,244.90360705741378,57.76124670971572,17.323457488279132,1.3366451059027185,-3.9534087864026803
GUIDED_NOGPS,3.4634525775909424,27.442988281633376,246.20577576645928,57.454371131411335,17.44408641903296,3.1002895827973913,210.7251710197337,0.2643660235821619,50,4.524527761420247,-3.01347049718634,102.70438658713367,3.1139996409319632,-2.1298837121533554,-6.200579165594783,0.5065111827161934,245.7643012619897,58.75849290169409,17.00887230581581,0.956416496773727,-5.156620156177409
GUIDED_NOGPS,3.4974987506866455,29.37990067315303,245.37650994256728,57.92478081509057,17.232218128172953,2.919746257621097,210.2523267866789,0.2527108295123939,50,4.5040316443815085,-3.0164569974009283,102.52213664951022,3.149309553230002,-1.9511647058289965,-5.839492515242194,0.5065535563743654,241.69362187965828,58.65730977905949,16.57631598170549,3.3221619559995332,-6.41712730546522
GUIDED_NOGPS,3.5307209491729736,30.106837790889646,244.56696651711462,58.542578852580206,17.01160047319239,2.7170115687404435,209.78829276729516,0.2412727994534225,50,4.457953907580133,-3.00724435287105,102.26212500818617,3.261025078617443,-1.9350365887796794,-5.434023137480887,0.5065976799053615,243.46308454300734,60.047278647224395,16.582113145439536,0.9585998283857293,-7.104676659622208
GUIDED_NOGPS,3.565671443939209,28.61755956442237,243.93730510284777,59.12646566546491,16.80732834504418,2.4763011135384616,209.33335564306407,0.230058999851384,50,4.4565887235197765,-2.9510844030810897,101.98509253545045,3.263089489076859,-2.0366562636409515,-4.952602227076923,0.5066385343309912,240.39451179016373,60.408000289630884,16.54588280398092,2.4883063676840464,-8.537071147449266
GUIDED_NOGPS,3.601541042327881,27.888401287268277,243.5834991610811,59.957201440392666,16.698652473659386,2.1978987507938985,208.88779106781362,0.21907622533046434,50,4.380613541173963,-2.8342783498769397,101.72317527134797,3.416695743683155,-2.197503180802507,-4.395797501587797,0.5066602695052681,241.3303692309572,61.9149255843545,16.78007813135517,-0.3673334215561539,-9.339212060632418
GUIDED_NOGPS,3.6441376209259033,23.47908643081057,242.6335350088799,60.6749869784212,16.67942489973653,1.8752807764208725,208.45186321761014,0.2083309875981274,50,4.348541534152522,-2.7197074760786766,101.30361041101243,3.349005784633877,-1.879989264617787,-3.750561552841745,0.5066641150200527,238.19597394020974,62.34742059183675,16.91273443620154,1.407032390526581,-10.714310768946394
GUIDED_NOGPS,3.673635482788086,33.912822710403546,241.55032130414583,61.932226657865115,16.87046655566878,1.4743746074910946,208.02582434064976,0.1978295043503362,50,4.321236145398103,-2.617359225800151,100.98741363357585,3.8315545971030796,-1.6365794780503342,-2.9487492149821892,0.5066259066888662,236.65710072977103,64.94350817627904,17.53152426136674,1.6245867117655166,-10.943493886998723
GUIDED_NOGPS,3.7125957012176514,25.671920235523103,240.5195080131905,62.911472563676035,17.060348778854223,1.146162009738263,207.6099143071503,0.18757768817678766,50,4.201626299539663,-2.433270686629498,100.58549798205563,3.6148525894755776,-1.7243639969382019,-2.292324019476526,0.5065879302442291,236.65710072977103,64.94350817627904,17.53152426136674,1.6245867117655166,-12.204001036286535
GUIDED_NOGPS,3.742410659790039,33.54745412954106,238.9206081690673,63.95888482270618,17.32376982830978,0.7371961703591184,207.20436015924273,0.17758113546613163,50,4.074595880034828,-2.2883229733844264,100.22967244705464,3.7964296937700617,-1.212435726850475,-1.4743923407182369,0.5065352460343381,232.97310250900395,65.64506158478163,17.862988051258696,3.5433818525999214,-12.719663051904275
GUIDED_NOGPS,3.781672954559326,25.481179072197516,238.04033620362026,65.13124713416514,17.724174580545323,0.35170034136098105,206.80937566086325,0.1678451153112035,50,3.8854547084256574,-1.956688687763158,99.69131693667424,3.7963351491820783,-1.708279641118514,-0.7034006827219621,0.506455165083891,234.651446156082,67.77673714164925,18.782101892532896,-0.5372928212714925,-13.120733508495853
GUIDED_NOGPS,3.814971923828125,30.03913255221016,236.39120197472164,66.68584804399094,18.37899137582362,-0.12561335347324487,206.42516084764452,0.15837455841424442,50,3.73947649038956,-1.7364018535387298,99.20271935439737,4.158712318830883,-1.1103365120432462,0.25122670694648974,0.5063242017248353,230.27001071181866,70.12042514096572,20.186818412593027,1.2708234337052318,-13.407212406061264
GUIDED_NOGPS,3.851915121078491,27.076970749436743,234.658349650124,67.8957257788986,19.087908677014617,-0.5375138538508284,206.05190157680764,0.14917404599213446,50,3.5193499521672154,-1.486047779535965,98.73845773613327,3.981530599499418,-1.076312159372215,1.0750277077016568,0.5061824182645971,226.53169319338252,70.99289685081736,21.07611076732173,1.6497328645543234,-13.80828286265284
GUIDED_NOGPS,3.881891965866089,33.35855059093006,233.00324741596833,69.57370782799651,20.07962549329067,-1.0086217362778689,205.68976907705388,0.1402477986816133,50,3.385999900132825,-1.3443677782002155,98.51108756885272,4.437923260075408,-0.874001761898311,2.0172434725557378,0.5059840749013419,228.08955135771188,73.33341842176856,22.49010834274701,-2.3124489464630074,-13.407212406061264
GUIDED_NOGPS,3.9205000400543213,25.907397341503188,231.02269168224862,71.12102033059845,21.12915631118813,-1.3689392867411965,205.33891949845614,0.13159966544451107,50,3.142427670367354,-0.9199933974719253,97.81006427319929,4.274491568076664,-0.7860921698853777,2.737878573482393,0.5057741687377624,222.3515280704521,73.38162409779133,23.110642140745995,1.578072261835345,-12.375888374825783
GUIDED_NOGPS,3.9563100337982178,27.93000026636124,229.4470026637845,72.70227859700844,22.335388956995992,-1.801967081801303,204.9994934623509,0.12323311247297442,50,3.085745637992711,-0.6815990914275587,97.4294588118895,4.4175045555316625,-0.8741796579606249,3.603934163602606,0.5055329222086008,224.05158858205797,75.68302847369921,24.813265121572197,-3.5595676388614663,-11.229972784564136
GUIDED_NOGPS,3.995084047317505,25.79871815374774,227.87131364532038,73.81479926355514,23.260678298791824,-2.187032615508498,204.67161561122967,0.11515121209468626,50,3.055973056844037,-0.42971070614120055,97.08008097546501,4.2328517484170325,-0.8460992499607923,4.374065231016996,0.5053478643402416,224.05158858205797,75.68302847369921,24.813265121572197,-3.5595676388614663,-10.59971920992023
GUIDED_NOGPS,4.02787709236145,30.500923542330234,225.8539446028544,74.98877059502165,24.378738997988243,-2.5621921513171384,204.35539415863096,0.10735663167810605,50,3.0973129902389505,-0.1229043982767664,96.75717695226348,4.410644854879508,-0.35019563296329204,5.124384302634277,0.5051242522004024,216.83415016927606,76.86275350814991,26.666414263303825,-2.214493404474638,-8.995437383553925
GUIDED_NOGPS,4.06325888633728,28.26998099294987,223.48020893690756,75.9343757757686,25.474118744086926,-2.8209200715586475,204.05092043903164,0.09985162253767887,50,3.192237038333084,0.026119283716363448,96.49496599002669,4.315359135377875,-0.0995767287370326,5.641840143117295,0.5049051762511826,215.66156082850733,78.06144432550334,27.967007073240406,-2.677411201229532,-7.448451336700702
GUIDED_NOGPS,4.106283903121948,23.25027993658466,221.03210599208003,76.7924355646273,26.539586739901704,-3.0647459507475543,203.75826845773912,0.09263800883908191,50,3.2285350114600586,0.19201561403268752,96.27315559673053,4.255866346834032,-0.13941940172406464,6.129491901495109,0.5046920826520197,210.68518715319863,77.67192304208483,28.437982119819896,-2.4048654448393165,-6.0733526283867265
GUIDED_NOGPS,4.133285999298096,37.03481585476764,218.42943420452693,77.27243428171022,27.542519574985658,-3.335833063071362,203.47749444078235,0.08571717650442912,50,3.2230160051672767,0.3283250056075444,96.12905909581077,4.250446968675309,0.7133000394186293,6.671666126142724,0.5044914960850029,205.7103188929577,78.08302205911382,29.827929296991957,-3.6243166890672143,-4.92743703812508
GUIDED_NOGPS,4.174410581588745,24.31917619978083,215.63203014643267,77.75243299879314,28.54545241006961,-3.425403784459241,203.20863638480424,0.07909006211751857,50,3.162304161182326,0.5889597416107948,95.99223674635708,4.182368141832103,0.37358026369925446,6.850807568918482,0.504290909517986,205.7103188929577,78.08302205911382,29.827929296991957,-3.6243166890672143,-3.151267873219528
GUIDED_NOGPS,4.213626861572266,25.506747182845917,213.10824749154955,77.99947835914983,29.367600291379386,-3.554820786252441,202.95171360695286,0.07275714182904158,50,3.029793795529024,0.8827616094193627,95.95602308337767,4.116886895866464,0.44396790660916075,7.109641572504882,0.5041264799417241,202.16126683138714,78.09798030993342,30.777153669852705,-2.9184693509263155,-1.1459155902616465
GUIDED_NOGPS,4.23634147644043,44.058740729847266,210.3719572727157,78.00678555603585,29.929629610701845,-3.620058792191461,202.70672629477332,0.06671842026182206,50,2.9923696949626435,0.9031100236173001,95.96557168783734,4.0272152418203655,1.6120017112324225,7.240117584382922,0.5040140740778596,202.16126683138714,78.09798030993342,30.777153669852705,-2.9184693509263155,-0.2291831180523293
GUIDED_NOGPS,4.2694268226623535,30.224425676649467,207.33219951966748,77.94429932831886,30.509234170873988,-3.5722851651486724,202.47365505609952,0.06097341941603629,50,2.834041000803282,1.2429825845946618,96.05308690167271,3.993454582627214,1.3170685848872397,7.144570330297345,0.5038981531658252,199.73352655767238,77.35949190349986,31.336004920680608,-3.959669290105012,1.8334649444186344
GUIDED_NOGPS,4.303605794906616,29.26469582690845,204.95251327895556,77.67482485088411,30.92323401503443,-3.5183237670139267,202.25246046894563,0.0555211675744407,50,2.6116585791641294,1.5108072152772611,96.17693189170339,3.892512366350907,0.9795058327064867,7.036647534027853,0.5038153531969931,197.79666024358056,76.73564967194,31.897928517794185,-6.200246904951442,3.0939720937064457
GUIDED_NOGPS,4.342652320861816,25.61954616253856,202.71940070583972,77.40535037344934,31.33723385919488,-3.4179365341452246,202.043082631398,0.05036018820759969,50,2.39546452235642,1.8401012006124484,96.35312345153304,3.9013594492331447,0.8847545531864306,6.835873068290449,0.503732553228161,197.79666024358056,76.73564967194,31.897928517794185,-6.200246904951442,4.698253920072751
GUIDED_NOGPS,4.379796743392944,26.92591736640731,200.64806468683048,76.53582443475443,32.141504632403326,-3.2753815185140978,201.8454407115069,0.04548848887911072,50,2.1611098463192926,2.0293149429815496,96.57203784462112,3.6022605465506143,0.9709990531608559,6.5507630370281955,0.5035716990735193,194.11449900112453,73.7503506164589,34.79850753589495,-5.585201657516663,5.614986392282068
GUIDED_NOGPS,4.417955636978149,26.213416996862616,199.19858720035134,75.66629849605953,32.94577540561177,-3.0996981332227183,201.6594324971778,0.04090355015083036,50,1.9387583739748167,2.198286565971672,96.84272507161789,3.5740563384246977,0.7063587295098244,6.1993962664454365,0.5034108449188777,194.11449900112453,73.7503506164589,34.79850753589495,-5.585201657516663,6.302535746439056
GUIDED_NOGPS,4.455522537231445,26.658260029491025,197.46685599283254,74.32281446769622,34.12219299687642,-2.888627237301693,201.48493394606362,0.03660231448810736,50,1.8683687922661925,2.1977226484783228,97.1062542603645,3.31649468361838,0.9546277913613697,5.777254474603386,0.5031755614006247,191.85646923280726,70.64207176168335,37.21809287700386,-4.227146920594876,7.104676659622208
GUIDED_NOGPS,4.492633581161499,26.923151975761932,196.01906716246438,72.7314680959824,35.35375992796986,-2.644016458503457,201.3217987354561,0.03258117516499537,50,1.8662746989553487,2.1505486663151605,97.40567609319952,3.115245321691806,0.9150369780867721,5.288032917006914,0.5029292480144061,190.57895618844188,68.77891781337085,38.05576317326138,-4.787584679589429,7.849521793292278
GUIDED_NOGPS,4.523922920227051,31.967805859577453,194.27448376226005,70.67802512234523,36.638671948030364,-2.375572348216444,201.1698578121775,0.02883596516949405,50,1.934629524621544,2.0489594208081527,97.67342633885318,2.690216294569253,1.3055863733122455,4.751144696432888,0.5026722656103939,188.20459962975252,66.46843480375415,38.3224886180967,-3.649603094433317,8.88084582452776
GUIDED_NOGPS,4.555807828903198,31.3731216013045,193.02950672922398,69.00770342996034,37.48873221987186,-2.1163590617137915,201.02891894247236,0.025361946108766187,50,2.0537454624256273,1.8824291635594868,97.98026575712683,2.814044463087137,1.0606552271879024,4.232718123427583,0.5025022535560256,189.77371029338394,65.39874215453449,39.04880889510241,-6.4536471725651126,9.11002894258009
GUIDED_NOGPS,4.587116003036499,31.951976475786363,191.81094236551613,66.87218674142471,38.272084314940635,-1.844858548103618,200.89876626189908,0.02215379711436638,50,2.145682796861761,1.8179701070411376,98.14517384444763,2.4585864581315042,1.1336915314910747,3.689717096207236,0.5023455831370118,188.04814533391777,63.072767173780754,38.71526801123881,-3.59642098222875,9.281916281119337
GUIDED_NOGPS,4.62028431892395,30.155540696963815,190.24649519815165,64.8566088090563,38.411860689301086,-1.5764211150071339,200.77915982522202,0.01920560374747593,50,2.2774954160026635,1.588265829333437,98.54153655217263,2.483843436552054,1.3991531665709496,3.1528422300142678,0.5023176278621397,185.28108290466471,60.5641820998412,37.91697474880612,-2.348118664570819,9.281916281119337
GUIDED_NOGPS,4.648819923400879,35.054190485741984,189.01193843534523,62.79225717395154,38.2543558348,-1.2935075565096057,200.66983515630264,0.01651084690411464,50,2.340051837950341,1.513422750842553,98.6944918084459,2.2108003596529775,1.3801665563991734,2.5870151130192114,0.50234912883304,184.23804489867337,58.45715963784711,37.26823890075596,-1.2562220950035226,9.224620501606255
GUIDED_NOGPS,4.684001922607422,28.43133320680025,187.77738167253884,61.19000214077014,38.04350589133186,-1.0555358313081284,200.57050279799145,0.014062391720373046,50,2.2949533795212163,1.3723454069793513,99.14972391662725,2.5598750825458327,1.3121193821784753,2.111071662616257,0.5023912988217336,184.23804489867337,58.45715963784711,37.26823890075596,-1.2562220950035226,8.823550045014677
GUIDED_NOGPS,4.720788240432739,27.190540400373404,187.03104230350246,59.511589934557165,37.61177193637248,-0.7733945511875144,200.48084786201971,0.011852476477647311,50,2.193579284973064,1.3224526893614064,99.45889242940788,2.487046976709685,1.0617350225171869,1.5467891023750289,0.5024776456127255,185.8857542805163,57.006681123469605,36.89013912030551,-2.767432725049474,8.307888029396937
GUIDED_NOGPS,4.7570483684539795,27.580677827899574,186.02778550128815,57.746681550432626,37.01571037046478,-0.48355413241887774,200.40052957889142,0.009872701507859905,50,1.985782945749885,1.3254685380450844,99.75567780922327,2.360133300140762,1.2695323205205613,0.9671082648377555,0.502596857925907,182.55290177072735,54.248225253158054,35.734960181700295,-0.49877057496387067,8.021409131831525
GUIDED_NOGPS,4.79533839225769,26.127363221269146,185.66465894172944,55.86853338006264,36.57124851255061,-0.19937265667395723,200.32918084777438,0.008114018098676734,50,1.7993789724505975,1.3993295633993674,100.113702665137,2.2620928782468845,0.9346412541311577,0.39874531334791447,0.5026857502974899,185.29958715328286,51.173441247991285,35.694665459235296,-3.7899775399247773,8.021409131831525
GUIDED_NOGPS,4.827350854873657,31.245280769975714,184.65366414904105,53.835594150476595,36.14346960866288,0.08621703041255534,200.2664077863922,0.006566717398747368,50,1.7508335096464378,1.4062549483309372,100.34097720976918,1.9428499813736797,1.4315528845719936,-0.17243406082511067,0.5027713060782675,181.6857519518769,48.29246348991687,35.12934438131731,-1.8310673650012461,7.505747116213785
GUIDED_NOGPS,4.860278367996216,30.379858324520868,183.7944142304465,51.43102724685745,35.78117935453717,0.3119931069884817,200.21178928091618,0.005220419322930159,50,1.7143182511264918,1.4272902234272842,100.4857635597951,1.679677272238245,1.3777250165238146,-0.6239862139769634,0.5028437641290926,181.17414598516154,46.43432511975135,35.45678763012743,-2.523351980390416,7.219268218648373
GUIDED_NOGPS,4.892703056335449,30.846140834712262,183.48060922529393,49.00241593128135,35.61561863734178,0.5138507889441483,200.16487653585662,0.004064061457502266,50,1.763283984008019,1.4389493563404958,100.79514380844,1.534943960162633,1.0720086429887676,-1.0277015778882965,0.5028768762725316,182.7706428634443,44.863624545589126,36.062335534328554,-2.846495814833446,6.302535746439056
GUIDED_NOGPS,4.933696746826172,24.398964544370436,182.74948502714858,46.530698130462234,35.56765282058097,0.7072874682627197,200.1251926239552,0.0030858879654194205,50,1.731849639178622,1.4640904289016665,101.04875556251174,1.6520897824681138,1.289203690433274,-1.4145749365254394,0.5028864694358838,178.38905131351058,41.889636249062505,35.49513109789625,-0.6097443560248337,5.844169510334397
GUIDED_NOGPS,4.966026306152344,30.93486742633772,182.09774477506727,44.375019236036536,35.611493450103055,0.9478415052300649,200.09223203607556,0.0022734384915019668,50,1.701948138209364,1.5029296592867094,101.2302541793265,1.459969509819318,1.36999237671186,-1.8956830104601299,0.5028777013099794,179.02412288202268,40.39504677586279,35.91386860684571,-0.17323024392840125,5.614986392282068
GUIDED_NOGPS,4.995102167129517,34.405486104275354,181.25384588879896,42.44341592901357,35.826048726467306,1.1168722160990072,200.06546023109624,0.001613537067694626,50,1.705248720404067,1.4871837253723028,101.36116158495895,1.3620374378810667,1.6050538917061874,-2.2337444321980144,0.5028347902547066,179.1345631903699,38.63444695480203,36.20212076313858,-2.932294422375179,5.099324376664327
GUIDED_NOGPS,5.029218435287476,29.31562687839859,180.3334766505506,40.43302849154603,35.85769285944705,1.2356261193844433,200.04431318580131,0.001092281018268526,50,1.5802366217989698,1.505911463746243,101.54483903211894,1.398033211561499,1.6211331235738025,-2.4712522387688867,0.5028284614281106,175.18994786474067,36.382387932413664,35.61500829502611,1.9137559561668809,3.9534087864026803
GUIDED_NOGPS,5.063185453414917,29.447971298383077,179.39580899477832,38.550654005199576,35.89395652581481,1.3745577662090305,200.0281969447727,0.000695029865071195,50,1.500081470402814,1.548453083548256,101.66975636184931,1.3585927198656997,1.6988472747915142,-2.749115532418061,0.502821208694837,177.79824590710453,35.45175211385682,36.243653866167364,0.23912440862252993,3.666929888837269
GUIDED_NOGPS,5.094610691070557,31.835807754197408,178.51360816796867,36.83611905284506,35.95616354683567,1.4948582999754807,200.01648717028198,0.00040639423273747255,50,1.4497843842416633,1.5308211636492794,101.75889716070714,1.287017494004775,1.7682019356260623,-2.9897165999509614,0.5028087672906328,174.62814533739964,33.316961487289966,35.806166203000544,1.0814240715099857,3.20856365273261
GUIDED_NOGPS,5.130659818649292,27.74340860684473,177.67598727625773,35.16701897240919,35.990904582729875,1.5976227184068976,200.00852869218122,0.00021022475391463402,50,1.3912230893499145,1.5911432599647166,101.86082407369123,1.3590426932310593,1.7160275388594186,-3.1952454368137952,0.502801819083454,174.47317885147396,32.04954637368339,36.087573786316746,0.646771468755162,3.2658594322456924
GUIDED_NOGPS,5.162033557891846,31.881301307388263,176.71435964028387,33.578145069999884,36.04037578715465,1.7181965631901503,200.00363505779572,8.960097449106641e-05,50,1.2634034628308246,1.6234839922413153,102.02197555696851,1.209125313758347,1.9292789990905286,-3.4363931263803007,0.5027919248425691,175.07762177565334,30.690077442755523,36.449476785262455,0.9593968391705232,3.0366763141933633
GUIDED_NOGPS,5.203006267547607,24.412455619579767,175.95095643291842,32.09099389459234,36.156223943450726,1.8114713552995778,200.0010880818152,2.682025883737893e-05,50,1.2616660334607026,1.6572710170746643,102.110378695396,1.3663123476470749,1.7420699714232382,-3.6229427105991556,0.5027687552113098,172.28182565458695,28.946632055375918,36.194249076506466,1.703881911277719,2.864788975654116
GUIDED_NOGPS,5.237250328063965,29.214755377242838,175.15386478423997,30.556241192800428,36.17833719888178,1.9225456159648533,200.0001373961854,3.386695010210161e-06,50,1.2570365525856093,1.6265349523661954,102.22335685445718,1.1563320280187326,1.8875663715735123,-3.8450912319297066,0.5027643325602237,172.6473896925952,27.777988604897274,36.3542201433226,4.09559550171592,2.46371851906254
GUIDED_NOGPS,5.273165464401245,27.844892485610533,174.1705573399075,29.14489151217466,36.280556229952865,1.9933803235697256,200.00000000000009,-1.3322676295501878e-15,50,1.2363494036935214,1.664258087152176,102.31293478542189,1.1952667292442025,2.0194350182227216,-3.986760647139451,0.5027438887540094,171.26810363571,26.260213084161126,36.31726135835598,1.6566318598642198,1.8334649444186344
GUIDED_NOGPS,5.305102348327637,31.321111467893335,173.66398930331334,27.752300115810947,36.367274850830086,2.059101444283346,200.0,0.0,50,1.263808151539148,1.6369403186798868,102.38200848849823,1.0484365128619957,1.8322275646638402,-4.118202888566692,0.5027265450298339,171.1374035719874,25.086589391864845,36.52116689070285,2.3656720551334445,1.604281826366305
GUIDED_NOGPS,5.343814134597778,25.83654059381545,172.64677119781547,26.367252034344112,36.3619249469679,2.088308410491326,200.0,0.0,50,1.299662695978601,1.5609732471837123,102.41606381169991,1.1095684750693682,2.106231872911123,-4.176616820982652,0.5027276150106064,169.6605010631215,23.764837035421344,36.422727265951536,5.572520816920985,0.4583662361046586
