E-kp,E-ki,E-kd,E-I-Tot,E-P,E-I,E-D,E-PID,N-kp,N-ki,N-kd,N-I-Tot,N-P,N-I,N-D,N-PID,D-kp,D-ki,D-kd,D-I-Tot,D-P,D-I,D-D,D-PID,Y-kp,Y-ki,Y-kd,Y-I-Tot,Y-P,Y-I,Y-D,Y-PID,errorN,desiredN,actualN,errorE,desiredE,actualE,errorD,desiredD,actualD,errorY,desiredY,actualY,roll,pitch,yaw-rate,thrust,dt,Time,Mode
0.035,0.005,0.05,-0.0030600256122172947,-0.0032449198061912416,-1.5300128061086474e-05,-0.14044839825713323,-0.14370861819138556,0.04,0.006,0.04,-0.0029359769701516702,-0.0035581438209179783,-1.7615861820910023e-05,-0.10780387226336763,-0.11137963194610652,0.002,8e-05,0,-0.004109119033786393,-0.0002489944002988587,-3.287295227029114e-07,-0.0,-0.0002493231298215616,0.1,0.02,0,-0.0030106961931417294,-0.00912174223878119,-6.021392386283459e-05,-0.0,-0.009181956162644025,-0.08895359552294946,0.0,0.08895359552294946,-0.09271199446260689,0.0,0.09271199446260689,-0.12449720014942936,0.0,0.12449720014942936,-0.0912174223878119,0,0.0912174223878119,-0.14388575730860614,0.11115070039660782,0.009181956162644025,0.4,0.033005714416503906,0.03332018852233887,STABILIZE
0.035,0.005,0.05,-0.00671916184690678,-0.0038317642941186184,-3.35958092345339e-05,-0.08276563196517439,-0.08663099206852755,0.04,0.006,0.04,-0.006371334114344977,-0.004111346190821849,-3.8228004686069865e-05,-0.062177663955580754,-0.06632723815108868,0.002,8e-05,0,-0.00933274947929244,-0.0003125752612169145,-7.466199583433953e-07,-0.0,-0.0003133218811752579,0.1,0.02,0,-0.0065650577479282645,-0.010634418945185634,-0.0001313011549585653,-0.0,-0.0107657201001442,-0.10278365477054621,0.0,0.10278365477054621,-0.10947897983196052,0.0,0.10947897983196052,-0.15628763060845727,0.0,0.15628763060845727,-0.10634418945185634,0,0.10634418945185634,-0.0867539498630653,0.06616633200265273,0.0107657201001442,0.4,0.03342318534851074,0.06667065620422363,STABILIZE
0.035,0.005,0.05,-0.010726849957064678,-0.004195084100394101,-5.363424978532339e-05,-0.060351350869253854,-0.06460006921943327,0.04,0.006,0.04,-0.01013981357690012,-0.004508217446492983,-6.0838881461400726e-05,-0.0454082389076852,-0.04997729523563958,0.002,8e-05,0,-0.015395896386689345,-0.0003626659630253555,-1.2316717109351477e-06,-0.0,-0.00036389763473629067,0.1,0.02,0,-0.010414512908290277,-0.011512720903665091,-0.00020829025816580555,-0.0,-0.011721011161830898,-0.11270543616232458,0.0,0.11270543616232458,-0.11985954572554572,0.0,0.11985954572554572,-0.18133298151267774,0.0,0.18133298151267774,-0.11512720903665091,0,0.11512720903665091,-0.06470036056209066,0.0498473903565805,0.011721011161830898,0.4,0.03343653678894043,0.10010647773742676,STABILIZE
0.035,0.005,0.05,-0.015150323744587083,-0.004625693873414254,-7.575161872293542e-05,-0.04985836207396474,-0.05455980756610193,0.04,0.006,0.04,-0.014317665660896008,-0.00499296402194348,-8.590599396537606e-05,-0.037676942557380584,-0.04275581257328944,0.002,8e-05,0,-0.022482639347120963,-0.00042346942786391763,-1.7986111477696771e-06,-0.0,-0.0004252680390116873,0.1,0.02,0,-0.014690743529767503,-0.012776341295302435,-0.0002938148705953501,-0.0,-0.013070156165897786,-0.12482410054858699,0.0,0.12482410054858699,-0.1321626820975501,0.0,0.1321626820975501,-0.2117347139319588,0.0,0.2117347139319588,-0.12776341295302435,0,0.12776341295302435,-0.05465501269382585,0.0426340438838502,0.013070156165897786,0.4,0.03346991539001465,0.13357234001159668,STABILIZE
0.035,0.005,0.05,-0.019812130322962085,-0.004879336279814484,-9.906065161481043e-05,-0.04205385614603278,-0.047032253077462075,0.04,0.006,0.04,-0.018743863832088255,-0.005294553015692542,-0.00011246318299252953,-0.03194533559227349,-0.03735235179095856,0.002,8e-05,0,-0.030375191882391413,-0.0004720477508113021,-2.4300153505913133e-06,-0.0,-0.0004744777661618934,0.1,0.02,0,-0.01923101334429588,-0.013577509585440645,-0.0003846202668859176,-0.0,-0.013962129852326564,-0.13236382539231356,0.0,0.13236382539231356,-0.13940960799469954,0.0,0.13940960799469954,-0.23602387540565103,0.0,0.23602387540565103,-0.13577509585440645,0,0.13577509585440645,-0.04712063564503791,0.037240793630984134,0.013962129852326564,0.4,0.03343963623046875,0.1670234203338623,STABILIZE
0.035,0.005,0.05,-0.024996663566857365,-0.005413177797333594,-0.00012498331783428684,-0.018514254958935477,-0.02405241607410336,0.04,0.006,0.04,-0.023435696814262837,-0.005598570083774331,-0.00014061418088557703,-0.012198416053858456,-0.017937600318518362,0.002,8e-05,0,-0.04031410095394017,-0.000592984439181127,-3.2251280763152136e-06,-0.0,-0.0005962095672574422,0.1,0.02,0,-0.02422645739342633,-0.014902141505721223,-0.0004845291478685266,-0.0,-0.01538667065358975,-0.13996425209435828,0.0,0.13996425209435828,-0.1546622227809598,0.0,0.1546622227809598,-0.2964922195905635,0.0,0.2964922195905635,-0.14902141505721223,0,0.14902141505721223,-0.024098988829242426,0.017874981443255947,0.01538667065358975,0.4,0.03352165222167969,0.20055413246154785,STABILIZE
0.035,0.005,0.05,-0.03039122795713076,-0.005638968833316794,-0.0001519561397856538,-0.015424381039581029,-0.021215306012683476,0.04,0.006,0.04,-0.02831746887578924,-0.005831936109813141,-0.00016990481325473546,-0.010282061118889008,-0.016283902041956885,0.002,8e-05,0,-0.05123677994942869,-0.0006524307694711331,-4.098942395954296e-06,-0.0,-0.0006565297118670874,0.1,0.02,0,-0.029453303527978706,-0.015610434248235931,-0.0005890660705595741,-0.0,-0.016199500318795506,-0.14579840274532851,0.0,0.14579840274532851,-0.1611133952376227,0.0,0.1611133952376227,-0.32621538473556655,0.0,0.32621538473556655,-0.1561043424823593,0,0.1561043424823593,-0.02125959327331181,0.016226039836546885,0.016199500318795506,0.4,0.033483028411865234,0.23405003547668457,STABILIZE
0.035,0.005,0.05,-0.03586015598309618,-0.005726610323661047,-0.0001793007799154809,-0.01306897383120482,-0.018974884934781347,0.04,0.006,0.04,-0.033228859055019024,-0.005877488776148705,-0.00019937315433011415,-0.008180749040909667,-0.014257610971388487,0.002,8e-05,0,-0.0629453845575521,-0.0007005877120049989,-5.035630764604168e-06,-0.0,-0.0007056233427696031,0.1,0.02,0,-0.03476338362089634,-0.015886508202178976,-0.0006952676724179269,-0.0,-0.016581775874596902,-0.14693721940371762,0.0,0.14693721940371762,-0.16361743781888705,0.0,0.16361743781888705,-0.35029385600249946,0.0,0.35029385600249946,-0.15886508202178976,0,0.15886508202178976,-0.019014344290246423,0.014204944213604737,0.016581775874596902,0.4,0.033425092697143555,0.2674534320831299,STABILIZE
0.035,0.005,0.05,-0.04147412852670278,-0.005874759504604067,-0.00020737064263351388,-0.010658655377068305,-0.016740785524305885,0.04,0.006,0.04,-0.03826707333165151,-0.006025434773270433,-0.00022960243998990906,-0.0061688158331460905,-0.012423853046406433,0.002,8e-05,0,-0.07567560897129964,-0.0007612333720093382,-6.054048717703972e-06,-0.0,-0.0007672874207270421,0.1,0.02,0,-0.040096221443826845,-0.01594447193697692,-0.0008019244288765369,-0.0,-0.01674639636585346,-0.15063586933176082,0.0,0.15063586933176082,-0.1678502715601162,0.0,0.1678502715601162,-0.3806166860046691,0.0,0.3806166860046691,-0.1594447193697692,0,0.1594447193697692,-0.016775294195125138,0.012377218150962384,0.01674639636585346,0.4,0.033446311950683594,0.30090928077697754,STABILIZE
0.035,0.005,0.05,-0.04719190263663918,-0.005984833502417787,-0.0002359595131831959,-0.009432021223950284,-0.01565281423955127,0.04,0.006,0.04,-0.04324347450081924,-0.005952952393424559,-0.0002594608470049154,-0.003931503968463956,-0.01014391720889343,0.002,8e-05,0,-0.08931816585462946,-0.0008159861804774015,-7.145453268370357e-06,-0.0,-0.0008231316337457718,0.1,0.02,0,-0.0455146844473182,-0.016204407165344614,-0.0009102936889463641,-0.0,-0.01711470085429098,-0.14882380983561397,0.0,0.14882380983561397,-0.17099524292622248,0.0,0.17099524292622248,-0.40799309023870073,0.0,0.40799309023870073,-0.16204407165344611,0,0.16204407165344611,-0.015681440652889667,0.010099607369035816,0.01711470085429098,0.4,0.03343820571899414,0.33435606956481934,STABILIZE
0.035,0.005,0.05,-0.05295582816066949,-0.00603563652590722,-0.0002647791408033474,-0.005316211119408778,-0.011616626786119345,0.04,0.006,0.04,-0.04817638289425671,-0.005903366071167645,-0.00028905829736554026,-0.0018209415248350842,-0.00801336589336827,0.002,8e-05,0,-0.10373076145628804,-0.0008624002422737248,-8.298460916503043e-06,-0.0,-0.0008706987031902278,0.1,0.02,0,-0.05091538914077038,-0.016157981410184055,-0.0010183077828154075,-0.0,-0.01717628919299946,-0.14758415177919113,0.0,0.14758415177919113,-0.1724467578830634,0.0,0.1724467578830634,-0.4312001211368624,0.0,0.4312001211368624,-0.16157981410184055,0,0.16157981410184055,-0.011639179054135664,0.007980574025391466,0.01717628919299946,0.4,0.03342437744140625,0.3677794933319092,STABILIZE
0.035,0.005,0.05,-0.05892333894563923,-0.0062467690814220185,-0.0002946166947281962,-0.005193698098051535,-0.01173508387420175,0.04,0.006,0.04,-0.05302093266399687,-0.005795722836155748,-0.00031812559598398124,0.00021688356033075265,-0.005896964871808977,0.002,8e-05,0,-0.1200968422396693,-0.0009789688685528765,-9.607747379173545e-06,-0.0,-0.00098857661593205,0.1,0.02,0,-0.05633261808462928,-0.016202102873788246,-0.0011266523616925855,-0.0,-0.01732875523548083,-0.1448930709038937,0.0,0.1448930709038937,-0.17847911661205765,0.0,0.17847911661205765,-0.4894844342764383,0.0,0.4894844342764383,-0.16202102873788246,0,0.16202102873788246,-0.011751712372149031,0.005863756863664999,0.01732875523548083,0.4,0.03343534469604492,0.40122056007385254,STABILIZE
0.035,0.005,0.05,-0.06505675818022745,-0.006293923883667772,-0.0003252837909011373,-0.004839558102568591,-0.0114587657771375,0.04,0.006,0.04,-0.057986925310454185,-0.005823939498523384,-0.0003479215518627251,0.0003239917559876639,-0.005847869294398445,0.002,8e-05,0,-0.1376144035369018,-0.001027198632981644,-1.1009152282952145e-05,-0.0,-0.0010382077852645962,0.1,0.02,0,-0.061901683334512264,-0.016328003980123466,-0.0012380336666902453,-0.0,-0.01756603764681371,-0.1455984874630846,0.0,0.1455984874630846,-0.17982639667622202,0.0,0.17982639667622202,-0.513599316490822,0.0,0.513599316490822,-0.16328003980123465,0,0.16328003980123465,-0.011475384332679518,0.005815190696525714,0.01756603764681371,0.4,0.03410744667053223,0.43531346321105957,STABILIZE
0.035,0.005,0.05,-0.07099457813827195,-0.006211658103782577,-0.00035497289069135975,-0.002871469401487009,-0.009438100395960946,0.04,0.006,0.04,-0.06267111014937778,-0.0056002380710007335,-0.00037602666089626665,0.0025459149966744177,-0.003430349735222582,0.002,8e-05,0,-0.1554603577338111,-0.0010667981254325683,-1.2436828618704888e-05,-0.0,-0.0010792349540512732,0.1,0.02,0,-0.06731181344336641,-0.016170378436451027,-0.0013462362688673281,-0.0,-0.017516614705318356,-0.14000595177501834,0.0,0.14000595177501834,-0.17747594582235934,0.0,0.17747594582235934,-0.5333990627162841,0.0,0.5333990627162841,-0.16170378436451027,0,0.16170378436451027,-0.009447744145770697,0.0034036993031458167,0.017516614705318356,0.4,0.033457040786743164,0.46880602836608887,STABILIZE
0.035,0.005,0.05,-0.07689249659797791,-0.00617462455643657,-0.00038446248298988953,-0.0016144390334687016,-0.00817352607289516,0.04,0.006,0.04,-0.0671901331526345,-0.005406899419107321,-0.000403140798915807,0.003269009289322712,-0.002541030928700416,0.002,8e-05,0,-0.17414950816061683,-0.0011180553464043166,-1.3931960652849348e-05,-0.0,-0.001131987307057166,0.1,0.02,0,-0.0727048118399816,-0.01613147348270364,-0.0014540962367996322,0.0,-0.017585569719503272,-0.135172485477683,0.0,0.135172485477683,-0.17641784446961625,0.0,0.17641784446961625,-0.5590276732021583,0.0,0.5590276732021583,-0.1613147348270364,0,0.1613147348270364,-0.008180647872764348,0.002518008543818955,0.017585569719503272,0.4,0.0334315299987793,0.5022494792938232,STABILIZE
0.035,0.005,0.05,-0.08277137682406277,-0.006149824914115725,-0.00041385688412031384,-0.0009683943193056279,-0.007532076117541667,0.04,0.006,0.04,-0.07156770556294849,-0.00523351441809684,-0.00042940623337769094,0.004008735675393837,-0.001654184976080694,0.002,8e-05,0,-0.19368142556460555,-0.0011675486064606254,-1.5494514045168446e-05,-0.0,-0.0011830431205057939,0.1,0.02,0,-0.07804261856991347,-0.01595375579413262,-0.0015608523713982695,0.0,-0.01751460816553089,-0.130837860452421,0.0,0.130837860452421,-0.17570928326044927,0.0,0.17570928326044927,-0.5837743032303128,0.0,0.5837743032303128,-0.1595375579413262,0,0.1595375579413262,-0.007536652917517755,0.001633205858550523,0.01751460816553089,0.4,0.03345799446105957,0.5356850624084473,STABILIZE
0.035,0.005,0.05,-0.0886469258185342,-0.006148530846501451,-0.000443234629092671,0.0008468464937494246,-0.0057449189818446975,0.04,0.006,0.04,-0.07582376939759577,-0.005090060967021363,-0.00045494261638557464,0.0042226661694322555,-0.0013223374139746816,0.002,8e-05,0,-0.2143119010621649,-0.0012336560510014085,-1.7144952084973195e-05,-0.0,-0.0012508010030863816,0.1,0.02,0,-0.08334811044335196,-0.01586282428143862,-0.0016669622088670392,0.0,-0.01752978649030566,-0.12725152417553406,0.0,0.12725152417553406,-0.17567230990004143,0.0,0.17567230990004143,-0.6168280255007043,0.0,0.6168280255007043,-0.1586282428143862,0,0.1586282428143862,-0.005748557963290069,0.0013064270691665507,0.01752978649030566,0.4,0.03344607353210449,0.5691416263580322,STABILIZE
0.035,0.005,0.05,-0.09445309016822676,-0.006028351669001001,-0.00047226545084113377,0.002260454026386935,-0.0042401630934552,0.04,0.006,0.04,-0.07995926427315668,-0.0049071427112368894,-0.00047975558563894007,0.005473369816898689,8.647152002285927e-05,0.002,8e-05,0,-0.235503438546868,-0.0012572848212495944,-1.8840275083749442e-05,-0.0,-0.0012761250963333438,0.1,0.02,0,-0.08844191442019858,-0.015110660156520067,-0.0017688382884039717,0.0,-0.01687949844492404,-0.12267856778092223,0.0,0.12267856778092223,-0.1722386191143143,0.0,0.1722386191143143,-0.6286424106247972,0.0,0.6286424106247972,-0.15110660156520067,0,0.15110660156520067,-0.004239920295722661,-9.765382119352467e-05,0.01687949844492404,0.4,0.03371000289916992,0.6028404235839844,STABILIZE
0.035,0.005,0.05,-0.10000269721718472,-0.005807528222179333,-0.0005000134860859236,0.0034443451375327783,-0.0028631965707324788,0.04,0.006,0.04,-0.08387775558485829,-0.004686406222549101,-0.0005032665335091498,0.005456097462359584,0.00026642470630133287,0.002,8e-05,0,-0.25771352312524465,-0.001328132057618972,-2.0617081850019573e-05,-0.0,-0.0013487491394689915,0.1,0.02,0,-0.09335700424884506,-0.014695775570926405,-0.0018671400849769014,0.0,-0.016562915655903305,-0.11716015556372754,0.0,0.11716015556372754,-0.16592937777655237,0.0,0.16592937777655237,-0.664066028809486,0.0,0.664066028809486,-0.14695775570926403,0,0.14695775570926403,-0.002862503801588732,-0.0002737676253175943,0.016562915655903305,0.4,0.03344559669494629,0.6363599300384521,STABILIZE
0.035,0.005,0.05,-0.10548068236771145,-0.005729351139981624,-0.0005274034118385573,0.0037953112741041977,-0.0024614432777159837,0.04,0.006,0.04,-0.0875726770690153,-0.004416535753971413,-0.0005254360624140918,0.005912352284053168,0.0009703804676676631,0.002,8e-05,0,-0.2806720118060393,-0.0013721128656000515,-2.2453760944483145e-05,-0.0,-0.0013945666265445346,0.1,0.02,0,-0.09823213346289683,-0.01456809202266615,-0.0019646426692579368,0.0,-0.016532734691924088,-0.11041339384928534,0.0,0.11041339384928534,-0.1636957468566178,0.0,0.1636957468566178,-0.6860564328000257,0.0,0.6860564328000257,-0.1456809202266615,0,0.1456809202266615,-0.002458968023172617,-0.0009766358187465118,0.016532734691924088,0.4,0.03346443176269531,0.6697685718536377,STABILIZE
0.035,0.005,0.05,-0.11080750409542497,-0.0055747067418124045,-0.0005540375204771249,0.004904684428836719,-0.0012240598334528107,0.04,0.006,0.04,-0.09111197829723712,-0.004233146877513331,-0.0005466718697834227,0.005972620796140323,0.0011928020488435687,0.002,8e-05,0,-0.30400859398590147,-0.0013955746292347718,-2.432068751887212e-05,-0.0,-0.001419895316753644,0.1,0.02,0,-0.10296968666847256,-0.014165761308561937,-0.002059393733369451,0.0,-0.016225155041931387,-0.10582867193783328,0.0,0.10582867193783328,-0.1592773354803544,0.0,0.1592773354803544,-0.6977873146173859,0.0,0.6977873146173859,-0.14165761308561936,0,0.14165761308561936,-0.0012211070213355504,-0.0011958247555737243,0.016225155041931387,0.4,0.03344368934631348,0.703209400177002,STABILIZE
0.035,0.005,0.05,-0.1160136234379421,-0.005449475214074607,-0.0005800681171897105,0.005963714503777569,-6.582882748674794e-05,0.04,0.006,0.04,-0.09451084009319277,-0.004065987272622624,-0.0005670650405591567,0.006114649105819685,0.001481596792637904,0.002,8e-05,0,-0.32792104699357516,-0.0014302983678547954,-2.6233683759486017e-05,-0.0,-0.0014565320516142814,0.1,0.02,0,-0.10759591142874216,-0.013835639785302726,-0.002151918228574843,0.0,-0.015987558013877568,-0.1016496818155656,0.0,0.1016496818155656,-0.15569929183070302,0.0,0.15569929183070302,-0.7151491839273977,0.0,0.7151491839273977,-0.13835639785302725,0,0.13835639785302725,-6.225091660905901e-05,-0.0014817514345748198,0.015987558013877568,0.4,0.03343701362609863,0.7366414070129395,STABILIZE
0.035,0.005,0.05,-0.12109261387669044,-0.005315645720330362,-0.0006054630693834522,0.006088507475680967,0.00016739868596715203,0.04,0.006,0.04,-0.09783659475589473,-0.003977963450551304,-0.0005870195685353685,0.005555833159920155,0.0009908501408334826,0.002,8e-05,0,-0.35241554645791195,-0.0014649039615194904,-2.8193243716632958e-05,-0.0,-0.0014930972052361233,0.1,0.02,0,-0.11210483708263284,-0.013482910851471366,-0.002242096741652657,0.0,-0.015725007593124025,-0.09944908626378259,0.0,0.09944908626378259,-0.1518755920094389,0.0,0.1518755920094389,-0.7324519807597452,0.0,0.7324519807597452,-0.13482910851471366,0,0.13482910851471366,0.00016972990063528635,-0.0009904534731543918,0.015725007593124025,0.4,0.033441781997680664,0.7700824737548828,STABILIZE
0.035,0.005,0.05,-0.12611208668374177,-0.005251295756397748,-0.0006305604334187089,0.0047516552778748096,-0.0011302009119416468,0.04,0.006,0.04,-0.1010412473810128,-0.0038316098415459568,-0.0006062474842860768,0.005110790679026283,0.0006729333531942496,0.002,8e-05,0,-0.37734683453484996,-0.0014904418658245931,-3.0187746762788e-05,-0.0,-0.0015206296125873811,0.1,0.02,0,-0.11656315724637814,-0.013326361242928693,-0.0023312631449275627,0.0,-0.015657624387856256,-0.09579024603864891,0.0,0.09579024603864891,-0.1500370216113642,0.0,0.1500370216113642,-0.7452209329122965,0.0,0.7452209329122965,-0.13326361242928692,0,0.13326361242928692,-0.0011286326881410162,-0.0006755602522755244,0.015657624387856256,0.4,0.03345489501953125,0.8035776615142822,STABILIZE
0.035,0.005,0.05,-0.1308503022820872,-0.0049300655073081495,-0.0006542515114104359,0.0068126550417506445,0.0012283380230320587,0.04,0.006,0.04,-0.10389291146976731,-0.0033910030886026895,-0.0006233574688186039,0.006117607700069635,0.002103247142648342,0.002,8e-05,0,-0.40331802911789427,-0.0015441580478062081,-3.226544232943154e-05,-0.0,-0.0015764234901356397,0.1,0.02,0,-0.1208855807403137,-0.01284982291215972,-0.0024177116148062744,0.0,-0.015267534526965994,-0.08477507721506723,0.0,0.08477507721506723,-0.14085901449451854,0.0,0.14085901449451854,-0.772079023903104,0.0,0.772079023903104,-0.1284982291215972,0,0.1284982291215972,0.0012330519184469203,-0.0021004870407358126,0.015267534526965994,0.4,0.03363800048828125,0.8371744155883789,STABILIZE
0.035,0.005,0.05,-0.13544859912284962,-0.004810633612459318,-0.0006772429956142482,0.006511480496765015,0.0010236038886914482,0.04,0.006,0.04,-0.10650812362515703,-0.0031268291429507244,-0.0006390487417509422,0.006600178277926936,0.0028343003932252693,0.002,8e-05,0,-0.42966043058310194,-0.0015747898010294446,-3.437283444664816e-05,-0.0,-0.0016091626354760929,0.1,0.02,0,-0.125159819258649,-0.012776031894305066,-0.00250319638517298,0.0,-0.015279228279478045,-0.07817072857376811,0.0,0.07817072857376811,-0.1374466746416948,0.0,0.1374466746416948,-0.7873949005147223,0.0,0.7873949005147223,-0.12776031894305065,0,0.12776031894305065,0.0010299213700253125,-0.0028320108777238747,0.015279228279478045,0.4,0.03345513343811035,0.870633602142334,STABILIZE
0.035,0.005,0.05,-0.14001714925900843,-0.004778627857098489,-0.0007000857462950422,0.005714681440101195,0.0002359678367076642,0.04,0.006,0.04,-0.1089647712752085,-0.002936700339929311,-0.0006537886276512509,0.006736739625547228,0.003146250657966666,0.002,8e-05,0,-0.45651372673339685,-0.0016050344853308796,-3.652109813867175e-05,-0.0,-0.0016415555834695514,0.1,0.02,0,-0.12937471058033195,-0.012596304538109207,-0.002587494211606639,0.0,-0.015183798749715847,-0.07341750849823277,0.0,0.07341750849823277,-0.13653222448852825,0.0,0.13653222448852825,-0.8025172426654398,0.0,0.8025172426654398,-0.12596304538109207,0,0.12596304538109207,0.00024288419818723788,-0.003145724286867353,0.015183798749715847,0.4,0.03346133232116699,0.9041156768798828,STABILIZE
0.035,0.005,0.05,-0.14468547707218138,-0.004687090140436148,-0.0007234273853609069,0.00532154136903476,-8.897615676229428e-05,0.04,0.006,0.04,-0.11143275255827208,-0.002831886020389084,-0.0006685965153496325,0.006811655558010725,0.0033111730222720086,0.002,8e-05,0,-0.4845876744948055,-0.0016106730782005343,-3.876701395958444e-05,-0.0,-0.0016494400921601188,0.1,0.02,0,-0.13369663359943387,-0.012397980348335128,-0.0026739326719886773,0.0,-0.015071913020323804,-0.0707971505097271,0.0,0.0707971505097271,-0.13391686115531848,0.0,0.13391686115531848,-0.8053365391002671,0.0,0.8053365391002671,-0.12397980348335128,0,0.12397980348335128,-8.181105317633877e-05,-0.0033113578017895185,0.015071913020323804,0.4,0.03485989570617676,0.9389679431915283,STABILIZE
0.035,0.005,0.05,-0.14899224739889935,-0.004502340342784776,-0.0007449612369944968,0.006348621521802819,0.0011013199420235468,0.04,0.006,0.04,-0.11360950292334991,-0.0026006815824210737,-0.0006816570175400995,0.0073178869817663765,0.004035548381805204,0.002,8e-05,0,-0.5118622657028905,-0.001629321583239845,-4.0948981256231246e-05,-0.0,-0.0016702705644960764,0.1,0.02,0,-0.13782611035712963,-0.01233427397219163,-0.0027565222071425925,0.0,-0.015090796179334223,-0.06501703956052685,0.0,0.06501703956052685,-0.12863829550813644,0.0,0.12863829550813644,-0.8146607916199226,0.0,0.8146607916199226,-0.1233427397219163,0,0.1233427397219163,0.0011100048573842406,-0.00403316818062088,0.015090796179334223,0.4,0.03347969055175781,0.9724605083465576,STABILIZE
0.035,0.005,0.05,-0.15311545698897655,-0.004315853393114144,-0.0007655772849448827,0.005213626623463379,0.0001321959454043519,0.04,0.006,0.04,-0.1155915745176017,-0.0023710600696071676,-0.0006935494471056102,0.006071618212857007,0.0030070086961442293,0.002,8e-05,0,-0.539385785229534,-0.0016462553197860775,-4.315086281836272e-05,-0.0,-0.0016894061826044403,0.1,0.02,0,-0.14192963861436017,-0.012272150036660106,-0.0028385927722872034,0.0,-0.01511074280894731,-0.05927650174017919,0.0,0.05927650174017919,-0.12331009694611839,0.0,0.12331009694611839,-0.8231276598930387,0.0,0.8231276598930387,-0.12272150036660105,0,0.12272150036660105,0.00013863633186048718,-0.0030067186489854078,0.01511074280894731,0.4,0.03343772888183594,1.005894422531128,STABILIZE
0.035,0.005,0.05,-0.15711827491669456,-0.004187418378186092,-0.0007855913745834728,0.005290452741803159,0.000317442989033594,0.04,0.006,0.04,-0.1171979857026723,-0.0019205657730579904,-0.0007031879142160338,0.007185316767153507,0.004561563079879483,0.002,8e-05,0,-0.5687007071908846,-0.0017523917998728807,-4.5496056575270774e-05,-0.0,-0.0017978878564481515,0.1,0.02,0,-0.14582010738324977,-0.011628251266116586,-0.0029164021476649955,0.0,-0.014544653413781581,-0.04801414432644976,0.0,0.04801414432644976,-0.1196405250910312,0.0,0.1196405250910312,-0.8761958999364403,0.0,0.8761958999364403,-0.11628251266116585,0,0.11628251266116585,0.000326700079157983,-0.004560909431383651,0.014544653413781581,0.4,0.033457040786743164,1.0393693447113037,STABILIZE
0.035,0.005,0.05,-0.16103996656591626,-0.004106882130876526,-0.0008051998328295814,0.005705651490885491,0.0007935695271793835,0.04,0.006,0.04,-0.11861718534953179,-0.0016985339684040992,-0.0007117031120971907,0.007377574072870965,0.004967336992369675,0.002,8e-05,0,-0.5982919679303058,-0.001770778397705787,-4.786335743442447e-05,-0.0,-0.0018186417551402114,0.1,0.02,0,-0.14956433190786586,-0.011202956107101064,-0.0029912866381573175,0.0,-0.014194242745258382,-0.04246334921010248,0.0,0.04246334921010248,-0.11733948945361501,0.0,0.11733948945361501,-0.8853891988528935,0.0,0.8853891988528935,-0.11202956107101063,0,0.11202956107101063,0.0008032805620502979,-0.004965775843598266,0.014194242745258382,0.4,0.03342175483703613,1.0727720260620117,STABILIZE
0.035,0.005,0.05,-0.1648832164978171,-0.004020835320616887,-0.0008244160824890855,0.005690281448738304,0.0008450300456323313,0.04,0.006,0.04,-0.12002501179795513,-0.0016832891535388645,-0.0007201500707877308,0.006867366403988003,0.0044639271796614085,0.002,8e-05,0,-0.627893120810117,-0.0017696534835893512,-5.023144966480936e-05,-0.0,-0.0018198849332541605,0.1,0.02,0,-0.15328079627774624,-0.011109118191271729,-0.003065615925554925,0.0,-0.014174734116826654,-0.04208222883847161,0.0,0.04208222883847161,-0.11488100916048247,0.0,0.11488100916048247,-0.8848267417946756,0.0,0.8848267417946756,-0.11109118191271727,0,0.11109118191271727,0.0008536835910081515,-0.004462280355354722,0.014174734116826654,0.4,0.033454179763793945,1.1062312126159668,STABILIZE
0.035,0.005,0.05,-0.16857260024076934,-0.003855984669231967,-0.0008428630012038467,0.0055201224184131745,0.0008212747479773609,0.04,0.006,0.04,-0.12140903935357146,-0.0016531724252464872,-0.0007284542361214287,0.0056660709524788315,0.003284444291110916,0.002,8e-05,0,-0.6574486343911123,-0.0017651512741862082,-5.259589075128899e-05,-0.0,-0.0018177471649374972,0.1,0.02,0,-0.15685059277403135,-0.01065999211405158,-0.003137011855480627,0.0,-0.013797003969532208,-0.04132931063116218,0.0,0.04132931063116218,-0.11017099054948476,0.0,0.11017099054948476,-0.882575637093104,0.0,0.882575637093104,-0.10659992114051581,0,0.10659992114051581,0.0008273840960167334,-0.003282910609616859,0.013797003969532208,0.4,0.033487796783447266,1.1397247314453125,STABILIZE
0.035,0.005,0.05,-0.1721118403250393,-0.0037058152486019015,-0.0008605592016251965,0.005210222195245161,0.0006438477450180623,0.04,0.006,0.04,-0.12276415652856135,-0.0016215955228966142,-0.000736584939171368,0.004481575134330396,0.002123394672262414,0.002,8e-05,0,-0.6870567457137468,-0.001771521372776004,-5.4964539657099746e-05,-0.0,-0.0018264859124331038,0.1,0.02,0,-0.16027814916593983,-0.010253928963072784,-0.0032055629833187965,0.0,-0.01345949194639158,-0.040539888072415355,0.0,0.040539888072415355,-0.10588043567434004,0.0,0.10588043567434004,-0.885760686388002,0.0,0.885760686388002,-0.10253928963072782,0,0.10253928963072782,0.0006476468414074999,-0.0021222390114622194,0.01345949194639158,0.4,0.033426761627197266,1.1731419563293457,STABILIZE
0.035,0.005,0.05,-0.1755529273921186,-0.003601989288185267,-0.0008777646369605931,0.005000611084229416,0.0005208571590835558,0.04,0.006,0.04,-0.12406053592180796,-0.0015508536681650695,-0.0007443632155308478,0.0022117446145115097,-8.347226918440764e-05,0.002,8e-05,0,-0.7165855530208752,-0.0017662599146270122,-5.732684424167002e-05,-0.0,-0.0018235867588686822,0.1,0.02,0,-0.16359854645663297,-0.009930446181230757,-0.003271970929132659,0.0,-0.013202417110363416,-0.03877134170412674,0.0,0.03877134170412674,-0.10291397966243619,0.0,0.10291397966243619,-0.8831299573135061,0.0,0.8831299573135061,-0.09930446181230757,0,0.09930446181230757,0.0005207117035552969,8.437488768542068e-05,0.013202417110363416,0.4,0.03343653678894043,1.2065730094909668,STABILIZE
0.035,0.005,0.05,-0.17884805763324502,-0.003449699609056369,-0.0008942402881662251,0.005613623416399781,0.001269683519177187,0.04,0.006,0.04,-0.12502121926245705,-0.0011494256943348417,-0.0007501273155747423,0.0032845544246396375,0.0013850014147300535,0.002,8e-05,0,-0.7470823867274884,-0.001824422407208269,-5.9766590938199074e-05,-0.0,-0.0018841889981464682,0.1,0.02,0,-0.16655267959684253,-0.008836305346850041,-0.0033310535919368507,0.0,-0.012167358938786892,-0.028735642358371043,0.0,0.028735642358371043,-0.0985628459730391,0.0,0.0985628459730391,-0.9122112036041345,0.0,0.9122112036041345,-0.0883630534685004,0,0.0883630534685004,0.0012718179938806693,-0.001383041629205631,0.012167358938786892,0.4,0.0334317684173584,1.240015983581543,STABILIZE
0.035,0.005,0.05,-0.1820744755905703,-0.0033778845871631504,-0.0009103723779528515,0.005492510351639307,0.0012042533865233053,0.04,0.006,0.04,-0.1257386409761396,-0.0008584018495159382,-0.0007544318458568377,0.004934479829361732,0.0033216461339889564,0.002,8e-05,0,-0.7776245310102567,-0.0018271981904433455,-6.220996248082055e-05,-0.0,-0.001889408152924166,0.1,0.02,0,-0.16928628811846355,-0.008176970971393934,-0.003385725762369271,0.0,-0.011562696733763205,-0.021460046237898454,0.0,0.021460046237898454,-0.09651098820466143,0.0,0.09651098820466143,-0.9135990952216727,0.0,0.9135990952216727,-0.08176970971393933,0,0.08176970971393933,0.0012089926480094062,-0.003319924100857704,0.011562696733763205,0.4,0.03343057632446289,1.2734525203704834,STABILIZE
0.035,0.005,0.05,-0.18522789265626116,-0.0032853366317285365,-0.0009261394632813059,0.004873121011830492,0.0006616449168206492,0.04,0.006,0.04,-0.1263210912160858,-0.0006935044274075909,-0.0007579265472965149,0.005736302748719324,0.004284871774015218,0.002,8e-05,0,-0.8083272461025995,-0.001827835872463539,-6.466617968820796e-05,-0.0,-0.001892502052151747,0.1,0.02,0,-0.1719388099989999,-0.007895677354847292,-0.0034387761999799984,0.0,-0.011334453554827291,-0.017337610685189773,0.0,0.017337610685189773,-0.09386676090652961,0.0,0.09386676090652961,-0.9139179362317695,0.0,0.9139179362317695,-0.07895677354847293,0,0.07895677354847293,0.0006675490785303378,-0.004283955922212579,0.011334453554827291,0.4,0.033594608306884766,1.3070571422576904,STABILIZE
0.035,0.005,0.05,-0.1883090172498732,-0.0032218870854280614,-0.0009415450862493661,0.004131170695741693,-3.2261475935733974e-05,0.04,0.006,0.04,-0.12688865403283944,-0.0006782767613984319,-0.0007613319241970367,0.005638361444528132,0.004198752758932663,0.002,8e-05,0,-0.8396672067003967,-0.0018726708611934584,-6.717337653603174e-05,-0.0,-0.0019398442377294902,0.1,0.02,0,-0.1745743417019513,-0.007874105981191853,-0.003491486834039026,0.0,-0.011365592815230878,-0.0169569190349608,0.0,0.0169569190349608,-0.09205391672651603,0.0,0.09205391672651603,-0.9363354305967292,0.0,0.9363354305967292,-0.07874105981191852,0,0.07874105981191852,-2.6491140207294045e-05,-0.004198793130527476,0.011365592815230878,0.4,0.033470869064331055,1.3405277729034424,STABILIZE
0.035,0.005,0.05,-0.19128751847519226,-0.0031183959356532614,-0.0009564375923759613,0.004128486342636841,5.3652814607618726e-05,0.04,0.006,0.04,-0.12750928200414902,-0.0007426031116715473,-0.0007650556920248941,0.004830376745632458,0.0033227179419360164,0.002,8e-05,0,-0.8706513970930131,-0.0018536834675393096,-6.965211176744105e-05,-0.0,-0.0019233355793067508,0.1,0.02,0,-0.17719704460999164,-0.007845389792821915,-0.003543940892199833,0.0,-0.011389330685021747,-0.018565077791788683,0.0,0.018565077791788683,-0.08909702673295032,0.0,0.08909702673295032,-0.9268417337696548,0.0,0.9268417337696548,-0.07845389792821915,0,0.07845389792821915,5.820249022393096e-05,-0.0033226413613735937,0.011389330685021747,0.4,0.033429861068725586,1.3739607334136963,STABILIZE
0.035,0.005,0.05,-0.19421488639501608,-0.0030628950083432895,-0.0009710744319750804,0.003301033948684109,-0.0007329354916342616,0.04,0.006,0.04,-0.12791387244811775,-0.00048379610633972586,-0.0007674832346887065,0.003976265625028885,0.002724986284000453,0.002,8e-05,0,-0.9016022369520681,-0.0018505004301228607,-7.212817895616545e-05,-0.0,-0.0019226286090790262,0.1,0.02,0,-0.17960593880301073,-0.007201193506544153,-0.003592118776060215,0.0,-0.010793312282604368,-0.012094902658493147,0.0,0.012094902658493147,-0.08751128595266541,0.0,0.08751128595266541,-0.9252502150614303,0.0,0.9252502150614303,-0.07201193506544153,0,0.07201193506544153,-0.0007295100272536036,-0.0027259053180593417,0.010793312282604368,0.4,0.03345131874084473,1.4074163436889648,STABILIZE
0.035,0.005,0.05,-0.19685713395657564,-0.002767020017515808,-0.0009842856697828781,0.005216629004343375,0.0014653233170446888,0.04,0.006,0.04,-0.12815657811415415,-0.0002904762687893801,-0.0007689394686849249,0.0033920520558796676,0.0023326363184053628,0.002,8e-05,0,-0.932006833351795,-0.001819449430347338,-7.45605466681436e-05,0.0,-0.0018940099770154816,0.1,0.02,0,-0.181811745695703,-0.0065999134499302,-0.00363623491391406,0.0,-0.010236148363844259,-0.007261906719734502,0.0,0.007261906719734502,-0.07905771478616594,0.0,0.07905771478616594,-0.9097247151736689,0.0,0.9097247151736689,-0.06599913449930199,0,0.06599913449930199,0.001468009313205538,-0.0023309468620627927,0.010236148363844259,0.4,0.03342175483703613,1.4408226013183594,STABILIZE
0.035,0.005,0.05,-0.19934348347652628,-0.0026018483989082484,-0.0009967174173826313,0.005840504723477186,0.0022419389071863063,0.04,0.006,0.04,-0.12827752177970234,-0.00014464215453889392,-0.000769665130678214,0.00328241125135013,0.0023681039661330224,0.002,8e-05,0,-0.9623766248851419,-0.0018160323074261167,-7.699012999081136e-05,0.0,-0.001893022437416928,0.1,0.02,0,-0.18394361989354124,-0.006374018758724966,-0.003678872397870825,0.0,-0.010052891156595791,-0.0036160538634723476,0.0,0.0036160538634723476,-0.07433852568309281,0.0,0.07433852568309281,-0.9080161537130583,0.0,0.9080161537130583,-0.06374018758724966,0,0.06374018758724966,0.0022445719784852623,-0.0023656083977212786,0.010052891156595791,0.4,0.033446311950683594,1.4742767810821533,STABILIZE
0.035,0.005,0.05,-0.20167863293372063,-0.0024420926880843992,-0.0010083931646686032,0.006662739857989449,0.003212254005236446,0.04,0.006,0.04,-0.12828084083788294,-3.966927593293457e-06,-0.0007696850450272976,0.004032093568219796,0.0032584415955992053,0.002,8e-05,0,-0.9927144121493254,-0.001812981256565616,-7.941715297194604e-05,0.0,-0.001892398409537562,0.1,0.02,0,-0.1860055986192908,-0.006161175745395305,-0.0037201119723858163,0.0,-0.009881287717781122,-9.917318983233641e-05,0.0,9.917318983233641e-05,-0.0697740768024114,0.0,0.0697740768024114,-0.9064906282828079,0.0,0.9064906282828079,-0.061611757453953045,0,0.061611757453953045,0.00321575604091517,-0.0032549854855907227,0.009881287717781122,0.4,0.03346729278564453,1.5077588558197021,STABILIZE
0.035,0.005,0.05,-0.20392307606740182,-0.002349709667874294,-0.001019615380337009,0.006567751565394961,0.003198426517183658,0.04,0.006,0.04,-0.128193200171747,0.00010485839700379925,-0.0007691592010304821,0.005067962007972577,0.004403661203945895,0.002,8e-05,0,-1.0228520895796218,-0.0018029236221560104,-8.182816716636975e-05,0.0,-0.00188475178932238,0.1,0.02,0,-0.1879897314508217,-0.005934830180155628,-0.0037597946290164343,0.0,-0.009694624809172062,0.002621459925094981,0.0,-0.002621459925094981,-0.06713456193926554,0.0,0.06713456193926554,-0.9014618110780052,0.0,0.9014618110780052,-0.05934830180155627,0,0.05934830180155627,0.0032029862152811194,-0.004400345837508789,0.009694624809172062,0.4,0.0334320068359375,1.5411710739135742,STABILIZE
0.035,0.005,0.05,-0.206103173310658,-0.002282134319560769,-0.00103051586655329,0.006671161435547768,0.0033585112494337096,0.04,0.006,0.04,-0.12800368429963233,0.00022672680689806674,-0.000768022105797794,0.004249581702510422,0.0037082864036106947,0.002,8e-05,0,-1.052718678549894,-0.00178654069303206,-8.421749428399153e-05,0.0,-0.0018707581873160515,0.1,0.02,0,-0.18995957693610013,-0.0058915484489009545,-0.0037991915387220027,0.0,-0.009690739987622958,0.0056681701724516685,0.0,-0.0056681701724516685,-0.06520383770173624,0.0,0.06520383770173624,-0.89327034651603,0.0,0.89327034651603,-0.05891548448900954,0,0.05891548448900954,0.0033623225898589625,-0.0037048309901398786,0.009690739987622958,0.4,0.03343510627746582,1.5746128559112549,STABILIZE
0.035,0.005,0.05,-0.20821798616998202,-0.0022123272374331565,-0.0010410899308499102,0.004737929368406873,0.0014845122001238059,0.04,0.006,0.04,-0.127718299901626,0.00034119259519576494,-0.000766309799409756,0.0037769818198352995,0.0033518646156213082,0.002,8e-05,0,-1.0825991549903298,-0.0017861868717455344,-8.660793239922638e-05,0.0,-0.0018727948041447609,0.1,0.02,0,-0.19175389762064476,-0.0053630203267072615,-0.003835077952412895,0.0,-0.009198098279120156,0.008529814879894123,0.0,-0.008529814879894123,-0.06320934964094732,0.0,0.06320934964094732,-0.8930934358727672,0.0,0.8930934358727672,-0.053630203267072615,0,0.053630203267072615,0.001487648973815068,-0.0033504736089809122,0.009198098279120156,0.4,0.033457279205322266,1.6080756187438965,STABILIZE
0.035,0.005,0.05,-0.21029914393429133,-0.0021673131042569114,-0.0010514957196714567,0.0037096293763422567,0.0004908205524138884,0.04,0.006,0.04,-0.12739119083774347,0.0003893150370882729,-0.0007643471450264609,0.0031913019914258834,0.0028162698834876955,0.002,8e-05,0,-1.1124367256160803,-0.001775587441221125,-8.899493804928644e-05,0.0,-0.0018645823792704116,0.1,0.02,0,-0.19342818973802875,-0.004981726049098792,-0.0038685637947605753,0.0,-0.008850289843859369,0.009732875927206822,0.0,-0.009732875927206822,-0.061923231550197466,0.0,0.061923231550197466,-0.8877937206105625,0.0,0.8877937206105625,-0.04981726049098792,0,0.04981726049098792,0.0004932690434545739,-0.0028158420627018626,0.008850289843859369,0.4,0.03360867500305176,1.6416804790496826,STABILIZE
0.035,0.005,0.05,-0.21230912878393493,-0.002101108437543511,-0.0010615456439196746,0.0029107233833802417,-0.0002519306980829439,0.04,0.006,0.04,-0.1270161560934588,0.00044804241938339406,-0.0007620969365607528,0.00270142805605201,0.0023873735388746514,0.002,8e-05,0,-1.1417482204745935,-0.001750876855049927,-9.133985763796748e-05,0.0,-0.0018422167126878946,0.1,0.02,0,-0.1949580200531652,-0.004569102503737074,-0.003899160401063304,0.0,-0.008468262904800378,0.011201060484584852,0.0,-0.011201060484584852,-0.06003166964410031,0.0,0.06003166964410031,-0.8754384275249635,0.0,0.8754384275249635,-0.04569102503737074,0,0.04569102503737074,-0.0002500267860798861,-0.002387573684098147,0.008468262904800378,0.4,0.03348207473754883,1.6751689910888672,STABILIZE
0.035,0.005,0.05,-0.2142784153933497,-0.0020614569236757723,-0.0010713920769667485,0.002460041647632625,-0.0006728073530098957,0.04,0.006,0.04,-0.12666344253185216,0.00042196792638202543,-0.000759980655191113,0.0018944325253957015,0.0015564197965866138,0.002,8e-05,0,-1.1709972332212792,-0.0017495989098379918,-9.367977865770234e-05,0.0,-0.0018432786884956941,0.1,0.02,0,-0.1965122365017124,-0.004648456731823464,-0.003930244730034248,0.0,-0.008578701461857713,0.010549198159550636,0.0,-0.010549198159550636,-0.0588987692478792,0.0,0.0588987692478792,-0.8747994549189959,0.0,0.8747994549189959,-0.046484567318234644,0,0.046484567318234644,-0.0006715443947188646,-0.00155696513878525,0.008578701461857713,0.4,0.03343510627746582,1.7086141109466553,STABILIZE
0.035,0.005,0.05,-0.21621970923629852,-0.002030778287011824,-0.0010810985461814926,0.0021445693008744116,-0.0009673075323189053,0.04,0.006,0.04,-0.12620005411501706,0.0005539982014893675,-0.0007572003246901024,0.001954683479081396,0.0017514813558806614,0.002,8e-05,0,-1.2002211769776705,-0.0017469159449477931,-9.601769415821364e-05,0.0,-0.0018429336391060068,0.1,0.02,0,-0.19798374692513332,-0.004398114510586377,-0.003959674938502666,0.0,-0.008357789449089043,0.013849955037234187,0.0,-0.013849955037234187,-0.0580222367717664,0.0,0.0580222367717664,-0.8734579724738966,0.0,0.8734579724738966,-0.04398114510586377,0,0.04398114510586377,-0.0009659627827194772,-0.0017522233603280417,0.008357789449089043,0.4,0.03345775604248047,1.742072343826294,STABILIZE
0.035,0.005,0.05,-0.21813093931226454,-0.0019995282026472948,-0.0010906546965613227,0.001815327899211692,-0.0012748549999969257,0.04,0.006,0.04,-0.12563892908663857,0.0006709129123926968,-0.0007538335745198314,0.001969382350083331,0.0018864616879561962,0.002,8e-05,0,-1.2292607924694952,-0.001736070574207468,-9.834086339755962e-05,0.0,-0.0018344114376050275,0.1,0.02,0,-0.19937515717545493,-0.004159122549184647,-0.003987503143509099,0.0,-0.008146625692693745,0.01677282280981742,0.0,-0.01677282280981742,-0.05712937721849413,0.0,0.05712937721849413,-0.868035287103734,0.0,0.868035287103734,-0.04159122549184647,0,0.04159122549184647,-0.001273485274478902,-0.0018873866129728424,0.008146625692693745,0.4,0.03345441818237305,1.7755322456359863,STABILIZE
0.035,0.005,0.05,-0.22029363945123398,-0.0019724390661638594,-0.00110146819725617,0.001634335096640382,-0.0014395721667796477,0.04,0.006,0.04,-0.12527960779007868,0.0003745261899332916,-0.0007516776467404721,0.00013837066932415132,-0.00023878078748302918,0.002,8e-05,0,-1.262352659539305,-0.0017246084507225002,-0.00010098821276314441,0.0,-0.0018255966634856445,0.1,0.02,0,-0.20073233186647238,-0.0035365108537057117,-0.004014646637329448,0.0,-0.00755115749103516,0.00936315474833229,0.0,-0.00936315474833229,-0.05635540189039598,0.0,0.05635540189039598,-0.8623042253612501,0.0,0.8623042253612501,-0.03536510853705711,0,0.03536510853705711,-0.0014397192770210293,0.00023789218400718836,0.00755115749103516,0.4,0.0383760929107666,1.8138983249664307,STABILIZE
0.035,0.005,0.05,-0.22177269711615388,-0.0015484600153126036,-0.0011088634855807695,0.0046928451811326715,0.0020355216802392983,0.04,0.006,0.04,-0.12446180107872837,0.0009784925112910317,-0.0007467708064723702,0.0034007514310380174,0.003632473135856679,0.002,8e-05,0,-1.2909305672221945,-0.0017096502307924455,-0.00010327444537777557,0.0,-0.0018129246761702212,0.1,0.02,0,-0.20204252235325618,-0.003919054349547652,-0.004040850447065124,0.0,-0.007959904796612776,0.024462312782275793,0.0,-0.024462312782275793,-0.044241714723217244,0.0,0.044241714723217244,-0.8548251153962227,0.0,0.8548251153962227,-0.039190543495476515,0,0.039190543495476515,0.002038005830100629,-0.0036310799812067644,0.007959904796612776,0.4,0.033431291580200195,1.8473289012908936,STABILIZE
0.035,0.005,0.05,-0.22314292996708598,-0.0014332817416319757,-0.00111571464983543,0.005337503488252373,0.002788507096784967,0.04,0.006,0.04,-0.12371742460028498,0.0008898601971002545,-0.0007423045476017099,0.003026947457703323,0.0031745031072018676,0.002,8e-05,0,-1.3195300871452988,-0.001709455844773963,-0.00010556240697162391,0.0,-0.0018150182517455869,0.1,0.02,0,-0.20283875237320145,-0.0023796204709722385,-0.0040567750474640295,0.0,-0.006436395518436268,0.022246504927506364,0.0,-0.022246504927506364,-0.04095090690377073,0.0,0.04095090690377073,-0.8547279223869815,0.0,0.8547279223869815,-0.023796204709722383,0,0.023796204709722383,0.0027898252976145455,-0.003173344704762524,0.006436395518436268,0.4,0.033460378646850586,1.8807909488677979,STABILIZE
0.035,0.005,0.05,-0.22421641077375032,-0.0011214448232023547,-0.0011210820538687517,0.007734869000747428,0.005492342123676322,0.04,0.006,0.04,-0.12237265506153924,0.0016055485277577664,-0.0007342359303692355,0.00651008823726124,0.007381400834649771,0.002,8e-05,0,-1.3482132936975189,-0.0017122740634890339,-0.00010785706349580152,0.0,-0.0018201311269848354,0.1,0.02,0,-0.20336246438743008,-0.0015631768663463307,-0.004067249287748602,0.0,-0.005630426154094933,0.04013871319394416,0.0,-0.04013871319394416,-0.032041280662924415,0.0,0.032041280662924415,-0.8561370317445169,0.0,0.8561370317445169,-0.015631768663463306,0,0.015631768663463306,0.0054943557560603274,-0.007379902107150501,0.005630426154094933,0.4,0.033503055572509766,1.9143023490905762,STABILIZE
0.035,0.005,0.05,-0.22565914887678423,-0.0014816218266626038,-0.0011282957443839211,0.00444851730497338,0.0018385997339268548,0.04,0.006,0.04,-0.12091566922668508,0.0017100040616370093,-0.0007254940153601105,0.0064241146534016,0.007408624699678499,0.002,8e-05,0,-1.377105803996767,-0.0016954972649939521,-0.00011016846431974137,0.0,-0.0018056657293136936,0.1,0.02,0,-0.2042718928791631,-0.002668396592180211,-0.004085437857583262,0.0,-0.006753834449763473,0.042750101540925234,0.0,-0.042750101540925234,-0.042332052190360105,0.0,0.042332052190360105,-0.8477486324969761,0.0,0.8477486324969761,-0.02668396592180211,0,0.02668396592180211,0.001842049901794311,-0.00740776761795224,0.006753834449763473,0.4,0.034081459045410156,1.948411464691162,STABILIZE
0.035,0.005,0.05,-0.22728588543755096,-0.0016980429494009798,-0.0011364294271877548,0.0024026909431662967,-0.0004317814334224377,0.04,0.006,0.04,-0.11958970523922241,0.0015818129231407578,-0.0007175382314353344,0.007204127047785162,0.008068401739490586,0.002,8e-05,0,-1.4053513172924217,-0.001684778710970415,-0.00011242810538339374,0.0,-0.0017972068163538087,0.1,0.02,0,-0.20495785950086293,-0.0020458151150929246,-0.004099157190017259,0.0,-0.006144972305110184,0.03954532307851894,0.0,-0.03954532307851894,-0.04851551284002799,0.0,0.04851551284002799,-0.8423893554852074,0.0,0.8423893554852074,-0.020458151150929246,0,0.020458151150929246,-0.00042890048551888694,-0.008068555397937398,0.006144972305110184,0.4,0.033530235290527344,1.9819200038909912,STABILIZE
0.035,0.005,0.05,-0.22860801227215324,-0.0013836030274226132,-0.0011430400613607662,0.0014654433018421367,-0.0010611997869412427,0.04,0.006,0.04,-0.11823226727794235,0.0016234926277103449,-0.0007093936036676542,0.003840191488171924,0.004754290512214615,0.002,8e-05,0,-1.433396927122968,-0.0016771241890346268,-0.00011467175416983746,0.0,-0.0017917959432044643,0.1,0.02,0,-0.20574341584555203,-0.0023488088786230675,-0.004114868316911041,0.0,-0.006463677195534108,0.04058731569275862,0.0,-0.04058731569275862,-0.03953151506921752,0.0,0.03953151506921752,-0.8385620945173133,0.0,0.8385620945173133,-0.02348808878623067,0,0.02348808878623067,-0.0010592507026538046,-0.004754725145711944,0.006463677195534108,0.4,0.033444881439208984,2.015437364578247,STABILIZE
0.035,0.005,0.05,-0.22963107619546194,-0.0010706037745585911,-0.0011481553809773097,0.0031557758365525473,0.0009370166810166464,0.04,0.006,0.04,-0.11685938492011351,0.0016419172709174138,-0.0007011563095206811,0.004480142220769146,0.005420903182165879,0.002,8e-05,0,-1.4611853463019362,-0.0016616968351751873,-0.0001168948277041549,0.0,-0.0017785916628793423,0.1,0.02,0,-0.20663583013326606,-0.0026682374193525006,-0.004132716602665321,-0.0,-0.006800954022017821,0.041047931772935344,0.0,-0.041047931772935344,-0.030588679273102604,0.0,0.030588679273102604,-0.8308484175875936,0.0,0.8308484175875936,-0.026682374193525003,0,0.026682374193525003,0.0009395410683547274,-0.00542046623011291,0.006800954022017821,0.4,0.03344583511352539,2.0488181114196777,STABILIZE
0.035,0.005,0.05,-0.23086304098066066,-0.001257086190193955,-0.0011543152049033033,-0.0010569187958315537,-0.0034683201909288123,0.04,0.006,0.04,-0.11591930867001747,0.0010962807526626185,-0.0006955158520201048,-0.0029737358130654,-0.0025729709124228863,0.002,8e-05,0,-1.4890554501609379,-0.0016250521397711307,-0.00011912443601287504,0.0,-0.0017441765757840058,0.1,0.02,0,-0.20786501421078876,-0.0035835679433711774,-0.004157300284215775,-0.0,-0.0077408682275869525,0.027407018816565463,0.0,-0.027407018816565463,-0.03591674829125585,0.0,0.03591674829125585,-0.8125260698855653,0.0,0.8125260698855653,-0.03583567943371177,0,0.03583567943371177,-0.0034699287786306874,0.002570801146376218,0.0077408682275869525,0.4,0.03430056571960449,2.0831098556518555,STABILIZE
0.035,0.005,0.05,-0.23031845697599682,0.0005602528499135569,-0.001151592284879984,0.017224812002296138,0.01663347256732971,0.04,0.006,0.04,-0.11508254549613195,0.000983815586329084,-0.0006904952729767917,-0.0042478602691485845,-0.003954539955796292,0.002,8e-05,0,-1.5182606217454528,-0.0017168838150967856,-0.00012146084973963623,-0.0,-0.0018383446648364218,0.1,0.02,0,-0.20954345142148276,-0.004933512671475988,-0.004190869028429655,-0.0,-0.009124381699905643,0.024595389658227104,0.0,-0.024595389658227104,0.01600722428324448,0.0,-0.01600722428324448,-0.8584419075483928,0.0,0.8584419075483928,-0.049335126714759876,0,0.049335126714759876,0.0166300613037661,0.003968860912539102,0.009124381699905643,0.4,0.03402113914489746,2.1171395778656006,STABILIZE
0.035,0.005,0.05,-0.23076219005727508,-0.00046416722712893846,-0.0011538109502863753,0.010321241054237183,0.008703262876821868,0.04,0.006,0.04,-0.11433854893454146,0.0008894377158760218,-0.0006860312936072488,-0.004047367421119111,-0.0038439609988503375,0.002,8e-05,0,-1.5466530183736376,-0.0016971360963841762,-0.00012373224146989103,-0.0,-0.0018208683378540672,0.1,0.02,0,-0.20958515256179883,-0.00012463285755268116,-0.004191703051235977,0.0,-0.004316335908788658,0.022235942896900545,0.0,-0.022235942896900545,-0.013261920775112526,0.0,0.013261920775112526,-0.8485680481920881,0.0,0.8485680481920881,-0.0012463285755268116,0,0.0012463285755268116,0.00870317925885816,0.0038441503159904237,0.004316335908788658,0.4,0.03345918655395508,2.1506035327911377,STABILIZE
0.035,0.005,0.05,-0.23179298047506763,-0.0010767243950946552,-0.0011589649023753383,0.002411734009847954,0.00017604471237796064,0.04,0.006,0.04,-0.1139581640208931,0.00045409781407305955,-0.0006837489841253585,-0.006895122847376307,-0.007124774017428606,0.002,8e-05,0,-1.5745195061304624,-0.0016633297907242346,-0.000125961560490437,0.0,-0.0017892913512146716,0.1,0.02,0,-0.2092955578912417,0.0008642844533836895,-0.004185911157824834,0.0,-0.003321626704441145,0.011352445351826489,0.0,-0.011352445351826489,-0.030763554145561575,0.0,0.030763554145561575,-0.8316648953621173,0.0,0.8316648953621173,0.008642844533836895,0,-0.008642844533836895,0.00017711945470109383,0.0071247473807110094,0.003321626704441145,0.4,0.03350687026977539,2.1841087341308594,STABILIZE
0.035,0.005,0.05,-0.2314588291268694,0.0003496587908786216,-0.0011572941456343471,0.01192222924326402,0.011114593888508294,0.04,0.006,0.04,-0.11456410522194466,-0.0007246422705354276,-0.0006873846313316679,-0.014053547843564305,-0.0154655747454314,0.002,8e-05,0,-1.6024656166515687,-0.0016710311945700802,-0.0001281972493321255,-0.0,-0.0017992284439022057,0.1,0.02,0,-0.20909786721819174,0.0005910433963477097,-0.004181957344363835,0.0,-0.0035909139480161255,-0.01811605676338569,0.0,0.01811605676338569,0.009990251167960616,0.0,-0.009990251167960616,-0.8355155972850401,0.0,0.8355155972850401,0.005910433963477096,0,-0.005910433963477096,0.011116189204438569,0.015464428120176796,0.0035909139480161255,0.4,0.0334477424621582,2.2175917625427246,STABILIZE
0.035,0.005,0.05,-0.23019135523519815,0.001326635807040305,-0.0011509567761759907,0.021823163457920722,0.021998842488785038,0.04,0.006,0.04,-0.11710640719323764,-0.0030411075127702793,-0.0007026384431594258,-0.02472685174384032,-0.028470597699770027,0.002,8e-05,0,-1.6308192979998204,-0.001695836968552727,-0.00013046554383998565,-0.0,-0.0018263025123927126,0.1,0.02,0,-0.20887272941019266,0.0006732759198608838,-0.004177454588203853,0.0,-0.0035041786683429697,-0.07602768781925698,0.0,0.07602768781925698,0.03790388020115157,0.0,-0.03790388020115157,-0.8479184842763635,0.0,0.8479184842763635,0.006732759198608838,0,-0.006732759198608838,0.02200218788311346,0.028468012445281448,0.0035041786683429697,0.4,0.03343915939331055,2.251011610031128,STABILIZE
0.035,0.005,0.05,-0.22790349349235917,0.002384925852330391,-0.0011395174674617959,0.015566518251554357,0.016811926636422954,0.04,0.006,0.04,-0.12198942493358543,-0.005817352148157782,-0.0007319365496015126,-0.040603010006011866,-0.04715229870377116,0.002,8e-05,0,-1.6583979645606561,-0.001642783455764983,-0.0001326718371648525,0.0,-0.0017754552929298353,0.1,0.02,0,-0.20928676597592746,-0.001233149577356299,-0.004185735319518549,0.0,-0.005418884896874848,-0.14543380370394454,0.0,0.14543380370394454,0.06814073863801116,0.0,-0.06814073863801116,-0.8213917278824915,0.0,0.8213917278824915,-0.01233149577356299,0,0.01233149577356299,0.016801777884063396,0.04715591596197369,0.005418884896874848,0.4,0.03357553482055664,2.2848026752471924,STABILIZE
0.035,0.005,0.05,-0.22489549103069256,0.0031453347187087124,-0.001124477455153463,0.030805056900171074,0.03282591416372632,0.04,0.006,0.04,-0.12628151034902407,-0.005129192334641375,-0.0007576890620941445,-0.03592699739209802,-0.04181387878883354,0.002,8e-05,0,-1.68147477141727,-0.001378879604902351,-0.0001345179817133816,0.0,-0.0015133975866157326,0.1,0.02,0,-0.20862879823820402,0.0019657362040333484,-0.004172575964764081,0.0,-0.0022068397607307322,-0.12822980836603437,0.0,0.12822980836603437,0.08986670624882034,0.0,-0.08986670624882034,-0.6894398024511755,0.0,0.6894398024511755,0.019657362040333484,0,-0.019657362040333484,0.03284025797496199,0.0418026142267387,0.0022068397607307322,0.4,0.03347182273864746,2.3181047439575195,STABILIZE
0.035,0.005,0.05,-0.22091045025487888,0.004155820472803091,-0.0011045522512743945,0.044630723801380764,0.04768199202290946,0.04,0.006,0.04,-0.13039010890600544,-0.004896769539083072,-0.0007823406534360327,-0.03194343857110833,-0.03762254876362744,0.002,8e-05,0,-1.7040197362822138,-0.0013434933552070516,-0.00013632157890257712,0.0,-0.0014798149341096287,0.1,0.02,0,-0.20583634695307212,0.008320349507724614,-0.0041167269390614426,0.0,0.004203622568663171,-0.12241923847707681,0.0,0.12241923847707681,0.11873772779437403,0.0,-0.11873772779437403,-0.6717466776035258,0.0,0.6717466776035258,0.08320349507724613,0,-0.08320349507724613,0.047736576249964455,0.037553266524706676,-0.004203622568663171,0.4,0.03356170654296875,2.351616621017456,STABILIZE
0.035,0.005,0.05,-0.21754622624345327,0.00350431582593483,-0.0010877311312172664,0.026906529722736147,0.02932311441745371,0.04,0.006,0.04,-0.1345827697474638,-0.004991143001723445,-0.0008074966184847828,-0.02545692289087223,-0.031255562511080456,0.002,8e-05,0,-1.7261324185310956,-0.0013161994665117063,-0.00013809059348248766,0.0,-0.001454290059994194,0.1,0.02,0,-0.20429433468605407,0.004589211974287518,-0.004085886693721082,0.0,0.0005033252805664362,-0.12477857504308613,0.0,0.12477857504308613,0.1001233093124237,0.0,-0.1001233093124237,-0.6580997332558531,0.0,0.6580997332558531,0.04589211974287518,0,-0.04589211974287518,0.02934813973248677,0.031232065593962424,-0.0005033252805664362,0.4,0.033600807189941406,2.385223627090454,STABILIZE
0.035,0.005,0.05,-0.21526651617150272,0.0023853038272924664,-0.0010763325808575137,0.009001037074520003,0.010310008320954956,0.04,0.006,0.04,-0.13746716632318007,-0.0034491414506173964,-0.0008248029979390805,-0.0023825435399157,-0.0066564879884721765,0.002,8e-05,0,-1.7478378808114887,-0.001297762074161488,-0.0001398270304649191,0.0,-0.0014375891046264071,0.1,0.02,0,-0.20472189555598555,-0.0012781858184466852,-0.004094437911119711,-0.0,-0.005372623729566397,-0.0862285362654349,0.0,0.0862285362654349,0.06815153792264189,0.0,-0.06815153792264189,-0.648881037080744,0.0,0.648881037080744,-0.012781858184466852,0,0.012781858184466852,0.010308523098400772,0.006658787836278654,0.005372623729566397,0.4,0.03345060348510742,2.418694019317627,STABILIZE
0.035,0.005,0.05,-0.2108918412474551,0.0045796880719547505,-0.0010544592062372755,0.018748239747195295,0.02227346861291277,0.04,0.006,0.04,-0.13946034622532338,-0.0023846714834390484,-0.0008367620773519403,0.020522505713804932,0.017301072153013942,0.002,8e-05,0,-1.7693314095194368,-0.0012857596279494499,-0.00014154651276155497,0.0,-0.0014273061407110048,0.1,0.02,0,-0.20889389083455534,-0.012478600350060556,-0.004177877816691107,-0.0,-0.016656478166751663,-0.05961678708597621,0.0,0.05961678708597621,0.13084823062727857,0.0,-0.13084823062727857,-0.6428798139747249,0.0,0.6428798139747249,-0.12478600350060556,0,0.12478600350060556,0.022311096223178648,-0.017252521178490642,0.016656478166751663,0.4,0.03343319892883301,2.4521045684814453,STABILIZE
0.035,0.005,0.05,-0.2081986228717567,0.0028182064381800966,-0.0010409931143587836,-0.00278935260014912,-0.0010121392763278068,0.04,0.006,0.04,-0.14286628937666657,-0.00407315160979437,-0.0008571977362599994,0.006314402628319094,0.0013840532822647243,0.002,8e-05,0,-1.79106493956924,-0.0012995513867276273,-0.00014328519516553921,0.0,-0.0014428365818931665,0.1,0.02,0,-0.2096020226079214,-0.0021171287544061515,-0.004192040452158428,-0.0,-0.0063091692065645796,-0.10182879024485925,0.0,0.10182879024485925,0.08052018394800275,0.0,-0.08052018394800275,-0.6497756933638136,0.0,0.6497756933638136,-0.021171287544061515,0,0.021171287544061515,-0.001011627787548578,-0.001384427182011644,0.0063091692065645796,0.4,0.0334477424621582,2.48555326461792,STABILIZE
0.035,0.005,0.05,-0.2048109912949952,0.0035440631377541324,-0.001024054956474976,-0.005192744769576671,-0.002672736588297514,0.04,0.006,0.04,-0.1462116400064114,-0.003999805453992276,-0.0008772698400384684,0.00536782983425066,0.000490754540219916,0.002,8e-05,0,-1.8130129729042508,-0.0013120876277844325,-0.00014504103783234007,0.0,-0.0014571286656167724,0.1,0.02,0,-0.209908958461817,-0.0009174551775840439,-0.00419817916923634,-0.0,-0.005115634346820384,-0.09999513634980689,0.0,0.09999513634980689,0.1012589467929752,0.0,-0.1012589467929752,-0.6560438138922162,0.0,0.6560438138922162,-0.009174551775840438,0,0.009174551775840438,-0.0026726579714046674,-0.0004911825089086383,0.005115634346820384,0.4,0.03345513343811035,2.5190212726593018,STABILIZE
0.035,0.005,0.05,-0.20230200012761837,0.0026239893217441645,-0.0010115100006380918,-0.007507932482816624,-0.005895453161710551,0.04,0.006,0.04,-0.1438976133014882,0.0027658157443177464,-0.0008633856798089292,0.04636224611416212,0.04826467617867094,0.002,8e-05,0,-1.8360452950014436,-0.001376456869514116,-0.0001468836236001155,-0.0,-0.0015233404931142315,0.1,0.02,0,-0.21336324768169435,-0.010321755891404967,-0.004267264953633887,-0.0,-0.014589020845038854,0.06914539360794365,0.0,-0.06914539360794365,0.07497112347840469,0.0,-0.07497112347840469,-0.688228434757058,0.0,0.688228434757058,-0.10321755891404967,0,0.10321755891404967,-0.005808495491885748,-0.048275218432800825,0.014589020845038854,0.4,0.03346610069274902,2.552489757537842,STABILIZE
0.035,0.005,0.05,-0.20161832521830714,0.0007159594683932396,-0.0010080916260915356,-0.01426130035749651,-0.014553432515194805,0.04,0.006,0.04,-0.1381033555324016,0.0069347139877475395,-0.0008286201331944097,0.06208988558941018,0.0681959794439633,0.002,8e-05,0,-1.8586190859912053,-0.0013508441492573414,-0.00014868952687929643,-0.0,-0.001499533676136638,0.1,0.02,0,-0.21956499428588738,-0.018556017284049355,-0.004391299885717748,-0.0,-0.0229473171697671,0.17336784969368849,0.0,-0.17336784969368849,0.020455984811235416,0.0,-0.020455984811235416,-0.6754220746286707,0.0,0.6754220746286707,-0.18556017284049353,0,0.18556017284049353,-0.014332494625114755,-0.06824275498627566,0.0229473171697671,0.4,0.03342175483703613,2.5859081745147705,STABILIZE
0.035,0.005,0.05,-0.20278096439104024,-0.0012161273345942135,-0.001013904821955201,-0.04951187248859488,-0.05174190464514429,0.04,0.006,0.04,-0.1287994246913418,0.011122246577660744,-0.0007727965481480509,0.08075176297496629,0.09110121300447899,0.002,8e-05,0,-1.880788564548482,-0.0013251087697471976,-0.00015046308516387857,-0.0,-0.0014755718549110761,0.1,0.02,0,-0.22854474174125075,-0.026836765854628904,-0.004570894834825015,-0.0,-0.03140766068945392,0.2780561644415186,0.0,-0.2780561644415186,-0.03474649527412038,0.0,0.03474649527412038,-0.6625543848735987,0.0,0.6625543848735987,-0.268367658546289,0,0.268367658546289,-0.05131462972284652,-0.09134256665762033,0.03140766068945392,0.4,0.03346061706542969,2.6193900108337402,STABILIZE
0.035,0.005,0.05,-0.20528530469288434,-0.0026196105135955173,-0.0010264265234644218,-0.04644945370825207,-0.050095490745312006,0.04,0.006,0.04,-0.12276621852399448,0.007212461293714474,-0.0007365973111439669,0.06747801607330425,0.07395388005587476,0.002,8e-05,0,-1.9022093625926966,-0.0012803861867884845,-0.00015217674900741573,0.0,-0.0014325629357959003,0.1,0.02,0,-0.2329977276153495,-0.013308424810765185,-0.00465995455230699,-0.0,-0.017968379363072176,0.18031153234286185,0.0,-0.18031153234286185,-0.07484601467415763,0.0,0.07484601467415763,-0.6401930933942422,0.0,0.6401930933942422,-0.13308424810765185,0,0.13308424810765185,-0.049923578772478355,-0.07407004017064187,0.017968379363072176,0.4,0.03345990180969238,2.652855634689331,STABILIZE
