Mode,Time,Freq,North-Vision,East-Vision,Down-Vision,Yaw-Vision,North-Desired,East-Desired,Down-Desired,Roll-UAV,Pitch-UAV,Yaw-UAV,Roll-Control,Pitch-Control,Yaw-Control,Thrust-Control,northVraw,eastVraw,downVraw,N-Velocity,E-Velocity,D-Velocity,yawVraw,yawRate,Q-Size
GUIDED_NOGPS,0.017421960830688477,59.50717893422621,-6.254048606326389,41.48687098602076,9.944441700759592,-0.7457545755194098,-6.2552127078442314,41.48403736282936,9.941531427267915,2.561813993035492,0.42149428205436607,95.71256782060173,-0.00012825981105618736,5.6540498926744155e-05,-10.0,0.4999956345897625,-6.246043214663834,41.482965923661546,9.948599345640714,0.04670897906180471,0.041620369302108884,1.4779511839151382,-0.7710250492156292,-0.07567094544305725,3
GUIDED_NOGPS,0.035721540451049805,64.67501387775242,-6.249568266604069,41.483706967898094,9.94659515982041,-0.7429715634266965,-6.255210379499785,41.48402192144751,9.941535171277996,2.561813993035492,0.42149428205436607,95.71256782060173,1.051367212978709e-05,0.0002822657061855232,-0.4726839173784309,0.49999241001718636,-6.248229489671621,41.484725385789744,9.947585900078002,0.0221634516492486,0.03627047990448773,1.4996670186519623,-0.7618402052811468,0.10798546420067348,2
GUIDED_NOGPS,0.04311323165893555,149.95723989989276,-6.254580895980185,41.48209796908589,9.942297454479991,-0.7575734585049653,-6.2551941746275235,41.48391445211629,9.94156122893678,2.561813993035492,0.42149428205436607,95.71256782060173,8.132915987495944e-05,3.17420220947318e-05,-1.298421038446986,0.4999988956616852,-6.262467775735258,41.47987275249701,9.935858341801044,0.0221634516492486,0.03627047990448773,1.4996670186519623,-0.7863140488567393,0.10798546420067348,1
GUIDED_NOGPS,0.0500943660736084,187.15380839766186,-6.256820388124603,41.48141322178159,9.940388919640856,-0.7650942112041277,-6.255150473083431,41.48362462720183,9.941631501624277,2.561813993035492,0.42149428205436607,95.71256782060173,0.00010061929189043075,-8.215950599265141e-05,-1.160632825044851,0.5000018638729752,-6.262467775735258,41.47987275249701,9.935858341801044,-0.07566101849079132,-0.03179021878167987,1.3108974322676659,-0.7863140488567393,0.042144895200983544,1
GUIDED_NOGPS,0.05598568916320801,221.7096944708743,-6.255086148047471,41.48211573837462,9.941612592305129,-0.7673095746938692,-6.2550659327016405,41.483063962597654,9.94176744372778,2.561813993035492,0.42149428205436607,95.71256782060173,4.267979957149077e-05,-4.3925254071278455e-07,-0.7214368926955234,0.500000232277134,-6.2490142979619865,41.484706487201564,9.945838012388695,-0.0331521121552214,0.013512051373254508,1.1463398113846779,-0.772054216418278,-0.24833217792588227,0
GUIDED_NOGPS,0.08759903907775879,31.87161094224924,-6.255069845043101,41.48199599760429,9.941667796727454,-0.7689510866188166,-6.254927487409836,41.482145805226175,9.94199006567234,2.561813993035492,0.42149428205436607,95.71256782060173,6.836260170255839e-06,-7.026769634562749e-06,-0.5698549019931706,0.5000004834034173,-6.2550067126535085,41.481680728575355,9.942009519726735,-0.3061475232243538,0.0365077139576897,1.4106503687798977,-0.7790508343773519,0.17844852380372825,0
GUIDED_NOGPS,0.14581847190856934,27.857838351233056,-6.254950945278975,41.481516032675515,9.942124984462886,-0.7695350957091482,-6.254722345344655,41.48078532054018,9.942319936951215,2.5606733514440996,0.41989329638508566,95.43542606483929,-3.272556957543524e-05,-1.187058869495889e-05,-0.556106551522575,0.5000002924287325,-6.254498284484494,41.480937464392134,9.944649367163048,-0.14135497622191906,0.044828737736679614,1.332309190183878,-0.7752204831542822,-0.06917470850075448,0
GUIDED_NOGPS,0.15684914588928223,94.2836847547543,-6.2556670101555,41.48075221752879,9.941594957378001,-0.7687814484731734,-6.254437986967089,41.478899480024374,9.942777189156333,2.5606733514440996,0.41989329638508566,95.43542606483929,-8.254117007437579e-05,-6.256427625986093e-05,-0.5384648338813008,0.5000017733476675,-6.2585991161347625,41.47938360910695,9.939949693036949,-0.07136756903491914,0.007206427835626528,1.4404259622097015,-0.7807273724960004,0.22918705096063074,0
GUIDED_NOGPS,0.19019365310668945,30.332622200365932,-6.255290937277495,41.482319821327195,9.94202126689489,-0.7675354431834028,-6.254062163177887,41.4764070486969,9.94338151900875,2.5606733514440996,0.41989329638508566,95.43542606483929,-0.00026522788517135677,-6.499742884755991e-05,-0.5332461590595954,0.5000020403781708,-6.253663150609784,41.48894800840293,9.943822542551398,0.0838984502479434,0.060290959663689137,1.3371407985687256,-0.7646792856132234,-0.010468172037543683,0
GUIDED_NOGPS,0.22438502311706543,29.351733404246385,-6.253577302010133,41.48364062771575,9.944004892713222,-0.7677573895667569,-6.253582893432962,41.4732285726108,9.944152191389106,2.5606733514440996,0.41989329638508566,95.43542606483929,-0.0004685041613836019,-5.998685775598735e-06,-0.5577470400761366,0.5000002209480138,-6.24826188925376,41.48778276041063,9.94983676638801,0.0838984502479434,0.060290959663689137,1.3371407985687256,-0.7751247157705302,-0.010468172037543683,0
GUIDED_NOGPS,0.26011037826538086,30.51423749036041,-6.253513264811506,41.48345196267938,9.943789855605285,-0.7680405387414605,-6.252988463858784,41.46928636635555,9.945108042368094,2.5606733514440996,0.41989329638508566,95.43542606483929,-0.0006370428306808115,-3.478237165668914e-05,-0.5615510149344269,0.5000019772801442,-6.254181357589786,41.48241413825998,9.942315882436423,-0.067136186407879,0.043063057819381356,1.3466434553265572,-0.7837691847820003,0.06321682920326624,0
GUIDED_NOGPS,0.2914848327636719,32.36570440848516,-6.255601300581869,41.483512142098235,9.942296545839294,-0.7713594972109142,-6.2522674253677915,41.46450450055859,9.946267482236907,2.5606733514440996,0.41989329638508566,95.43542606483929,-0.0008530222658390243,-0.00017819359854441414,-0.6111864036401017,0.5000059564045964,-6.262247272471961,41.483357916954105,9.937582184576417,-0.0661678146570921,0.0747962505556643,1.2519885785877705,-0.7732956046681243,-0.2663716146583851,0
GUIDED_NOGPS,0.32515573501586914,29.95268190614935,-6.256698773194668,41.4843794309106,9.941492933694805,-0.773923224074491,-6.25140859177379,41.458808789386794,9.947648498537703,2.5606733514440996,0.41989329638508566,95.43542606483929,-0.0011470011480276378,-0.00028002727307233907,-0.6045025203719682,0.5000092333472643,-6.259555342037705,41.486513693720944,9.939326131644204,-0.09456640109419823,0.08153354865498841,1.3045609928667545,-0.7702047023828549,-0.19275300765878445,0
GUIDED_NOGPS,0.36516332626342773,25.31492893140598,-6.256852270974309,41.48524409096923,9.941111415501053,-0.7741220773112693,-6.250401037907353,41.45212677804801,9.949268659094061,2.5606733514440996,0.41989329638508566,95.43542606483929,-0.001485785069715596,-0.0003426667294074497,-0.5723108207087149,0.5000122358653896,-6.256601649036839,41.48714521657867,9.940398051710204,-0.04949010908603668,0.06611120188608766,1.681496761739254,-0.7696400698959975,-0.007416501546309504,0
GUIDED_NOGPS,0.39633631706237793,32.868660272083254,-6.257194138509657,41.48573508198974,9.940784591585107,-0.7747911598209517,-6.249234097731229,41.444387730292554,9.951145115041449,2.5606733514440996,0.41989329638508566,95.43542606483929,-0.0018550788284674405,-0.0004231255548981766,-0.5834862147779245,0.5000155407851845,-6.257389344871429,41.48612214154309,9.940414399108835,-0.10747612686827779,0.018333648040425032,1.3855110853910446,-0.7632347456001034,-0.06584546485794267,0
GUIDED_NOGPS,0.43007469177246094,30.2246434773836,-6.2555437394196725,41.486212625053554,9.941689032367133,-0.7736917141208713,-6.2478973624557375,41.43552261591472,9.95329460385767,2.5606733514440996,0.41989329638508566,95.43542606483929,-0.0022756799735223696,-0.00041308514672893813,-0.558275832035207,0.5000174083572358,-6.249574724917906,41.486809408956844,9.945102693717502,-0.07412247941829264,0.012416635581757873,1.265269797295332,-0.7655278360599471,0.05052509375049953,0
GUIDED_NOGPS,0.4628627300262451,30.609771939427112,-6.252848743851522,41.48683519162153,9.943667338049694,-0.776042476794085,-6.246380678654178,41.42546409825431,9.955733452393329,2.5606733514440996,0.41989329638508566,95.43542606483929,-0.002757065683524378,-0.00036077827668596344,-0.6140521058920342,0.5000180991715154,-6.243624620740533,41.487798239833964,9.950567723996159,0.07462899666279554,0.061495573027059436,1.509401574730873,-0.7623833032349303,-0.18816785631222993,0
GUIDED_NOGPS,0.5067436695098877,29.743672658936994,-6.251661016536327,41.48673744338164,9.944429080015802,-0.7808182951820996,-6.244674146378227,41.41414652169809,9.95847757990229,2.5606733514440996,0.41989329638508566,95.43542606483929,-0.00326152749394565,-0.0003938263097584524,-0.6554311054022818,0.5000210727498298,-6.248294260392548,41.4850972428509,9.946639773692088,0.06535043939948082,0.02605628687888384,1.4986212365329266,-0.767360311524531,-0.30950223155460577,0
GUIDED_NOGPS,0.5336179733276367,37.73247330400597,-6.2505380042045475,41.4859126209705,9.944864127303202,-0.7841466594190554,-6.242768117273343,41.40150589918138,9.96154250107214,2.5606733514440996,0.41989329638508566,95.43542606483929,-0.003792630020837795,-0.0004404396846350143,-0.6394611084916729,0.5000250175606534,-6.247595069319845,41.48159119110039,9.945726911650898,0.01542455138405785,0.0533577345777303,1.3165404088795185,-0.7691751449864526,-0.19693615167987347,0
GUIDED_NOGPS,0.569694995880127,27.9381860812107,-6.249818418996092,41.48552299950536,9.945049843722694,-0.7848296124351478,-6.240653192694171,41.387479899689474,9.964943329054638,2.5606733514440996,0.41989329638508566,95.43542606483929,-0.0044052485856077885,-0.0005186505668258665,-0.6029164414077391,0.5000298402279979,-6.248593942411054,41.48312863770583,9.944887741653814,-0.1937029999680817,0.05194013938307762,1.2934147380292416,-0.7742976752232941,-0.013041299065000537,0
GUIDED_NOGPS,0.5982012748718262,36.16122218486236,-6.247992725055224,41.48627294695387,9.94672840948774,-0.7858185009142654,-6.238320221819938,41.372007835759234,9.968694778496179,2.5606733514440996,0.41989329638508566,95.43542606483929,-0.005134813631937682,-0.0005540996534112537,-0.6108848785255696,0.5000329495535126,-6.24219691885706,41.48873869388593,9.952806454791306,0.006650555587839335,-0.022170779993757606,1.5106829814612865,-0.7672444590547535,-0.06977837315940064,0
GUIDED_NOGPS,0.6315984725952148,30.578083649857472,-6.246877721320887,41.48777170773212,9.94817374719723,-0.782749755777412,-6.235760299769864,41.355030650980524,9.972811168568258,2.5606733514440996,0.41989329638508566,95.43542606483929,-0.0059651963048611,-0.0006374219152803996,-0.5502263835575025,0.5000369561320566,-6.244410134112213,41.493439430736544,9.95297982545259,0.06289659067988396,-0.039284699596464634,1.3303540647029877,-0.7530645490523976,0.1158432099745897,0
GUIDED_NOGPS,0.6673882007598877,30.145137526322976,-6.248648789513281,41.48799328973441,9.946635471857116,-0.7806025716621541,-6.232964765718558,41.336490907497776,9.977306425997922,2.5606733514440996,0.41989329638508566,95.43542606483929,-0.006806290789825419,-0.000877009197589817,-0.566491137638378,0.5000460064312112,-6.259575790606131,41.48757914526603,9.937607129259197,-0.0721241463907063,0.09439242421649396,1.3513363897800446,-0.7674026292431951,0.10641075875144176,0
GUIDED_NOGPS,0.698293924331665,33.00081040465157,-6.251111456437126,41.48798059977577,9.94465689440852,-0.7785944478727354,-6.229925201011422,41.316332773511476,9.98219408809823,2.5606733514440996,0.41989329638508566,95.43542606483929,-0.00770904441744833,-0.0011641755221015555,-0.5683230199894944,0.5000563057905346,-6.264935430024245,41.48642265062094,9.933910419572147,-0.0721241463907063,0.09439242421649396,1.3513363897800446,-0.7715618337791023,0.10641075875144176,0
GUIDED_NOGPS,0.7316148281097412,30.1118090903217,-6.25184034341271,41.48699140073866,9.943995377637256,-0.7763504821817759,-6.226633427280056,41.29450201077966,9.987487305798721,2.5606733514440996,0.41989329638508566,95.43542606483929,-0.008644150388968442,-0.0013775958151574382,-0.5669570228475078,0.5000652378922422,-6.256438790715682,41.480711448087945,9.940233469350417,-0.10340918088331819,0.08563158917240798,1.5182306058704853,-0.7713897651314714,0.11318243774625983,0
GUIDED_NOGPS,0.7660706043243408,29.670031478796023,-6.251217129160078,41.48629567315503,9.944346348691017,-0.7747721275942646,-6.2230815045576575,41.27094596211946,9.993198846675856,2.5606733514440996,0.41989329638508566,95.43542606483929,-0.00967082864598912,-0.0015376899123740293,-0.5780547320546834,0.5000732787469773,-6.248676384738291,41.48177261643703,9.945897392763966,-0.055801577400416136,0.0012994300050195307,1.4821928925812244,-0.7689825588631747,0.06169332349238316,0
GUIDED_NOGPS,0.8063211441040039,31.134647218201387,-6.251354987353893,41.485645556783815,9.94397376266641,-0.7767296661508114,-6.2192617293944235,41.24561353890858,9.999341097983491,2.5606733514440996,0.41989329638508566,95.43542606483929,-0.010778695353362252,-0.0017509405889940869,-0.6350681808311534,0.5000830510029757,-6.252958031406001,41.48157957803397,9.941668395865054,-0.1419548294506967,-0.005920726107433438,1.314244419336319,-0.7700931593854206,-0.13979193427791714,0
GUIDED_NOGPS,0.8325803279876709,38.66751481962921,-6.25084613462757,41.48548408740403,9.9445847494377,-0.779584945541589,-6.215166632972955,41.2184552085868,10.005926069683333,2.5606733514440996,0.41989329638508566,95.43542606483929,-0.011990914668614008,-0.0019473025711618458,-0.6521006552672157,0.5000920119803685,-6.248827546713864,41.48425914929357,9.9476934497871,-0.02923587744589895,0.039761027437634766,1.2494133785367012,-0.7656361806197376,-0.19949892670186953,0
GUIDED_NOGPS,0.8658740520477295,30.432098675857066,-6.251497106568386,41.48447437530013,9.943910169846436,-0.7812666628774291,-6.210788979223659,41.18942298215754,10.012965397475398,2.5606733514440996,0.41989329638508566,95.43542606483929,-0.013248325093328923,-0.002216256665396003,-0.6391439482912922,0.5001035828414434,-6.256109273547311,41.478581447825846,9.939759414605254,-0.04977117059752345,-0.0525369425304234,1.2387676164507866,-0.7805100577281775,-0.0735101243856738,0
GUIDED_NOGPS,0.9009816646575928,29.96188244706689,-6.251693485440469,41.48471216197272,9.943772383203935,-0.7824270100067143,-6.206121762940149,41.1584704016893,10.020470345828464,2.5606733514440996,0.41989329638508566,95.43542606483929,-0.014648395117101138,-0.0024788484588366706,-0.6344727328240245,0.5001150469439368,-6.253459767044687,41.48621876223362,9.942868258558416,-0.04977117059752345,-0.0525369425304234,1.2387676164507866,-0.772210165561275,-0.0735101243856738,0
GUIDED_NOGPS,0.9328732490539551,31.712566157568425,-6.251701649029089,41.484231969203414,9.943873440525813,-0.7796483587399624,-6.201158207894651,41.12555252781721,10.028451811010546,2.5606733514440996,0.41989329638508566,95.43542606483929,-0.01610469331563754,-0.0027465630707481673,-0.5762364165846969,0.5001268675557271,-6.2522803893359,41.481491278159346,9.944388596097893,0.06411966169252992,0.0283868022961542,1.4509208500385284,-0.7750546303515707,0.16011537559670164,0
STABILIZE,0.9672389030456543,29.664575538754235,-6.251686279489888,41.48389747878504,9.94369226235004,-0.7790241490210319,-6.1958917649534015,41.09062592724453,10.036920324119336,2.5606733514440996,0.41989329638508566,95.43542606483929,-0.01765765460057449,-0.003030081347282578,-0.6110236563802536,0.5001398420926539,-6.252091194231328,41.48216564092474,9.942532428410189,0.0289163610432297,-0.001894763408927247,1.4761392027139664,-0.7757550341935462,0.030879712124450773,0
STABILIZE,1.000826120376587,30.394167989159186,-6.2522221037422065,41.48402347057097,9.943285509737462,-0.7769870153706961,-6.190316110192052,41.053648660244164,10.045886054112675,2.5606733514440996,0.41989329638508566,95.43542606483929,-0.01932311169082232,-0.0033576407400651618,-0.5909975323498365,0.5001539008165629,-6.255959995811921,41.48515502482961,9.940864526762647,-0.19058235920965672,0.043846803600899875,1.4672542922198772,-0.7733037272972416,0.10090645337363129,0
STABILIZE,1.0347986221313477,30.06389368732663,-6.252866639071017,41.48421624541863,9.943078512882185,-0.7778078169505735,-6.184425143011074,41.01458026816016,10.055358810839007,2.5606733514440996,0.41989329638508566,95.43542606483929,-0.02108521736973185,-0.003708646043759141,-0.6366850334561719,0.5001684204469352,-6.257068379768331,41.48568308825605,9.941996207387453,-0.2296429593116045,0.04884192021563649,1.4892819337546825,-0.770126434152214,-0.07296615051109252,0
STABILIZE,1.0669982433319092,31.15939617259004,-6.252816851761177,41.48466275615635,9.943386314168867,-0.7802907118709205,-6.1782129842511555,40.97338176090922,10.065348048067838,2.5606733514440996,0.41989329638508566,95.43542606483929,-0.022954712636881095,-0.00404317065941456,-0.6666241898999612,0.5001829426008485,-6.252440821405633,41.48760277422393,9.945481720356621,-0.028273212956264615,0.06795210065320134,1.2065984308719635,-0.761390431502176,-0.19020037119883765,0
STABILIZE,1.1019282341003418,29.269597136058174,-6.254043074702751,41.48486603543167,9.942255305705675,-0.7805821581346887,-6.171673974308609,40.93001560448222,10.0758628665202,2.5606733514440996,0.41989329638508566,95.43542606483929,-0.024909845320095148,-0.004458223227473674,-0.6359980068705586,0.5002004113412218,-6.261783634541802,41.48612082113522,9.935432141097968,-0.14323439681902528,-0.035444655804894865,1.3622029684484005,-0.7723488247166739,-0.026050721690505478,0
STABILIZE,1.1387743949890137,28.980598087446797,-6.255167790604003,41.485052501358346,9.941217249902566,-0.778537266253677,-6.1648026712507695,40.88444570844572,10.086912016899102,2.558984587171814,0.4203901392863512,95.16141253571672,-0.026963418281481834,-0.004885075633505419,-0.6039834656305569,0.5002185421504948,-6.261783634541802,41.48612082113522,9.935432141097968,-0.04151032480876893,0.1136312261223793,1.4479526318609715,-0.7723488247166739,0.10456988269788449,0
STABILIZE,1.1687419414520264,33.483714395197346,-6.254542147667889,41.48487288648342,9.941673341116006,-0.780452950878603,-6.157593848931402,40.83663741344343,10.098503902919996,2.558984587171814,0.4203901392863512,95.16141253571672,-0.029101863213179025,-0.0052442994592820065,-0.6667434610452464,0.500235245842706,-6.249465321846935,41.483564983651405,9.945511172143469,0.013973194290883839,0.06570942350663245,1.3257983140647411,-0.770875798773873,-0.12588322786875142,0
STABILIZE,1.2172205448150635,30.10575729082178,-6.253749389212258,41.48380611240286,9.942047485745759,-0.7814574796699686,-6.150042495106097,40.786557478697794,10.11064658434123,2.558984587171814,0.4203901392863512,95.16141253571672,-0.03130254946888854,-0.005612789172764554,-0.655200386290605,0.5002528986478932,-6.247925465329294,41.47693330045509,9.94507163873596,-0.12961807660758495,-0.028677986119873822,1.4664122834801674,-0.7724450324357905,-0.06975884308724263,0
STABILIZE,1.2372426986694336,56.53462730826257,-6.2535544565664924,41.483097069359,9.94169805004475,-0.78252934261915,-6.14214380954768,40.734174069511454,10.123347779994512,2.558984587171814,0.4203901392863512,95.16141253571672,-0.03362231344567483,-0.006030284415139475,-0.6598094509051624,0.5002724745949246,-6.251982874212902,41.47895866464222,9.940025470305638,-0.12961807660758495,-0.028677986119873822,1.4664122834801674,-0.7729882878717591,-0.06975884308724263,0
STABILIZE,1.2735481262207031,28.558130034248208,-6.252983315680295,41.482683443433864,9.942529130789632,-0.7837830856548141,-6.133893202161609,40.67945674476875,10.13661487081537,2.558984587171814,0.4203901392863512,95.16141253571672,-0.036060366854420975,-0.0064483848599813645,-0.6645994924792739,0.5002911286100387,-6.249030396988784,41.48070571704815,9.948381636158782,-0.029752901173196733,0.030858852551318705,1.225836668163538,-0.7735542761355924,-0.07871982449467457,0
STABILIZE,1.3051440715789795,32.1119626382881,-6.253307853787684,41.48259372134924,9.942669889432192,-0.7844841540175299,-6.125286291101379,40.62237644443726,10.150454902873602,2.558984587171814,0.4203901392863512,95.16141253571672,-0.03861850938496464,-0.006930469338232774,-0.6607899245844007,0.5003116775201621,-6.25552345453811,41.48290763914113,9.943775380133488,-0.11663520708680153,0.004477493348531425,1.2280013412237167,-0.7805139144778743,-0.021847293875211372,0
STABILIZE,1.3381619453430176,30.634364386663258,-6.253874194834171,41.482572713953914,9.942829567618857,-0.7841845058359452,-6.116318900883923,40.56290547706927,10.164874590403747,2.558984587171814,0.4203901392863512,95.16141253571672,-0.04128701924919493,-0.007443523198996337,-0.6482357557486914,0.5003330675341774,-6.257536794345955,41.4832451329581,9.943960059683747,0.12439361307770014,-0.027305205003358424,1.1470712721347809,-0.7717223422905259,-0.002163409058748648,0
STABILIZE,1.3727269172668457,29.483368480247435,-6.254182457315111,41.48274669552778,9.942714138416866,-0.7838961848562606,-6.106987060505016,40.50101750730334,10.179880318835535,2.558984587171814,0.4203901392863512,95.16141253571672,-0.04407298875440689,-0.007963483996220905,-0.6510463028104808,0.500355749270628,-6.255901732871149,41.48462908148436,9.9420389169094,-0.008052901830524206,-0.021482004376593977,1.4805590733885765,-0.7710048434066624,-0.007239286818806103,0
STABILIZE,1.40626859664917,30.124785428532437,-6.254810719353616,41.48240647533084,9.942323174036247,-0.7855420317518581,-6.097287001554677,40.436687543365764,10.195478147824353,2.558984587171814,0.4203901392863512,95.16141253571672,-0.04694494782308211,-0.008520595608184526,-0.6833525570436361,0.5003797324606821,-6.258518719349885,41.48086341132607,9.9399738038371,-0.09398237452842295,0.006607620161958039,1.3675899244844913,-0.7672469561488475,-0.12635931339824247,0
STABILIZE,1.4396650791168213,30.273728581121073,-6.254778505911719,41.482948793546804,9.94216290065027,-0.7857694766494013,-6.0872151563325705,40.36989192457209,10.211673814281696,2.558984587171814,0.4203901392863512,95.16141253571672,-0.04996795211394865,-0.009064272106820715,-0.6652554412227687,0.5004042663704471,-6.253863150581889,41.48719372413681,9.941428379092638,-0.1435787184163928,-0.06249684956856072,1.2795823626220226,-0.7807200422346611,-0.0050161069347132315,0
STABILIZE,1.4755735397338867,30.27875515257394,-6.2542799091351995,41.48354822102898,9.942648624607006,-0.7865401177942882,-6.07676815596341,40.30060830882864,10.228472735405633,2.558984587171814,0.4203901392863512,95.16141253571672,-0.05310544260178366,-0.009605486193003191,-0.6765406596012884,0.500428736166198,-6.250334777545789,41.48786694267687,9.946028393143104,0.02970968489535153,0.024398296955041587,1.2637879699468613,-0.7682075535846077,-0.07809873084745299,0
STABILIZE,1.505845546722412,33.13716877083761,-6.253822879217191,41.48340021264109,9.943045570586184,-0.788182720847732,-6.065942828512357,40.22881566013404,10.245880011711265,2.558984587171814,0.4203901392863512,95.16141253571672,-0.056321739678896025,-0.01016972378868512,-0.6936209456433977,0.5004542516616877,-6.250410784706016,41.482578254427054,9.945625482659755,-0.04467085818760097,0.14356636675074697,1.4546215534210205,-0.7680564397617792,-0.12653603120280332,0
STABILIZE,1.5448486804962158,27.37313919870519,-6.252733103799976,41.483059903732524,9.943809623059389,-0.7857839968913619,-6.054736197100431,40.15449423608065,10.26390043006118,2.558984587171814,0.4203901392863512,95.16141253571672,-0.059644065318571755,-0.010718817322285686,-0.6372552814939102,0.5004801362105027,-6.245319703972171,41.481043497474076,9.948529400043135,-0.1900712144561112,-0.006349205796141177,1.4949125237762928,-0.7715727306667199,0.11070706780129878,0
STABILIZE,1.5785953998565674,30.64130212442652,-6.251981854236259,41.482868864777664,9.944212166164318,-0.7879094434690181,-6.043145478019904,40.07762557535619,10.282538466695913,2.558984587171814,0.4203901392863512,95.16141253571672,-0.06308638160549221,-0.01131040045683417,-0.7045917071082339,0.5005074894507974,-6.247432887528657,41.482009073434824,9.9462331101973,-0.04844355280511081,0.08706318330951035,1.3729270547628403,-0.7747014619134065,-0.13316647736023288,0
STABILIZE,1.6097252368927002,33.011719334146626,-6.250449740081422,41.483298765472455,9.945173526941126,-0.786955739755341,-6.031168078849705,39.99819248524513,10.301798290264411,2.558984587171814,0.4203901392863512,95.16141253571672,-0.06667289240809128,-0.011880925008222389,-0.6608926354868004,0.500534937144985,-6.2409478934511515,41.48646115753483,9.950525802575857,0.0804527837317437,0.0006698111064906698,1.2638011947274208,-0.7613711541604116,-0.007179084104058795,0
STABILIZE,1.6443758010864258,29.375168086060064,-6.250269189229564,41.483896469009935,9.94535924377142,-0.7882728569663007,-6.018801596570826,39.916179029130284,10.321683764854487,2.558984587171814,0.4203901392863512,95.16141253571672,-0.07038138722289725,-0.012542840212522022,-0.6996318574654277,0.5005644867816246,-6.250325870453103,41.487960949079245,9.945592798931006,-0.08387123234570026,-0.008512208296451718,1.2500175274908543,-0.7621680959894271,-0.13484372902850736,0
STABILIZE,1.6774399280548096,31.048449540673186,-6.250071784915873,41.48469798359131,9.94589769450591,-0.7936386920417046,-6.00604381568172,39.83157051399429,10.342198453023276,2.558984587171814,0.4203901392863512,95.16141253571672,-0.07421459609331751,-0.013230626340728614,-0.7630674596309565,0.500594451137776,-6.2500980710845,41.489826217292034,9.948300258359584,-0.006405911699403077,-0.04916541511192918,1.2991849333047867,-0.7576561877007831,-0.3689656450253252,0
STABILIZE,1.7226717472076416,30.801063345425707,-6.249000348475033,41.48493023435755,9.946617576386474,-0.7956299782148161,-5.9928927063137065,39.74435347792114,10.363345618827701,2.558984587171814,0.4203901392863512,95.16141253571672,-0.07814058785596219,-0.013891775144948423,-0.7199656231845969,0.5006250920636618,-6.243240291093014,41.48594571445328,9.949910801177992,-0.25702042039483786,0.061151530826464295,1.1594618670642376,-0.7698610354592061,-0.12957426476426898,0
STABILIZE,1.7456448078155518,43.70796773722932,-6.2490663799297,41.48480879460175,9.94657136101375,-0.791076815211788,-5.97934642234637,39.654515677597615,10.38512823085493,2.558984587171814,0.4203901392863512,95.16141253571672,-0.08216914608626369,-0.014621856274439416,-0.6257786533169583,0.5006578353047618,-6.251247424971961,41.48347439799066,9.944864373163195,0.002167400816688314,-0.056748464703559875,1.2697170488536358,-0.7759515697867387,0.2450418943757873,0
STABILIZE,1.788907527923584,23.464112691184532,-6.249410557847415,41.48435418500702,9.946108121276472,-0.7901839753819746,-5.965403299522968,39.5620460758149,10.407548965252827,2.558984587171814,0.4203901392863512,95.16141253571672,-0.08629980308569199,-0.01539197645922856,-0.6806524435288698,0.5006921612659645,-6.253393105073313,41.48094079837867,9.941839517219927,0.06262868992052972,-0.07732699159532785,1.3640792109072208,-0.7826121882656695,0.05279632841767381,0
STABILIZE,1.8205530643463135,32.39570251253176,-6.250276413891402,41.48350283551273,9.945129525753693,-0.7901526569336583,-5.951061853565828,39.46693482897002,10.430610208760427,2.558984587171814,0.4203901392863512,95.16141253571672,-0.09053061784801099,-0.016210716454958217,-0.6945114375905733,0.5007282210245101,-6.257411593831499,41.47789280436342,9.938028954899728,0.1353734522126615,0.018260118667967618,1.3731184415519238,-0.7785060319926866,-0.009969941754102988,0
STABILIZE,1.8523249626159668,32.04939252693513,-6.251117708889504,41.48270451125119,9.944194054553062,-0.791913335634722,-5.936320778291752,39.36917327456737,10.454314061738382,2.558984587171814,0.4203901392863512,95.16141253571672,-0.09488228000584266,-0.017052848552799316,-0.7262716032410476,0.500765180010778,-6.257411593831499,41.47789280436342,9.938028954899728,-0.12388364411890507,-0.021906575420871377,1.4588701538741589,-0.7785060319926866,-0.11377451642972208,0
STABILIZE,1.8865501880645752,29.863750284802915,-6.251026852885817,41.4823117547175,9.944475124242745,-0.7934886529854995,-5.921178943727422,39.26875391872025,10.478662341199419,2.558984587171814,0.4203901392863512,95.16141253571672,-0.0993721547253231,-0.017870269083848072,-0.7256678855518081,0.500801280825435,-6.25077402844392,41.48032881492872,9.94621446853558,-0.12388364411890507,-0.021906575420871377,1.4588701538741589,-0.7771931074923546,-0.11377451642972208,0
STABILIZE,1.9214324951171875,29.040393270096242,-6.250467647733379,41.48265042805559,9.945075093807931,-0.7920623231378027,-5.905635394224795,39.165670423652315,10.503656583838811,2.558984587171814,0.4203901392863512,95.16141253571672,-0.10401579552212808,-0.0186812761790434,-0.6840751658760855,0.5008378722350463,-6.2471826122170215,41.48550271350028,9.948658220353625,-0.027410066104494035,0.025826648925431073,1.258169487118721,-0.781081364725656,0.0670293354102829,0
STABILIZE,1.955146074295044,30.089343233258006,-6.250237856588142,41.48169889038313,9.945298100696926,-0.793326184125317,-5.889689346576514,39.05991759519914,10.52929804906483,2.558984587171814,0.4203901392863512,95.16141253571672,-0.10872010929803537,-0.0195346052903796,-0.7266107421267879,0.5008759999225518,-6.249375334760096,41.476175104557825,9.946268444009684,0.07836183067411184,-0.0006988010682107415,1.035093143582344,-0.7688836462495506,-0.11961348773664997,0
STABILIZE,1.9900577068328857,29.28880974826298,-6.249204650386194,41.48207809336084,9.946541016232443,-0.7940670508407788,-5.873340188131302,38.951491370309704,10.555587722029196,2.558984587171814,0.4203901392863512,95.16141253571672,-0.113605017821804,-0.020369590460056916,-0.7219445309648447,0.5009135700586951,-6.243096636792526,41.48536597487749,9.953759929889118,0.007264896703418344,-0.07384913042187691,1.2255317531526089,-0.7775173476797539,-0.06589805197846647,0
STABILIZE,2.022744655609131,31.050518211430262,-6.249103790741743,41.481786109336596,9.947274819122843,-0.79474674448257,-5.856587474909373,38.84038880454791,10.582526316657553,2.558984587171814,0.4203901392863512,95.16141253571672,-0.11857922417157092,-0.021272615656950437,-0.724408443631878,0.5009528772463021,-6.249532745699057,41.48056973155231,9.950824041487007,0.007264896703418344,-0.07384913042187691,1.2255317531526089,-0.7768114193306503,-0.06589805197846647,0
STABILIZE,2.060926914215088,26.516019724364646,-6.249021781759075,41.48152409122383,9.947937883739456,-0.7909103153783417,-5.839430929717827,38.726608059594085,10.61011427867992,2.558984587171814,0.4203901392863512,95.16141253571672,-0.12367671984095968,-0.022188834484148073,-0.6643337443013714,0.5009932645924107,-6.249532745699057,41.48056973155231,9.950824041487007,-0.05464446730911732,0.10076098842546344,1.3453839346766472,-0.7768114193306503,0.17978442609606074,0
STABILIZE,2.0941731929779053,30.167686808167844,-6.249477332773122,41.4816113397756,9.947227709624398,-0.7863863362978143,-5.821870440266056,38.61014839074648,10.638351788661144,2.558984587171814,0.4203901392863512,95.16141253571672,-0.12891022561148385,-0.023151766478615738,-0.6468124802535041,0.5010366861185551,-6.253606965089345,41.483067143128864,9.941253949034444,-0.15358298551291227,-0.061707443092018366,1.4075255021452904,-0.7679116748211596,0.18417290267907327,0
STABILIZE,2.131068706512451,27.721588092610094,-6.249603281802306,41.48192306561265,9.947155801668337,-0.7853507624509171,-5.803906057281146,38.491010134422815,10.667238765031371,2.554877509046521,0.41917724710014503,94.8833555346055,-0.13427299051037145,-0.024127544160822554,-0.7018088641609225,0.5010801244450446,-6.251160426336208,41.48457815625425,9.945710205261467,0.059103453531861305,0.023961700208019465,1.4162972569465637,-0.770728469798112,-0.0005087290312469459,0
STABILIZE,2.162545680999756,32.366953220255276,-6.249983279899352,41.481970563320786,9.946669819532666,-0.7808690516936281,-5.785537992623278,38.36919469566175,10.696774867116499,2.554877509046521,0.41917724710014503,94.8833555346055,-0.13974542500521733,-0.025129092640036786,-0.6449337796853163,0.5011251575713758,-6.2530919282663895,41.48278261053194,9.942760754482784,0.027463823789730668,0.0283977686194703,1.2318281456828117,-0.7709309714711587,0.1892943439373928,0
STABILIZE,2.1952593326568604,30.689056200657053,-6.2500547197335425,41.481979624406705,9.946404688339001,-0.7772229071872837,-5.766766617401133,38.24470453562441,10.726959498168632,2.554877509046521,0.41917724710014503,94.8833555346055,-0.14533619352594387,-0.026138249309042683,-0.6604601897864295,0.5011708322147445,-6.250911954959896,41.482456177922074,9.944184217096666,-0.08417177596129477,0.08249632082879543,1.0255376808345318,-0.781328823928586,0.18235632582390113,0
STABILIZE,2.2288315296173096,30.08092717701565,-6.250984391618595,41.48184122747149,9.945522508672344,-0.7791645689172394,-5.747592460087294,38.117543159095895,10.757791808396552,2.554877509046521,0.41917724710014503,94.8833555346055,-0.1510371440446281,-0.0272260028969135,-0.7485486339637242,0.5012184039495863,-6.257473976317666,41.48136301993905,9.939590801194239,0.054632697720080614,0.05415952764451504,1.346342172473669,-0.7832927313361588,-0.12034940059907917,0
STABILIZE,2.263566255569458,29.514696465389243,-6.250732596499781,41.48192220106707,9.94574477339883,-0.7780605646457633,-5.728016204633643,37.9877151019868,10.789270697996166,2.554877509046521,0.41917724710014503,94.8833555346055,-0.15686991535947523,-0.028268609883269187,-0.7052537566955408,0.501265288886896,-6.2489718379898385,41.48288796657758,9.94710944651516,-0.12771018082275987,-0.006128883978817612,1.2365606613457203,-0.767728831561066,0.006076337889615671,0
STABILIZE,2.2963128089904785,30.670878670878672,-6.25087223195125,41.4815231925738,9.945615530524833,-0.775206976481856,-5.70803868858677,37.85522591883469,10.821394820180968,2.554877509046521,0.41917724710014503,94.8833555346055,-0.1628012281303137,-0.02934698266873932,-0.6791995349871479,0.5013136689344843,-6.251821577245371,41.479345225302616,9.9446882069407,0.049082416808232665,0.016060301277320832,1.290428452193737,-0.7728177588334418,0.12231873623586426,0
STABILIZE,2.337430000305176,26.255259747982798,-6.251296891466405,41.48136038962772,9.945425924120466,-0.7733751200713359,-5.687660901203375,37.72008217030565,10.854162584212503,2.554877509046521,0.41917724710014503,94.8833555346055,-0.16886171646380568,-0.030463791114511057,-0.6997169173904239,0.501363104990138,-6.2540713842972915,41.48084258441361,9.9441878017168,0.011714556603692472,-0.00682287645759061,1.2641675770282745,-0.7745953690101088,0.07463735239267053,0
STABILIZE,2.3714559078216553,29.603438662365985,-6.251310162614656,41.48135005113038,9.945344348419399,-0.7718920307077239,-5.666883981565666,37.582291410695774,10.88757215843082,2.554877509046521,0.41917724710014503,94.8833555346055,-0.17504805735673232,-0.03158236119271472,-0.7052647911610109,0.5014133417150172,-6.2511332742952,41.481928590322255,9.944886407237597,0.06193272420205176,-0.012500135926529765,1.0956932790577412,-0.778195863698876,0.05671167432842412,0
STABILIZE,2.4011576175689697,33.95730142409547,-6.251527573981489,41.48105752194924,9.944851162523582,-0.7738436324995007,-5.645709216696765,37.44186217543266,10.921621473284933,2.554877509046521,0.41917724710014503,94.8833555346055,-0.1813381122889671,-0.032743003945228784,-0.7619218850344569,0.501465155466142,-6.252733942715008,41.47972276842574,9.94188252811725,-0.11697703739628196,0.04362175823189318,1.3062220066785812,-0.7808786857511776,-0.10422204330820968,0
STABILIZE,2.4349749088287354,29.889713951797955,-6.251226022428969,41.48111548790312,9.945241925349857,-0.7716639999970536,-5.624138039676106,37.29880396857697,10.956308224363283,2.554877509046521,0.41917724710014503,94.8833555346055,-0.18776467883580403,-0.033886225187583434,-0.6976743059879362,0.5015165994485201,-6.248946875910795,41.48204791351056,9.947960438284696,0.08818437927402556,-0.08233519620262086,1.1497929692268372,-0.7787099046752437,0.12480819344598845,0
STABILIZE,2.4689443111419678,30.116133294081322,-6.2507265676217685,41.48105647040214,9.94580086742598,-0.7701732308830782,-5.602172027754847,37.153127250323855,10.991629875424195,2.554877509046521,0.41917724710014503,94.8833555346055,-0.19430333768444003,-0.03504265106989568,-0.7096583715053226,0.5015687435119973,-6.247254648095282,41.48123969358021,9.94941282815198,-0.13219414977356791,0.07206036825664341,1.2616151943802834,-0.7702834464923675,0.054892629533805755,0
STABILIZE,2.5027339458465576,30.328893516710774,-6.250260096892027,41.481006785928386,9.946319778609515,-0.7652931855623044,-5.579812900471259,37.00484342450456,11.027583661426332,2.554877509046521,0.41917724710014503,94.8833555346055,-0.20096164254766147,-0.03620973169987714,-0.6584244772250227,0.5016218958242252,-6.247254648095282,41.48123969358021,9.94941282815198,0.04779454320669174,0.07861591875553131,1.1583326384425163,-0.7702834464923675,0.245291809930301,0
STABILIZE,2.5365025997161865,30.338107224488613,-6.25018233085715,41.48070786468608,9.946489021674836,-0.7602747637016294,-5.5570625177661395,36.85396482608787,11.064166591559164,2.554877509046521,0.41917724710014503,94.8833555346055,-0.20772526020494553,-0.037415572026904445,-0.6556699130835428,0.5016765163548265,-6.249967905139417,41.47930947515499,9.94715766548758,-0.13501528883352876,0.06693647592328489,1.1617857031524181,-0.7703464121491744,0.252980601903752,0
STABILIZE,2.5701568126678467,30.738085641209793,-6.24950560267435,41.48113541556257,9.94707232961761,-0.7607234176996925,-5.533922878098211,36.70050470868162,11.10137545227342,2.554877509046521,0.41917724710014503,94.8833555346055,-0.21463439021615738,-0.03863218587982336,-0.7395278128521441,0.5017314546839837,-6.245322184608865,41.48453419103071,9.950295771489902,-0.13038201723247766,0.016806360508780926,1.1335482820868492,-0.7680598539745476,-0.05505331240207295,0
STABILIZE,2.602940559387207,31.17653529962686,-6.248880557072528,41.48153823615843,9.947606552789892,-0.7559957185284918,-5.5103961165595186,36.54447723203426,11.139206810311546,2.554877509046521,0.41917724710014503,94.8833555346055,-0.22166121926710047,-0.03985234053440418,-0.6609519988513665,0.5017874003862824,-6.245322184608865,41.48453419103071,9.950295771489902,-0.03185585665050894,0.0635678879916668,1.3250854797661304,-0.7680598539745476,0.2424803866740474,0
STABILIZE,2.6376047134399414,29.372082437552084,-6.248536125958989,41.481776499881576,9.947997893247388,-0.7551470790769065,-5.486484502990843,36.38589744953629,11.177657015738168,2.554877509046521,0.41917724710014503,94.8833555346055,-0.22879247078906895,-0.04112150501007603,-0.7218261344009457,0.5018444886837362,-6.247103174822369,41.4834972136358,9.949593499011602,-0.004903021545032971,0.04902159562334418,1.2087996117770672,-0.781850786779176,0.06999775296584763,0
STABILIZE,2.671980857849121,29.801155297243913,-6.249651068761862,41.48238220672501,9.946938519514257,-0.7574867290347599,-5.462190440097093,36.22478129572182,11.216722204970555,2.554877509046521,0.41917724710014503,94.8833555346055,-0.23605084348540903,-0.04249739705343731,-0.7725125149995603,0.5019046755281844,-6.258032985947063,41.486353007705006,9.93925609427939,0.008755391172599047,0.02268523530801758,1.2366732582449913,-0.7766894838969607,-0.11663133643157247,0
STABILIZE,2.703667402267456,31.93713546029087,-6.24945576398566,41.48226311768839,9.94676588143461,-0.7597222915474969,-5.437516461562711,36.06114557377006,11.256398303809066,2.554877509046521,0.41917724710014503,94.8833555346055,-0.24339055831474424,-0.04382799831006885,-0.7770185619359451,0.5019644486335617,-6.248520666790365,41.48126350987104,9.945242410719146,-0.2257492858916521,-0.0448424369096756,1.1506255716085434,-0.7713568196705907,-0.11392634139640942,0
STABILIZE,2.738215208053589,29.59863379108859,-6.249504134596894,41.48183901009061,9.946600248658715,-0.7599155220301981,-5.41246523016708,35.89500794300683,11.296681030467619,2.554877509046521,0.41917724710014503,94.8833555346055,-0.25083021882486195,-0.04518258980694647,-0.7478188560108335,0.5020251211727134,-6.250250269616135,41.478922732298635,9.945242991112586,-0.08074435754679143,0.009205944661516696,1.301802136003971,-0.7683912004524651,-0.002567537478116551,0
STABILIZE,2.777562379837036,26.011348907590126,-6.250533385121751,41.482815356735976,9.946075368348945,-0.7618052741316854,-5.387039535899918,35.72638690640609,11.337565898604147,2.554877509046521,0.41917724710014503,94.8833555346055,-0.2584423493747238,-0.04661496368025901,-0.7746694692101616,0.5020872357953828,-6.257821518967766,41.489217056386025,9.942532102089684,-0.043615829781629145,0.0417680072132498,1.2859818525612354,-0.7797775727559316,-0.06212175778024279,0
STABILIZE,2.8045127391815186,37.54871400051923,-6.249236300791833,41.48268229483803,9.94704811668599,-0.7585098658849218,-5.361242294076686,35.55530179809141,11.379048220351056,2.554877509046521,0.41917724710014503,94.8833555346055,-0.26612098123778677,-0.04792683830795859,-0.693668882369565,0.5021480001554977,-6.24041508435683,41.48140953195824,9.9531456174354,-0.18018968403339386,0.07439568871632218,1.3596792705357075,-0.766218756690187,0.18825946355643008,0
STABILIZE,2.839118719100952,29.263062421946405,-6.2487480399011535,41.482658906097576,9.947268884629736,-0.7602725741754477,-5.335076543453989,35.381772770837514,11.421123109345686,2.554877509046521,0.41917724710014503,94.8833555346055,-0.2739095374505557,-0.04932238704558809,-0.7784447874344933,0.502210781337074,-6.245855451468681,41.48222059531159,9.94830088796418,-0.14908931916579604,0.07778927101753652,1.0622410103678703,-0.778803827464534,-0.05341153236075758,0
STABILIZE,2.874364137649536,30.37567804404661,-6.248891205521088,41.4831704030099,9.947254385503308,-0.7614885898709867,-5.308545444344979,35.205820783571774,11.463785483760766,2.554877509046521,0.41917724710014503,94.8833555346055,-0.28183092089888534,-0.05076733051015613,-0.7745552505212548,0.5022747966473862,-6.250573454974696,41.48624671701806,9.946661550734479,-0.1375812804326415,-0.019170988525729626,1.200675591826439,-0.76798775728916,-0.06063036863269332,0
STABILIZE,2.9067440032958984,31.341473256317904,-6.249072456066808,41.48372079799298,9.946777183280759,-0.7603012593845799,-5.281652276734754,35.02746758887571,11.507030069334883,2.554877509046521,0.41917724710014503,94.8833555346055,-0.2898639625955945,-0.052221919103064764,-0.740705895175586,0.5023403793290812,-6.250875817653299,41.48684934794033,9.94330871736246,0.03383530420251191,0.02448691229801625,1.2014984153211117,-0.7654685485686188,0.07196446058062785,0
STABILIZE,2.941528558731079,30.181797248287374,-6.249841012232171,41.484108764756634,9.946055771094464,-0.7650525182169071,-5.2544004383957645,34.846735720486535,11.550851402402927,2.554877509046521,0.41917724710014503,94.8833555346055,-0.297990590279623,-0.05375567714881829,-0.8345475883221984,0.5024071934469627,-6.255518665289753,41.48592722798307,9.941290598089452,-0.03508180961944163,-0.06723305559717119,1.3114039786159992,-0.7756823510275046,-0.23392277329382966,0
STABILIZE,2.9727580547332764,32.14124570868073,-6.249175767490852,41.484361305073826,9.946706559000331,-0.7599080370839487,-5.226793443003215,34.663648480798614,11.595243832926558,2.554877509046521,0.41917724710014503,94.8833555346055,-0.3062271144201434,-0.05518530951004781,-0.6843736906197704,0.5024728059108894,-6.244727088298987,41.48516514210259,9.950981609634196,-0.014016972272656858,-0.00020907173166051507,1.248057745397091,-0.7687195568018661,0.30998250591104876,0
STABILIZE,3.006819486618042,29.613889418426496,-6.249620441964663,41.48456803441737,9.946159955735386,-0.7602958351999167,-5.198834918250465,34.478229928365025,11.64020152752467,2.554877509046521,0.41917724710014503,94.8833555346055,-0.31456029866837226,-0.05671825718261447,-0.771450482243219,0.5025410623576839,-6.25300693314471,41.485035157582296,9.942529779286154,-0.30748872086405754,-0.05598047864623368,1.273049507290125,-0.7716548522180238,-0.0016290067871546523,0
STABILIZE,3.0409069061279297,29.91060273269247,-6.249823853901051,41.484932062432826,9.945630439436497,-0.7591404295060786,-5.170528603964431,34.29050486539902,11.685718472503838,2.554877509046521,0.41917724710014503,94.8833555346055,-0.3230058221155585,-0.0582494156620168,-0.7503601708595378,0.502610132049601,-6.2513435293533615,41.48638381418485,9.942374217081554,0.002498081812518649,0.0005146473540662555,0.9977144189178944,-0.7667437091240146,0.07096111646372355,0
STABILIZE,3.0756423473358154,29.586315381088422,-6.249442166377235,41.485243089686726,9.945919582157982,-0.759349762753108,-5.141878350220994,34.10049882527558,11.731788476888788,2.554877509046521,0.41917724710014503,94.8833555346055,-0.331550393364894,-0.05977740019862,-0.7732833893081176,0.5026788033420962,-6.246882027888624,41.48624109580454,9.948098263482677,-0.0807282398454845,0.06453873356804252,1.2019194662570953,-0.7699070617706254,0.003901635506610697,0
STABILIZE,3.109867572784424,29.865238783546115,-6.2486652615947085,41.484895161230426,9.946484926058432,-0.7575957729484194,-5.112888115460391,33.90823806003288,11.778405175452846,2.554877509046521,0.41917724710014503,94.8833555346055,-0.34016889383691246,-0.061291981196209856,-0.7459824673644337,0.5027478803740916,-6.243630609028882,41.48146694721651,9.950245336992747,-0.0885672983713448,0.10638454696163535,1.202484592795372,-0.7735090193307763,0.12568389840277813,0
STABILIZE,3.1411473751068115,32.708715453241,-6.247944006507113,41.484557202442495,9.947012208581915,-0.7592943921143483,-5.083561964602632,33.71374952787382,11.825562031748406,2.556769044559791,0.41831088029261126,94.60734076005612,-0.34888413191268525,-0.06284796318461998,-0.8022053266829048,0.5028178247347498,-6.243630609028882,41.48146694721651,9.950245336992747,-0.03618066548369825,-0.06714562769047916,1.2331563048064709,-0.7735090193307763,-0.06883779474570906,0
STABILIZE,3.175645351409912,29.64067700787958,-6.2478207980229845,41.48445543879903,9.946913907650124,-0.7592291697888444,-5.053904067162888,33.517060880667565,11.873252341137388,2.556769044559791,0.41831088029261126,94.60734076005612,-0.35771026884737056,-0.06444139161067561,-0.7768110597826015,0.5028895076502309,-6.247788540223111,41.483169617691935,9.945977797881284,-0.0175804496393539,0.045254320139065385,1.1741750873625278,-0.7803158234193484,0.05668344643724492,0
STABILIZE,3.2098937034606934,30.400115967239255,-6.247675293497479,41.48467602881287,9.946819974538116,-0.7619489216315288,-5.023918695366905,33.318200451450984,11.921469233821686,2.556769044559791,0.41831088029261126,94.60734076005612,-0.36664522249148457,-0.06606936618454558,-0.8226190267889955,0.5029619738889254,-6.247559134643419,41.48554950148799,9.945957063971516,-0.0442157790530473,0.02514885854907334,1.2100336141884327,-0.7714797235299082,-0.13144627020538135,0
STABILIZE,3.246508836746216,27.456461685497704,-6.24802811720475,41.48402970663561,9.946451406297951,-0.7601593634716256,-4.993610222266398,33.11719724193023,11.970205677873643,2.556769044559791,0.41831088029261126,94.60734076005612,-0.37564221332767406,-0.06771045950477124,-0.7600999600475299,0.5030356314073635,-6.251285050398366,41.47916394755981,9.943917173689707,0.006330110045382753,-0.06956685101613402,1.1970368213951588,-0.7712699258270581,0.12695518070225997,0
STABILIZE,3.276012897491455,34.377286735296046,-6.2488264763015815,41.48379520734401,9.94590243112806,-0.7593907660056545,-4.962983119854458,32.91408090998218,12.0194544822665,2.556769044559791,0.41831088029261126,94.60734076005612,-0.38475117735980713,-0.06939755556801627,-0.7724291566328298,0.5031103280767076,-6.254879043858592,41.48197585264327,9.942473891609549,0.06706939311698079,0.04095394688192755,1.3771695084869862,-0.7684886768407206,0.05689788369469291,0
STABILIZE,3.309221029281616,30.228128716082303,-6.249729285824449,41.484212527329504,9.945086234630065,-0.7590905947074533,-4.932041957180956,32.708881757156036,12.069208299904858,2.556769044559791,0.41831088029261126,94.60734076005612,-0.39398237633240657,-0.0711101813012347,-0.7833750099379786,0.5031861830979122,-6.256143882234943,41.48682119380077,9.940112502045228,0.06706939311698079,0.04095394688192755,1.3771695084869862,-0.7754914565955464,0.05689788369469291,0
STABILIZE,3.3449461460113525,28.557546707337,-6.249692772635668,41.48428481704384,9.944942095679119,-0.766400458429537,-4.900791398467936,32.50163071617474,12.119459630655136,2.556769044559791,0.41831088029261126,94.60734076005612,-0.4032811404015258,-0.072845798428197,-0.8997708117581993,0.503261776302464,-6.249226075855649,41.48442489663774,9.944632523262438,-0.12365414295345545,-0.011343751975800842,1.0318424552679062,-0.7625387761530138,-0.42208133147744337,0
STABILIZE,3.3768389225006104,31.87645538835689,-6.249548779439234,41.48398352375699,9.94488321707628,-0.7678208848960305,-4.86923620122503,32.292359338436526,12.170200824376032,2.556769044559791,0.41831088029261126,94.60734076005612,-0.41266109732409656,-0.07455222999115287,-0.8212151817185142,0.5033379764109497,-6.248381221223187,41.481665502800084,9.945156674335763,0.04716928815469146,0.05618677823804319,1.1846737936139107,-0.7657241300597206,-0.062418971060737516,0
STABILIZE,3.411160945892334,29.767103843751773,-6.251152148366437,41.484769055553365,9.94396528773098,-0.7717224310909961,-4.837381214364854,32.08109978151644,12.221424083948977,2.556769044559791,0.41831088029261126,94.60734076005612,-0.42217465119909614,-0.07638161457975103,-0.8616099213291157,0.503416188194327,-6.262030877893933,41.48975647073945,9.938711931974858,-0.005117053660796955,0.05314134177751839,1.2956662103533745,-0.7720646397230404,-0.18869590197222333,0
STABILIZE,3.4448914527893066,30.41488582554404,-6.2529856473643175,41.48520938182821,9.943126710798634,-0.775789235851306,-4.805231376318405,31.867884796667845,12.2731214683086,2.556769044559791,0.41831088029261126,94.60734076005612,-0.43175983017295894,-0.07824076801396625,-0.8705243705052546,0.5034949921362649,-6.264610777589576,41.48754589943286,9.938820290765573,-0.005117053660796955,0.05314134177751839,1.2956662103533745,-0.7736345025045461,-0.18869590197222333,0
STABILIZE,3.4779601097106934,30.698490071653893,-6.25409245398149,41.48548940705317,9.942910097833618,-0.7796838947142019,-4.772791713150475,31.652747716323894,12.325284895473189,2.556769044559791,0.41831088029261126,94.60734076005612,-0.44142455861258373,-0.08007919397557947,-0.8735522955472697,0.5035735621964593,-6.259987021402617,41.48662132313132,9.942843632883427,-0.287249474786222,0.15363042475655675,1.2999980710446835,-0.7736557490392364,-0.18293196936467304,0
STABILIZE,3.5117948055267334,29.918070089091465,-6.254047075522824,41.485710041696386,9.942989699212026,-0.7984331769197063,-4.740067336675047,31.435722441599083,12.377906145575135,2.556769044559791,0.41831088029261126,94.60734076005612,-0.4511506780202543,-0.08199365914045219,-1.1071430222555123,0.5036523746695447,-6.251703059127756,41.486386773589416,9.944791268775873,-0.8729950524866581,-0.07657695095986128,1.2612435035407543,-0.7577182134064449,-1.070853706660701,0
STABILIZE,3.5456438064575195,30.59525858924794,-6.253990330990033,41.485910346422585,9.94307291416092,-0.7646043567609423,-4.707063442570693,31.216843429790753,12.430976863891416,2.556769044559791,0.41831088029261126,94.60734076005612,-0.46103471874533736,-0.0835060426955793,-0.2977354076266633,0.5037318559245958,-6.251703059127756,41.486386773589416,9.944791268775873,2.217838540673256,-0.9729277342557907,1.1141038499772549,-0.7577182134064449,1.9048699635209752,0
STABILIZE,3.5784642696380615,30.566273138026528,-6.25507686462277,41.48382587926274,9.943351081383772,-0.767536992267357,-4.673785308495987,30.996145681880577,12.48448856387403,2.556769044559791,0.41831088029261126,94.60734076005612,-0.4708441420565147,-0.0853795004550109,-0.8578427503871784,0.5038117062237354,-6.260730000134121,41.469337524441684,9.946154842038762,0.7884116843342781,-0.2984354505315423,0.9236441925168037,-0.8020600341327591,-0.09111376303261806,0
STABILIZE,3.6123430728912354,29.87736494187372,-6.254192109489312,41.481048604074395,9.94308593957267,-0.7567340442625734,-4.6402382922048995,30.77366473003609,12.53843263018047,2.556769044559791,0.41831088029261126,94.60734076005612,-0.48072446617879266,-0.08705426764733447,-0.6488698173747707,0.5038930200359117,-6.246056442636818,41.46308956105513,9.942261913720271,-2.8891386464238167,1.958238147199154,1.326289214193821,-0.7889794985572394,0.6417027825467506,0
STABILIZE,3.646597146987915,29.92596820685522,-6.25025794639785,41.47835768340876,9.94338053161595,-0.7228282344041035,-4.6064278296622,30.54943662511218,12.59280032170418,2.556769044559791,0.41831088029261126,94.60734076005612,-0.4907254328362323,-0.08838923624417878,-0.2867471584361826,0.5039741296851323,-6.222130740022195,41.46228148429273,9.946155688576244,-0.04490562714636326,-1.2716233730316162,0.9532374329864979,-0.7499624910802518,1.7986775974002018,0
STABILIZE,3.679568290710449,30.720750018310994,-6.247362475561334,41.47970241843505,9.944870804869494,-0.7321637019690971,-4.572359433158866,30.323497924152623,12.647582774605015,2.556769044559791,0.41831088029261126,94.60734076005612,-0.5009180273368921,-0.09015840378750964,-0.93740018990202,0.5040540679546033,-6.228224049612004,41.49105432053567,9.955006527048337,2.3029474541544914,1.0559279471635818,1.3949627988040447,-0.7046837315172992,-0.7780875730067421,0
STABILIZE,3.719717264175415,28.184685683566844,-6.247855302712938,41.4820194551333,9.947036499653468,-0.7417981880521073,-4.538038689427475,30.095885677891573,12.702771005339688,2.556769044559791,0.41831088029261126,94.60734076005612,-0.51122627475766,-0.09211712094607513,-0.9492852277744653,0.5041336017585293,-6.252888537054159,41.4989101945674,9.96071693293776,-1.061860378831625,-0.816180557012558,1.3604585081338882,-0.6777453335450214,-0.8130738830088101,0
STABILIZE,3.7493977546691895,35.11993837291087,-6.248995311684893,41.48315591560528,9.948468418636788,-0.7286932239817887,-4.503471257757618,29.866637418255078,12.758355913692254,2.556769044559791,0.41831088029261126,94.60734076005612,-0.521591098891702,-0.09391726498671245,-0.6141911251687638,0.5042148312425832,-6.258049522632824,41.49114540392562,9.956484608937421,0.05095585947856307,-0.7303755264729261,1.4387455768883228,-0.7383799497038122,0.6790764037462969,0
STABILIZE,3.7864840030670166,27.24759473277335,-6.250072441654162,41.48422088914984,9.949801830881114,-0.7070541517284135,-4.468662868111293,29.635791145862573,12.814328285804542,2.556769044559791,0.41831088029261126,94.60734076005612,-0.5320396015981953,-0.09564318820897877,-0.5026021172224666,0.5042967896823851,-6.258049522632824,41.49114540392562,9.956484608937421,-0.6353497970849276,0.832985807210207,0.6231116596609354,-0.7383799497038122,1.1384933901764547,0
STABILIZE,3.8181540966033936,33.31509634783714,-6.252786451019359,41.48410744187027,9.95342114962222,-0.7005081799479406,-4.433619319238314,29.403385317528425,12.870678797206631,2.556769044559791,0.41831088029261126,94.60734076005612,-0.542479820184112,-0.09759793847033392,-0.6771978978107742,0.5043758864713767,-6.271256355685628,41.48290114664047,9.974247181432037,-1.348298229277134,0.22887876257300377,0.7831868715584278,-0.7198904095383653,0.25735341707644105,0
STABILIZE,3.8476548194885254,34.32692512296725,-6.258684529106533,41.484130868883426,9.95739554478682,-0.6788518396209247,-4.3983464767917075,29.169458833763414,12.927398015847302,2.556769044559791,0.41831088029261126,94.60734076005612,-0.553019288517211,-0.0995760214539219,-0.4195755318457686,0.5044550037065907,-6.298518522617272,41.483954254032874,9.980133775737617,0.0366261723684147,-0.9006591513752937,4.697507247328758,-0.7251267638490754,1.2233176162005488,0
STABILIZE,3.8825273513793945,29.96937543318114,-6.268441203594869,41.484347034216,9.965815918115304,-0.6311182885038349,-4.3628502714431185,28.934051026276233,12.984476405124504,2.556769044559791,0.41831088029261126,94.60734076005612,-0.5636795669420405,-0.10149456061667379,-0.03601514392445848,0.5045279907305138,-6.332717221699957,41.48543895732515,10.01592850539367,0.6811115425080061,-2.306397259235382,7.54438191652298,-0.7363290977424954,2.7220472427562292,0
STABILIZE,3.915163516998291,31.356000119613647,-6.27764455842104,41.484551318352025,9.973718420710043,-0.5838887174910377,-4.3271366969982115,28.697201645475033,13.041904326915803,2.556769044559791,0.41831088029261126,94.60734076005612,-0.5744070130391234,-0.10338431587730476,-0.002429033413288817,0.5046022788593086,-6.332717221699957,41.48543895732515,10.01592850539367,2.725665271282196,-1.3968118466436863,12.785278260707855,-0.7363290977424954,2.5685511208780634,0
STABILIZE,3.9492650032043457,29.633138101327532,-6.290175439728501,41.47573839036423,10.007129750004813,-0.5654969908362961,-4.2912118085120765,28.458950847968918,13.099672044608848,2.556769044559791,0.41831088029261126,94.60734076005612,-0.5847404586587602,-0.10572449952905685,-0.43183766679803565,0.5046388134419061,-6.364191046395961,41.41640708448524,10.211716904583398,-0.7897135801613331,0.737720774486661,11.639837175607681,-0.5976137103374777,0.5091568785654237,0
STABILIZE,3.9825499057769775,30.558924030804427,-6.303672401689433,41.465395320888625,10.048221106047276,-0.5467569589207647,-4.255081720404626,28.219339184069426,13.157769726131828,2.556769044559791,0.41831088029261126,94.60734076005612,-0.5950679457817748,-0.10811293072848165,-0.40415185068598264,0.5046643229301269,-6.378168264743943,41.40070385982619,10.284983720301929,-0.7897135801613331,0.737720774486661,11.639837175607681,-0.5677964538397562,0.5091568785654237,0
STABILIZE,4.0212178230285645,27.269561599126188,-6.318209837582889,41.453465080521156,10.110264139685073,-0.35241679140172255,-4.218752604575999,27.978407585292075,13.216187446983934,2.556769044559791,0.41831088029261126,94.60734076005612,-0.6057204503484028,-0.10870057991907184,2.1187459201333216,0.5046588849609482,-6.395377537691266,41.382705189173464,10.465667416679027,-4.330213740468025,2.966604568064213,7.233235239982605,-0.49770207108030634,10.327211020339783,0
STABILIZE,4.049661159515381,36.3694255365272,-6.333714219208545,41.440010132085014,10.182393466394148,0.13135842769047557,-4.182230688521966,27.73619735185786,13.27491519326581,2.556769044559791,0.41831088029261126,94.60734076005612,-0.6169165827692191,-0.10616009094904906,7.7869718381647575,0.5046387825903075,-6.411601343258857,41.36644359041172,10.564857621128464,3.501506894826889,-0.1135215163230896,6.7013271152973175,-0.4909270041870245,26.330107750379646,0
STABILIZE,4.083388805389404,29.967020090880514,-6.350074732950783,41.42803050565334,10.281109805113324,0.11364044493536107,-4.145522253449331,27.49275014019477,13.333942864710023,2.556769044559791,0.41831088029261126,94.60734076005612,-0.6273050083218717,-0.10898364244672325,-0.4832557763175751,0.504579249589395,-6.432106986373434,41.365815243599926,10.826501283755547,-6.8581052124500275,0.9382328949868679,14.415541291236877,-0.46714482756983156,-1.692433791417242,0
STABILIZE,4.1187052726745605,29.332438178359627,-6.379501254974185,41.42201617910915,10.487205487382369,0.3389255283693165,-4.1086336323913235,27.24810795043924,13.393260277711516,2.556769044559791,0.41831088029261126,94.60734076005612,-0.638486357845161,-0.10976844289339704,3.201827942391929,0.5043590821854937,-6.5408423275757634,41.40586158067504,11.664748750665243,-2.7195310220122337,-0.6452265661209822,12.612053751945496,-0.0001077130778979439,10.262186765667616,0
STABILIZE,4.159501552581787,31.57077694311048,-6.411678494757723,41.42007628232623,10.713064388582875,0.5679703709734596,-4.071571208323025,27.002313113937795,13.452857168358058,3.9210604845689336,0.6033865418808898,92.79118662956056,-0.6499273148580322,-0.11056820343326418,3.578798137888566,0.5041096891696628,-6.5796387163206145,41.43187160919773,11.920300921900623,-2.7195310220122337,-0.6452265661209822,12.612053751945496,0.17849857788584564,10.262186765667616,0
