Mode,Time,Freq,North-Vision,East-Vision,Down-Vision,Yaw-Vision,North-Desired,East-Desired,Down-Desired,Roll-UAV,Pitch-UAV,Yaw-UAV,Roll-Control,Pitch-Control,Yaw-Control,Thrust-Control,northVraw,eastVraw,downVraw,yawVraw,zGyro
GUIDED_NOGPS,0.020884037017822266,47.956277655183456,274.0249304001028,74.76348406990599,18.50888615140735,-0.0021934684095072303,273.96302159660115,68.69075782477702,50,0.6030189923261785,-0.3893796397114653,91.31569501410856,10.0,-0.16837018622548397,0.0043869368190144606,0.5062982227697185,274.0249304001028,74.76348406990599,18.50888615140735,-5.485864492177583,-2.3491269600363753
GUIDED_NOGPS,0.0453794002532959,40.82842402414095,275.0904406940281,76.14548704065265,19.460512835272116,-0.046771178540080185,273.9628002496991,68.69055225601961,50,0.6786406590215911,-0.5262971315658649,91.24461323541622,2.5656965046642126,-2.148758488748083,0.09354235708016037,0.5061078974329456,276.15595098795336,77.52749001139932,20.412139519136883,-2.9206331554877636,-2.864788975654116
GUIDED_NOGPS,0.08539152145385742,25.000619903676505,275.44561079200315,76.60615469756821,19.777721729893702,-0.10752301144578785,273.9612686837507,68.68912986381086,50,0.8027715565020509,-0.8094796560406496,91.10794798031344,0.9085372104902132,-0.5515936613035399,0.2150460228915757,0.5060444556540212,276.15595098795336,77.52749001139932,20.412139519136883,-2.9206331554877636,-2.3491269600363753
GUIDED_NOGPS,0.12311077117919922,26.518366779206655,274.7328655223474,77.1171645209262,20.20229110279989,-0.204571191192546,273.9571654749076,68.68531914165722,50,1.0510804157352198,-0.9390104583902391,91.02504314416782,1.019725380141195,0.8835643863209562,0.409142382385092,0.50595954177944,272.5946297133802,78.65019399100017,21.475999221518443,-3.139590835344066,-2.521014298575622
GUIDED_NOGPS,0.15505170822143555,31.3180711736332,274.62335372834576,77.74159749350432,20.65231134045722,-0.2906013972452177,273.9492817712374,68.67799740752737,50,1.2988939795318573,-1.1301671761347976,90.98761370751616,1.3010188527774291,0.11135133396466282,0.5812027944904354,0.5058695377319086,274.18530655233917,80.23932938381681,22.45239229108654,-0.7561947443126371,-2.2345354010102105
GUIDED_NOGPS,0.19850635528564453,23.016160629523743,274.589650894548,79.0691364385111,21.563888276558792,-0.33223668105035664,273.93646056759405,68.66609013041138,50,1.883519859392573,-1.5177947122415958,90.9119420417016,1.8670850220410793,-0.02127227260926569,0.6644733621007133,0.5056872223446882,274.4211367255591,81.40117879493985,23.066770831915207,-2.124656216701311,-0.8594366926962349
GUIDED_NOGPS,0.2320401668548584,29.82955571833951,274.09012581136597,79.89683292923162,22.03995752308771,-0.38254089069263986,273.91759598048776,68.64857025687986,50,2.173113263455355,-1.6837197506967752,90.89753034255287,1.5997075476355511,0.6732780700945703,0.7650817813852797,0.5055920084953824,271.09297531227384,81.6659724650019,22.79248575178149,-0.6178817764821503,-0.7448451336700702
GUIDED_NOGPS,0.266096830368042,29.3702313595877,273.92707329481107,81.04096588179918,22.501582687401587,-0.40676559768296155,273.8916325229552,68.6244575376431,50,2.3343945203268666,-1.6976951715122675,90.89421770080541,2.0669824986578145,0.19731847019177162,0.8135311953659231,0.5054996834625197,272.78570567892683,83.24815477423716,22.720265340706273,-3.277467059757285,-0.2864788975654116
GUIDED_NOGPS,0.3004457950592041,29.121448607215264,273.96879412492444,82.30811673058648,22.611069692326886,-0.4144241090314871,273.8575643794296,68.59281785411017,50,2.4740913122040795,-1.6532874159629602,90.89712736139184,2.2935132285933526,-0.11907445745080855,0.8288482180629742,0.5054777860615346,274.35869704100975,84.98594823493661,22.023434246144927,-2.7952618647745027,0.11459155902616465
GUIDED_NOGPS,0.343447208404541,23.256725885510235,273.8364544889969,83.48369349622487,22.55742372839087,-0.4199333407419949,273.81443468061093,68.55276254494811,50,2.6099299009738814,-1.4451208591424254,90.93246676015748,1.9715776102017102,0.10128453170108946,0.8398666814839898,0.5054885152543218,275.0972339005332,86.11721321200882,22.184162471406452,-8.466038316537436,0.2291831180523293
GUIDED_NOGPS,0.3856019973754883,23.725586025884695,273.8502228663064,84.71426872025579,22.419805623000933,-0.41044148258892044,273.7613347783358,68.50344773264106,50,2.787419410189244,-1.2518485970241613,90.98456744314633,2.131506869875055,-0.08601675001078281,0.8208829651778409,0.5055160388753999,276.2660980064299,87.55405491509441,22.378680304965503,-5.283808763480266,0.8594366926962349
GUIDED_NOGPS,0.4217524528503418,27.672388995183745,274.54144751918477,86.34071281617635,22.87139126685571,-0.39628769042733286,273.697403520448,68.44407365004939,50,2.86779515535125,-1.051639530751809,91.05342258016924,2.887165696752821,-1.1085514191722643,0.7925753808546657,0.5054257217466288,278.1244269364068,89.79819294460471,25.050413971055377,-4.1518734195917375,0.6875493541569879
GUIDED_NOGPS,0.46247410774230957,24.559259411065504,275.03107356784005,87.84023192122272,23.703183717333097,-0.3567528200976725,273.6218265256682,68.37388396696886,50,2.912336099589373,-1.0684054040083688,91.10688247080293,2.643355572058008,-0.7923731672602571,0.713505640195345,0.5052593632565334,278.1023149415814,90.74575029946902,26.879227593093212,-5.69096531429642,1.604281826366305
GUIDED_NOGPS,0.4971463680267334,28.850625945797223,275.5578608803952,89.16889884991456,24.922269200596478,-0.3125879734363568,273.5338354584643,68.29216511668973,50,2.9910175309503924,-1.0160239362116006,91.1700480602472,2.8154776525406575,-1.031339447475353,0.6251759468727136,0.5050155461598808,278.63543522599986,91.6292828783958,28.118861662461814,-9.364005178544858,1.5469860468532228
GUIDED_NOGPS,0.536130428314209,25.65841423651257,276.46557652369245,90.4284792456093,26.316482796554283,-0.26484959301239247,273.43270730392163,68.19824562255593,50,3.058023607698922,-1.1049778653626137,91.24737263184092,2.650817476713878,-1.5072335985537362,0.5296991860247849,0.5047367034406891,278.35470045865156,92.4151151904825,29.155230451195482,-3.737652592981732,1.6615776058793874
GUIDED_NOGPS,0.5729660987854004,27.15199223175271,276.6633717272017,91.24157251069205,27.894696632858892,-0.18953395939290288,273.3177636426127,68.0914954245242,50,3.199178218077109,-1.2240501539890327,91.3562731679676,2.3135983963196383,-0.6599114395431279,0.37906791878580576,0.5044210606734282,274.36806730700084,91.6195212405081,30.269749486488553,-2.360570874410925,2.46371851906254
GUIDED_NOGPS,0.6089181900024414,27.8245732746897,276.7597546244251,91.78009384729985,29.04225366335428,-0.1144815741704524,273.18836992546784,67.97132520572322,50,3.2141239526415664,-1.2643024864803276,91.3864284531532,2.0892582568766187,-0.5667564857775522,0.2289631483409048,0.5041915492673291,275.12976021879706,92.49079962764371,30.788199123532323,-6.9849897864153405,2.46371851906254
GUIDED_NOGPS,0.6453568935394287,27.446400293159183,276.95219988718986,92.33552196306547,29.90205505105276,-0.03276896267433206,273.0439347486449,67.83718571901274,50,3.298410407990228,-1.589689817053679,91.52583261411317,2.1495149684673263,-0.7364752348654909,0.06553792534866412,0.5040195889897895,276.6367960026507,93.5228908782972,31.178234531585606,-6.462486175657602,2.6929016371148693
GUIDED_NOGPS,0.68985915184021,22.47618843476537,276.12017816187387,92.31464273021308,30.358679497311744,0.07396242093029244,272.8839091283996,67.68856711354276,50,3.1883609059791014,-1.6730373348348753,91.71046628775694,1.5206360788228679,0.5277457645460484,-0.14792484186058488,0.5039282641005377,269.60992420390176,91.52488671413379,30.401983893756736,2.6475992566067816,3.380450991271857
GUIDED_NOGPS,0.7285318374633789,25.864262545786417,275.54975927984776,92.5204818293243,30.45708782433108,0.1933430744202488,272.7077857759554,67.52499826131263,50,3.0527060919866553,-1.647259774020424,91.85064226009312,1.8110145652540117,0.308123177779839,-0.3866861488404976,0.5039085824351338,273.5610758801981,93.4443106860385,29.647272086292165,-5.536639765498663,3.0939720937064457
GUIDED_NOGPS,0.7771854400634766,20.557290594520413,275.05622993211176,93.00628185549824,30.273933641755338,0.3180899736604253,272.51509837237415,67.34604608373022,50,2.7989240100724846,-1.4459841310204917,92.05958457699298,2.015010286853917,0.12747521068131956,-0.6361799473208506,0.503945213271649,274.15408015969336,94.04852137137777,29.353978573609865,-2.245919994661648,3.724225668350351
GUIDED_NOGPS,0.8142986297607422,26.948580386916046,274.7905948349841,93.48211516353233,29.99049875560928,0.47063307417826494,272.3054208434255,67.15131487817102,50,2.6097207264305498,-1.1531630356880553,92.18814239755096,2.236887718495997,-0.1019599388032189,-0.9412661483565299,0.5040019002488781,276.5103544489791,94.86996616781418,29.371024692802017,-8.301850914620132,3.552338329811104
GUIDED_NOGPS,0.853461742401123,25.5388961956257,274.560051583775,93.75153022143573,29.629056787852562,0.5952677603762194,272.0783666344577,66.94044564453739,50,2.3967266132489913,-0.6589415396816282,92.37590429783461,2.023462783530659,-0.17357218482133838,-1.1905355207524388,0.5040741886424295,276.5103544489791,94.86996616781418,29.371024692802017,-8.301850914620132,3.8388172273765155
GUIDED_NOGPS,0.8853609561920166,31.35834442334435,274.82783747652235,94.42054611217179,29.422864947661616,0.7301917571250529,271.83358798526723,66.71311541181753,50,2.3545570253133326,-0.5105672592681784,92.44992988805922,2.720884241588182,-1.0222623142783096,-1.4603835142501058,0.5041154270104676,276.5103544489791,94.86996616781418,29.371024692802017,-8.301850914620132,3.724225668350351
GUIDED_NOGPS,0.9173407554626465,31.278134484738658,274.9069967853626,94.61310118734316,30.099730448784953,0.8222526510016235,271.57077520496915,66.46903656464478,50,2.3051760382746096,-0.25536113627291296,92.57059884012583,2.162053741358717,-0.7720657276284513,-1.644505302003247,0.503980053910243,275.76303468951915,94.4070860618954,33.03159959190885,-30.09361917518072,3.4377467707849396
GUIDED_NOGPS,0.957855224609375,24.688496606607846,274.91954197052564,94.8229260747956,31.343744173253913,0.9246861415466999,271.2896559468672,66.20795616985666,50,2.279334230993278,0.0804619229394245,92.79908915843026,2.1120727968324915,-0.622642295892347,-1.8493722830933998,0.5037312511653492,276.7371574839552,95.09764580864,35.57404719595468,-8.071822440797717,3.4377467707849396
GUIDED_NOGPS,0.9983515739440918,24.6976552471353,275.75244050577504,94.85474657962672,32.967261222513336,1.0527515029855439,270.98999448332387,65.92965530305408,50,2.3805640377952137,0.025672706738520974,92.93975690438667,1.9712733983303152,-1.7315429438105867,-2.1055030059710877,0.5034065477554973,276.27311248589706,95.02906869196973,37.48860993909915,-6.3001022813033245,3.323155211758775
GUIDED_NOGPS,1.0332579612731934,28.65274893430976,275.773857860823,94.74531718256284,34.787359670579086,1.192724095012848,270.67159098063064,65.6339483751604,50,2.3941702015087025,-0.06985637338611365,93.05148513882975,1.8923669805651104,-0.8497785348317222,-2.385448190025696,0.5030425280658842,273.73241472058163,94.3228191824948,38.47151693313078,-3.999967064423643,3.724225668350351
GUIDED_NOGPS,1.0734763145446777,24.869135216862826,275.99360132611696,94.78209010050229,36.83319129126315,1.3128732530969418,270.3342807738779,65.3206824589807,50,2.418769768134738,-0.33347614218049765,93.20677631979915,2.0499154552745598,-1.0961489256311983,-2.6257465061938836,0.5026333617417473,275.9120278820451,95.05383075751145,39.600182796222335,-5.986008434670566,3.724225668350351
GUIDED_NOGPS,1.108626127243042,28.457760860862898,275.8364160242653,94.8905734945259,38.13020870638102,1.4572742835159391,269.9779336418252,64.98973661576075,50,2.4647789896010015,-0.5054641474628269,93.30519934573904,2.2315021301426827,-0.7026608504853927,-2.9145485670318783,0.5023739582587238,275.25287203416576,94.9495030320134,39.51668666749818,-8.400422031481739,3.9534087864026803
GUIDED_NOGPS,1.1508440971374512,23.68953929049494,275.5031266075845,94.76662362532606,38.79296247199204,1.577602317505808,269.60245308177156,64.6410212217463,50,2.462107745305292,-0.8843318058765252,93.51513204006855,1.9580682532024334,-0.4716608930197441,-3.155204635011616,0.5022414075056016,273.8440391155322,94.47789646264084,38.8878160240098,-6.980677693035474,3.8388172273765155
GUIDED_NOGPS,1.1921663284301758,24.206473059698048,274.8528030387695,94.5074863839528,38.76878453641707,1.7390884351788667,269.2077755844252,64.27447729474217,50,2.5144485521321576,-0.9986583936902547,93.69766884563714,1.8569243568365927,-0.09622330090677683,-3.4781768703577334,0.5022462430927166,271.30776589845897,93.73338248510329,37.36772026122428,-1.1504982377692983,4.239887683968092
GUIDED_NOGPS,1.2310826778411865,25.702912050201,274.35916813370306,94.3910031221951,38.106504848221974,1.8964142919859703,268.79386990877384,63.89007582067135,50,2.5863870926784935,-1.0656794114775932,93.87076632977278,2.046567088507398,-0.2969648583530199,-3.7928285839719407,0.5023786990303556,271.8139554489881,93.74040287370643,35.16011849215527,-3.5523754219045287,4.010704565915763
GUIDED_NOGPS,1.270721197128296,25.236486161251506,273.7590695992488,94.1077277630882,36.922982054899734,2.0351336481249396,268.36073635695504,63.48781708013421,50,2.6779933763832933,-0.9579421419439277,94.0129093965899,1.9027337844969912,-0.17436870361448287,-4.070267296249879,0.50261540358902,271.93636920832097,93.63745396197692,33.68256882961115,-3.5303552075713043,3.666929888837269
GUIDED_NOGPS,1.304342269897461,29.746625910454537,273.3920695556993,93.92186390788126,35.628968317718794,2.1666422087487835,267.90840604912603,63.06772997496759,50,2.718918162342717,-0.76065767729681,94.16001118074448,2.070267858004842,-0.5195847249890289,-4.333284417497567,0.5028742063364562,273.3371121375013,94.02018375597862,33.0466179815935,-6.176627773572932,3.4377467707849396
GUIDED_NOGPS,1.341522455215454,26.905190773099324,273.24410194444516,93.74042709835187,34.3641394297916,2.248381310812053,267.4369401983338,62.62987135480398,50,2.7289551253280506,-0.6098364816132033,94.23616778999012,2.089377591605172,-0.8531556707368971,-4.496762621624106,0.5031271721140417,272.54867383054835,93.5707124149939,32.56367158437383,-2.0784751452269603,2.2345354010102105
GUIDED_NOGPS,1.3882789611816406,21.392088459106024,273.33991428787914,93.99809216773996,33.49002413144615,2.291777324209662,266.9464293853856,62.17432534363061,50,2.691946385640571,-0.30366076562780525,94.31578047495579,2.467003656063628,-1.0868966010402819,-4.583554648419324,0.5033019951737108,276.6785266295169,95.0217078320437,32.997143769496994,-6.333931370593248,0.5156620156177409
GUIDED_NOGPS,1.42600417137146,26.514511122770863,273.2981757970057,94.13576573623152,33.30239505632734,2.306166645093957,266.4369928337186,61.701202666348664,50,2.6731887651890123,-0.12599908762059042,94.30627285163112,2.544683053245807,-1.116242719086833,-4.612333290187914,0.5033395209887346,274.9189641071779,94.42877071616428,34.22197311656124,-5.087262797648975,-1.2032113697747289
GUIDED_NOGPS,1.4589159488677979,30.39086456250181,273.34484716692884,94.30524018213964,33.584537349587904,2.24879596437611,265.9087776842704,61.21063997533235,50,2.6484521678927533,0.02956297971851925,94.2375611485808,2.7301482964073758,-1.40163899836068,-4.49759192875222,0.5032830925300824,274.2174100749177,94.48482619151751,35.09328029591399,-4.695325981931916,-2.5783100780887045
GUIDED_NOGPS,1.4942383766174316,28.31578520988888,274.0843957034503,94.71255936000999,34.314956976081106,2.1427489450720483,265.3619582703488,60.70279917698808,50,2.674319374940061,0.017282299590836325,94.11685121537916,3.0334262287438523,-2.462607925356637,-4.2854978901440965,0.5031370086047838,277.22415419063054,96.05677964533034,36.69871611405949,-3.290366820410398,-4.1252961249419275
GUIDED_NOGPS,1.5342767238616943,24.982899211969954,274.2221180163996,95.04209763599923,35.187235886918494,1.9840655306186405,264.79673539250234,60.17786675831361,50,2.762582707932962,-0.07627426992626622,93.88827893480469,2.888481507735028,-1.5493512172678252,-3.968131061237281,0.5029625528226163,272.9157339525825,95.21840379494012,36.92506613856075,-3.435176689459496,-5.901465289847479
GUIDED_NOGPS,1.5707714557647705,27.40712376745493,274.93722067026226,95.58884665091173,36.24016447123956,1.742916363838818,264.21333559339,59.63605311345719,50,2.88641766612329,-0.34057473644055075,93.6127422734972,3.2943295763352407,-2.544017659488712,-3.485832727677636,0.5027519671057521,277.6571904392226,97.75545290660615,38.261786691102316,-4.681539818356271,-8.13600069085769
GUIDED_NOGPS,1.6094493865966797,25.858522089739953,274.8162281217787,96.13079547602024,36.94762675197519,1.4692321738489202,263.6120104326516,59.07759187027665,50,3.0466475007494425,-0.6448831427398907,93.29138870323727,3.3061232476291007,-1.4237390786280701,-2.9384643476978405,0.502610474649605,272.3691717496326,97.13851484170684,37.7592845202394,-4.094380665113093,-9.11002894258009
GUIDED_NOGPS,1.6546649932861328,22.121973217158317,274.8148151568208,96.97361882335254,37.48650912973509,1.129683790604142,262.9930357617778,58.50273921689861,50,3.1827637793976877,-1.1657331450818176,92.76495187295853,3.508860697147875,-1.5322028004687516,-2.259367581208284,0.502502698174053,272.53737011088555,98.69894292817904,37.787692184713485,-0.20121767777828836,-10.714310768946394
GUIDED_NOGPS,1.6999967098236084,22.08121127249946,273.92994638356384,98.04401790634837,37.14122158520236,0.6878286656026488,262.3567109989803,57.911773228277596,50,3.265635104927687,-1.5954833115737308,92.19866771906194,3.8150415079875932,-0.5577907346237888,-1.3756573312052975,0.5025717556829595,269.59957644346105,101.40877506030948,34.97227839139584,1.5782543341329642,-12.146705256773453
GUIDED_NOGPS,1.73335599899292,29.983086590082138,273.1521956054193,99.68487203620538,36.29106830777533,0.20305637258217252,261.7033584040619,57.30499319275518,50,3.259782059695809,-1.7386081113623497,91.8295574661253,5.171230313473465,-0.6380490075989563,-0.40611274516434503,0.5027417863384449,268.6969578820216,103.42267444422521,32.67429975142561,-0.4495482453175299,-12.433184154338864
GUIDED_NOGPS,1.7753691673278809,23.806789608414075,272.4621390813073,100.81831634372918,35.173570919839996,-0.19015707369089932,261.03332235328656,56.68271893861908,50,3.265897853767321,-1.7428356782934702,91.2759159923824,4.249325040646529,-0.8006061370438894,0.38031414738179864,0.502965285816032,268.6969578820216,103.42267444422521,32.67429975142561,-0.4495482453175299,-13.06343772898277
GUIDED_NOGPS,1.8128035068511963,26.719056173476538,271.2946215796722,103.01973517131339,33.33349089033494,-0.6994562718657756,260.34696861424976,56.04529016066241,50,3.3979845342486703,-1.6304957150328623,90.81257644965625,5.781171052564163,-0.14855518755371666,1.3989125437315513,0.503333301821933,267.88401417754966,108.14560897962797,28.558884372714154,1.672615524864824,-13.2926208470351
GUIDED_NOGPS,1.8502144813537598,26.73523581267569,270.86055180817345,105.61034146193447,31.329890780371613,-1.1512585365508952,259.6446836207485,55.39306574674271,50,3.5733615940197954,-1.2498104258871472,90.30694437558937,6.399525799925808,-1.1706093052371336,2.3025170731017903,0.5037340218439257,269.4431757805927,111.65197438128436,27.769691634896812,1.1195492776961657,-13.2926208470351
GUIDED_NOGPS,1.8905999660491943,24.76780536774041,270.4551641337171,108.61161228914128,29.828977725885267,-1.6281898700220594,258.92687374765114,54.72642310434112,50,3.8055052097565425,-0.8002301925222772,89.79110116871333,6.777960584545292,-1.2224383732671165,3.256379740044119,0.5040342044548229,274.4140890435721,116.41512919634346,27.46771311896411,-7.371781885944856,-13.980170201192088
GUIDED_NOGPS,1.9286577701568604,26.282899807623618,270.1400304917292,112.1173608354499,28.85809807804234,-2.1670535311341865,258.193964585768,54.04575748712158,50,4.158450539361897,-0.40745328075067105,89.25204214884842,7.788717576872599,-1.4156667891178598,4.334107062268373,0.5042283803843916,269.84810261372917,120.95141717576833,27.819901512210958,-2.9369695138839944,-14.32394487827058
GUIDED_NOGPS,1.9675788879394531,25.696140957072053,270.270285039789,116.46221957910777,28.14416497645842,-2.681171605673743,257.44640021672126,53.35148132148987,50,4.492427152981657,-0.007965814841233152,88.76556875540342,8.87849685310143,-2.063142997515465,5.362343211347486,0.5043711670047083,273.5794064953637,125.14696816251453,29.10463424350602,-37.96747463155994,-13.922874421679005
GUIDED_NOGPS,2.011911630630493,22.561180799104935,271.26391373900447,120.89490656661943,28.6236361754173,-3.1990507265867087,256.6846424878149,52.64402353315285,50,4.887440471458766,0.18630808384664274,88.18455871365629,8.565924046728234,-3.0180138845817046,6.3981014531734175,0.5042752727649166,277.54860603718487,130.3090439171862,30.956240367508542,-40.06622726258024,-13.80828286265284
GUIDED_NOGPS,2.049294948577881,26.75245882818181,270.97084235270466,125.04040246402147,29.537683696051865,-3.7558655731315467,255.9091702869053,51.92382887367751,50,5.360812708302023,0.25173457262790067,87.67729422437777,9.43368384933316,-1.7323138722687863,7.511731146263093,0.5040924632607896,266.3523867916234,132.37945386829455,32.33992923806964,-4.712776755603755,-12.948846169956605
GUIDED_NOGPS,2.0894412994384766,24.91685478696861,271.0777803367365,129.26945584171534,30.759605851539778,-4.206558120271182,255.1204788172708,51.191357247050206,50,5.814805990922662,0.20476325498401718,87.219835474527,9.496047278928032,-2.2745561546363326,8.413116240542363,0.5038480788296921,269.55246175427624,137.56039608481282,33.57732389640367,-8.408415580795776,-11.917522138721123
GUIDED_NOGPS,2.139403820037842,20.03249671641791,270.17313412528125,132.34315503884852,31.665045273142532,-4.620689608609195,254.31907887248215,50.44708303623572,50,6.467927462379499,-0.0243896450307635,86.66881679342539,7.808891386841546,-1.045492057121578,9.24137921721839,0.5036669909453715,260.6468444859072,136.31991316143424,32.347098620224735,-7.386706712512236,-9.625690958197831
GUIDED_NOGPS,2.1782376766204834,25.733978783583968,268.51060156808916,134.6686001023413,32.1078156886265,-5.081581892026532,253.50549611127272,49.691494429736466,50,6.90013286843462,-0.052667562009541875,86.359095035322,8.165113719157437,0.022296090429231308,10.0,0.5035784368622747,256.142915323056,136.77419347997835,31.318486320925853,-8.901757542591852,-8.250592249883855
GUIDED_NOGPS,2.2057628631591797,36.33791639592809,266.22670485302467,135.96163001489975,32.18026487930996,-5.374358210843264,252.68027033240833,48.92509274815154,50,7.156300820803241,-0.06918544070229213,86.19283457054554,7.97323327692369,1.5946927997915927,10.0,0.503563947024138,256.142915323056,136.77419347997835,31.318486320925853,-8.901757542591852,-7.16197243913529
GUIDED_NOGPS,2.2433598041534424,26.60296962508642,264.5135564416905,136.8405779372365,31.975976295881203,-5.510838198154934,251.8439547495576,48.14839177073601,50,7.38400481357948,0.1293948388964239,85.989971122007,6.9073582494859735,0.230217539521118,10.0,0.5036048047408238,256.142915323056,136.77419347997835,31.318486320925853,-8.901757542591852,-4.870141258611998
GUIDED_NOGPS,2.280708074569702,26.77910436326025,261.7692699704374,137.67769742889448,30.522347684666222,-5.697030343341491,250.99711526616198,47.361917061959886,50,7.349428688453583,0.560644231911155,85.91414919203069,6.99300616835238,1.7425905751855688,10.0,0.5038955304630668,251.62511472533868,141.74599354310268,26.309180840328754,-8.477488548860876,-3.552338329811104
GUIDED_NOGPS,2.323463201522827,23.395269968763944,258.23135168960385,138.83125648224274,29.030208361860254,-5.830214185156038,250.14032975030585,46.5662052980674,50,7.138051409114613,1.3130931957643732,85.90472353097607,7.201960009736409,2.5342262663672894,10.0,0.5041939583276279,249.24525979051657,142.0877084281754,24.88640200619489,-7.853417675645048,-2.3491269600363753
GUIDED_NOGPS,2.3633875846862793,25.053933134620785,256.30352051188805,140.51162193809728,27.79008820873069,-5.942246438707945,249.27418730958672,45.76180359363606,50,6.8146312797439315,2.0243489685681273,85.95779410082707,8.01408181059416,0.7934718165679492,10.0,0.5044419823582539,250.9297373698969,145.1760207592512,25.117885555278047,-11.95714334119532,-0.9167324722093172
GUIDED_NOGPS,2.4005885124206543,26.882945244550413,253.97567996384063,142.19198739395182,26.54996805560113,-6.000924836752096,248.39928756598533,44.94926882813583,50,6.467936000115961,2.6309337998887283,86.02497584150332,8.339067671358237,1.5081608018768389,10.0,0.5046900063888797,250.9297373698969,145.1760207592512,25.117885555278047,-11.95714334119532,-0.17188733853924698
GUIDED_NOGPS,2.440753936767578,24.90546229714564,252.76104157433937,143.8723528498064,25.309847902471567,-5.995650671580469,247.51623993073574,44.12916697248828,50,5.872366556379299,4.001489804027242,86.2344577433476,8.346862303210592,0.004383987707146153,10.0,0.5049380304195057,250.9297373698969,145.1760207592512,25.117885555278047,-11.95714334119532,1.432394487827058
GUIDED_NOGPS,2.483985662460327,23.160410385537112,252.1093943301945,144.55835829303606,25.071588845461427,-5.9559006854571805,246.62566287919546,43.3020724156257,50,5.694091788852796,4.6445696167436905,86.39145647160952,7.310868260759241,-0.7080839989720455,10.0,0.5049856822309077,250.9297373698969,145.1760207592512,25.117885555278047,-11.95714334119532,2.3491269600363753
GUIDED_NOGPS,2.5097484588623047,38.761138167804894,251.4577470860496,145.17602075925123,25.117885555278058,-5.882197862383611,245.72818322571555,42.468567291050256,50,5.682000646474581,4.9995721139496885,86.52562187747608,8.220008827224293,-0.9197642364095016,10.0,0.5049764228889444,250.9297373698969,145.1760207592512,25.117885555278047,-11.95714334119532,3.0939720937064457
GUIDED_NOGPS,2.5420095920562744,31.000029563932003,250.8060998419047,145.17602075925123,25.117885555278058,-5.7783894324555405,244.8244353985109,41.62924080339311,50,5.723959779206439,5.1479041859285015,86.70039275795837,7.090417832995248,-0.8564473672807216,10.0,0.5049764228889444,250.9297373698969,145.1760207592512,25.117885555278047,-11.95714334119532,4.411775022507339
GUIDED_NOGPS,2.5780351161956787,27.767101613341012,250.71917767247447,145.17602075925123,25.117885555278058,-5.654536271195992,243.91506071453009,40.78468855497362,50,5.680161191153732,4.990554556697979,86.87700095932739,7.053152311963555,-1.6715730814833423,10.0,0.5049764228889444,250.9297373698969,145.1760207592512,25.117885555278047,-11.95714334119532,4.8128454790989155
GUIDED_NOGPS,2.6204257011413574,23.600763002267623,250.25404905142375,144.10261213485765,30.296502212000007,-5.497067985111502,243.00070665432577,39.93551187235843,50,5.5997305910349535,4.712326373970686,87.02306455472811,5.897042886880699,-1.0930178736275966,10.0,0.5039406995576,245.5242308221108,139.8089776372832,51.0109688388878,-10.16909202213158,5.614986392282068
GUIDED_NOGPS,2.655276298522949,28.697642913345422,250.02804246552006,142.7738242120285,36.140793470583525,-5.2790394139557675,242.08202613692453,39.08231713292059,50,5.380755153131168,4.165124487954646,87.24996343895593,5.550801810693243,-1.594264592219552,10.0,0.5027718413058833,249.12168468266734,138.53208114510542,54.33934184819564,-12.210381436560056,6.875493541569879
GUIDED_NOGPS,2.696709394454956,24.13640627247878,249.35324199943676,140.63097303659703,41.75050801603899,-5.047211009613608,241.15967679469733,38.22571509139876,50,4.965483066688978,3.3366349213499698,87.58912331238209,4.793552238482594,-0.9240791486278204,10.0,0.5016498983967922,245.5313336412303,134.46176488209392,53.16645828255537,-6.191477336558336,7.964113352318443
GUIDED_NOGPS,2.739569664001465,23.337732720535048,249.40005512795045,138.6168540374071,47.34879416423133,-4.742802134206428,240.23432024822932,37.36632020645632,50,4.527524933805413,2.6872081553472866,87.89919341013315,4.892132577197843,-1.8367066841915305,9.485604268412857,0.5005302411671537,251.3042423980063,135.1054257633015,53.109316296239705,-11.29157345341767,8.995437383553925
GUIDED_NOGPS,2.7739851474761963,29.068771701238486,248.98558495441904,135.5472970117031,52.41380418462743,-4.380003481816498,239.30662138119015,36.50474996724051,50,4.155599789157063,2.2676364648225733,88.1790672415636,3.2603201278868292,-1.4881690536229586,8.760006963632996,0.5,247.6139759816455,129.8282356307312,50.44293565725858,-4.284906985329471,10.084057194302488
GUIDED_NOGPS,2.8101930618286133,27.62463775752147,248.75681269745132,133.0821882352157,52.00032571938901,-4.050323150398393,238.377247615204,35.64162421994157,50,3.6464877337080677,1.8082123280381281,88.62924500975913,4.029833185664829,-1.7393412108069894,8.100646300796786,0.5,249.0995593141552,127.48343375484615,48.943576512695685,-6.051060239483974,11.3445643435903
GUIDED_NOGPS,2.8506758213043213,24.70638408161823,249.1101855169777,130.54915606879007,50.6455497715366,-3.651764719479719,237.44686818471985,34.77756449435188,50,3.403730217444532,1.653633301011398,88.92898103129598,3.9983592257268143,-2.5055219916322806,7.303529438959438,0.5,253.75671992610808,125.86692031297734,47.56546210893356,-7.849842333357486,12.375888374825783
GUIDED_NOGPS,2.883202075958252,30.748902166342877,249.4635583365041,128.83018715496675,49.52535053681224,-3.1998599953424818,236.51615341188136,33.913193330425194,50,2.9547483726839787,1.3724879871782751,89.38090732791905,4.6481642352329295,-2.856444270941582,6.3997199906849636,0.5000949298926376,253.75671992610808,125.86692031297734,47.56546210893356,-7.849842333357486,13.178029288008934
GUIDED_NOGPS,2.92439866065979,24.279617945007235,251.0563907417303,124.99386107631224,47.86597662127503,-2.752421580793302,235.5857739813972,33.04913360483551,50,2.406035520757484,1.1164517293945888,90.16661813909145,2.5968313944273995,-4.221992943645264,5.504843161586604,0.500426804675745,258.2668900639205,115.92379537002881,44.812446718553666,-3.797075197198893,14.55312799632291
GUIDED_NOGPS,2.961491107940674,26.966079465089365,252.19954141438694,122.21297302417176,46.73987883353405,-2.200920515556084,234.65640021541105,32.18600785753656,50,2.1700153457799316,0.8092701613322006,90.67422413782846,3.3332194864760236,-4.080476929854112,4.401841031112168,0.5006520242332931,258.2668900639205,115.92379537002881,44.812446718553666,-3.797075197198893,15.01149423242757
GUIDED_NOGPS,2.9946444034576416,30.169422765689625,253.79148596722322,119.90104534720831,45.91365287470565,-1.6626384081820347,233.72870134837189,31.324437618320765,50,2.029555493706381,0.5073755865742254,91.14985119087147,3.578215556440178,-5.260613246257436,3.3252768163640694,0.5008172694250589,258.2668900639205,115.92379537002881,44.812446718553666,-3.797075197198893,15.98552248414997
GUIDED_NOGPS,3.0297653675079346,28.48191658404748,254.66181692546246,117.9124203586186,45.36304979662966,-1.1493513186267497,232.80334480190385,30.46504273337831,50,1.8218381285454806,0.03285598467211165,91.77324255641854,3.9802086803504126,-4.1575163865932545,2.2987026372534993,0.5009273900406741,258.2668900639205,115.92379537002881,44.812446718553666,-3.797075197198893,16.73036761782004
GUIDED_NOGPS,3.0608956813812256,32.12549019607843,255.99343118574683,115.9237953700289,44.81244671855368,-0.6034038952461437,231.88099545967663,29.608440691856472,50,1.6504569428822247,-0.5081990512560352,92.2708833091565,3.7627570627076485,-5.362600846044766,1.2068077904922874,0.5010375106562892,258.2668900639205,115.92379537002881,44.812446718553666,-3.797075197198893,16.902254956359286
GUIDED_NOGPS,3.091292142868042,32.911731703297995,257.1393475294675,115.9237953700289,44.81244671855367,-0.11090099756836583,230.96231494227544,28.755245952418647,50,1.5515873933253512,-0.9695816380632757,92.63723416566847,6.3947199065576745,-5.319841729043151,0.22180199513673166,0.5010375106562893,258.2668900639205,115.92379537002881,44.812446718553666,-3.797075197198893,16.902254956359286
GUIDED_NOGPS,3.1317412853240967,24.72896215457724,257.70311879669407,115.9237953700289,44.81244671855367,0.38514372944763076,230.0479608820711,27.90606926980344,50,1.602751273180859,-1.8844508995538105,93.36881572766853,6.165122791931482,-3.846402376414459,-0.7702874588952615,0.5010375106562893,258.2668900639205,115.92379537002881,44.812446718553666,-3.797075197198893,17.47521275149011
GUIDED_NOGPS,3.1653127670288086,29.793322915186817,258.26689006392064,115.9237953700289,44.81244671855367,1.0509541510867058,229.13858619809028,27.061517021383935,50,1.9966926788450994,-2.7282554578249476,94.11378446044182,6.378823275874935,-4.303459823310687,-2.1019083021734115,0.5010375106562893,258.2668900639205,115.92379537002881,44.812446718553666,-3.797075197198893,17.933578987594768
GUIDED_NOGPS,3.1962637901306152,32.31607982124971,258.26689006392064,115.9237953700289,44.81244671855367,1.637996893229037,228.23483837088565,26.22219053372683,50,2.5506223011936027,-3.278108737899423,94.65904529207312,6.509786608005983,-3.6367526646413477,-3.275993786458074,0.5010375106562893,258.2668900639205,115.92379537002881,44.812446718553666,-3.797075197198893,18.73571990077792
GUIDED_NOGPS,3.2275681495666504,31.95441074516795,258.26689006392064,115.9237953700289,44.81244671855367,2.189393413800567,227.33735871740572,25.388685409151392,50,3.3012351180988513,-3.7658760253053054,95.21308974697703,6.5471706188045875,-3.68081285135995,-4.378786827601134,0.5010375106562893,258.2668900639205,115.92379537002881,44.812446718553666,-3.797075197198893,19.022198798343332
GUIDED_NOGPS,3.2708194255828857,23.12452930052542,258.26689006392064,115.9237953700289,44.81244671855367,2.7571621035319303,226.44678166586544,24.561590852288788,50,4.296414384180631,-4.248316192045401,95.86376088806914,6.3044031890226275,-3.3454318870163853,-5.5143242070638605,0.5010375106562893,258.2668900639205,115.92379537002881,44.812446718553666,-3.797075197198893,19.19408613688258
GUIDED_NOGPS,3.2948708534240723,41.59530326470705,258.26689006392064,115.9237953700289,44.81244671855367,3.351020782798664,225.56373403061585,23.74148899664125,50,5.12533596025031,-4.539742434683274,96.4258581360045,6.9570337206831905,-4.219042736484634,-6.702041565597328,0.5010375106562893,258.2668900639205,115.92379537002881,44.812446718553666,-3.797075197198893,19.251381916395662
GUIDED_NOGPS,3.3312065601348877,27.532880830784176,258.26689006392064,115.9237953700289,44.81244671855367,3.7370765513466115,224.68883428701446,22.928954231141006,50,6.1792162199367064,-4.885337200081225,97.17936460524031,6.53840038073456,-3.6483323853546974,-7.474153102693223,0.5010375106562893,258.2668900639205,115.92379537002881,44.812446718553666,-3.797075197198893,17.876283208081684
GUIDED_NOGPS,3.365445375442505,29.214144917845527,260.2442133617856,104.93948928616109,39.8773046898383,4.350398738312909,223.82269184629536,22.124552526709664,50,6.646157406789573,-5.061217132529992,97.54857731101453,-6.8179816356721386,-6.801473008244788,-8.700797476625818,0.5020245390620324,274.08547644684046,61.002264950689884,20.13673657497679,8.468147861210014,17.074142294898532
GUIDED_NOGPS,3.4013781547546387,27.8369459893545,262.2215366596506,93.95518320229331,34.94216266112292,4.8835572204686635,222.96590633043922,21.328840762817208,50,7.363326415867267,-5.273807197333462,98.22546271814112,-6.826180331470603,-6.7935304120157305,-9.767114440937327,0.5030115674677754,274.08547644684046,61.002264950689884,20.13673657497679,8.468147861210014,15.469860468532227
GUIDED_NOGPS,3.4304556846618652,34.404075037116634,266.48484732453574,81.78727072595065,29.44122844022117,5.393093597362158,222.11906684704354,20.542366054041054,50,7.554236179584646,-5.438084345929671,98.56697900683093,-10.0,-10.0,-10.0,0.5041117543119558,292.3733753830016,55.084232988315456,17.307775614044917,-1.4047977547233046,13.521803965087429
GUIDED_NOGPS,3.4703617095947266,25.059920774805672,270.5421416629703,68.67371963295196,23.71681544888786,5.729700819074085,221.28275126419283,19.765665076625538,50,6.938299111743006,-5.846712365856731,99.0870296102357,-9.128469446557236,-9.671113352100381,-10.0,0.5052566369102224,290.72524477139734,50.35603990503537,16.19038176188713,7.440145997075888,11.115381225537972
GUIDED_NOGPS,3.50766658782959,26.813514463800544,273.98370282900066,54.49377266272628,17.778220077851575,6.150348561661216,220.45752548532846,18.9992633950406,50,4.84752185774145,-6.634346729054152,99.34570253448243,-10.0,-9.602481988383682,-10.0,0.5064443559844297,285.7993793921633,45.024060518900484,15.119469863372256,1.8176360568804313,8.422479588423101
GUIDED_NOGPS,3.542067527770996,29.08066283020176,277.8988121826405,49.855250448091,16.660984536013547,6.426341004957036,219.64394272411906,18.24367478854134,50,2.9995625244889017,-7.236406133162797,99.41223540718752,-2.2830228655736198,-10.0,-10.0,0.5066678030927972,289.5877648930393,37.80965387751348,14.550558865786652,10.084428587087217,4.984732817638163
GUIDED_NOGPS,3.574204921722412,31.12101740691825,281.81392153628036,45.21672823345572,15.54374899417552,6.517144802691061,218.8425427793304,17.499400577726846,50,-1.0755671775182445,-8.636209861100951,99.44370208869377,-2.8160593237442866,-10.0,-10.0,0.5068912502011649,289.5877648930393,37.80965387751348,14.550558865786652,10.084428587087217,-0.057295779513082325
GUIDED_NOGPS,3.6074249744415283,30.111160566858587,285.0147894461956,40.82371500531154,14.601512350362233,6.50651445779086,218.05385130969586,16.766928951099544,50,-3.265832326639971,-9.383487197813706,99.41108110521779,-2.6020673680514914,-10.0,-10.0,0.5070796975299275,283.8738333432423,33.11916684759457,12.596592394978481,10.627293475790168,-2.807493196141034
GUIDED_NOGPS,3.641923189163208,28.991014404600627,286.23833405824587,37.376340393823384,13.882754476980505,6.407043389672191,217.27837910878625,16.046734291624205,50,-5.846696997931098,-10.325113298490942,99.30291822952147,-1.4839460484122067,-7.855172080291384,-10.0,0.5072234491046039,283.8738333432423,33.11916684759457,12.596592394978481,10.627293475790168,-5.958761069360562
GUIDED_NOGPS,3.6773836612701416,28.210466844678805,287.46187867029613,34.9953616595622,13.378178983301751,6.241536708575768,216.51662137987995,15.33927650328721,50,-6.665944464815101,-10.791218214057308,99.08720719515412,-0.32569970707437124,-7.931456448211886,-10.0,0.5073243642033396,283.8738333432423,33.11916684759457,12.596592394978481,10.627293475790168,-7.849521793292278
GUIDED_NOGPS,3.713233709335327,27.898603840602362,286.39943591532625,34.057264253578424,12.987385689140117,6.024873938090211,215.76905701083317,14.645000337655489,50,-6.2095273188127535,-10.906445212902714,98.80813249585657,1.2882637639186392,-4.66375519283103,-10.0,0.507402522862172,283.8738333432423,33.11916684759457,12.596592394978481,10.627293475790168,-8.88084582452776
GUIDED_NOGPS,3.740265130996704,37.00214374564414,285.5430094868069,33.119166847594634,12.596592394978483,5.765711521880105,215.03614784895004,13.964334720435971,50,-5.413303138960394,-10.712617250862447,98.5537079492736,1.1661598398143256,-4.8713665771692884,-10.0,0.5074806815210043,283.8738333432423,33.11916684759457,12.596592394978481,10.627293475790168,-9.625690958197831
GUIDED_NOGPS,3.781405210494995,24.313255386613026,283.15192534526835,30.909757540915543,9.240556736339254,5.470246135216393,214.3183379758527,13.297692078034345,50,-3.2898587977059606,-10.061483364454084,97.9572002082997,-0.03880936537334301,-2.955956547382394,-10.0,0.5081518886527322,266.6707062598547,22.072120314199108,-4.183585898217666,-20.84414261155456,-11.860226359208042
GUIDED_NOGPS,3.8171141147613525,28.01057833578202,280.9495818949032,28.81310545310099,5.758591190065762,5.047848951513696,213.6160529823514,12.645467664114676,50,-1.9583815074602633,-9.30050979090816,97.5349852345662,-0.23547729458998123,-2.792532306282322,-10.0,0.5088482817619868,271.9690172901178,22.635906408521844,-4.813235336388982,0.8649508007358122,-13.2926208470351
GUIDED_NOGPS,3.8535168170928955,27.47750663303744,278.74723844453797,26.71645336528644,2.2766256437922694,4.604916424041238,212.92969924331464,12.008038886157976,50,-0.6252201486973347,-8.225034180613477,96.96375602371052,-0.3155873499258737,-2.6931842142883813,-9.209832848082476,0.5095446748712416,271.9690172901178,22.635906408521844,-4.813235336388982,0.8649508007358122,-14.78231111437524
GUIDED_NOGPS,3.884408950805664,32.372948858461584,277.2591364378974,24.619801277471893,-1.205339902481223,4.103224636156846,212.25966319253936,11.385764632021932,50,-0.0939568426148491,-7.388884129967808,96.58108784527138,-0.6690240230536333,-3.43243019597931,-8.206449272313693,0.5102410679804963,271.9690172901178,22.635906408521844,-4.813235336388982,0.8649508007358122,-16.386592940741544
GUIDED_NOGPS,3.9226233959198,26.17579070870466,275.7710344312568,22.52314918965735,-4.687305448754715,3.5654411646589206,211.6063105976209,10.778984596499441,50,0.18517492611486852,-5.609237787472789,95.71826419836952,-0.42029843212620066,-3.600408980276929,-7.130882329317841,0.5109374610897509,271.9690172901178,22.635906408521844,-4.813235336388982,0.8649508007358122,-19.423269254934908
GUIDED_NOGPS,3.9566969871520996,29.36200716845878,274.2829324246162,22.635906408521898,-4.8132353363889795,2.8875509674481528,210.9699858348234,10.188018607878462,50,-0.15952527126479635,-4.303271040333677,94.93542889683768,2.004154513136114,-3.3903680317968554,-5.7751019348963055,0.5109626470672778,271.9690172901178,22.635906408521844,-4.813235336388982,0.8649508007358122,-20.798367963248882
GUIDED_NOGPS,3.993135690689087,27.44891494987042,272.7948304179756,22.635906408521894,-4.8132353363889795,2.196278396460481,210.35101116394958,9.613165954500403,50,-0.5399340844914713,-3.5090809761935127,94.32489877749775,1.8437161859267026,-3.391507916054488,-4.392556792920962,0.5109626470672778,271.9690172901178,22.635906408521844,-4.813235336388982,0.8649508007358122,-22.746424466693682
GUIDED_NOGPS,4.026422023773193,30.049677960151598,271.30672841133503,22.635906408521894,-4.8132353363889795,1.5010297482979165,209.7496860032112,9.054704711319886,50,-1.0772686416735182,-2.512467583829442,93.33679580083951,1.914361761195681,-3.199627962431129,-3.002059496595833,0.5109626470672778,271.9690172901178,22.635906408521844,-4.813235336388982,0.8649508007358122,-22.803720246206765
GUIDED_NOGPS,4.058942794799805,30.759726306680257,271.9690172901179,22.635906408521894,-4.8132353363889795,0.8049747991482217,209.1662862040988,8.512891066463396,50,-1.2618220605945552,-1.9836126531411133,92.6562220915611,1.9449581207954623,-6.544734651432321,-1.6099495982964434,0.5109626470672778,271.9690172901178,22.635906408521844,-4.813235336388982,0.8649508007358122,-22.746424466693682
GUIDED_NOGPS,4.096473932266235,26.6480977915576,271.9690172901179,22.635906408521894,-4.8132353363889795,0.12493606837711058,208.6010633262523,7.9879586477889575,50,-1.0106017265059624,-1.5420520223571903,91.75102395104848,1.864775059252687,-5.420109036981977,-0.24987213675422115,0.5109626470672778,271.9690172901178,22.635906408521844,-4.813235336388982,0.8649508007358122,-22.517241348641353
GUIDED_NOGPS,4.132513523101807,27.759015731616113,271.9690172901179,22.635906408521894,-4.8132353363889795,-0.6529960376029461,208.05424391233078,7.480117849444724,50,-0.6671904338474466,-1.3794751639774925,91.06788209064214,1.9030876856517107,-5.476794877891418,1.3059920752058922,0.5109626470672778,271.9690172901178,22.635906408521844,-4.813235336388982,0.8649508007358122,-21.886987773997447
GUIDED_NOGPS,4.169626951217651,26.950658296332946,268.90277655580314,26.289952439764914,4.164640911496699,-1.3807595036894689,207.52602876288256,6.989555158428431,50,-0.17950933755919585,-1.460124116706299,90.35030241644061,6.077773216729282,-1.0930173139299328,2.7615190073789377,0.5091670718177007,247.4390914155998,40.906136564736926,40.07614590303941,-22.731619029307254,-20.798367963248882
GUIDED_NOGPS,4.200433969497681,32.46918205886451,265.8365358214884,29.943998471007934,13.142517159382379,-2.096743984755115,207.0165922112156,6.516432481146467,50,0.16158989604463103,-1.6736200353484418,89.69099108604846,7.093337410782528,-0.2732320901806302,4.19348796951023,0.5073714965681235,247.4390914155998,40.906136564736926,40.07614590303941,-22.731619029307254,-20.053522829578814
GUIDED_NOGPS,4.2386696338653564,26.157344292761415,263.4610351474002,35.17226323530224,23.191098868926154,-2.652746894987975,206.5260813982673,6.060886469973042,50,0.567834660199033,-1.9920797398344021,88.96312514695687,8.064817341590885,-1.7817050195028492,5.30549378997595,0.5053617802262148,252.9650118974122,48.77723022999337,45.429673211329884,-6.843116468716531,-18.04817054662093
GUIDED_NOGPS,4.275496006011963,27.185429562173898,259.88989234332945,40.797723677554146,33.00377866781031,-3.2982117280162133,206.05461554747518,5.623027849809461,50,1.323556405242598,-2.050481272332596,88.36844789668054,9.15887042026693,0.2431138285991139,6.596423456032427,0.5033992442664379,243.39987485755188,50.763208619781345,44.2501636580318,-5.173650943654323,-15.98552248414997
GUIDED_NOGPS,4.311297655105591,27.921261624694612,255.278389573599,46.75352150427588,42.441060109202276,-3.85105652105827,205.6022852396461,5.202940744642859,50,2.234970444786753,-1.7500683150159848,87.86586891717266,9.824808977387342,1.9581454541754035,7.70211304211654,0.5015117879781595,235.07699513227402,52.414895542130516,42.373171870570864,1.8751686109317802,-14.610423775835994
GUIDED_NOGPS,4.348371744155884,26.97804735288253,250.465934375419,49.62907958792435,42.65943248261725,-4.313777780447655,205.1691516878273,4.80068200410571,50,2.971102406877928,-1.285481515714362,87.56698666928207,6.555599500063973,2.4669874424549767,8.62755556089531,0.5014681135034765,233.46937570467813,55.283926982979295,41.16800777011429,2.2389951831908803,-12.891550390443523
GUIDED_NOGPS,4.386671304702759,26.115324985834988,245.65347917723903,52.50463767157282,42.87780485603223,-4.739395995753295,204.75524601217603,4.416280530034868,50,4.621022539580072,-0.16753570911925936,87.13437614763181,6.601132925733672,2.5901037082010676,9.47879199150659,0.5014244390287935,233.46937570467813,55.283926982979295,41.16800777011429,2.2389951831908803,-9.912169855763242
GUIDED_NOGPS,4.422492265701294,27.925909157489645,240.30705369263666,55.443987230231116,41.851863271336015,-5.095316129820786,204.36056851482965,4.049736603030766,50,5.786245554908254,0.9164991153812291,86.97354568324552,7.094183304329217,4.132504248707349,10.0,0.5016296273457328,229.19761341329874,63.473978023284864,40.29996528784885,-14.374413189335783,-7.104676659622208
GUIDED_NOGPS,4.46221137046814,25.180730992747705,238.02686894234904,57.986141110931825,41.06182359729943,-5.297827716985886,203.98508795477596,3.701021209016318,50,6.697131535452202,2.273016092567605,86.961592852198,6.462615267959258,-0.2791142025441231,10.0,0.5017876352805402,229.19761341329874,63.473978023284864,40.29996528784885,-14.374413189335783,-3.2658594322456924
GUIDED_NOGPS,4.495177268981934,30.341179704567484,235.74668419206142,60.1979576071627,40.647182280755025,-5.455916811186856,203.62874082272333,3.3700753657963958,50,6.934282960511037,3.2623186211988227,87.04399908453419,6.800957575819507,0.3882117519599615,10.0,0.501870563543849,229.19761341329874,63.473978023284864,40.29996528784885,-14.374413189335783,-1.0313240312354819
GUIDED_NOGPS,4.528782606124878,29.76372409877945,232.77575938154723,61.83596781522381,40.473573784301934,-5.462760055989182,203.2914306159705,3.0568094496165656,50,6.8812491029268275,4.385310576888816,87.23411056989234,6.13849123033077,1.5544845676406083,10.0,0.5019052852431396,229.19761341329874,63.473978023284864,40.29996528784885,-14.374413189335783,1.8334649444186344
GUIDED_NOGPS,4.561567068099976,30.50713527195496,231.0004767010156,63.473978023284914,40.29996528784885,-5.418976076168195,202.97302711327728,2.761102521722961,50,6.489178315321524,5.185265320688472,87.45289518938618,6.295253069426701,-0.033612657764436005,10.0,0.5019400069424302,229.19761341329874,63.473978023284864,40.29996528784885,-14.374413189335783,3.380450991271857
GUIDED_NOGPS,4.5997724533081055,26.181346050611104,230.2655539861437,63.473978023284914,40.29996528784885,-5.283425351655442,202.67336564973385,2.482801654920337,50,5.836094409905122,5.6056416928747765,87.74013196474189,4.246036194955102,-1.659872721293119,10.0,0.5019400069424302,229.19761341329874,63.473978023284864,40.29996528784885,-14.374413189335783,6.41712730546522
GUIDED_NOGPS,4.636580944061279,27.17345305889746,229.73158369972126,63.473978023284914,40.29996528784885,-5.075752083755719,202.3922463916319,2.2217212601322274,50,5.1595680145967675,5.932356534746344,88.1149932369597,4.256998414428219,-1.873812505638292,10.0,0.5019400069424302,229.19761341329874,63.473978023284864,40.29996528784885,-14.374413189335783,8.708958485988513
GUIDED_NOGPS,4.663070440292358,37.767468664457574,229.1976134132988,63.473978023284914,40.29996528784885,-4.795887589218433,202.12943361133392,1.9776424129595114,50,4.789988613041493,5.85411159516197,88.36135133013289,4.3581954164164936,-1.6904524545350985,9.591775178436865,0.5019400069424302,229.19761341329874,63.473978023284864,40.29996528784885,-14.374413189335783,10.485127650894066
GUIDED_NOGPS,4.694091081619263,32.248496870723194,229.19761341329877,63.473978023284914,40.29996528784885,-4.504550175070801,201.8846549621435,1.7503121802396038,50,4.273546910839428,5.653275432146446,88.71538735557134,4.302671098577603,-2.615355254586516,9.009100350141601,0.5019400069424302,229.19761341329874,63.473978023284864,40.29996528784885,-14.374413189335783,12.204001036286535
GUIDED_NOGPS,4.7296366691589355,28.136850296508975,229.19761341329877,63.473978023284914,40.29996528784885,-4.129326102012194,201.6576007531757,1.5394429466060444,50,3.602659263577742,5.012279680900497,89.2858242644833,4.262322366784889,-2.556861017149863,8.258652204024388,0.5019400069424302,229.19761341329874,63.473978023284864,40.29996528784885,-14.374413189335783,14.55312799632291
GUIDED_NOGPS,4.764793872833252,28.449074827717183,225.17392391291446,62.98093229848557,45.45384623161069,-3.644611114180614,201.447923224227,1.3447117410468366,50,3.2089234039188366,4.415009946947324,89.76074097785262,3.674673220400594,3.452700490337069,7.289222228361228,0.5009092307536779,197.00809741022434,61.00874939928814,66.06937000665806,-13.188256936612433,16.844959176846203
GUIDED_NOGPS,4.80207371711731,26.830838514879353,221.15023441253015,62.487886573686225,50.60772717537253,-3.0734338324523773,201.25523582064574,1.1657595634644338,50,2.8264116795003775,3.45994715662538,90.57201035689923,3.6630150555909804,3.4617142865356136,6.146867664904755,0.5,197.00809741022434,61.00874939928814,66.06937000665806,-13.188256936612433,19.7670439320134
GUIDED_NOGPS,4.839102506637573,27.013840852735644,217.12654491214585,61.99484084888688,55.76160811913437,-2.3753919746103183,201.07911246820157,1.0021907112343058,50,2.6966528128655334,2.8060457629426923,91.2354402913609,3.63115789832141,3.783590840539371,4.7507839492206365,0.5,197.00809741022434,61.00874939928814,66.06937000665806,-13.188256936612433,23.20479070279834
GUIDED_NOGPS,4.872229099273682,30.192877761541062,213.10285541176154,61.501795124087536,60.915489062896214,-1.5888271029558596,200.91908684795624,0.8535721057642434,50,2.697365500416742,2.4000938965098073,92.12759277055879,3.563825363512141,4.589107950612243,3.177654205911719,0.5,197.00809741022434,61.00874939928814,66.06937000665806,-13.188256936612433,26.413354355530952
GUIDED_NOGPS,4.907687425613403,28.21027710519236,209.07916591137723,61.00874939928819,66.06937000665805,-0.7518736271506767,200.77465167113326,0.7194326190536628,50,2.912997133834983,2.3411459488780126,93.1701391850912,3.5542624818604236,4.576578178857574,1.5037472543013535,0.5,197.00809741022434,61.00874939928814,66.06937000665806,-13.188256936612433,28.361410858975752
GUIDED_NOGPS,4.9408791065216064,30.13236012529096,205.05547641099292,61.00874939928819,66.06937000665805,0.15070622149512083,200.6452579539884,0.5992624002527407,50,3.177365795519262,2.6048557107507966,94.24120163940842,4.115757813606917,5.227182139067255,-0.30141244299024167,0.5,197.00809741022434,61.00874939928814,66.06937000665806,-13.188256936612433,29.965692685342056
GUIDED_NOGPS,4.968125104904175,36.7183814968178,201.03178691060862,61.00874939928819,66.06937000665805,1.059604773245557,200.53031429267952,0.492512202221036,50,3.3227751868635442,2.7708809608877045,94.79382541496497,4.138709032071222,6.858080934703385,-2.119209546491114,0.5,197.00809741022434,61.00874939928814,66.06937000665806,-13.188256936612433,30.30946736242055
GUIDED_NOGPS,4.998337268829346,33.10970247633783,197.0080974102243,61.00874939928819,66.06937000665805,1.8141453335419977,200.42918613813686,0.39859270808725,50,3.594396869116142,3.212659730838245,95.94064832755596,4.114930195003451,6.4015423501058235,-3.6282906670839954,0.5,197.00809741022434,61.00874939928814,66.06937000665806,-13.188256936612433,30.08028424436822
GUIDED_NOGPS,5.030351638793945,31.24411701168776,197.0080974102243,61.00874939928819,66.06937000665805,2.6301808960607524,200.341195070933,0.31687385780819,50,3.926620685440147,3.702786421715544,97.01638946145464,4.102111583810455,-0.2231693593263248,-5.260361792121505,0.5,197.00809741022434,61.00874939928814,66.06937000665806,-13.188256936612433,29.450030669724313
GUIDED_NOGPS,5.058545112609863,35.501324643446615,197.0080974102243,61.00874939928819,66.06937000665805,3.4863117472247867,200.26561807615303,0.24668417472761917,50,4.150993680335535,4.063152751854117,97.78827596974695,4.108026293637382,-0.22534409224961785,-6.972623494449573,0.5,197.00809741022434,61.00874939928814,66.06937000665806,-13.188256936612433,29.048960213132737
GUIDED_NOGPS,5.09147572517395,30.365342291208155,197.0080974102243,61.00874939928819,66.06937000665805,4.207075902122215,200.20168681826522,0.18731009213590255,50,4.51775434819771,4.387689190267273,98.65018437130003,4.088470290335094,-0.19225488758667425,-8.41415180424443,0.5,197.00809741022434,61.00874939928814,66.06937000665806,-13.188256936612433,27.559269945792597
GUIDED_NOGPS,5.126579999923706,28.497591401063996,197.0080974102243,61.00874939928819,66.06937000665805,4.990483899916292,200.14858691599034,0.13799527982885706,50,4.812358763233755,4.479265805337866,99.57763526812855,4.08042642230616,-0.17422037593941891,-9.980967799832584,0.5,197.00809741022434,61.00874939928814,66.06937000665806,-13.188256936612433,25.038255647216975
GUIDED_NOGPS,5.160504102706909,29.48502657256137,197.0080974102243,61.00874939928819,66.06937000665805,5.791822000784262,200.10545721717142,0.09793997066671523,50,5.0592709555033615,3.9636983673495614,100.43853963187364,4.078607404307736,-0.16480491859987548,-10.0,0.5,197.00809741022434,61.00874939928814,66.06937000665806,-13.188256936612433,23.548565379876834
GUIDED_NOGPS,5.194230318069458,29.654717968297064,197.0080974102243,61.00874939928819,66.06937000665805,6.503932039695999,200.07138907364583,0.0663002871338847,50,5.213920952464437,2.987577250042822,101.1329034930863,4.074963185280527,-0.15284446861958345,-10.0,0.5,197.00809741022434,61.00874939928814,66.06937000665806,-13.188256936612433,21.772396214971284
GUIDED_NOGPS,5.224272966384888,33.2918260759132,197.0080974102243,61.00874939928819,66.06937000665805,7.195382220696848,200.04542561611322,0.04218756789700251,50,5.369563034402456,1.842784184295794,101.64468273740619,4.075847426731412,-0.14784289755358168,-10.0,0.5,197.00809741022434,61.00874939928814,66.06937000665806,-13.188256936612433,20.110818609091897
GUIDED_NOGPS,5.255431652069092,32.10065742647002,197.0080974102243,61.00874939928819,66.06937000665805,7.773813952628502,200.0265610290072,0.024667694365660964,50,5.51794035638452,0.5739142222514318,102.11408065792614,4.071765744811428,-0.13592280610466437,-10.0,0.5,197.00809741022434,61.00874939928814,66.06937000665806,-13.188256936612433,19.079494577856416
GUIDED_NOGPS,5.29235053062439,27.09341188173814,197.0080974102243,61.00874939928819,66.06937000665805,8.329806357349835,200.0137398253638,0.01276041724960919,50,5.777714648634908,-0.8541062444476618,102.59683159827347,4.068302525271968,-0.12368867289617538,-10.0,0.5,197.00809741022434,61.00874939928814,66.06937000665806,-13.188256936612433,17.47521275149011
GUIDED_NOGPS,5.317356586456299,40.002899380066765,197.0080974102243,61.00874939928819,66.06937000665805,8.937248558143883,200.00585612169357,0.005438683119876941,50,5.999963454698422,-1.7769212037378899,102.90466139397678,4.071110822384832,-0.12230615790379562,-10.0,0.5,197.00809741022434,61.00874939928814,66.06937000665806,-13.188256936612433,15.641747807071475
GUIDED_NOGPS,5.35729718208313,25.040620895522387,197.0080974102243,61.00874939928819,66.06937000665805,9.243291813462601,200.0017529128503,0.0016279609660330152,50,6.275004500404258,-2.8918666629770793,103.30523832841969,4.069300676635198,-0.11163307577664527,-10.0,0.5,197.00809741022434,61.00874939928814,66.06937000665806,-13.188256936612433,12.83425461093044
GUIDED_NOGPS,5.389006853103638,31.551065542324558,197.0080974102243,61.00874939928819,66.06937000665805,9.763382688312763,200.00022134690198,0.00020556875719535128,50,6.595587966835269,-3.6647683081347835,103.61741212443512,4.071994258659265,-0.10874799281485506,-10.0,0.5,197.00809741022434,61.00874939928814,66.06937000665806,-13.188256936612433,10.59971920992023
GUIDED_NOGPS,5.422809600830078,29.59048996437264,197.0080974102243,61.00874939928819,66.06937000665805,10.044775293172687,200.0000000000001,-2.842170943040401e-14,50,6.867956274141513,-4.145325903984895,103.82129327116,4.075356631223014,-0.10636941554064355,-10.0,0.5,197.00809741022434,61.00874939928814,66.06937000665806,-13.188256936612433,8.078704911344607
GUIDED_NOGPS,5.448397874832153,39.094971338024884,197.0080974102243,61.00874939928819,66.06937000665805,10.306924230449667,200.0,0.0,50,7.019613367585653,-4.31393339251489,103.9148600326,4.078901630282188,-0.10580676286077538,-10.0,0.5,197.00809741022434,61.00874939928814,66.06937000665806,-13.188256936612433,6.64631042351755
GUIDED_NOGPS,5.4827046394348145,29.155659360901993,197.0080974102243,61.00874939928819,66.06937000665805,10.40469648387417,200.0,0.0,50,7.331999753239002,-4.491386829793699,104.1119724618574,4.083925838478278,-0.1054987754476574,-10.0,0.5,197.00809741022434,61.00874939928814,66.06937000665806,-13.188256936612433,3.495042550298022
GUIDED_NOGPS,5.521644592285156,25.685755053799,194.95317660420213,45.35252827648643,59.70036129450011,10.527898925202047,200.0,0.0,50,7.425260009940003,-4.296505311073957,104.20917288393585,-10.0,2.6739952738736825,-10.0,0.5,180.56873096204686,-17.27235621472068,34.22432644586839,-0.800146339239717,1.088619810748564
GUIDED_NOGPS,5.558553457260132,27.096912571306746,192.8098784163802,29.36691197050073,53.26323523964301,10.597875090412856,200.0,0.0,50,7.396703842793826,-4.058311428393048,104.19930326058518,-10.0,3.083601869335239,-10.0,0.5,179.8617119076489,-18.91933213064035,33.88373973237256,3.1905889886448193,-1.604281826366305
GUIDED_NOGPS,5.590509653091431,31.30451397181753,190.63881708939698,13.017467211373992,46.847055065246515,10.587899596154578,200.0,0.0,50,7.268682192085692,-3.899837806157235,104.14220970931305,-10.0,3.7652784366819603,-10.0,0.5006305889869507,179.63960679435857,-20.738474396345552,33.9884691346756,5.374553618400967,-2.9220847551671985
GUIDED_NOGPS,5.628944158554077,26.02038550061107,188.59438079043548,-3.698913986033908,40.61056168026569,10.50197297560429,200.0,0.0,50,6.583941213639927,-3.602140169200821,104.03321355053798,-10.0,3.1339251476835392,-10.0,0.5018778876639468,180.65260701853222,-22.573156587751356,34.886903081753935,4.044439179144604,-4.354479242994256
GUIDED_NOGPS,5.668223857879639,25.48226273868904,186.1566768266831,-20.648306103782637,34.55485327380945,10.319678933696059,200.0,0.0,50,3.8748785873827156,-3.0970263357372216,103.75310749267577,-10.0,3.7956568675495066,-10.0,0.5030890293452381,177.50646570020547,-23.738211189455505,35.79082797437686,6.560822042783613,-7.964113352318443
