Mode,Time,Freq,North-Vision,East-Vision,Down-Vision,Yaw-Vision,North-Desired,East-Desired,Down-Desired,Roll-UAV,Pitch-UAV,Yaw-UAV,Roll-Control,Pitch-Control,Yaw-Control,Thrust-Control,northVraw,eastVraw,downVraw,N-Velocity,E-Velocity,D-Velocity,N-Acceleration,E-Acceleration,D-Acceleration,yawVraw,yawRate,Landing-State,Q-Size
GUIDED_NOGPS,0.004255771636962891,235.96646976090014,-1.9750296455362302,38.64365045725349,52.925854431074896,-5.394472420008651,-1.9917439457105375,38.97607459481603,53.47025270163465,0.7398248532763306,-0.6677220680247968,17.97398089525247,4.010185598858039,-0.08057838577284382,-10.0,0.5010889443720479,-1.1116141645686701,38.282485365202575,50.68868052575189,-2.1308213472366333,-15.801098942756653,-14.970190823078156,-127.35838890075684,-10.302824527025223,-11.613470315933228,-5.269005139848137,3.819166014983391,False,3
GUIDED_NOGPS,0.009231805801391602,201.0692233940556,-1.9004289526008553,37.67444127363446,50.90809598123176,-5.185216373765169,-2.0293110654839115,38.48187860204828,52.9611182503221,0.7398248532763306,-0.6677220680247968,17.97398089525247,4.100165586523189,0.9226679776278467,10.0,0.5041070565143009,-1.0853772383560933,37.1994144129757,49.838586018808236,-2.6134245097637177,-15.403187274932861,-13.177403807640076,-108.070969581604,-17.93714016675949,-59.331297874450684,-5.116550239673456,1.5499273371919209,False,2
GUIDED_NOGPS,0.03158402442932129,44.753086288025095,-1.8872503645548298,37.48584684757955,50.82247703613544,-5.14553640144817,-2.0960382264708604,37.96761992327923,52.4646437478082,0.8181403359082258,-0.6193430910816561,18.020255426879306,-0.6757254730391203,0.29437079743734107,-2.3726778465838345,0.5032882631545519,-1.0045438938463067,36.981295541362385,49.60643441092664,-1.614929549396038,-16.015484929084778,-14.759005606174469,-8.550027012825012,3.991670161485672,-181.3302516937256,-5.060422670324336,3.537068743534698,False,2
GUIDED_NOGPS,0.03716635704040527,179.2054689168981,-1.8470419036961316,37.23330177599742,50.5708858616166,-5.165528846441213,-2.190236157904247,37.435343841933474,51.98035161945972,0.8181403359082258,-0.6193430910816561,18.020255426879306,-2.3118741238931024,1.6645286938127364,-4.5095828982465385,0.5028235006422933,-1.2835725736507158,36.35242749370879,48.96879354231102,0.8935675024986267,-16.152259707450867,-15.933597087860107,7.998606562614441,-5.603590235114098,-23.27975332736969,-4.821182272375896,-1.8920183222673614,False,1
GUIDED_NOGPS,0.04358482360839844,155.95106897192787,-1.8122890157038503,37.065538774490314,50.47118689065154,-5.186437433256364,-2.310260134950015,36.8870324184588,51.50777419862891,0.8181403359082258,-0.6193430910816561,18.020255426879306,-2.825548496293994,1.7468214877262052,-4.412666691987541,0.5020782769161216,-1.3054572204135928,35.87076271520691,48.5004778115455,1.0949652642011642,-15.717805922031403,-13.528338074684143,-21.91752791404724,9.30527001619339,-58.689820766448975,-4.717322891948346,-1.943568107810975,False,0
GUIDED_NOGPS,0.06935620307922363,38.811352006588386,-1.770134945368087,36.911471405931984,50.377398030891655,-5.195634331192129,-2.4545094805526517,36.324605255546125,51.04645364099568,0.8125195171081284,-0.5450873021376873,18.098037621147412,-0.7857213958540896,0.5622787019468384,-3.2601370803716443,0.5013445928171664,-1.0145667232408544,35.43358533356777,48.26511754399159,1.0949652642011642,-15.717805922031403,-13.528338074684143,-21.91752791404724,9.30527001619339,-58.689820766448975,-4.590208881937972,-1.943568107810975,False,0
GUIDED_NOGPS,0.1002352237701416,32.388948091862424,-1.6471453483626923,36.56426554464284,50.01926432590858,-5.185137226560967,-2.6214270672806532,35.74992026334946,50.59594183890978,0.7637349976830181,-0.46816763269570777,18.244823509052864,-0.3683218055844984,0.6821427448493464,-2.973971360988862,0.5011612494217117,-1.0655329530395667,35.118113028301515,48.02536739880479,7.670237123966217,-15.544314682483673,-10.321642458438873,40.46269655227661,-4.202743247151375,87.98950910568237,-4.5303565544705595,-2.2238750159234786,False,0
GUIDED_NOGPS,0.13324642181396484,30.29975366077427,-1.5967772237999194,36.17381916950801,49.664557080182654,-5.211205722658008,-2.809498819171993,35.16477442470588,50.155800335732984,0.7370999279626129,-0.36447693008015747,18.432103881000028,-0.3151412905035973,0.5601662003105935,-3.441601933357364,0.5009916823330197,-1.0820775725710132,34.78075482203489,47.825628524407406,1.1572491377592087,-15.112864971160889,-5.930442363023758,-2.918088622391224,-10.308052599430084,92.81252026557922,-4.545366209075189,-5.128535903876461,False,0
GUIDED_NOGPS,0.16626501083374023,30.29034447894851,-1.532191698757026,35.71300060797265,49.27508607323373,-5.2442338877351915,-3.0172532135795844,34.57090456035549,49.72560024018125,0.5365704831295045,-0.26660426797698866,18.660309038906615,-0.22378088440365052,0.635385007238166,-3.5452714776883325,0.5009114183163574,-0.8709140681538179,33.367543185519914,46.52549210652498,1.5179185196757317,-14.590831100940704,-3.601234406232834,0.6376065313816071,14.141832292079926,147.2434401512146,-4.786072184749857,-4.427452844067795,False,0
GUIDED_NOGPS,0.20014238357543945,29.52030517588435,-1.4605611305242838,35.24659406063369,48.905106476441546,-5.280589077403287,-3.2432607830167477,33.96998809416135,49.30492214066691,0.3070203115649524,-0.20984048677571673,18.778553273817877,-0.2254233263211221,0.6944382659388542,-3.598072459385992,0.5008111037204965,-0.6713228380982553,33.06237316700842,46.4178018411646,1.5179185196757317,-14.590831100940704,-3.601234406232834,0.6376065313816071,14.141832292079926,147.2434401512146,-4.734882442821317,-4.427452844067795,False,0
GUIDED_NOGPS,0.23627710342407227,27.67841517253212,-1.3615451327045058,34.773770227744784,48.55089950333599,-5.368432533464586,-3.4861336170026753,33.363643818329486,48.893356019640855,-0.22555061555783365,-0.16414737500197768,19.208399276401583,-0.21370248762586153,0.7623214743275052,-4.194756738941919,0.5006973740708461,-0.4992300023747649,32.79559674215571,46.25083019408075,3.101554326713085,-14.625732600688934,-3.323514387011528,-85.64141988754272,-26.695621013641357,-6.230825185775757,-4.748693701296016,-7.849757974403588,False,0
GUIDED_NOGPS,0.26820993423461914,31.320643691894112,-1.3160877957267059,34.255609564431076,48.2001146015224,-5.450872512935479,-3.7445248639078974,32.75343265862882,48.49050116793471,-0.3245047420665388,-0.173942826767128,19.47388531434539,-0.1765095120605944,0.7903270796261622,-4.310560009538715,0.5005939707440572,-0.30675635493498493,32.04683113315588,45.8222068521635,-1.4254473149776459,-15.083612501621246,-2.101479098200798,-55.92566728591919,-13.3836030960083,4.162184149026871,-5.050581044782591,-5.99191236921427,False,0
GUIDED_NOGPS,0.30155062675476074,29.99874120272358,-1.3013058481143978,33.775148595824724,48.02463538633478,-5.558367517707394,-4.017128232799744,32.14085843961112,48.095966099102995,-0.394216053974069,-0.11459360552159471,19.717910897917022,-0.2399336041046497,0.7604842722508754,-4.620484144187122,0.5001560499143975,-0.37069996541607014,31.8114450543071,45.66250309015175,-2.7118973433971405,-16.555684804916382,5.229893326759338,-76.4578640460968,-26.582416892051697,-18.94306242465973,-5.159743109985453,-7.556585764659131,False,0
GUIDED_NOGPS,0.3368406295776367,28.34008337894175,-1.24338535096157,33.2127762853952,47.887006703357876,-5.694147948536493,-4.302677495287821,31.527368649831004,47.70936846376533,-0.5554442167969538,-0.23982917937859818,19.95843259444444,-0.10776136906069685,0.8418857095289993,-4.948155715892413,0.49965760809236154,-0.12745506946443844,30.9955660951423,45.46397132907308,-0.276019424200058,-19.11167949438095,8.416029065847397,-161.94430589675903,-45.388245582580566,173.45062494277954,-5.484246840396395,-8.262645471051798,False,0
GUIDED_NOGPS,0.3697700500488281,30.370399333840194,-1.1902052209420173,32.62975393208823,47.76241898226394,-5.840676891999426,-4.59994598736946,30.91435520706586,47.3303349639486,-0.524745184520391,-0.13637123680335725,20.23543433132889,-0.07272829251811536,0.9237085205457842,-5.281092581194299,0.499147576204232,-0.20664105995851872,30.63716504450327,45.52076466253022,-0.276019424200058,-19.11167949438095,8.416029065847397,-161.94430589675903,-45.388245582580566,173.45062494277954,-5.628547004845897,-8.262645471051798,False,0
GUIDED_NOGPS,0.40470290184020996,28.63475245091346,-1.1055354144582157,32.0610033585291,47.70222684737261,-5.940734478467468,-4.907746111275198,30.303155223535825,46.95850126742913,-0.4520067647892229,-0.05868381140998596,20.432075477533555,-0.08201678190910681,1.0166840145520522,-4.749000956787799,0.4985222828055768,-0.08123777286278852,30.401776891403102,45.79611851299529,1.8111880868673325,-20.35394012928009,9.257590770721436,65.40495157241821,-24.780619144439697,156.30196332931519,-5.779095242462194,-4.9585175543960345,False,0
GUIDED_NOGPS,0.43764567375183105,30.357430300222923,-1.0969873076336754,31.396898618221588,47.70989221167575,-6.116969684657076,-5.224928837314232,29.695051771123744,46.593511922074875,-0.27144959350202513,0.09940102365166494,20.619582953270623,0.058785195555963295,0.9048340098175126,-5.739957119011494,0.4977739315795926,0.08480350342499891,28.426008376127943,46.37902328341061,-3.641980141401291,-21.82300239801407,11.263775825500488,-74.87757205963135,-40.517282485961914,46.54185771942139,-6.447570436327794,-8.229305610165673,False,0
GUIDED_NOGPS,0.4730038642883301,28.285804846138802,-1.0923522846275837,30.753787952987377,47.73487777596086,-6.2909035125619495,-5.550383205719895,29.091274646595124,46.23502027018759,-0.1919364265269977,0.23490840160757423,20.707328685990486,0.039426322315199186,0.921538138445035,-5.746901470074016,0.49700274463729455,0.08480350342499891,28.426008376127943,46.37902328341061,-3.641980141401291,-21.82300239801407,11.263775825500488,-74.87757205963135,-40.517282485961914,46.54185771942139,-6.447570436327794,-8.229305610165673,False,0
GUIDED_NOGPS,0.5052716732025146,30.994073570489043,-1.0601795062688903,30.070140495775348,47.851570410172855,-6.428376754030533,-5.883035828495115,28.49300113681811,45.882688362845016,-0.04463475261750442,0.5415783458124461,20.901000407453488,0.1399066331825111,1.0576497131993703,-5.56106614576046,0.4960596126954302,0.004972751514167276,28.081578220912377,46.50409332796528,-1.4609402976930141,-22.94239103794098,16.647711396217346,-18.82413774728775,-34.16248559951782,54.53229546546936,-6.6097240725246245,-5.15551771241895,False,0
GUIDED_NOGPS,0.5388009548187256,29.827858651514397,-1.027449861144673,29.404217975011257,48.018190184879074,-6.595444210895579,-6.2218503912578775,27.90135678398343,45.53618687424304,0.16783685109254817,1.0393512733830155,21.144822792897312,0.12805717992465532,1.0737761567367217,-5.944650464252224,0.49502669346023154,0.18172708552399425,27.085360196924295,46.95796983360157,-1.6312183812260628,-23.98771345615387,16.772563755512238,-21.186062693595886,-18.87107789516449,-31.779778003692627,-6.9167705647971225,-7.252597096590312,False,0
GUIDED_NOGPS,0.5708122253417969,31.243186067472642,-1.067835538674384,28.733772024035908,48.22133724030548,-6.6943929777931155,-6.565827155086698,27.317416150824364,45.195195016037914,0.08952211551259354,1.366703990890038,21.261567801285754,0.15247131686609425,1.001745780602198,-5.254378166877195,0.4939306742342066,0.18172708552399425,27.085360196924295,46.95796983360157,-6.319703906774521,-24.60521161556244,18.94647926092148,-100.17015933990479,-17.357514798641205,-10.169818997383118,-6.9167705647971225,-2.822404919778519,False,0
GUIDED_NOGPS,0.6052727699279785,29.0233124589143,-1.101781012422435,28.000735121023354,48.469011871681886,-6.7306265116415505,-6.914002458366083,26.742203585836698,44.85940045168836,-0.1341393124094969,1.491217485685724,21.28181248198567,0.2578046831569044,0.9930350004537667,-4.459497764540423,0.4927537975144371,0.5150313305168347,25.69633543200005,47.622128284627195,-6.6546618938446045,-26.607537269592285,19.599854946136475,-121.8018651008606,-49.23295080661774,-36.96556091308594,-7.267302211141837,1.9046127642100419,False,0
GUIDED_NOGPS,0.6385867595672607,30.021286799178302,-1.1086597614514575,27.222959199848763,48.785559127706165,-6.784309292950396,-7.265448218632002,26.176693988498698,44.528499210797854,-0.3341695664638126,1.683615376868521,21.279548274275815,0.37337673276445504,1.0796177822181683,-4.714135141686109,0.491447537004079,0.5937164592447064,25.153444472537544,47.96015486863049,-4.912872612476349,-27.46933400630951,22.946397960186005,-26.942533254623413,-57.40455389022827,44.571101665496826,-7.335748719614568,0.9788506316538061,False,0
GUIDED_NOGPS,0.6727757453918457,29.25408195292066,-1.1177846214438474,26.40553332083662,49.15045017045561,-6.842722430628206,-7.619271434417344,25.621813574491064,44.202195603456694,-0.26041014017343334,1.8062445932269298,21.24184392251005,0.4603284710671258,1.0832588064684932,-4.790036098229961,0.4900516331762344,0.5901921618955709,23.452067401654737,48.990467309564345,-4.912872612476349,-27.46933400630951,22.946397960186005,-26.942533254623413,-57.40455389022827,44.571101665496826,-7.6057083124975895,0.9788506316538061,False,0
GUIDED_NOGPS,0.7057337760925293,30.34513095065837,-1.2203305076586408,25.52585507793208,49.571244300517805,-6.907791183131017,-7.974613687097381,25.078440640916885,43.880202134584266,-0.3043376480467241,1.8489650786078324,21.108122478939542,0.5993076113990455,0.9440550409616073,-4.940940558345915,0.48855117615406424,0.3147593475515074,22.21236101782852,49.89119909810759,-10.111284255981445,-29.529285430908203,23.975640535354614,-94.41664218902588,-57.45701193809509,72.22182154655457,-7.748201333196607,0.6477837853421776,False,0
GUIDED_NOGPS,0.7436003684997559,26.411495787312823,-1.3192912461796507,24.65661175412038,49.97864461428301,-6.925757848746767,-8.330650642735257,24.5474063315216,43.562239418271176,-0.17111993092750288,1.7187710008568111,20.819371109135375,0.5475891579723831,0.9111186122061541,-4.343757055501273,0.48708085923333166,0.3147593475515074,22.21236101782852,49.89119909810759,-9.84417051076889,-31.991475820541382,23.397505283355713,-11.062168329954147,-57.26492404937744,1.5248671174049377,-7.748201333196607,3.2308184290769586,False,0
GUIDED_NOGPS,0.7745380401611328,32.327038983860774,-1.4531240906411502,23.74801983093833,50.386031978757,-6.913162155937493,-8.686591553927418,24.02949540191297,43.24803609212143,-0.01203500676097403,1.564065935495553,20.6207270099566,0.7673075500463273,0.9299835317455489,-3.984946845603736,0.4856200218336637,-0.05234197363443223,21.53087345453729,50.315323737213674,-10.894864797592163,-32.35141634941101,21.997760236263275,-56.52871131896973,-28.934606909751892,71.03902101516724,-7.831901308185708,5.394583724879506,False,0
GUIDED_NOGPS,0.8092653751373291,28.799318863765887,-1.5744397664353045,22.797485199921194,50.78906185512259,-6.830196738062102,-9.041678761649107,23.525446984781034,42.93732873159463,0.1953731856182777,1.4194535418500465,20.329347724869272,0.8072746227060167,0.9183038373112392,-3.1422412032805482,0.48417073961921003,-0.019505880682349402,19.092104800457587,52.226376568314016,-10.517513751983643,-34.1729998588562,17.711839079856873,-59.78685021400452,-34.91297662258148,-65.10957479476929,-7.434897299894121,8.274836504946624,False,0
GUIDED_NOGPS,0.8421916961669922,30.376118019394696,-1.7505735186958036,21.777804453249757,51.246338372893106,-6.738182123196951,-9.395187197099808,23.03595535511807,42.629861764348156,0.5186452919830408,1.3468868373434806,20.096559510029604,0.9950821864769879,0.8303435676647977,-2.9262572653904213,0.4826185321089734,-0.2816733786030116,18.609152004602436,52.57634158781936,-12.969140708446503,-35.04527807235718,19.700545072555542,-18.266776204109192,-34.78315770626068,62.57221698760986,-7.377658782465097,8.807203646972221,False,0
GUIDED_NOGPS,0.8753008842468262,30.206359151633,-1.950582207306354,20.78644085021542,51.636134166172816,-6.579671736517147,-9.746423883548735,22.561670695438544,42.325387384579315,0.6813276981297565,1.2115790823382355,19.762682787926458,1.003182591821488,0.7960272478750345,-2.02871071898492,0.48120538262773466,-0.6931211132051844,17.838635306233236,53.22480773019001,-13.715142011642456,-35.41481792926788,14.700520038604736,-44.811126589775085,-21.987485885620117,-51.42667293548584,-7.243774530233145,12.489893090828648,False,0
GUIDED_NOGPS,0.9111943244934082,27.864500913469524,-2.176317746925404,19.77256763735998,52.05795646008604,-6.406736366959326,-10.094727438180275,22.103199860999084,42.02366546736755,0.8065794936860388,1.0528538103201903,19.249397486894583,1.0250410930754645,0.7368064427110804,-1.9146673402871826,0.4797295133322777,-1.3044825393672124,16.867247557910467,54.12865055751318,-13.715142011642456,-35.41481792926788,14.700520038604736,-44.811126589775085,-21.987485885620117,-51.42667293548584,-6.9420246389421365,12.489893090828648,False,0
GUIDED_NOGPS,0.949174165725708,26.33438604642402,-2.4714996513533873,18.72643701421258,52.47728234813773,-6.247205033686738,-10.439467573939458,21.66110714501846,41.72446348301659,0.9325863453107247,0.8421578423509294,18.826419239521325,1.0718029463970398,0.6112626976169007,-2.0695561245560956,0.4782597590817408,-1.4265573441171253,16.537450920939726,54.405131895079904,-17.548401653766632,-35.53692400455475,13.47789317369461,-117.80304908752441,-1.8037715926766396,-77.2437334060669,-6.8165958432934755,11.077059923275048,False,0
GUIDED_NOGPS,0.9852039813995361,27.757729775518847,-2.728368275744301,17.737078966454888,52.86115418295831,-6.005346982845488,-10.780044601377446,21.235915043897478,41.42755641139668,1.0697858492726517,0.6951460245943385,18.353372290437292,1.1033959796508384,0.6808475059210048,-0.9212970334520407,0.47686520619917977,-1.4336690539009838,15.753099029687657,54.82579795332073,-15.823434293270111,-35.35127937793732,11.874999850988388,-58.665746450424194,-1.2740464881062508,-120.14682292938232,-6.554392615615208,15.78040075650576,False,0
GUIDED_NOGPS,1.0128173828125,36.219929016157025,-2.9704295568832917,16.865222801365242,53.21396131868313,-5.76736016787644,-11.115888930496956,20.828105022439033,41.132726656286685,0.9942285891266782,0.6295222607399436,18.06670071323539,1.200188682930901,0.7486654880886013,-0.005608060743729215,0.4755433012458799,-1.7413776240083991,15.040369962487329,55.26713284948652,-15.823434293270111,-35.35127937793732,11.874999850988388,-58.665746450424194,-1.2740464881062508,-120.14682292938232,-6.3863191479233485,15.78040075650576,False,0
GUIDED_NOGPS,1.0444557666778564,31.611941423414052,-3.172567103890639,16.017686265907347,53.6107420322551,-5.578402054198372,-11.446460572597768,20.438118279067993,40.839763959716336,1.0708086701008612,0.4510169209681,17.65211676835208,1.1169014956134504,0.811085350766672,-0.9562665866796212,0.47413151453577523,-1.9984962865551266,13.766504355657464,55.935031688848824,-13.535632193088531,-35.24095118045807,14.820106327533722,40.33414423465729,-9.396133571863174,-1.903756707906723,-6.101900466527689,12.424399260651041,False,0
GUIDED_NOGPS,1.0783703327178955,29.49249029645047,-3.423361010363113,15.032678250781986,54.022832579505554,-5.3605437105887175,-11.771248642122163,20.066356511051197,40.548465316308366,1.244546484471183,0.4367768836831225,17.15836922344103,1.32550273029806,0.6884761184714534,-0.6500056005167227,0.4726881327364306,-2.3680465742628356,12.937815475144362,56.515102010312006,-14.257743954658508,-35.624632239341736,12.243090569972992,2.8484538197517395,-5.955463647842407,-80.26654124259949,-5.650691388043152,12.457465913970367,False,0
GUIDED_NOGPS,1.1126699447631836,29.15788888270953,-3.7036033094837273,13.927190584218035,54.49289797842654,-5.103468380581507,-12.089770858500396,19.713182679717413,40.258634887620715,1.3579218617212825,0.45089365739792236,16.785447724947502,1.5615200199071746,0.6125977686289757,-0.06764336793382819,0.47112923627908126,-2.917529298629333,10.490812271491853,57.803305115377995,-14.257743954658508,-35.624632239341736,12.243090569972992,2.8484538197517395,-5.955463647842407,-80.26654124259949,-4.798078164132582,12.457465913970367,False,0
GUIDED_NOGPS,1.1458790302276611,30.118295861727262,-3.9969891366097734,12.870682881641835,54.97070976677338,-4.8437469827877715,-12.401573047996164,19.3789217756773,39.97008391648869,1.5430797523838657,0.46851853366431717,16.29772269933711,1.6034905584724746,0.5843226398733593,0.2351726300402781,0.46955682442722174,-2.917529298629333,10.490812271491853,57.803305115377995,-15.749074518680573,-35.62953174114227,14.042235910892487,12.356510758399963,-0.4169990308582783,18.85700225830078,-4.798078164132582,12.995263056386122,False,0
GUIDED_NOGPS,1.1790685653686523,30.13257660117102,-4.35335537530681,11.8719035221204,55.38466975847824,-4.592691090477524,-12.706228645552082,19.06386158404334,39.68263064136715,1.4862873697654444,0.44516494295327996,16.064500767485146,1.5742357909072067,0.46283428930125503,0.26221779898941966,0.4681121974079272,-2.917529298629333,10.490812271491853,57.803305115377995,-20.653530955314636,-35.17481088638306,11.079659312963486,22.616244852542877,14.109177887439728,20.359353721141815,-4.798078164132582,12.849926876132006,False,0
GUIDED_NOGPS,1.212742567062378,29.69965444966861,-4.727856875541051,10.842228389120896,55.75726994302606,-4.325766070838084,-13.003338196635106,18.768253449649844,39.396100210672685,1.6128909024471545,0.4669280600830562,15.536651795595514,1.6805702834952416,0.4117673815752379,0.5695888130845308,0.46674978185259447,-3.9058369288248875,8.722388370780308,58.729278111432066,-19.380760192871094,-34.18429493904114,6.520949304103851,-100.99328756332397,15.503501892089844,-100.83541870117188,-4.00653037626071,11.921549634897302,False,0
GUIDED_NOGPS,1.2517187595367432,25.659356054349356,-5.182785958232899,9.700181357786507,56.102561973078586,-3.9952381427863553,-13.29252885908207,18.492313042272887,39.110324597125796,1.557981090718718,0.43689294353815983,15.142191295554353,1.75404136348153,0.2855412036969304,0.9973872916387485,0.46543470106807405,-5.965567664847743,5.140918596262852,59.63811562044829,-19.415831565856934,-33.847206830978394,3.101516142487526,-24.200144410133362,18.684135377407074,-55.39179444313049,-2.9470779925698514,13.542235704178145,False,0
GUIDED_NOGPS,1.28505539894104,30.001745325531825,-5.627499217372675,8.60669581135159,56.44346914394799,-3.6636025454009182,-13.57345390494508,18.23622112185026,38.82514251209309,1.668114262547177,0.49799869733915,14.881329295678642,1.951156450369889,0.23100812880345928,1.7784260572734913,0.46413550444013235,-5.95194769910221,5.374402126461716,59.92181653391307,-19.415831565856934,-33.847206830978394,3.101516142487526,-24.200144410133362,18.684135377407074,-55.39179444313049,-2.7643726510201976,13.542235704178145,False,0
GUIDED_NOGPS,1.3202002048492432,28.45756778028062,-6.0366647609542285,7.632147841884583,56.77426499736354,-3.4021214403732905,-13.845792222337023,18.000124303701455,38.540399319929406,1.7461220665013042,0.5200866219804721,14.6868003854748,1.804844263666203,0.2984147204948444,0.9451833415891953,0.46285333905602,-6.35137725678237,3.079378905014417,60.36717364749474,-20.22051364183426,-33.10321271419525,5.79456053674221,-57.799339294433594,0.49417647533118725,-45.08972764015198,-2.177357386849664,9.999475492074122,False,0
GUIDED_NOGPS,1.356738567352295,27.3734964920868,-6.448339220362516,6.58192775782332,57.16935287133085,-3.1944084096343452,-14.10924781727701,17.784135823747626,38.25594695232006,1.802508906637756,0.5036705824754638,14.306741339298611,1.9941840305994327,0.26419505887728034,0.4487048735984176,0.4614411104332823,-6.35137725678237,3.079378905014417,60.36717364749474,-18.595847487449646,-32.83323645591736,8.618737012147903,-5.544901639223099,27.829506993293762,110.97962856292725,-2.177357386849664,5.26514438303177,False,0
GUIDED_NOGPS,1.3942580223083496,26.654702364686667,-6.874112298970946,5.660645557271874,57.48829312952449,-2.944984695384002,-14.363549315535876,17.58833630373151,37.97164382262297,1.942106020441769,0.372231596026502,13.965750975174895,1.7858356904544892,0.2599065225526388,0.789620311564547,0.4601736940607543,-7.796990731871665,1.9515589406574312,60.7044401129798,-19.626721739768982,-33.067044615745544,6.502415239810944,36.99118494987488,13.46258819103241,13.269761204719543,-1.7644608939277626,9.55551404979694,False,0
GUIDED_NOGPS,1.422968864440918,34.83612262356625,-7.364459738298862,4.40999191959549,57.88356940533555,-2.635659421161666,-14.608449464481584,17.412774516437437,37.68735474021088,1.9502937097093218,0.24525218949702965,13.825583540575185,2.793383502333874,-0.04672156470601921,2.7366641055797825,0.4587682669983433,-8.280074417246002,0.7188031624973164,61.12464711191963,-15.348111093044281,-31.59971535205841,4.304830357432365,58.4417462348938,7.053503394126892,10.351505875587463,-1.1288474095810002,7.51234406808402,False,0
GUIDED_NOGPS,1.4479470252990723,40.04529353917834,-7.729737923541871,3.509546382938914,58.167992996229536,-2.4022574364854217,-14.843724634924758,17.257468150911272,37.402950824813495,1.9502937097093218,0.24525218949702965,13.825583540575185,2.469136411831412,0.1703143720157415,2.2933479813534206,0.45758908491148703,-8.280074417246002,0.7188031624973164,61.12464711191963,-15.348111093044281,-31.59971535205841,4.304830357432365,58.4417462348938,7.053503394126892,10.351505875587463,-1.1288474095810002,7.51234406808402,False,0
GUIDED_NOGPS,1.484161615371704,27.61681646090535,-8.131380919142703,2.7304971182922673,58.358177676883756,-2.216889383470895,-15.069174322964097,17.122404577680367,37.11830942085969,1.8875142393965612,-0.009975918169626749,13.505366343038416,1.9142095071574592,0.2062516617974107,0.7175630862677502,0.45657790498975226,-8.40422562399976,-0.18400857838198514,61.29398041167606,-21.110977232456207,-30.084329843521118,0.21109827794134617,-10.102711617946625,39.63082134723663,-26.371952891349792,-1.032979111720047,6.0534771330718256,False,0
GUIDED_NOGPS,1.5178773403167725,29.66562460215297,-8.664589553951956,1.6327175553686593,58.654576403327255,-2.018799697356473,-15.284620651831881,17.007541613973515,36.833314011819674,1.9873991392622392,-0.1623190187385299,13.399716123183012,2.6921498240930477,-0.17294472664898716,1.3865013866902818,0.45536187045451315,-8.980871630427295,-0.8808022193185014,61.54672545941617,-20.700624585151672,-29.55244779586792,1.0160167701542377,-32.20283389091492,11.398985236883163,81.61488175392151,-0.7282105661715125,1.6280596853766949,False,0
GUIDED_NOGPS,1.5522332191467285,29.108918037337776,-9.202511307851841,0.6613758359473588,58.86666196627949,-1.8298371055913614,-15.489907873739403,16.91280828894096,36.54785413454719,2.1888745652953943,-0.11099569665458471,13.351532553683159,2.3134213640670676,-0.08438618631510554,0.9146585006958039,0.4542997220048482,-10.083969152614731,-2.805134016413964,61.82322208742511,-23.477181792259216,-29.896298050880432,-1.2659556232392788,22.97280728816986,12.20821812748909,-39.13389444351196,-0.341642817786185,3.105159170048003,False,0
GUIDED_NOGPS,1.58231782913208,33.24538292037222,-9.77723234974394,-0.47385385245832495,59.08525402534358,-1.669952810480313,-15.684901871722449,16.838105608874283,36.26182529362164,2.169459966023045,-0.12970273101760338,13.278457213526838,2.9794691359106538,-0.3545823646604037,1.1271981718571347,0.45323563655318627,-10.083969152614731,-2.805134016413964,61.82322208742511,-20.66415101289749,-28.785833716392517,-3.8392607122659683,-30.688941478729248,22.5288063287735,-54.620563983917236,-0.341642817786185,-1.337532039501502,False,0
GUIDED_NOGPS,1.6162083148956299,29.509920355725665,-10.290811796627867,-1.4065563610654206,59.21674065294035,-1.5045650115934108,-15.86948966148676,16.783307322426445,35.97512887569034,2.1706535415805046,-0.01727066692490615,13.307256706162196,2.574508699184238,-0.18396115573160432,1.045354022580523,0.45233612967439746,-11.700554168312319,-5.2866587535118015,61.87832365508945,-20.09599208831787,-27.573320269584656,-4.647491127252579,11.009897291660309,28.343790769577026,0.3572985529899597,-0.018591196835531426,2.2075850147529983,False,0
GUIDED_NOGPS,1.6529428958892822,27.226193412699445,-10.854339779948223,-2.446987800133636,59.37466891988289,-1.3552736117900888,-16.043578893253517,16.748260685831657,35.68767206381062,2.232268037752955,0.07288718978902747,13.351570973497239,2.722586176942656,-0.2673116246643769,0.8149097658987583,0.45137585378051015,-12.34072922919924,-6.105301504139568,61.9828830382273,-18.998806178569794,-26.61287784576416,-4.363379254937172,-22.467508912086487,25.182610750198364,6.792230904102325,0.06905285077678794,-0.2297517688667733,False,0
GUIDED_NOGPS,1.6831307411193848,33.13428921278192,-11.487770934322509,-3.5483074277163293,59.52740858265509,-1.216903569528578,-16.20709735360478,16.732787228125424,35.3993677517921,2.1847474234894144,0.05523734064347984,13.347204775070308,3.225199980170864,-0.6078084265026068,1.1074186787670426,0.4504356261842016,-13.04086329803199,-7.244605838248691,61.87099946882188,-20.885708928108215,-25.983303785324097,-4.3911512941122055,-56.73919320106506,18.826289474964142,-110.8466386795044,0.16987369839931454,-1.3724530891804847,False,0
GUIDED_NOGPS,1.7165172100067139,29.953323620990087,-12.048813833710561,-4.462070993857648,59.62113627537938,-1.1261146128872332,-16.359992467328944,16.736683516364486,35.11013445853875,2.240314427482053,0.24309118167666108,13.498402965179588,2.8622200145924657,-0.42271114819780287,0.40822561420055237,0.4496040054631939,-13.913671631340032,-8.426724403115092,61.70826419909082,-20.885708928108215,-25.983303785324097,-4.3911512941122055,-56.73919320106506,18.826289474964142,-110.8466386795044,0.06680840781897264,-1.3724530891804847,False,0
GUIDED_NOGPS,1.7495288848876953,30.295814222254325,-12.617705025170345,-5.4297722357086515,59.71350234639945,-1.0271265689178237,-16.502230799266254,16.759721920846722,34.81989624239115,2.2957266850013087,0.2744728593442549,13.532805774255296,3.0629727187666274,-0.4995327101520715,0.5827564505806024,0.44877303267719154,-13.913671631340032,-8.426724403115092,61.70826419909082,-19.499194622039795,-25.68838596343994,-5.122597888112068,-29.804974794387817,-7.137066125869751,-84.3773603439331,0.06680840781897264,-1.421511029615807,False,0
GUIDED_NOGPS,1.7836198806762695,29.33838825430356,-13.21924278720305,-6.368177463937703,59.75864290246471,-0.9231288025248158,-16.633797556154224,16.801651380331162,34.528582615468665,2.254023897806738,0.23387789681654858,13.68759066745248,3.072030367852215,-0.5843940134674026,0.6677868927263183,0.44803139524550695,-14.592196250806307,-9.034361746465109,61.39166885153605,-20.91584950685501,-24.44075047969818,-6.7783840000629425,-40.640437602996826,27.619582414627075,-50.13937950134277,0.134034444226258,-0.7716566297380577,False,0
GUIDED_NOGPS,1.8176898956298828,29.355020226480594,-13.770848385688996,-7.3082818932694185,59.787793713648135,-0.8128577155008239,-16.754696088473136,16.862198167257976,34.23612845801158,2.328410847727112,0.1679499761006765,13.86272013286619,3.1799275039434582,-0.5475454461797955,0.8118827473679118,0.44731880726967715,-14.509919903821496,-9.880039677932611,61.55447257885292,-18.60108971595764,-24.04850125312805,-7.784144580364227,28.460946679115295,9.851621836423874,-81.74890279769897,0.057574355126197733,0.25786493421225154,False,0
GUIDED_NOGPS,1.8508038520812988,30.207446885127837,-14.303586338421255,-8.194792389107537,59.80833846761145,-0.788668934338504,-16.86494739229145,16.94106665296835,33.94247393272332,2.3164038020530526,-0.032652999987715335,14.051311901133998,3.225609013887507,-0.5809679266152015,-0.1823844869516132,0.4466215638765312,-15.1629859376816,-10.069492263950387,61.50631612754867,-17.22264140844345,-23.491811752319336,-7.462147623300552,-96.97933197021484,4.453921690583229,-46.949851512908936,0.12408614996699807,-5.13422929343649,False,0
GUIDED_NOGPS,1.8848490715026855,29.373933748861965,-14.906836202068376,-9.104107129591428,59.78768116003357,-0.8197395804266668,-16.96458961111136,17.037940072924496,33.64756439911261,2.477648773544598,-0.15495490087449257,14.23026114984104,3.3219258640337572,-0.7498210696562435,-0.8568696860181825,0.4460018587577678,-16.648133497583153,-12.08764575627341,61.14584846152883,-19.29716169834137,-22.33732044696808,-8.616404980421066,7.708185911178589,9.81053113937378,-41.070592403411865,-0.06282630486801391,-7.78738724822397,False,0
GUIDED_NOGPS,1.919952392578125,28.492945212458817,-15.641194476203598,-10.044620259756066,59.628784472229654,-0.8533486209121202,-17.053677537714176,17.152481291929682,33.35135032783564,2.5504709698148047,-0.3356820264781473,14.376007995219004,3.4283922691880098,-1.0277660302203653,-0.8975533919611572,0.4456539221548368,-17.427872989256066,-13.938319482414158,60.57125380786786,-27.191749215126038,-21.749767661094666,-15.81038385629654,-91.35082364082336,18.72660368680954,-180.6280493736267,-0.3512182078270351,-6.710384663762966,False,0
GUIDED_NOGPS,1.9631171226501465,23.170262013799505,-16.284542495129664,-10.937097276868156,59.53756660251986,-0.9116168251166034,-17.132282116005783,17.284333569348057,33.0537872150383,2.6546766046607506,-0.5211187809579374,14.599122954646639,3.1752197257211034,-0.7440308911578726,-1.084896066902353,0.44514943243404514,-17.28559401575938,-14.355985894740474,60.64170744126601,-23.317590355873108,-20.92629224061966,-10.962247848510742,-14.14504200220108,7.64140710234642,-31.74058496952057,-0.5249128087745987,-7.423981910791564,False,0
GUIDED_NOGPS,1.9874167442321777,41.16219319508916,-17.011026910248248,-12.081327117366373,59.47804448999961,-0.968489342406798,-17.200489942862248,17.433121324324688,32.754835496698284,2.6530975503020082,-0.7486800868135465,14.751880135433975,3.9721451456976915,-1.681542253926588,-1.5315304002497698,0.4446194029420014,-17.43157571324341,-14.62067809771638,60.727569181734275,-18.782484531402588,-21.02418541908264,-9.514082223176956,30.09907305240631,22.12642729282379,20.061327517032623,-0.5938309845667799,-8.055677932595717,False,0
GUIDED_NOGPS,2.0194475650787354,31.22178965155316,-17.421072806432456,-12.632428200394466,59.35594140850003,-1.0143924342616732,-17.2584027699751,17.598450901005485,32.45446046296731,2.6906742629076565,-1.0339699380906917,15.012974361741467,3.2413125309588517,-0.7011990592921393,-1.1748213796255844,0.4441930664914912,-18.167482951346436,-15.287304953692498,60.39560437408122,-19.64787095785141,-20.220190286636353,-11.054258793592453,12.285590916872025,20.432375371456146,-32.902783155441284,-0.6919422689220143,-4.340696208117116,False,0
GUIDED_NOGPS,2.0530717372894287,29.7455711104492,-17.98127491803556,-13.454596316018032,59.25207235147109,-1.1181316344250045,-17.30613700569689,17.779911333757248,32.15263217251331,2.8554154374806022,-1.2043791024576902,15.237086528787925,3.6933578141588392,-1.0194522050649026,-1.9042732368132356,0.44372421045782484,-19.27626812817281,-16.55232553565232,59.89389105542983,-16.86321198940277,-18.68807077407837,-8.865367621183395,15.242093801498413,23.71462732553482,29.41909432411194,-1.0078045675662606,-8.298177822661497,False,0
GUIDED_NOGPS,2.0869944095611572,29.482539504020693,-18.562027343525724,-14.318135760248378,59.13282400674103,-1.2567070150357658,-17.343823216886662,17.977075112387553,31.84932536686256,2.952915107222065,-1.4280058991862545,15.482459367173341,3.838078686723625,-1.1223332646453739,-2.3890158704411473,0.4432820954346328,-20.366702780494315,-17.811194243931894,59.55172181003936,-15.57210236787796,-18.73171180486679,-8.786391466856003,61.25399470329285,9.348218142986298,-116.48181676864624,-1.5075943618278567,-9.094356752510604,False,0
GUIDED_NOGPS,2.12078857421875,29.59612752085127,-19.132285884462863,-15.143338949293897,58.99079355815532,-1.3872310321512167,-17.371605630755337,18.189498947364683,31.544519384741914,3.05377608380882,-1.610837256662802,15.681878692822911,3.881600415364046,-1.178676225205745,-2.3787520228185337,0.44288241365034503,-21.250578441137947,-18.219626118562314,59.31677209471905,-14.192764461040497,-18.039454519748688,-9.544169902801514,161.57402992248535,32.65153169631958,82.72209167480469,-1.5912822450640771,-8.16763497837598,False,0
GUIDED_NOGPS,2.1558940410614014,28.514446544386583,-19.697850500918882,-15.919816370107919,58.84169308856001,-1.526618495375543,-17.389641636711364,18.416724535037666,31.238198076420947,3.1397745687616276,-1.824975746695455,15.918121275835311,3.8468154291357473,-1.2049504037846148,-2.5075465050374977,0.4424906130264917,-21.3376843289212,-18.81735193087968,59.02496516768045,-15.54848700761795,-16.18272215127945,-9.159223735332489,32.6498419046402,27.077960968017578,-49.742284417152405,-1.72561773634785,-8.299275775570576,False,0
GUIDED_NOGPS,2.205735921859741,20.052800925593914,-20.234209618840204,-16.649153328580148,58.69332496640567,-1.6662196531779454,-17.398101288205982,18.658279322856202,30.930349718054156,3.2084132741652014,-1.9311728085712827,16.260250574003127,3.464100190072686,-0.9431448506790443,-2.119660821223793,0.44206091000843034,-21.3376843289212,-18.81735193087968,59.02496516768045,-15.54848700761795,-16.18272215127945,-9.159223735332489,32.6498419046402,27.077960968017578,-49.742284417152405,-1.72561773634785,-8.299275775570576,False,0
GUIDED_NOGPS,2.221238374710083,64.51584322894234,-21.016961721465144,-17.7870509389647,58.50606035110319,-1.825462480132193,-17.397166804578763,18.913677274590626,30.62096692602311,3.275864807313662,-1.9191427110087746,16.28254260390676,3.893320349022756,-3.4109465675364423,-5.180371225483039,0.44178188962196085,-22.199433579515443,-20.06820249627997,58.29722604128814,-13.70466947555542,-15.856097638607025,-7.704615592956543,91.13821983337402,20.189549028873444,108.79013538360596,-2.1234819450304787,-7.296093448772246,False,0
GUIDED_NOGPS,2.2626113891601562,24.172155050196523,-21.217774682838805,-18.021434563636078,58.35628605912773,-1.965468065189243,-17.387032072903114,19.182419635551838,30.310046571278654,3.3000304434839904,-2.0513034563539363,16.658747715843766,3.2392040775567064,-0.7041958011933709,-2.5328429111500235,0.4413667667589365,-22.10520518443552,-20.617638697288548,58.33566573244709,-14.21939730644226,-13.50967139005661,-10.06457731127739,-42.846447229385376,29.68572974205017,26.121169328689575,-2.3700261195573162,-8.161636364737419,False,0
GUIDED_NOGPS,2.290576457977295,35.765299770620686,-21.814792022950336,-18.84116971907209,58.15412153517568,-2.14718844640966,-17.367902149831657,19.463995697811356,29.99758969368308,3.123955850643878,-2.1120131659047714,16.817489849891327,3.9349766678414815,-1.8092361953678258,-3.8920007780079517,0.4410832975122465,-22.76052671963564,-20.502671834568613,58.160536649285106,-11.631081998348236,-12.071602791547775,-9.261146187782288,51.629287004470825,28.769004344940186,67.51914620399475,-2.296612275062591,-8.741495519609405,False,0
GUIDED_NOGPS,2.3221707344055176,31.66038134633675,-22.21577956512516,-19.29915127720668,57.93501640058251,-2.2805715931437702,-17.339992763441835,19.757883565421132,29.68360141635231,3.206753965083711,-2.167069613256952,17.00897932591451,3.9283018223443884,-1.343518893317194,-3.0584843148568788,0.4408221854759977,-22.871611315889538,-20.997373282650145,57.91337267815385,-14.717213809490204,-11.08091026544571,-12.360270321369171,-33.377134799957275,31.353238224983215,-34.582650661468506,-2.5161876093404762,-6.744723866702028,False,0
GUIDED_NOGPS,2.356337308883667,29.272252697402397,-22.64377359085867,-19.817949950066595,57.74774871043625,-2.440743833065564,-17.303529815081212,20.063550919633663,29.368090859998063,3.3380071490429075,-2.1612204100064822,17.24905364505129,3.9442037236745517,-1.3942205304252047,-3.3417083216572996,0.4404882144133374,-23.3637925274458,-21.20713861897918,57.71057114806363,-12.083254754543304,-10.065954178571701,-9.161878377199173,27.151280641555786,27.745413780212402,99.9165415763855,-2.657959490053167,-7.797503612158406,False,0
GUIDED_NOGPS,2.3897669315338135,29.91721648822728,-23.082167539048786,-20.41831851688715,57.48671338074335,-2.6070598652411525,-17.258748881213016,20.380455784121892,29.05107105727002,3.4171669070892396,-2.2223638365696132,17.35902481333037,3.9360495014032635,-1.4954997029004773,-3.5547623823154715,0.44030021648432444,-24.53874594387769,-23.13629638068725,56.42773541457176,-8.42772051692009,-8.664136379957199,-10.175226628780365,-1.6441509127616882,10.36604717373848,11.002827435731888,-3.4069149515303883,-5.901715879242843,False,0
GUIDED_NOGPS,2.4233899116516113,29.74599302147457,-23.45952601584821,-20.95609259376524,57.2875847616322,-2.7502381396064397,-17.2058947152617,20.708047290199055,28.732558867098078,3.456915619850952,-2.2490399941467443,17.45826233932878,3.935491379258371,-1.4388972458931735,-3.3498413387892207,0.43998447645431304,-24.53874594387769,-23.13629638068725,56.42773541457176,-6.795933097600937,-8.027377724647522,-6.633566319942474,56.675076484680176,20.419445633888245,73.03264141082764,-3.4069149515303883,-4.777851793773204,False,0
GUIDED_NOGPS,2.4574806690216064,29.336951808071625,-23.828536039985067,-21.49736733623124,57.086897651694926,-2.8941778700263336,-17.145220749458222,21.045766442038868,28.412574889034417,3.561940877397299,-2.212319616508286,17.59786969841655,3.930579365695993,-1.4741923398524062,-3.426388004720505,0.4396677257619584,-25.16265044714801,-23.766534238724006,55.99825780401284,-5.639167502522469,-8.179647475481033,-5.845282599329948,46.64187431335449,43.27922165393829,63.20178508758545,-3.7397661339195225,-4.113777687095428,False,0
GUIDED_NOGPS,2.4907734394073486,30.040423428972513,-24.20046649794302,-22.00032093713185,56.842781551226224,-3.0561701441151703,-17.076988596685556,21.393046881895344,28.09114337759574,3.4812217017860885,-2.1582526928121117,17.749453794213935,3.922537448147335,-1.5575632263484507,-3.780242630312518,0.4394365276244697,-25.16265044714801,-23.766534238724006,55.99825780401284,-7.706902176141739,-8.311577886343002,-9.294220060110092,3.5869263112545013,18.784591555595398,-24.312156438827515,-3.7397661339195225,-5.710542726355595,False,0
GUIDED_NOGPS,2.5275557041168213,27.19406623615758,-24.5193517047067,-22.484818423837208,56.57549286127615,-3.287410449126863,-17.001467552324346,21.74931565532269,27.76829215660549,3.4704231727082986,-2.1007292665090875,17.916105287320367,3.9228760970225807,-1.4574892560489856,-4.494233912049053,0.43924087349876767,-25.240531874382853,-24.68470726785955,55.392795297415475,-5.393704771995544,-6.56561404466629,-9.585609287023544,58.78942012786865,18.913452327251434,-62.69412040710449,-4.034632154014607,-9.805184784717586,False,0
GUIDED_NOGPS,2.5593974590301514,31.406244852115314,-24.755613362051566,-22.923512424523498,56.36059266267477,-3.450208376791178,-16.918934096098145,22.113993976395463,27.444052533535938,3.442765602324801,-2.1885275063081933,17.951678620065085,3.918150618872195,-1.4780573148507414,-4.210303678932087,0.43895180721294014,-25.7351751078321,-24.994114793262828,54.81100607094656,0.00928165391087532,-4.834911227226257,-5.0208162516355515,133.921480178833,37.65098452568054,99.03417229652405,-4.238981584238325,-5.053011514015869,False,0
GUIDED_NOGPS,2.5970892906188965,26.53564717865661,-24.900459891874117,-23.25944674876395,56.19809286005472,-3.553567001457025,-16.829671393918947,22.48649799292842,27.118459213850443,3.485247244528165,-2.246954652015775,18.016459549248072,3.9309439084069715,-1.2360774692259675,-3.1910236987625407,0.4385347884770645,-25.784772875262163,-24.86149588467953,55.08833712127608,2.5058871135115623,-3.785533085465431,-3.8356244564056396,99.32560920715332,13.983234763145447,-52.784234285354614,-4.174136663742441,-2.3498168740293437,False,0
GUIDED_NOGPS,2.6298704147338867,30.50935436003375,-25.11058536347338,-23.607715387410064,55.95277580985929,-3.693562991899638,-16.73396879973274,22.86623955169631,26.791550215345563,3.5464786097768597,-2.3423075079237377,18.020036860825865,3.9135411589597777,-1.468294315240482,-3.918458517882389,0.438294863137213,-25.9927779951638,-24.835384834122777,54.862340606137835,0.15529509400948882,-2.648502215743065,-8.283533900976181,40.912020206451416,31.289005279541016,-50.757670402526855,-4.229731930304483,-4.288998079402466,False,0
GUIDED_NOGPS,2.6603899002075195,32.7708162420208,-25.285624890657942,-23.846126403506013,55.69503285543009,-3.7568645499268905,-16.632121357364753,23.25262696365433,26.4633667824933,3.522289921718083,-2.4489540816243167,18.01478615290142,3.9111303383437415,-1.4845907595356012,-3.088033575316114,0.43808297598527846,-26.032102122140753,-25.107096625724886,54.572357929525204,-2.6023782789707184,-2.1336987614631653,-10.756710171699524,29.945489764213562,20.798209309577942,-68.80889534950256,-4.342653514119008,-0.420019601523878,False,0
GUIDED_NOGPS,2.6945786476135254,29.2534698489308,-25.442644216750967,-24.071446518808074,55.442568748775614,-3.7745191406922345,-16.524429302365263,23.645065769157434,26.133953300783226,3.56997531429535,-2.4745997344104222,17.977247433223027,3.914754693973199,-1.4239224305925922,-2.4707271359366847,0.43784870561558403,-26.05724451513948,-25.292467085310687,54.44143178601689,-1.4675555750727654,-0.9455091319978237,-10.449235886335373,18.305496871471405,17.230644822120667,-64.82420563697815,-4.32535066615905,2.596852009704011,False,0
GUIDED_NOGPS,2.724883556365967,33.00158937479346,-25.578745226781702,-24.31661032400692,55.17551947412297,-3.796147635275374,-16.411197563854785,24.04295950318076,25.80335721106466,3.5850903094851767,-2.5269002004325025,17.953548384350377,3.9109873979234338,-1.4740720911286775,-2.5619949662223904,0.43765010876939614,-26.332720435785813,-25.241007425627593,54.147541272227215,2.45662871748209,-0.02560929278843105,-9.930243343114853,-3.9485950022935867,18.642567098140717,-110.12802124023438,-4.400954148990209,3.0327405952690616,False,0
GUIDED_NOGPS,2.7583231925964355,29.909322988718856,-25.653800843017773,-24.517406339253984,54.93868582158518,-3.8243206034666897,-16.29273526636952,24.44571046053955,25.47162892388893,3.691497826564805,-2.4881982141610943,17.880453407400193,3.9187268236586386,-1.3493654246074633,-2.632932082416183,0.43738180201897126,-26.332720435785813,-25.241007425627593,54.147541272227215,5.348553508520126,1.065861713141203,-8.696547895669937,104.45783138275146,38.16464841365814,-21.169255673885345,-4.400954148990209,2.157284726940674,False,0
GUIDED_NOGPS,2.7995386123657227,24.265571304599362,-25.74938776803002,-24.728653691008024,54.74306518791814,-3.848476645337778,-16.16935523170706,24.85272046110888,25.138821733851415,3.804621980919495,-2.446514850316976,17.753615086965763,3.9189711877967492,-1.3389227447028014,-2.5430884077535585,0.43700963554593875,-26.26817520872325,-25.351438212695154,53.95362786548702,4.808874428272247,2.320517599582672,-4.574356600642204,3.3587977290153503,28.996506333351135,5.202890187501907,-4.3740952123235,2.629093917681056,False,0
GUIDED_NOGPS,2.8313169479370117,31.47010406740747,-25.83225591533799,-24.999101641609265,54.46114217977626,-3.8817564274237837,-16.041373480771693,25.263391615043723,24.804991733933853,3.8162725760962446,-2.46471047426589,17.606885548120964,3.911659112538444,-1.437490587604609,-2.746999611057724,0.436830255757899,-26.26817520872325,-25.351438212695154,53.95362786548702,9.001734107732773,3.600119426846504,-7.878773659467697,103.39961051940918,29.599741101264954,71.10013961791992,-4.3740952123235,2.8787196160418627,False,0
GUIDED_NOGPS,2.8655929565429688,29.182436146305147,-25.91064255836215,-25.112408080203732,54.19099980508875,-3.879320691535795,-15.909108735419789,25.677127087999118,24.470197729846447,3.896747572444627,-2.3172910863149196,17.48015309561867,3.9124557853350077,-1.4264769261703532,-2.2991642857567336,0.43661946473175167,-26.150977850931092,-25.203583541598775,53.77308277178878,2.717224694788456,4.2796604335308075,-10.850734263658524,-29.0766179561615,27.059203386306763,-38.60945105552673,-4.391485434331184,3.579825087408743,False,0
GUIDED_NOGPS,2.899796485900879,29.24184473803465,-25.936404580102273,-25.220621098316233,53.87939503202261,-3.8820244867508373,-15.772881920305474,26.093331866349814,24.134501154370035,3.8619656878699833,-2.2824468762640997,17.273654278894384,3.917065996735126,-1.3577303601868786,-2.3610444337215744,0.436490426834043,-26.175239701803562,-25.276045227770197,53.375187738437575,6.502003967761993,5.114729702472687,-12.255647778511047,19.7688490152359,17.62743592262268,-88.26639652252197,-4.328160343598096,3.033786041098897,False,0
GUIDED_NOGPS,2.942234992980957,23.56694798116579,-25.800422537311054,-25.26324782400063,53.65080055725435,-3.870908082441711,-15.633015664725912,26.51141352241042,23.797965981698347,4.024401246711227,-1.991458619506754,17.099272719194786,3.936190812121865,-1.0782146674172384,-2.2180506365025563,0.43617291877945547,-25.82539357853757,-25.38334933800898,53.3570777941171,15.2608722448349,8.07340070605278,-7.49892070889473,99.40208196640015,30.7796448469162,14.283443987369537,-4.408130468985861,3.8521455833907976,False,0
GUIDED_NOGPS,2.97475004196167,30.756568478635486,-25.74315361137799,-25.35168004769803,53.36010267858815,-3.8385411425006843,-15.489833804466892,26.930782979655362,23.46065864178007,3.822874807702708,-1.772418401527559,16.902313969193713,3.9260688270029838,-1.23591870493494,-1.9057305658712727,0.4360017718988577,-25.82539357853757,-25.38334933800898,53.3570777941171,12.064461410045624,9.251567721366882,-8.292455226182938,148.8669991493225,37.583622336387634,-23.494839668273926,-4.408130468985861,5.737029346183258,False,0
GUIDED_NOGPS,3.007380962371826,30.6518266258395,-25.63267302634446,-25.30389803195899,53.14898239409411,-3.7801733455601254,-15.343660883648278,27.350855277938592,23.122647934661153,3.737716009130989,-1.482442079984433,16.733285570256115,3.9331969553453665,-1.1430595652981355,-1.5524564806132601,0.43566962528041797,-25.810113496870976,-25.337121470491084,53.224899225807725,11.291268467903137,10.48663780093193,-7.880505919456482,37.67800331115723,31.30718767642975,77.00537443161011,-4.327000947922523,6.09362626567363,False,0
GUIDED_NOGPS,3.0505435466766357,23.171286040229155,-25.518435095507364,-25.20678127364572,52.90261114926942,-3.6963101672646337,-15.194821656569296,27.771050338714005,22.784004944826847,3.411592618952863,-1.1479843649150105,16.45293021048919,3.935756551869413,-1.12351354103944,-1.4394713777161565,0.43538123312481797,-25.71654053886723,-24.690387950142274,52.67185874481196,10.958432406187057,11.302467435598373,-9.183764457702637,25.350233912467957,1.717701181769371,-90.14992713928223,-4.023284972979902,6.81618941664834,False,0
GUIDED_NOGPS,3.082709550857544,31.092410562054294,-25.418199058100946,-25.147649587061828,52.64416111189275,-3.581347352941009,-15.04364058955435,28.19079373025515,22.444802955544013,3.1750238944075937,-0.8549560160299465,16.227339307487423,3.93478035309326,-1.1671032158551287,-0.7193908727820386,0.43514200686241433,-25.71654053886723,-24.690387950142274,52.67185874481196,11.432573199272156,12.381906062364578,-5.8169543743133545,11.072336882352829,17.003226280212402,108.56528282165527,-4.023284972979902,8.796292419773126,False,0
GUIDED_NOGPS,3.116950273513794,29.210075840407825,-25.282224587096803,-24.98295057985795,52.392246267689266,-3.494241561389938,-14.890441362798134,28.609517432874988,22.10511736320325,2.9530124374177373,-0.7264644696512569,15.975117496911775,3.940376493620739,-1.0984560802332055,-1.080270359331132,0.43488339539602155,-25.28075462732763,-24.443439973603702,52.359014001893996,10.172074288129807,13.201332092285156,-10.095667839050293,-34.46340262889862,17.424775660037994,-20.141926407814026,-3.8886699386673245,6.379149090434496,False,0
GUIDED_NOGPS,3.1543686389923096,26.729102275696377,-25.14652580463646,-24.808772347246585,52.101683392651,-3.3679484662011583,-14.735546372211294,29.026660604146166,21.76502559166098,2.759581053236153,-0.7400690325391587,15.726520809238114,3.9426139586180797,-1.092728194345033,-0.6700668821745008,0.4346935685694053,-25.168587785034795,-24.171423727597478,52.135451754691545,9.902334213256836,13.307330012321472,-11.613496392965317,-15.036213397979736,6.833977252244949,41.44586622714996,-3.6951299557388206,8.30185075688767,False,0
GUIDED_NOGPS,3.1859612464904785,31.657991667169856,-25.005895309435715,-24.610749672645746,51.81873979663961,-3.232968551741167,-14.579276231265856,29.44167034412098,21.42460700658185,2.646741632392488,-0.8655812290575476,15.45779213898584,3.9451307178478037,-1.0842618785951696,-0.23023295636210261,0.4345018245469983,-25.125980957909693,-23.801467586472256,52.028593195178026,9.902334213256836,13.307330012321472,-11.613496392965317,-15.036213397979736,6.833977252244949,41.44586622714996,-3.4897968104176074,8.30185075688767,False,0
GUIDED_NOGPS,3.222583532333374,27.308444560192722,-24.859478664678935,-24.39734529152338,51.54346985656794,-3.1077322240152894,-14.421949272840653,29.854002460551,21.08394282978069,2.707215700416958,-0.9941810979676056,15.261842549434636,3.9480435962440144,-1.0654628449738879,-0.49585135685589177,0.43428185611295156,-24.82209481553071,-23.817089697930925,51.73258803517726,9.326162934303284,13.58744502067566,-12.742596864700317,-13.155817985534668,2.9588185250759125,-15.799227356910706,-3.4761296247488014,8.038021039817588,False,0
GUIDED_NOGPS,3.252061367034912,33.927910438102636,-24.637143157561383,-24.17666026092845,51.241988482863185,-2.9766273091914077,-14.263881051066935,30.263122234107485,20.743116053564727,2.7191211470271135,-1.2327653686482631,15.041514307188365,3.9584181500686344,-0.9035976505227088,-0.009560854496790672,0.43413113617731636,-24.707531817787046,-23.36822754943478,51.58579868540435,13.907718658447266,13.46719115972519,-11.581993848085403,36.37470006942749,-5.900651961565018,-8.36801528930664,-3.355444938283146,7.561944048063006,False,0
GUIDED_NOGPS,3.2848806381225586,30.47455188799198,-24.471024252367133,-23.933709159040088,50.99928175643832,-2.860835255406102,-14.105383843173444,30.6685051836009,20.402211355075963,2.8442199036573053,-1.5289923804990087,14.737092775880898,3.9544109734364588,-1.0121644734774151,-0.3011811055679403,0.43385463628491416,-24.707531817787046,-23.36822754943478,51.58579868540435,10.538246482610703,14.406934380531311,-11.46850660443306,80.8609127998352,-3.201569616794586,43.46035122871399,-3.355444938283146,7.384079091886703,False,0
GUIDED_NOGPS,3.3179562091827393,30.237499279081838,-24.171838406238393,-23.663471356045726,50.7454033765548,-2.76889045986519,-13.94676615133247,31.069637831201376,20.061315010633045,3.0244510934941933,-1.6263244971623945,14.531927553592054,3.9681543069377097,-0.7551311624162116,-0.5520529570261687,0.43359921455233896,-24.616770344375155,-23.079741840052108,51.41021267036924,18.982335925102234,15.602105855941772,-11.004146188497543,126.65352821350098,8.967550098896027,6.862545013427734,-3.186696846672105,5.163329741282152,False,0
GUIDED_NOGPS,3.3521740436553955,29.22839562093644,-23.902990889660018,-23.38628472414332,50.54787787326555,-2.7166314503421836,-13.788332204504927,31.466018467657918,19.720514810073738,2.9906796500298887,-1.6048856005747822,14.346718436510695,3.9663749472877554,-0.803491973568015,-1.0171980353423797,0.4332285368107889,-24.433789391676846,-22.81627868816586,51.173323430454246,16.458098590373993,15.346409380435944,-6.823038309812546,124.62714910507202,10.00620424747467,-0.9892450645565987,-2.9967555047002024,2.046058724845013,False,0
GUIDED_NOGPS,3.3872108459472656,28.548216716580452,-23.617199092190692,-23.094128386948256,50.33874743854512,-2.658545887400997,-13.63038146028569,31.857157917519388,19.37989997109684,3.02297022310477,-1.4757147705387936,14.153506899043022,3.9687763072801894,-0.765253326789872,-0.9319762749239362,0.4328787938523233,-24.031027167098063,-22.459009532835424,50.76112043077276,16.458098590373993,15.346409380435944,-6.823038309812546,124.62714910507202,10.00620424747467,-0.9892450645565987,-2.825112396172066,2.046058724845013,False,0
GUIDED_NOGPS,3.419321060180664,31.146438543337492,-23.32266864535231,-22.747080046728186,50.14539892651684,-2.577319218634812,-13.473208106749482,32.24258030435353,19.0395610536046,3.1118544629819076,-1.2925431842642148,14.06964669018725,3.9719987648374673,-0.7120495681437577,-0.5363580549125739,0.43250476425413553,-23.95821508644346,-21.8084123425704,50.82356619752236,16.80576354265213,17.109815776348114,-6.27625584602356,165.64786434173584,15.040576457977295,101.63600444793701,-2.647518492485274,3.145089523152955,False,0
GUIDED_NOGPS,3.452483654022217,30.15662477351816,-22.951698807783703,-22.276239931846305,49.78889316430685,-2.4462495735458734,-13.317100564296082,32.621823815967495,18.699589874044726,3.0479034017830786,-0.9716009194583665,13.967946880993054,3.851590842161058,-0.5490899502483964,0.11086857537488504,0.43245523229620336,-21.89861170979539,-18.700781718443714,46.4192620184932,16.80576354265213,17.109815776348114,-6.27625584602356,165.64786434173584,15.040576457977295,101.63600444793701,-1.3129614013462356,3.145089523152955,False,0
GUIDED_NOGPS,3.486570119857788,29.346393887660575,-22.56644251283514,-21.78969206355917,49.43407715755651,-2.3235352284501873,-13.162340987495766,32.99444146962751,18.360079419752637,2.906340474158571,-0.7229657052489178,13.871286897632679,3.8207299356464843,-0.5040823091887726,0.046186871750853564,0.4324011231827544,-21.52652577678787,-18.67178225800936,46.23532267489648,16.71641767024994,18.286055326461792,-5.905934423208237,39.30727541446686,17.79288500547409,61.686837673187256,-1.3398513029782144,2.7540776283124155,False,0
GUIDED_NOGPS,3.5210776329040527,28.985404688191068,-22.17188003411557,-21.297922219946958,49.11700631547966,-2.221271281400906,-13.009204766934742,33.36000187727915,18.02112376329361,2.767571947678245,-0.5345733998492163,13.80014535478512,3.802014040851792,-0.4635539096555554,-0.14660618532628944,0.43227156420088875,-21.52652577678787,-18.67178225800936,46.23532267489648,17.627139389514923,19.009004533290863,-4.177569970488548,1.6674922779202461,9.046975523233414,75.18210411071777,-1.3398513029782144,1.630665295823349,False,0
GUIDED_NOGPS,3.5540428161621094,30.33876556069122,-21.81000796068589,-20.779108858545406,48.768695217846044,-2.1255525865161338,-12.857960031061095,33.71809001076665,17.682817976805005,2.803145707309787,-0.43631685977035156,13.773908890635807,3.7325186012005807,-0.4732086210002767,-0.1083767222267138,0.4322099812732473,-21.224095330361518,-17.90347521804063,45.89408249656953,15.323635935783386,19.359897077083588,-6.487558037042618,-16.87331795692444,2.930338680744171,43.89328956604004,-1.0910219310007037,0.8716481445878115,False,0
GUIDED_NOGPS,3.5891590118408203,28.47959585534446,-21.458341929203304,-20.23302629422308,48.416943384616395,-2.0310025165531487,-12.70886714802938,34.068307967053904,17.345258046338365,2.7451117243663044,-0.4154824349242855,13.715376730769737,3.689986204122822,-0.4907146533960851,-0.1469380658367181,0.4321506411191279,-20.50683346826594,-16.99361741806238,45.227156318736995,13.633506000041962,19.709350168704987,-6.27068430185318,40.81270098686218,6.848392635583878,119.22733783721924,-0.978686000263224,0.9287977247554833,False,0
GUIDED_NOGPS,3.624817371368408,28.046727784576085,-21.14572782776592,-19.67898541091343,48.0944890915704,-1.9664828802017575,-12.562178227546905,34.41027573344338,17.00854078620175,2.869770360681853,-0.5882942250535417,13.668760689684401,3.6572215311817957,-0.5373507530920367,-0.4544630841671211,0.4320336418277788,-20.50683346826594,-16.99361741806238,45.227156318736995,11.120004206895828,20.42967677116394,-4.628102853894234,-47.86958694458008,0.46188654378056526,54.66830134391785,-0.978686000263224,-0.9440351297418412,False,0
