E-kp,E-ki,E-kd,E-I-Tot,E-P,E-I,E-D,E-PID,N-kp,N-ki,N-kd,N-I-Tot,N-P,N-I,N-D,N-PID,D-kp,D-ki,D-kd,D-I-Tot,D-P,D-I,D-D,D-PID,Y-kp,Y-ki,Y-kd,Y-I-Tot,Y-P,Y-I,Y-D,Y-PID,errorN,desiredN,actualN,errorE,desiredE,actualE,errorD,desiredD,actualD,errorY,desiredY,actualY,roll,pitch,yaw-rate,thrust,dt,Time,Mode
0.2,0.015,0.15,-5.44324595649155e-05,-0.0003228815043105734,-8.164868934737324e-07,-0.00718223556260088,-0.0075059335538049275,0.2,0.015,0.15,0.0009650314096477295,0.005724356307699317,1.4475471144715941e-05,0.12733363446736878,0.13307246624621283,0.002,8e-05,0,-0.02020649196484323,-0.0011986051291081733,-1.6165193571874585e-06,-0.0,-0.0012002216484653608,0.2,0.02,0.0,0.0005011460223418598,0.0029726891429557086,1.0022920446837195e-05,0.0,0.002982712063402546,0.028621781538496587,0.0,-0.028621781538496587,-0.0016144075215528669,0.0,0.0016144075215528669,-0.5993025645540866,0.0,0.5993025645540866,0.014863445714778541,0,-0.014863445714778541,-0.007540454436530584,-0.13307051460881256,-0.002982712063402546,0.4,0.033716678619384766,0.034041643142700195,STABILIZE
0.2,0.015,0.15,-0.00025718913709324567,-0.0012132090440158429,-3.857837056398685e-06,-0.013579877181923784,-0.014796944062996026,0.2,0.015,0.15,0.0018727383556636065,0.005431329264450942,2.8091075334954098e-05,0.06037928932698501,0.06583870966677091,0.002,8e-05,0,-0.04047406605804926,-0.0012127247541182996,-3.2379252846439413e-06,-0.0,-0.0012159626794029435,0.2,0.02,0.0,0.0009153804647359121,0.0024786013362499727,1.830760929471824e-05,0.0,0.002496908945544691,0.027156646322254712,0.0,-0.027156646322254712,-0.006066045220079214,0.0,0.006066045220079214,-0.6063623770591497,0.0,0.6063623770591497,0.012393006681249864,0,-0.012393006681249864,-0.014811184548718905,-0.0658355075658461,-0.002496908945544691,0.4,0.03342485427856445,0.06739163398742676,STABILIZE
0.2,0.015,0.15,-0.00041936933277672464,-0.0009691931288884435,-6.2905399916508695e-06,-0.007230444519988134,-0.008205928188868228,0.2,0.015,0.15,0.0026714930533749777,0.0047733791504364805,4.007239580062466e-05,0.035337950497794986,0.04015140204403209,0.002,8e-05,0,-0.060739098006544784,-0.0012110436566199938,-4.859127840523583e-06,-0.0,-0.0012159027844605174,0.2,0.02,0.0,0.0012813604775631063,0.0021871062138492307,2.5627209551262126e-05,0.0,0.0022127334234004928,0.0238668957521824,0.0,-0.0238668957521824,-0.004845965644442217,0.0,0.004845965644442217,-0.6055218283099969,0.0,0.6055218283099969,0.010935531069246152,0,-0.010935531069246152,-0.008213591377012663,-0.04014983512087976,-0.0022127334234004928,0.4,0.03346705436706543,0.10086488723754883,STABILIZE
0.2,0.015,0.15,-0.0005230333845916087,-0.0006193490932422287,-7.84550076887413e-06,-0.003463298155196585,-0.0040904927492076875,0.2,0.015,0.15,0.003344925102600849,0.0040234731495264,5.0173876539012735e-05,0.02230311334086722,0.026376760366932633,0.002,8e-05,0,-0.0808165099687796,-0.0011995408896100475,-6.465320797502369e-06,-0.0,-0.0012060062104075498,0.2,0.02,0.0,0.0015878367272335924,0.0018310666427804115,3.1756734544671845e-05,0.0,0.0018628233773250833,0.020117365747631996,0.0,-0.020117365747631996,-0.003096745466211143,0.0,0.003096745466211143,-0.5997704448050237,0.0,0.5997704448050237,0.009155333213902057,0,-0.009155333213902057,-0.004094707458200568,-0.026376106407460246,-0.0018628233773250833,0.4,0.03347516059875488,0.1343545913696289,STABILIZE
0.2,0.015,0.15,-0.0005585522029565107,-0.00021261886315792928,-8.37828304434766e-06,-0.0009445955324383925,-0.0011655926786406695,0.2,0.015,0.15,0.0038841499879964706,0.0032278489937765673,5.8262249819947056e-05,0.014270481989326154,0.01755659323292267,0.002,8e-05,0,-0.10060829287420646,-0.0011847540472738926,-8.048663429936518e-06,-0.0,-0.001192802710703829,0.2,0.02,0.0,0.0018287421400863839,0.0014420816166555315,3.657484280172768e-05,0.0,0.0014786564594572592,0.016139244968882836,0.0,-0.016139244968882836,-0.0010630943157896463,0.0,0.0010630943157896463,-0.5923770236369463,0.0,0.5923770236369463,0.007210408083277657,0,-0.007210408083277657,-0.0011678020852265618,-0.017556446409468726,-0.0014786564594572592,0.4,0.03341078758239746,0.16776776313781738,STABILIZE
0.2,0.015,0.15,-0.0006421771085485876,-0.0005001401340716822,-9.632656628228814e-06,-0.0007978442883182993,-0.0013076170790182102,0.2,0.015,0.15,0.004175341799846378,0.0017415470999705052,6.263012699769567e-05,-0.017863151340478355,-0.016058974113510153,0.002,8e-05,0,-0.12086164697897792,-0.0012113036380302202,-9.668931758318235e-06,-0.0,-0.0012209725697885385,0.2,0.02,0.0,0.0018142070995559236,-8.693052707410693e-05,3.6284141991118475e-05,-0.0,-5.0646385082988455e-05,0.008707735499852525,0.0,-0.008707735499852525,-0.002500700670358411,0.0,0.002500700670358411,-0.6056518190151101,0.0,0.6056518190151101,-0.0004346526353705346,0,0.0004346526353705346,-0.0013077389042786957,0.01605896419330852,5.0646385082988455e-05,0.4,0.033440589904785156,0.20122885704040527,STABILIZE
0.2,0.015,0.15,-0.0006287662304562469,8.0148900167021e-05,-9.431493456843702e-06,0.005798693174924222,0.0058694105816344,0.2,0.015,0.15,0.004382973405273926,0.0012408915136164816,6.574460107910888e-05,-0.018792232305796595,-0.017485596191101006,0.002,8e-05,0,-0.14062791578730538,-0.0011813131806022025,-1.1250233262984431e-05,0.0,-0.001192563413865187,0.2,0.02,0.0,0.001702374681986996,-0.0006683563305439131,3.404749363973992e-05,-0.0,-0.0006343088369041732,0.0062044575680824075,0.0,-0.0062044575680824075,0.0004007445008351049,0.0,-0.0004007445008351049,-0.5906565903011012,0.0,0.5906565903011012,-0.0033417816527195653,0,0.0033417816527195653,0.005868390722632492,0.01748593849527582,0.0006343088369041732,0.4,0.033464908599853516,0.23470139503479004,STABILIZE
0.2,0.015,0.15,-0.0006365743535740628,-4.2211578376541525e-05,-9.548615303610942e-06,0.00420888828971438,0.004157128096034228,0.2,0.015,0.15,0.00450744968925016,0.0006729325777528425,6.761174533875239e-05,-0.018146123558064286,-0.01740557923497269,0.002,8e-05,0,-0.16190911308264969,-0.0011504850961294054,-1.2952729046611976e-05,0.0,-0.0011634378251760174,0.2,0.02,0.0,0.001714372000214669,6.485883112168304e-05,3.428744000429338e-05,-0.0,9.914627112597642e-05,0.0033646628887642124,0.0,-0.0033646628887642124,-0.00021105789188270762,0.0,0.00021105789188270762,-0.5752425480647027,0.0,0.5752425480647027,0.0003242941556084152,0,-0.0003242941556084152,0.004157226611559343,0.017405555705345705,-9.914627112597642e-05,0.4,0.03699517250061035,0.27169203758239746,STABILIZE
0.2,0.015,0.15,-0.0006668706657414051,-0.0001806269227777093,-1.0003059986121077e-05,0.0020223348284089315,0.0018317048456451012,0.2,0.015,0.15,0.004644613167176482,0.0008177700572423584,6.966919750764723e-05,-0.014138202032336799,-0.013250762777586793,0.002,8e-05,0,-0.18106314625114095,-0.001141965415096348,-1.4485051700091276e-05,0.0,-0.0011564504667964392,0.2,0.02,0.0,0.0017807355586136073,0.00039566021342691307,3.561471117227215e-05,-0.0,0.00043127492459918524,0.004088850286211792,0.0,-0.004088850286211792,-0.0009031346138885464,0.0,0.0009031346138885464,-0.5709827075481739,0.0,0.5709827075481739,0.0019783010671345653,0,-0.0019783010671345653,0.0018321623651308665,0.013250699524826508,-0.00043127492459918524,0.4,0.033545732498168945,0.3052377700805664,STABILIZE
0.2,0.015,0.15,-0.0007581818202424765,-0.0005450294448027746,-1.1372727303637147e-05,-0.001435026691828728,-0.00199142886393514,0.2,0.015,0.15,0.004847187561815385,0.0012091513949700834,7.270781342723077e-05,-0.008814098922169934,-0.00753223971377262,0.002,8e-05,0,-0.19980205029807663,-0.0011185111528508804,-1.5984164023846132e-05,0.0,-0.0011344953168747264,0.2,0.02,0.0,0.0020138130082954374,0.001391221846774964,4.0276260165908746e-05,-0.0,0.0014314981069408726,0.006045756974850417,0.0,-0.006045756974850417,-0.0027251472240138732,0.0,0.0027251472240138732,-0.5592555764254402,0.0,0.5592555764254402,0.006956109233874819,0,-0.006956109233874819,-0.001990514382564218,0.007532481431683216,-0.0014314981069408726,0.4,0.03350687026977539,0.3387768268585205,STABILIZE
0.2,0.015,0.15,-0.000902879926252862,-0.0008659411510516063,-1.354319889379293e-05,-0.0015856951444815218,-0.002465179494426921,0.2,0.015,0.15,0.005108744892495359,0.001565281414110188,7.663117338743038e-05,-0.0005487560211140752,0.0010931565663835432,0.002,8e-05,0,-0.2180809577036898,-0.0010938953214526762,-1.7446476616295186e-05,0.0,-0.0011113417980689714,0.2,0.02,0.0,0.0023926321168023625,0.002267030743562639,4.785264233604725e-05,0.0,0.0023148833858986865,0.007826407070550939,0.0,-0.007826407070550939,-0.004329705755258031,0.0,0.004329705755258031,-0.546947660726338,0.0,0.546947660726338,0.011335153717813195,0,-0.011335153717813195,-0.0024653957116363067,-0.001092668844351177,-0.0023148833858986865,0.4,0.03341984748840332,0.37216925621032715,STABILIZE
0.2,0.015,0.15,-0.0010040853390025617,-0.0006046812927602799,-1.5061280085038426e-05,-0.003015998859578614,-0.0036357414324239322,0.2,0.015,0.15,0.005165104383910422,0.000336736239715332,7.747656575865633e-05,-0.003809890323826598,-0.0033956775183526097,0.002,8e-05,0,-0.23551109575798165,-0.0010414144980294662,-1.8840887660638535e-05,0.0,-0.0010602553856901048,0.2,0.02,0.0,0.0027787387327592636,0.0023069067289665166,5.5574774655185274e-05,0.0,0.0023624815036217017,0.0016836811985766601,0.0,-0.0016836811985766601,-0.0030234064638013994,0.0,0.0030234064638013994,-0.5207072490147331,0.0,0.5207072490147331,0.011534533644832583,0,-0.011534533644832583,-0.0036350577559316213,0.003396409380968485,-0.0023624815036217017,0.4,0.033473968505859375,0.40564417839050293,STABILIZE
0.2,0.015,0.15,-0.0010371217452573858,-0.0001748131015779233,-1.5556826178860786e-05,-0.000813883136991511,-0.0010042530647482951,0.2,0.015,0.15,0.005301251047065435,0.000720424015615722,7.951876570598152e-05,1.566760387331542e-05,0.000815610385195019,0.002,8e-05,0,-0.2548583153670034,-0.0010237637352786956,-2.038866522936027e-05,0.0,-0.0010441524005080558,0.2,0.02,0.0,0.003256560254822397,0.002528406438286356,6.513120509644795e-05,0.0,0.002593537643382804,0.00360212007807861,0.0,-0.00360212007807861,-0.0008740655078896165,0.0,0.0008740655078896165,-0.5118818676393477,0.0,0.5118818676393477,0.01264203219143178,0,-0.01264203219143178,-0.0010044330007246683,-0.0008153887818394052,-0.002593537643382804,0.4,0.0377962589263916,0.44346022605895996,STABILIZE
0.2,0.015,0.15,-0.0011641541802007932,-0.0007595983263185353,-1.7462312703011898e-05,-0.0028175275137452666,-0.003594588152766814,0.2,0.015,0.15,0.00540973725430867,0.0006487000071069929,8.114605881463004e-05,-0.0009536329150517119,-0.00022378684913008885,0.002,8e-05,0,-0.27204095977349707,-0.0010274468830510698,-2.176327678187977e-05,0.0,-0.0010492101598329495,0.2,0.02,0.0,0.0037896406347576357,0.003187587206152901,7.579281269515272e-05,0.0,0.003263380018848054,0.0032435000355349646,0.0,-0.0032435000355349646,-0.0037979916315926767,0.0,0.0037979916315926767,-0.5137234415255348,0.0,0.5137234415255348,0.015937936030764505,0,-0.015937936030764505,-0.0035945257630292378,0.00022478674510340835,-0.003263380018848054,0.4,0.033447265625,0.4768984317779541,STABILIZE
0.2,0.015,0.15,-0.0012084093065465927,-0.00026463381918492813,-1.812613959819889e-05,0.0010336075428114808,0.0007508475840283539,0.2,0.015,0.15,0.005701279853907394,0.0017433467703620153,8.55191978086109e-05,0.0022035438127792155,0.004032409780949842,0.002,8e-05,0,-0.28909470754747174,-0.0010197685053658723,-2.3127576603797743e-05,0.0,-0.00104289608196967,0.2,0.02,0.0,0.004278332277965707,0.002922245322166731,8.556664555931414e-05,0.0,0.003007811967726045,0.008716733851810076,0.0,-0.008716733851810076,-0.0013231690959246405,0.0,0.0013231690959246405,-0.5098842526829361,0.0,0.5098842526829361,0.014611226610833654,0,-0.014611226610833654,0.0007498192386281567,-0.0040326011264845245,-0.003007811967726045,0.4,0.033446311950683594,0.5103557109832764,STABILIZE
0.2,0.015,0.15,-0.0013846760651382384,-0.001050530895877079,-2.0770140977073574e-05,-0.0010389245834342702,-0.0021102256202884225,0.2,0.015,0.15,0.005924676131765564,0.001331417754482223,8.887014197648346e-05,-0.0012361820769098454,0.000184105819548861,0.002,8e-05,0,-0.306204182131644,-0.0010197062569543686,-2.4496334570531524e-05,0.0,-0.0010442025915249002,0.2,0.02,0.0,0.004760839344229014,0.002875690145088073,9.521678688458029e-05,0.0,0.0029709069319726533,0.0066570887724111145,0.0,-0.0066570887724111145,-0.005252654479385394,0.0,0.005252654479385394,-0.5098531284771843,0.0,0.5098531284771843,0.014378450725440363,0,-0.014378450725440363,-0.002110271755436513,-0.00018357624988083398,-0.0029709069319726533,0.4,0.03355765342712402,0.5439338684082031,STABILIZE
0.2,0.015,0.15,-0.0016935871501679806,-0.0018481278611045802,-2.5403807252519707e-05,-0.005788502769414972,-0.007662034437772072,0.2,0.015,0.15,0.006027482338091479,0.0006150605252223167,9.041223507137219e-05,0.0010547219693236454,0.0017601947296173343,0.002,8e-05,0,-0.3231928790361705,-0.0010163858014384174,-2.585543032289364e-05,0.0,-0.001042241231761311,0.2,0.02,0.0,0.005065037573950588,0.00181993217754877,0.00010130075147901176,-0.0,0.0019212329290277817,0.003075302626111583,0.0,-0.003075302626111583,-0.0092406393055229,0.0,0.0092406393055229,-0.5081929007192088,0.0,0.5081929007192088,0.00909966088774385,0,-0.00909966088774385,-0.0076623138935822685,-0.001758977830444139,-0.0019212329290277817,0.4,0.033429622650146484,0.5773348808288574,STABILIZE
0.2,0.015,0.15,-0.0019675832481474754,-0.0016375712358340324,-2.951374872221213e-05,-0.006550684674243887,-0.00821776965880013,0.2,0.015,0.15,0.006063866072502568,0.00021745184461818216,9.095799108753853e-05,-0.002250267005019558,-0.0019418571693138372,0.002,8e-05,0,-0.33995915576102875,-0.001002057062094229,-2.7196732460882303e-05,0.0,-0.0010292537945551113,0.2,0.02,0.0,0.005442463916358154,0.002255734758744377,0.00010884927832716309,-0.0,0.00236458403707154,0.0010872592230909107,0.0,-0.0010872592230909107,-0.008187856179170162,0.0,0.008187856179170162,-0.5010285310471145,0.0,0.5010285310471145,0.011278673793721885,0,-0.011278673793721885,-0.008217387245013537,0.0019434747995794577,-0.00236458403707154,0.4,0.03346371650695801,0.6108112335205078,STABILIZE
0.2,0.015,0.15,-0.0022061140611100323,-0.0014267878051812287,-3.3091710916650485e-05,-0.0029825037694790647,-0.0044423832855769434,0.2,0.015,0.15,0.006007184399749366,-0.0003390451676121083,9.010776599624049e-05,-0.004425151099152554,-0.004674088500768421,0.002,8e-05,0,-0.3566084979584729,-0.000995891395185556,-2.8528679836677833e-05,0.0,-0.001024420075022234,0.2,0.02,0.0,0.005773169597506976,0.0019781378644836106,0.00011546339195013953,-0.0,0.00209360125643375,-0.0016952258380605414,0.0,0.0016952258380605414,-0.007133939025906142,0.0,0.007133939025906142,-0.497945697592778,0.0,0.497945697592778,0.009890689322418052,0,-0.009890689322418052,-0.004441576354424061,0.004674855297954157,-0.00209360125643375,0.4,0.03343605995178223,0.6442382335662842,STABILIZE
0.2,0.015,0.15,-0.0025343620135824473,-0.0019614507455273933,-3.801543020373671e-05,-0.007598485334607358,-0.009597951510338487,0.2,0.015,0.15,0.005830960249525534,-0.0010530301506313673,8.746440374288301e-05,-0.01253424353223269,-0.013499809279121176,0.002,8e-05,0,-0.3732812812050448,-0.0009962847561632024,-2.9862502496403584e-05,0.0,-0.001026147258659606,0.2,0.02,0.0,0.006054218444182107,0.0016794117547066067,0.00012108436888364215,-0.0,0.0018004961235902489,-0.005265150753156837,0.0,0.005265150753156837,-0.009807253727636966,0.0,0.009807253727636966,-0.4981423780816012,0.0,0.4981423780816012,0.008397058773533033,0,-0.008397058773533033,-0.00959597292485929,0.013501215774619057,-0.0018004961235902489,0.4,0.03346991539001465,0.6777825355529785,STABILIZE
0.2,0.015,0.15,-0.002955163089405151,-0.002455436332119464,-4.432744634107726e-05,-0.006247447945932966,-0.008747211724393508,0.2,0.015,0.15,0.005537632607535511,-0.0017116100474531487,8.306448911303267e-05,-0.013575137220331325,-0.015203682778671441,0.002,8e-05,0,-0.3902846749013392,-0.0009921730967437752,-3.122277399210714e-05,0.0,-0.0010233958707358823,0.2,0.02,0.0,0.006291783698377674,0.001386228291504566,0.00012583567396755348,-0.0,0.0015120639654721195,-0.008558050237265743,0.0,0.008558050237265743,-0.012277181660597318,0.0,0.012277181660597318,-0.4960865483718876,0.0,0.4960865483718876,0.0069311414575228296,0,-0.0069311414575228296,-0.008745372452045968,0.015204740828466408,-0.0015120639654721195,0.4,0.034275054931640625,0.7119870185852051,STABILIZE
0.2,0.015,0.15,-0.0033635532782390837,-0.002440133341767042,-5.0453299173586254e-05,-0.002600023167150548,-0.005090609808091177,0.2,0.015,0.15,0.005248424766601427,-0.0017280182400529827,7.872637149902141e-05,-0.01043434410810857,-0.012083635976662533,0.002,8e-05,0,-0.40681584827494804,-0.0009877384038693815,-3.254526786199584e-05,0.0,-0.0010202836717313772,0.2,0.02,0.0,0.006449754349143754,0.0009438753978286623,0.00012899508698287508,-0.0,0.0010728704848115373,-0.008640091200264913,0.0,0.008640091200264913,-0.012200666708835208,0.0,0.012200666708835208,-0.49386920193469075,0.0,0.49386920193469075,0.0047193769891433115,0,-0.0047193769891433115,-0.005089614477834273,0.012084055242415391,-0.0010728704848115373,0.4,0.03347277641296387,0.7454593181610107,STABILIZE
0.2,0.015,0.15,-0.0038052425753420643,-0.0026417488065883614,-5.707863863013096e-05,-0.004448234584831964,-0.007147062030050456,0.2,0.015,0.15,0.00476008496450937,-0.0029207660177590963,7.140127446764055e-05,-0.014002455091795157,-0.01685181983508661,0.002,8e-05,0,-0.4237642347531761,-0.0010136849601320153,-3.390113878025409e-05,-0.0,-0.0010475860989122693,0.2,0.02,0.0,0.0065258717718301405,0.0004552591875357565,0.00013051743543660281,-0.0,0.0005857766229723593,-0.014603830088795481,0.0,0.014603830088795481,-0.013208744032941805,0.0,0.013208744032941805,-0.5068424800660076,0.0,0.5068424800660076,0.0022762959376787825,0,-0.0022762959376787825,-0.007146392520838434,0.0168521037664059,-0.0005857766229723593,0.4,0.03343915939331055,0.7789053916931152,STABILIZE
0.2,0.015,0.15,-0.004249041843134359,-0.0026417488065883614,-6.373562764701537e-05,-0.005393845839373195,-0.008099330273608572,0.2,0.015,0.15,0.004269412340056442,-0.0029207660177590963,6.404118510084663e-05,-0.01150591237848141,-0.014362637211139659,0.002,8e-05,0,-0.44079358447623435,-0.0010136849601320153,-3.526348675809875e-05,-0.0,-0.001048948446890114,0.2,0.02,0.0,0.006602352811049388,0.0004552591875357565,0.00013204705622098776,-0.0,0.0005873062437567443,-0.014603830088795481,0.0,0.014603830088795481,-0.013208744032941805,0.0,0.013208744032941805,-0.5068424800660076,0.0,0.5068424800660076,0.0022762959376787825,0,-0.0022762959376787825,-0.00809875965603015,0.014362958976954027,-0.0005873062437567443,0.4,0.033598899841308594,0.8124983310699463,STABILIZE
0.2,0.015,0.15,-0.004720819060809646,-0.0026994305472512626,-7.081228591214468e-05,-0.003245214776365992,-0.006015457609529399,0.2,0.015,0.15,0.003807947914037179,-0.002640422473565791,5.711921871055769e-05,-0.007103031851034986,-0.00968633510589022,0.002,8e-05,0,-0.45835848251868283,-0.001005034167795997,-3.6668678601494626e-05,-0.0,-0.0010417028463974916,0.2,0.02,0.0,0.006685081132148602,0.00047335765427260223,0.00013370162264297205,-0.0,0.0006070592769155743,-0.013202112367828955,0.0,0.013202112367828955,-0.013497152736256311,0.0,0.013497152736256311,-0.5025170838979985,0.0,0.5025170838979985,0.002366788271363011,0,-0.002366788271363011,-0.006015057478864128,0.009686583585640873,-0.0006070592769155743,0.4,0.03495383262634277,0.847484827041626,STABILIZE
0.2,0.015,0.15,-0.00522964758003068,-0.003041574377531974,-7.84447137004602e-05,-0.002617255452576198,-0.005737274543808632,0.2,0.015,0.15,0.0033386372196185787,-0.0028053525486948488,5.007955829427868e-05,-0.004960263499007614,-0.007715536489408184,0.002,8e-05,0,-0.47518996300822075,-0.0010061189154900586,-3.801519704065766e-05,-0.0,-0.0010441341125307162,0.2,0.02,0.0,0.006801137670127585,0.0006937397943070106,0.0001360227534025517,-0.0,0.0008297625477095623,-0.014026762743474242,0.0,0.014026762743474242,-0.015207871887659869,0.0,0.015207871887659869,-0.5030594577450292,0.0,0.5030594577450292,0.003468698971535053,0,-0.003468698971535053,-0.0057368074330354036,0.007715883811119336,-0.0008297625477095623,0.4,0.03345823287963867,0.8809218406677246,STABILIZE
0.2,0.015,0.15,-0.005966666773945208,-0.0033465761118012384,-8.950000160917812e-05,-0.003724520909755804,-0.00716059702316622,0.2,0.015,0.15,0.0026939881881650244,-0.002927151785152097,4.040982282247536e-05,-0.005301523711066351,-0.008188265673395973,0.002,8e-05,0,-0.4972614575705432,-0.0010021982746705133,-3.978091660564346e-05,-0.0,-0.0010419791912761568,0.2,0.02,0.0,0.0070027318709308594,0.0009153768887654513,0.00014005463741861718,-0.0,0.0010554315261840684,-0.014635758925760486,0.0,0.014635758925760486,-0.01673288055900619,0.0,0.01673288055900619,-0.5010991373352566,0.0,0.5010991373352566,0.004576884443827256,0,-0.004576884443827256,-0.007159942907713884,0.008188837647955258,-0.0010554315261840684,0.4,0.04404616355895996,0.9251949787139893,STABILIZE
0.2,0.015,0.15,-0.006877196067176955,-0.003845687269496702,-0.00010315794100765433,-0.004401147028666241,-0.008349992239170597,0.2,0.015,0.15,0.002146852169939528,-0.0023108691127385513,3.2202782549092916e-05,0.002001041313300242,-0.00027762501688921625,0.002,8e-05,0,-0.5218242762773959,-0.0010374286682049336,-4.174594210219168e-05,-0.0,-0.0010791746103071254,0.2,0.02,0.0,0.0069983016277548925,-1.8711457071435897e-05,0.00013996603255509785,-0.0,0.00012125457548366196,-0.011554345563692756,0.0,0.011554345563692756,-0.01922843634748351,0.0,0.01922843634748351,-0.5187143341024668,0.0,0.5187143341024668,-9.355728535717948e-05,0,9.355728535717948e-05,-0.008349992692488544,0.00027761138233123496,-0.00012125457548366196,0.4,0.047353267669677734,0.9723351001739502,STABILIZE
0.2,0.015,0.15,-0.0076664704125857285,-0.004716018781761637,-0.00011499705618878592,-0.008301406598177538,-0.013132422436127961,0.2,0.015,0.15,0.0015838799303260164,-0.0033638337177330766,2.3758198954890244e-05,-0.0027176609502763405,-0.006057736469054527,0.002,8e-05,0,-0.539585206813687,-0.0010612391303220703,-4.316681654509497e-05,-0.0,-0.0011044059468671651,0.2,0.02,0.0,0.006898107533973695,-0.0005986729846755557,0.0001379621506794739,-0.0,-0.00046071083399608175,-0.016819168588665383,0.0,0.016819168588665383,-0.023580093908808185,0.0,0.023580093908808185,-0.5306195651610351,0.0,0.5306195651610351,-0.002993364923377778,0,0.002993364923377778,-0.013132738899035816,0.006057050369543066,0.00046071083399608175,0.4,0.03347206115722656,1.0058038234710693,STABILIZE
0.2,0.015,0.15,-0.008558019996487505,-0.005308033508105298,-0.00012837029994731259,-0.010697388527302554,-0.016133792335355165,0.2,0.015,0.15,0.0008691231532696169,-0.004255459249004258,1.3036847299044252e-05,-0.00790208445718408,-0.012144506858889294,0.002,8e-05,0,-0.5571119765222732,-0.0010434941878933101,-4.4568958121781855e-05,-0.0,-0.001088063146015092,0.2,0.02,0.0,0.006718225923626413,-0.0010709641196136829,0.00013436451847252825,-0.0,-0.0009365996011411546,-0.02127729624502129,0.0,0.02127729624502129,-0.026540167540526488,0.0,0.026540167540526488,-0.5217470939466551,0.0,0.5217470939466551,-0.005354820598068414,0,0.005354820598068414,-0.016134927281398318,0.012142998953716597,0.0009365996011411546,0.4,0.03359246253967285,1.0394134521484375,STABILIZE
0.2,0.015,0.15,-0.009406570791479505,-0.00488438444777521,-0.00014109856187219255,-0.00733454859189028,-0.012360031601537681,0.2,0.015,0.15,1.902901475690018e-06,-0.004991848614905718,2.854352213535027e-08,-0.010341744644470064,-0.015333564715853646,0.002,8e-05,0,-0.5751668432252536,-0.001039264952094273,-4.601334745802029e-05,-0.0,-0.0010852782995522934,0.2,0.02,0.0,0.0066289492284977445,-0.0005138899212737736,0.0001325789845699549,-0.0,-0.0003813109367038187,-0.024959243074528587,0.0,0.024959243074528587,-0.024421922238876046,0.0,0.024421922238876046,-0.5196324760471365,0.0,0.5196324760471365,-0.002569449606368868,0,0.002569449606368868,-0.012360719228271009,0.015333010410422782,0.0003813109367038187,0.4,0.03474545478820801,1.0741534233093262,STABILIZE
0.2,0.015,0.15,-0.010279338590770985,-0.004674537222517352,-0.00015419007886156478,-0.005452904693775432,-0.010281631995154349,0.2,0.015,0.15,-0.0011118414637477916,-0.005965205746399666,-1.6677621956216875e-05,-0.013836924809872227,-0.01981880817822811,0.002,8e-05,0,-0.5954043197499267,-0.0010839175939030203,-4.763234557999414e-05,-0.0,-0.0011315499394830145,0.2,0.02,0.0,0.006487369674201584,-0.0007582989393537294,0.0001297473934840317,-0.0,-0.0006285515458696977,-0.02982602873199833,0.0,0.02982602873199833,-0.02337268611258676,0.0,0.02337268611258676,-0.5419587969515102,0.0,0.5419587969515102,-0.0037914946967686465,0,0.0037914946967686465,-0.010282943463762755,0.01981812775744071,0.0006285515458696977,0.4,0.03734135627746582,1.1115243434906006,STABILIZE
0.2,0.015,0.15,-0.011108208507526108,-0.004472546049910493,-0.0001666231276128916,-0.003054428558544362,-0.007693597736067747,0.2,0.015,0.15,-0.002114957552972783,-0.005412770824194799,-3.172436329459174e-05,-0.013553424995084438,-0.01899792018257383,0.002,8e-05,0,-0.6152038425265214,-0.0010683736445791815,-4.921630740212171e-05,-0.0,-0.0011175899519813032,0.2,0.02,0.0,0.006214306238561864,-0.0014734384319635427,0.00012428612477123727,-0.0,-0.0013491523071923054,-0.027063854120973993,0.0,0.027063854120973993,-0.022362730249552466,0.0,0.022362730249552466,-0.5341868222895908,0.0,0.5341868222895908,-0.007367192159817713,0,0.007367192159817713,-0.007696040458470773,0.018996930769191473,0.0013491523071923054,0.4,0.03706479072570801,1.1485459804534912,STABILIZE
0.2,0.015,0.15,-0.011986139436153748,-0.004928770662312025,-0.00017979209154230622,-0.0010751286098636653,-0.006183691363717997,0.2,0.015,0.15,-0.002983088972691669,-0.004873755477814502,-4.4746334590375034e-05,-0.006565168026964052,-0.01148366983936893,0.002,8e-05,0,-0.6341384640338377,-0.0010630039783781735,-5.073107712270702e-05,0.0,-0.0011137350555008804,0.2,0.02,0.0,0.005922584723805489,-0.001637746657067913,0.00011845169447610979,-0.0,-0.0015192949625918032,-0.024368777389072508,0.0,0.024368777389072508,-0.024643853311560125,0.0,0.024643853311560125,-0.5315019891890868,0.0,0.5315019891890868,-0.008188733285339565,0,0.008188733285339565,-0.006185332550755334,0.011482785946708174,0.0015192949625918032,0.4,0.03562474250793457,1.1841962337493896,STABILIZE
0.2,0.015,0.15,-0.012825474553451238,-0.0042694349624606085,-0.00019238211830176856,0.004083763003473091,-0.0003780540772892853,0.2,0.015,0.15,-0.0037951162394822976,-0.004130528476480326,-5.692674359223446e-05,0.0002516185305269533,-0.003935836689545607,0.002,8e-05,0,-0.6546516122926284,-0.001043439629312896,-5.2372128983410276e-05,-0.0,-0.0010958117582963063,0.2,0.02,0.0,0.005525592261302939,-0.0020193763662589327,0.00011051184522605878,-0.0,-0.0019088645210328739,-0.02065264238240163,0.0,0.02065264238240163,-0.02134717481230304,0.0,0.02134717481230304,-0.521719814656448,0.0,0.521719814656448,-0.010096881831294664,0,0.010096881831294664,-0.0003787476596396036,0.003935770006294309,0.0019088645210328739,0.4,0.03931832313537598,1.2235145568847656,STABILIZE
0.2,0.015,0.15,-0.013501100316089119,-0.004012403223672916,-0.00020251650474133678,0.0033996669988204265,-0.0008152527295938261,0.2,0.015,0.15,-0.004435593761391,-0.0038036650105864895,-6.653390642086501e-05,0.004886574933619146,0.0010163760166117912,0.002,8e-05,0,-0.6721650230263473,-0.0010400856446195806,-5.377320184210779e-05,-0.0,-0.0010938588464616884,0.2,0.02,0.0,0.005190486740630571,-0.0019901231506724826,0.00010380973481261143,-0.0,-0.0018863134158598712,-0.019018325052932446,0.0,0.019018325052932446,-0.020062016118364577,0.0,0.020062016118364577,-0.5200428223097903,0.0,0.5200428223097903,-0.009950615753362412,0,0.009950615753362412,-0.0008150762022532417,-0.0010165175870462198,0.0018863134158598712,0.4,0.033676862716674805,1.2571732997894287,STABILIZE
0.2,0.015,0.15,-0.014148509050567483,-0.0038694002944804394,-0.00021222763575851224,0.0031977315682824507,-0.0008838963619565011,0.2,0.015,0.15,-0.005109800939347404,-0.004029567897361324,-7.664701409021105e-05,0.0077839207376178745,0.00367770582616634,0.002,8e-05,0,-0.689498903298446,-0.0010360027268305075,-5.5159912263875686e-05,0.0,-0.0010911626390943832,0.2,0.02,0.0,0.004741648876048291,-0.002682591804678049,9.483297752096583e-05,-0.0,-0.002587758827157083,-0.020147839486806617,0.0,0.020147839486806617,-0.019347001472402196,0.0,0.019347001472402196,-0.5180013634152537,0.0,0.5180013634152537,-0.013412959023390243,0,0.013412959023390243,-0.0008830353857166708,-0.003677912645791086,0.002587758827157083,0.4,0.0334630012512207,1.290642499923706,STABILIZE
0.2,0.015,0.15,-0.014787408359418415,-0.00382047422240856,-0.00022181112539127623,0.002599705059478767,-0.0014425802883210694,0.2,0.015,0.15,-0.0058432004938216,-0.004385564444628839,-8.764800740732399e-05,0.003951650128040542,-0.0005215623239956209,0.002,8e-05,0,-0.7072793778205162,-0.0010632324003595213,-5.65823502256413e-05,0.0,-0.0011198147505851626,0.2,0.02,0.0,0.004137961545497473,-0.0036099145089264146,8.275923090994946e-05,-0.0,-0.003527155278016465,-0.021927822223144194,0.0,0.021927822223144194,-0.0191023711120428,0.0,0.0191023711120428,-0.5316162001797606,0.0,0.5316162001797606,-0.018049572544632072,0,0.018049572544632072,-0.0014427445216316365,0.0005211078500330939,0.003527155278016465,0.4,0.03344607353210449,1.3240966796875,STABILIZE
0.2,0.015,0.15,-0.015434667119321314,-0.0038720075387703745,-0.00023152000678981972,0.004289454148511328,0.00018592660295113379,0.2,0.015,0.15,-0.00669621241891934,-0.005102856553281685,-0.0001004431862837901,-0.0015361234221867596,-0.0067394231617522345,0.002,8e-05,0,-0.7254305965094928,-0.001085835525997836,-5.8034447720759433e-05,-0.0,-0.0011438699737185954,0.2,0.02,0.0,0.0035179638417889006,-0.003708927451426156,7.035927683577801e-05,-0.0,-0.0036385681745903778,-0.025514282766408422,0.0,0.025514282766408422,-0.019360037693851872,0.0,0.019360037693851872,-0.542917762998918,0.0,0.542917762998918,-0.018544637257130778,0,0.018544637257130778,0.00018374527799620814,0.006739482986673498,0.0036385681745903778,0.4,0.033432722091674805,1.3575212955474854,STABILIZE
0.2,0.015,0.15,-0.01601503601311272,-0.0034701786559818357,-0.0002402255401966908,0.003576059076034272,-0.00013434512014425448,0.2,0.015,0.15,-0.007380442709016956,-0.004091193332160933,-0.00011070664063525434,0.0001652051549571934,-0.004036694817838994,0.002,8e-05,0,-0.7431509761203553,-0.0010595482245747752,-5.945207808962843e-05,-0.0,-0.0011190003026644037,0.2,0.02,0.0,0.0028758501986512726,-0.003839366794064972,5.751700397302545e-05,-0.0,-0.0037818497900919466,-0.020455966660804663,0.0,0.020455966660804663,-0.01735089327990918,0.0,0.01735089327990918,-0.5297741122873876,0.0,0.5297741122873876,-0.01919683397032486,0,0.01919683397032486,-0.00013569759893712784,0.00403664957920767,0.0037818497900919466,0.4,0.03344893455505371,1.3910598754882812,STABILIZE
0.2,0.015,0.15,-0.016628931995713626,-0.0036693643838096642,-0.0002494339799357044,0.0015382887539784826,-0.0023805096097668857,0.2,0.015,0.15,-0.008022914075783202,-0.003840164486566053,-0.00012034371113674802,-0.00016534359104749624,-0.0041258517887502975,0.002,8e-05,0,-0.760719509956024,-0.0010501022023183103,-6.085756079648192e-05,-0.0,-0.0011109597631147922,0.2,0.02,0.0,0.0023116027000693283,-0.0033726066526424264,4.623205400138657e-05,-0.0,-0.00332637459864104,-0.019200822432830264,0.0,0.019200822432830264,-0.01834682191904832,0.0,0.01834682191904832,-0.5250511011591552,0.0,0.5250511011591552,-0.016863033263212132,0,0.016863033263212132,-0.0023817238085829936,0.00412515098930396,0.00332637459864104,0.4,0.03346061706542969,1.4244422912597656,STABILIZE
0.2,0.015,0.15,-0.01729828778213779,-0.004004852432772288,-0.00025947431673206683,-0.0006081859586353737,-0.004872512708139729,0.2,0.015,0.15,-0.008641433878575135,-0.0037006933938110473,-0.000129621508178627,0.0014731370371716091,-0.0023571778648180655,0.002,8e-05,0,-0.7788254594853121,-0.0010833051344396943,-6.230603675882497e-05,-0.0,-0.0011456111711985193,0.2,0.02,0.0,0.0017908580793525434,-0.003115690344998564,3.581716158705087e-05,-0.0,-0.003079873183411513,-0.018503466969055235,0.0,0.018503466969055235,-0.02002426216386144,0.0,0.02002426216386144,-0.5416525672198471,0.0,0.5416525672198471,-0.01557845172499282,0,0.01557845172499282,-0.004873153433550306,0.0023558529645222514,0.003079873183411513,0.4,0.03342723846435547,1.457869052886963,STABILIZE
0.2,0.015,0.15,-0.017935877537791037,-0.003809628990548654,-0.00026903816306686555,4.7240843985940856e-05,-0.004031426309629579,0.2,0.015,0.15,-0.009278898756971684,-0.0038088828430248526,-0.00013918348135457526,0.002584893709587172,-0.001363172614792256,0.002,8e-05,0,-0.7975689519693102,-0.0011199325540921,-6.380551615754482e-05,-0.0,-0.0011837380702496448,0.2,0.02,0.0,0.001335300715844678,-0.002721976825206909,2.6706014316893562e-05,0.0,-0.0026952708108900153,-0.01904441421512426,0.0,0.01904441421512426,-0.01904814495274327,0.0,0.01904814495274327,-0.55996627704605,0.0,0.55996627704605,-0.013609884126034545,0,0.013609884126034545,-0.004031750000219113,0.001362214962267817,0.0026952708108900153,0.4,0.033472537994384766,1.4913654327392578,STABILIZE
0.2,0.015,0.15,-0.018563911171602335,-0.0036839135752704585,-0.00027845866757403504,0.000831516570103566,-0.0031308556727409273,0.2,0.015,0.15,-0.00974412061952838,-0.0027288938724262103,-0.0001461618092929257,0.010554354147762506,0.00767929846604337,0.002,8e-05,0,-0.8162435269450837,-0.0010954114009494047,-6.52994821556067e-05,-0.0,-0.0011607108831050113,0.2,0.02,0.0,0.0009054102472523372,-0.002521647325663041,1.8108204945046746e-05,0.0,-0.002503539120717994,-0.01364446936213105,0.0,0.01364446936213105,-0.01841956787635229,0.0,0.01841956787635229,-0.5477057004747024,0.0,0.5477057004747024,-0.012608236628315204,0,0.012608236628315204,-0.0031291657270672026,-0.007679987241308288,0.002503539120717994,0.4,0.03409600257873535,1.5254383087158203,STABILIZE
0.2,0.015,0.15,-0.019158768586481866,-0.0035556941900097305,-0.000287381528797228,-0.0003956512067502652,-0.004238726925557224,0.2,0.015,0.15,-0.010032693196510891,-0.0017249105579034392,-0.00015049039794766338,0.010518502413867393,0.00864310145801629,0.002,8e-05,0,-0.8341132536362547,-0.0010681430840990033,-6.672906029090038e-05,-0.0,-0.0011348721443899036,0.2,0.02,0.0,0.0005158227831789489,-0.0023287158365285048,1.0316455663578978e-05,0.0,-0.0023183993808649256,-0.008624552789517195,0.0,0.008624552789517195,-0.017778470950048652,0.0,0.017778470950048652,-0.5340715420495016,0.0,0.5340715420495016,-0.011643579182642524,0,0.011643579182642524,-0.0042369703973941025,-0.00864396266851108,0.0023183993808649256,0.4,0.03345942497253418,1.558913230895996,STABILIZE
0.2,0.015,0.15,-0.019776846004657157,-0.0036990755001067317,-0.0002966526900698573,-0.000146307432631658,-0.004142035622808247,0.2,0.015,0.15,-0.01021630442309161,-0.0010988781822743353,-0.00015324456634637415,0.012203183007884224,0.010951060259263514,0.002,8e-05,0,-0.8520675291918741,-0.0010745291589203691,-6.816540233534994e-05,-0.0,-0.001142694561255719,0.2,0.02,0.0,0.00035662472741743384,-0.0009527700097353057,7.132494548348677e-06,0.0,-0.000945637515186957,-0.005494390911371676,0.0,0.005494390911371676,-0.018495377500533657,0.0,0.018495377500533657,-0.5372645794601846,0.0,0.5372645794601846,-0.004763850048676528,0,0.004763850048676528,-0.0041411250840278835,-0.01095140461041725,0.000945637515186957,0.4,0.03341794013977051,1.5923147201538086,STABILIZE
0.2,0.015,0.15,-0.020474168560146968,-0.004167158618510876,-0.0003071125284022045,-0.0007387802201712163,-0.005213051367084297,0.2,0.015,0.15,-0.01026679228308308,-0.0003017124847565651,-0.0001540018842462462,0.015150187751916117,0.014694473382913305,0.002,8e-05,0,-0.8702471940094095,-0.001086406087536039,-6.961977552075277e-05,-0.0,-0.0011560258630567918,0.2,0.02,0.0,4.119998049125292e-05,-0.0018849597539861204,8.239996098250585e-07,0.0,-0.0018841357543762953,-0.0015085624237828254,0.0,0.0015085624237828254,-0.02083579309255438,0.0,0.02083579309255438,-0.5432030437680195,0.0,0.5432030437680195,-0.009424798769930602,0,0.009424798769930602,-0.005210634147244246,-0.014695330698578351,0.0018841357543762953,0.4,0.03346753120422363,1.6257977485656738,STABILIZE
0.2,0.015,0.15,-0.02122152731786192,-0.004464009551226287,-0.0003183229097679288,-0.0029434608042526616,-0.007725793265246878,0.2,0.015,0.15,-0.010221703588703692,0.00026931692481574966,-0.00015332555383055536,0.018193105015033774,0.018309096386018967,0.002,8e-05,0,-0.8879456937346972,-0.0010571398408124831,-7.103565549877578e-05,0.0,-0.001128175496311259,0.2,0.02,0.0,-0.0004340638688420531,-0.002838773669105294,-8.681277376841062e-06,-0.0,-0.002847454946482135,0.0013465846240787484,0.0,-0.0013465846240787484,-0.022320047756131434,0.0,0.022320047756131434,-0.5285699204062415,0.0,0.5285699204062415,-0.014193868345526469,0,0.014193868345526469,-0.007721257320609011,-0.01831100973291229,0.002847454946482135,0.4,0.03348374366760254,1.6593055725097656,STABILIZE
0.2,0.015,0.15,-0.021883042687172918,-0.003960116978972778,-0.00032824564030759374,-0.0012341369179098686,-0.00552249953719024,0.2,0.015,0.15,-0.010377470750642995,-0.0009324895707332198,-0.00015566206125964491,0.008045963498001671,0.006957811866008806,0.002,8e-05,0,-0.9056553548362667,-0.0010601768737924491,-7.245242838690134e-05,0.0,-0.0011326293021793506,0.2,0.02,0.0,-0.0006608639691766923,-0.0013577234480635116,-1.3217279383533846e-05,0.0,-0.0013709407274470455,-0.004662447853666099,0.0,0.004662447853666099,-0.01980058489486389,0.0,0.01980058489486389,-0.5300884368962245,0.0,0.5300884368962245,-0.006788617240317558,0,0.006788617240317558,-0.0055216751109783135,-0.006958466143471706,0.0013709407274470455,0.4,0.03340888023376465,1.6926846504211426,STABILIZE
0.2,0.015,0.15,-0.022487400118784286,-0.0036155968461071874,-0.00033731100178176427,-0.0002631188176055799,-0.004216026665494532,0.2,0.015,0.15,-0.01072693503975855,-0.002090686596149613,-0.00016090402559637825,-0.0016516619030377626,-0.003903252524783754,0.002,8e-05,0,-0.9241323689873662,-0.0011053960884053844,-7.39305895189893e-05,-0.0,-0.0011793266779243736,0.2,0.02,0.0,-0.0006325014912248592,0.00016967986239039957,-1.2650029824497185e-05,0.0,0.00015702983256590239,-0.010453432980748066,0.0,0.010453432980748066,-0.018077984230535936,0.0,0.018077984230535936,-0.5526980442026922,0.0,0.5526980442026922,0.0008483993119519978,0,-0.0008483993119519978,-0.004215968868161701,0.0039033149525862037,-0.00015702983256590239,0.4,0.03343057632446289,1.7261178493499756,STABILIZE
0.2,0.015,0.15,-0.023019884731101038,-0.003185023729184276,-0.00034529827096651557,0.0023120483579306857,-0.0012182736422201058,0.2,0.015,0.15,-0.011306058482599982,-0.003463991005395718,-0.0001695908772389997,-0.010622426657132797,-0.014256008539767514,0.002,8e-05,0,-0.9433578533685532,-0.001149960440973589,-7.546862826948427e-05,-0.0,-0.0012254290692430732,0.2,0.02,0.0,-0.00031322057335297985,0.001909759035614636,-6.264411467059597e-06,0.0,0.0019034946241475764,-0.01731995502697859,0.0,0.01731995502697859,-0.015925118645921377,0.0,0.015925118645921377,-0.5749802204867945,0.0,0.5749802204867945,0.00954879517807318,0,-0.00954879517807318,-0.0012158977486464541,0.014256211376732915,-0.0019034946241475764,0.4,0.03343677520751953,1.7595627307891846,STABILIZE
0.2,0.015,0.15,-0.02354725361168645,-0.003146683460747155,-0.0003532088041752967,0.004581551647637823,0.001081659382715372,0.2,0.015,0.15,-0.011973674034336397,-0.003983501666716819,-0.00017960511051504595,-0.016520134698851767,-0.020683241476083632,0.002,8e-05,0,-0.9636860932061952,-0.0012129372520464814,-7.709488745649562e-05,-0.0,-0.001290032139502977,0.2,0.02,0.0,-3.8660859136868024e-05,0.0016382318781348396,-7.732171827373605e-07,0.0,0.0016374586609521021,-0.019917508333584095,0.0,0.019917508333584095,-0.015733417303735772,0.0,0.015733417303735772,-0.6064686260232407,0.0,0.6064686260232407,0.008191159390674198,0,-0.008191159390674198,0.0010846163037169037,0.02068308662777183,-0.0016374586609521021,0.4,0.03351902961730957,1.7930700778961182,STABILIZE
0.2,0.015,0.15,-0.02405193027825057,-0.0030145436904470634,-0.0003607789541737585,0.006503354975312985,0.003128032330692163,0.2,0.015,0.15,-0.012567115424691473,-0.0035447547260791037,-0.0001885067313703721,-0.017112675844913976,-0.020845937302363452,0.002,8e-05,0,-0.9833103497125708,-0.00117219959927536,-7.866482797700567e-05,-0.0,-0.0012508644272523658,0.2,0.02,0.0,0.0002800980174838515,0.0019040162225706766,5.60196034967703e-06,0.0,0.0019096181829203536,-0.01772377363039552,0.0,0.01772377363039552,-0.015072718452235316,0.0,0.015072718452235316,-0.58609979963768,0.0,0.58609979963768,0.009520081112853383,0,-0.009520081112853383,0.0031314959809080104,0.020845417270889073,-0.0019096181829203536,0.4,0.03348278999328613,1.8265984058380127,STABILIZE
0.2,0.015,0.15,-0.024655988645139935,-0.0036153805011202023,-0.000369839829677099,0.0015438916439671692,-0.0024413286868301323,0.2,0.015,0.15,-0.013221431658059533,-0.003916181417810868,-0.000198321474870893,-0.013384059529651847,-0.017498562422333608,0.002,8e-05,0,-1.002440237180943,-0.001144952639228057,-8.019521897447546e-05,-0.0,-0.0012251478582025325,0.2,0.02,0.0,0.0005927929158409395,0.0018715261641712188,1.185585831681879e-05,0.0,0.0018833820224880375,-0.01958090708905434,0.0,0.01958090708905434,-0.01807690250560101,0.0,0.01807690250560101,-0.5724763196140286,0.0,0.5724763196140286,0.009357630820856094,0,-0.009357630820856094,-0.002438470763380076,0.017498960910339395,-0.0018833820224880375,0.4,0.033416032791137695,1.8599803447723389,STABILIZE
0.2,0.015,0.15,-0.025175616217229243,-0.0031063703086799408,-0.00037763424325843863,0.002280234830573971,-0.0012037697213644082,0.2,0.015,0.15,-0.01371839074806156,-0.00297085652249718,-0.00020577586122092338,-0.003948919052410113,-0.007125551436128216,0.002,8e-05,0,-1.0218746908513183,-0.0011618053600260783,-8.174997526810547e-05,-0.0,-0.0012435553352941838,0.2,0.02,0.0,0.001090669272118176,0.002976340005044131,2.181338544236352e-05,0.0,0.0029981533904864946,-0.014854282612485899,0.0,0.014854282612485899,-0.015531851543399703,0.0,0.015531851543399703,-0.5809026800130391,0.0,0.5809026800130391,0.014881700025220655,0,-0.014881700025220655,-0.0012019189280746201,0.007125863856496178,-0.0029981533904864946,0.4,0.033455610275268555,1.8934507369995117,STABILIZE
0.2,0.015,0.15,-0.0257377334591603,-0.0033592753333006593,-0.00038606600188740447,-0.000784891469045551,-0.004530232804233615,0.2,0.015,0.15,-0.014092173281792514,-0.0022337661112608567,-0.0002113825992268877,0.00551553328037507,0.0030703845698873255,0.002,8e-05,0,-1.0406800887536667,-0.0011238315531693149,-8.325440710029334e-05,0.0,-0.0012070859602696083,0.2,0.02,0.0,0.0017260489699402956,0.0037970999410042224,3.452097939880591e-05,0.0,0.0038316209204030285,-0.011168830556304283,0.0,0.011168830556304283,-0.016796376666503295,0.0,0.016796376666503295,-0.5619157765846574,0.0,0.5619157765846574,0.01898549970502111,0,-0.01898549970502111,-0.00453124995654169,-0.0030688832657658183,-0.0038316209204030285,0.4,0.03346657752990723,1.9269280433654785,STABILIZE
0.2,0.015,0.15,-0.026340269260798306,-0.003604981667040161,-0.00039510403891197457,-0.0020590156437227413,-0.006059101349674877,0.2,0.015,0.15,-0.014354206356087685,-0.0015677482174906083,-0.00021531309534131526,0.010828976851247276,0.009045915538415352,0.002,8e-05,0,-1.0589979425024554,-0.0010959602195319668,-8.471983540019643e-05,0.0,-0.0011806800549321633,0.2,0.02,0.0,0.0024951637917077253,0.004601626699663239,4.990327583415451e-05,0.0,0.0046515299754973935,-0.007838741087453041,0.0,0.007838741087453041,-0.018024908335200804,0.0,0.018024908335200804,-0.5479801097659834,0.0,0.5479801097659834,0.023008133498316194,0,-0.023008133498316194,-0.006062733408397188,-0.009043481669826109,-0.0046515299754973935,0.4,0.03342795372009277,1.9603476524353027,STABILIZE
0.2,0.015,0.15,-0.026982413696798394,-0.003837581449333403,-0.0004047362054519759,-0.003693536908899086,-0.007935854563684466,0.2,0.015,0.15,-0.01451332096579496,-0.000950900202973145,-0.00021769981448692437,0.011628232341270016,0.010459632323809948,0.002,8e-05,0,-1.076926225820769,-0.001071429473239947,-8.615409806566152e-05,0.0,-0.0011575835713056085,0.2,0.02,0.0,0.0033912659868975538,0.0053552829677822825,6.782531973795108e-05,0.0,0.005423108287520234,-0.0047545010148657245,0.0,0.0047545010148657245,-0.019187907246667014,0.0,0.019187907246667014,-0.5357147366199735,0.0,0.5357147366199735,0.02677641483891141,0,-0.02677641483891141,-0.007940741865913375,-0.010455922466438436,-0.005423108287520234,0.4,0.03346610069274902,1.9938249588012695,STABILIZE
0.2,0.015,0.15,-0.027659103918049262,-0.004050757848564099,-0.00041488655877073893,-0.001953539410465894,-0.006419183817800732,0.2,0.015,0.15,-0.014794497708785563,-0.0016831614566521485,-0.00022191746563178345,0.010007955859473687,0.008102876937189755,0.002,8e-05,0,-1.09459169305086,-0.0010574784115923172,-8.75673354440688e-05,0.0,-0.001145045747036386,0.2,0.02,0.0,0.004346858186980787,0.005720302263801653,8.693716373961575e-05,0.0,0.005807239427541269,-0.008415807283260742,0.0,0.008415807283260742,-0.020253789242820494,0.0,0.020253789242820494,-0.5287392057961586,0.0,0.5287392057961586,0.028601511319008264,0,-0.028601511319008264,-0.006423227897373402,-0.008099671531880811,-0.005807239427541269,0.4,0.03341054916381836,2.027242660522461,STABILIZE
0.2,0.015,0.15,-0.028333806918039498,-0.004032531301809771,-0.00042500710377059247,-0.004154011920218686,-0.00861155032579905,0.2,0.015,0.15,-0.015207424954747152,-0.002467963007033177,-0.00022811137432120728,0.002251619512855423,-0.0004444548684989615,0.002,8e-05,0,-1.1119884896349057,-0.0010397630776415269,-8.895907917079247e-05,0.0,-0.0011287221568123194,0.2,0.02,0.0,0.0052710026752824796,0.005523380771280822,0.0001054200535056496,0.0,0.0056288008247864715,-0.012339815035165885,0.0,0.012339815035165885,-0.020162656509048856,0.0,0.020162656509048856,-0.5198815388207634,0.0,0.5198815388207634,0.027616903856404106,0,-0.027616903856404106,-0.008611335095578392,0.0004486056347863131,-0.0056288008247864715,0.4,0.0334630012512207,2.060720205307007,STABILIZE
0.2,0.015,0.15,-0.02896375550093656,-0.0037657429180769117,-0.0004344563325140484,-0.0018243532204999047,-0.006024552471090865,0.2,0.015,0.15,-0.015612286842943772,-0.002420206711576645,-0.00023418430264415655,-0.0008379711186408267,-0.003492362132861628,0.002,8e-05,0,-1.1292019093364731,-0.0010289937162642258,-9.033615274691785e-05,0.0,-0.0011193298690111437,0.2,0.02,0.0,0.006083968232278038,0.004859792325934525,0.00012167936464556077,0.0,0.004981471690580086,-0.012101033557883225,0.0,0.012101033557883225,-0.018828714590384557,0.0,0.018828714590384557,-0.5144968581321129,0.0,0.5144968581321129,0.024298961629672624,0,-0.024298961629672624,-0.006023070829450062,0.0034949168126581515,-0.004981471690580086,0.4,0.03345680236816406,2.0941507816314697,STABILIZE
0.2,0.015,0.15,-0.029664916854819316,-0.004196915867474187,-0.00044497375282228973,-0.002657446539656557,-0.0072993361599530335,0.2,0.015,0.15,-0.01608340691650731,-0.0028199661907707535,-0.00024125110374760962,-0.005621187442895218,-0.008682404737413581,0.002,8e-05,0,-1.1462629812292444,-0.0010212183393505084,-9.170103849833956e-05,0.0,-0.0011129193778488479,0.2,0.02,0.0,0.006920257242207385,0.005005744535306573,0.00013840514484414772,0.0,0.00514414968015072,-0.014099830953853768,0.0,0.014099830953853768,-0.020984579337370933,0.0,0.020984579337370933,-0.5106091696752542,0.0,0.5106091696752542,0.02502872267653286,0,-0.02502872267653286,-0.007295542697354067,0.008685592504334028,-0.00514414968015072,0.4,0.03341317176818848,2.127560615539551,STABILIZE
0.2,0.015,0.15,-0.030578051216250374,-0.004579925984678906,-0.0004586707682437556,-0.0030556720815528137,-0.008094268834475475,0.2,0.015,0.15,-0.016717543563992042,-0.003180582214758506,-0.00025076315345988064,-0.009742523283776922,-0.013173868651995308,0.002,8e-05,0,-1.1664003464121506,-0.0010100117349611277,-9.331202771297206e-05,0.0,-0.0011033237626740997,0.2,0.02,0.0,0.007937605776427277,0.00510262364899567,0.00015875211552854554,-0.0,0.005261375764524216,-0.01590291107379253,0.0,0.01590291107379253,-0.022899629923394525,0.0,0.022899629923394525,-0.5050058674805639,0.0,0.5050058674805639,0.025513118244978348,0,-0.025513118244978348,-0.008088401867682754,0.013177471625909569,-0.005261375764524216,0.4,0.03987550735473633,2.167448043823242,STABILIZE
0.2,0.015,0.15,-0.03125520543306241,-0.004032729136914132,-0.0004688280814959361,0.00034548972933901105,-0.0041560674890710565,0.2,0.015,0.15,-0.017114390107852304,-0.0023633827872228974,-0.00025671585161778456,-0.0028048966418278334,-0.0054249952806685155,0.002,8e-05,0,-1.183239468368889,-0.0010028382910275734,-9.465915746951112e-05,0.0,-0.0010974974484970845,0.2,0.02,0.0,0.008807157853645112,0.005178536751007157,0.00017614315707290226,-0.0,0.005354679908080059,-0.011816913936114486,0.0,0.011816913936114486,-0.020163645684570658,0.0,0.020163645684570658,-0.5014191455137866,0.0,0.5014191455137866,0.02589268375503578,0,-0.02589268375503578,-0.0041536154411342405,0.005426872905841842,-0.005354679908080059,0.4,0.03358292579650879,2.2010278701782227,STABILIZE
0.2,0.015,0.15,-0.03184796902514214,-0.0035399246879209627,-0.0004777195353771321,0.0024710221286333013,-0.001546622094664793,0.2,0.015,0.15,-0.017381943762554544,-0.0015978035768035859,-0.00026072915643831815,0.004141997149674367,0.002283464416432463,0.002,8e-05,0,-1.2000225959234445,-0.0010022715356463026,-9.600180767387557e-05,0.0,-0.0010982733433201781,0.2,0.02,0.0,0.009694894041541587,0.005301471429562514,0.00019389788083083175,-0.0,0.005495369310393346,-0.00798901788401793,0.0,0.00798901788401793,-0.017699623439604812,0.0,0.017699623439604812,-0.5011357678231513,0.0,0.5011357678231513,0.02650735714781257,0,-0.02650735714781257,-0.0015476783525910805,-0.002282748641821854,-0.005495369310393346,0.4,0.03349018096923828,2.234560251235962,STABILIZE
0.2,0.015,0.15,-0.03231250928690559,-0.002735588737206713,-0.0004846876393035839,0.004827340316127282,0.001607063939616985,0.2,0.015,0.15,-0.017578149747107506,-0.0011554195097710487,-0.00026367224620661256,0.005881723258304746,0.004462631502327084,0.002,8e-05,0,-1.2174774036393463,-0.0010278802361816473,-9.739819229114772e-05,-0.0,-0.001125278428472795,0.2,0.02,0.0,0.01060553190509412,0.005362572177816566,0.00021211063810188242,0.0,0.005574682815918448,-0.0057770975488552435,0.0,0.0057770975488552435,-0.013677943686033565,0.0,0.013677943686033565,-0.5139401180908236,0.0,0.5139401180908236,0.026812860889082826,0,-0.026812860889082826,0.0016049753739880998,-0.004463383075702904,-0.005574682815918448,0.4,0.03396272659301758,2.268544912338257,STABILIZE
0.2,0.015,0.15,-0.032822619246825335,-0.0030472366161981455,-0.00049233928870238,0.0053667175508938575,0.0018271416459933318,0.2,0.015,0.15,-0.017834728581590062,-0.0015327213361991808,-0.0002675209287238509,0.005985930609069626,0.004185688344146594,0.002,8e-05,0,-1.2344158814932058,-0.0010118514436978064,-9.875327051945647e-05,0.0,-0.0011106047142172629,0.2,0.02,0.0,0.011511732747891341,0.005413359092686187,0.00023023465495782683,0.0,0.005643593747644014,-0.007663606680995904,0.0,0.007663606680995904,-0.015236183080990727,0.0,0.015236183080990727,-0.5059257218489032,0.0,0.5059257218489032,0.027066795463430934,0,-0.027066795463430934,0.0018251641033472626,-0.00418655102736136,-0.005643593747644014,0.4,0.033480167388916016,2.3020052909851074,STABILIZE
0.2,0.015,0.15,-0.033244589028059046,-0.0025203379798894613,-0.0004986688354208856,0.009167781829062333,0.006148775013751986,0.2,0.015,0.15,-0.018218444953613508,-0.0022918583010579393,-0.0002732766743042026,0.003941836930316244,0.001376701954954102,0.002,8e-05,0,-1.2512992632239477,-0.0010084093718880057,-0.00010010394105791582,0.0,-0.0011085133129459216,0.2,0.02,0.0,0.012393531430902065,0.005266800634184586,0.0002478706286180413,0.0,0.005514671262802627,-0.011459291505289695,0.0,0.011459291505289695,-0.012601689899447306,0.0,0.012601689899447306,-0.5042046859440028,0.0,0.5042046859440028,0.02633400317092293,0,-0.02633400317092293,0.006148141611369796,-0.0013795278790435471,-0.005514671262802627,0.4,0.03348517417907715,2.3354978561401367,STABILIZE
0.2,0.015,0.15,-0.033582656910779156,-0.002012474680506254,-0.0005037398536616874,0.008991130509490044,0.006474915975322102,0.2,0.015,0.15,-0.018723853540793013,-0.003008632398988544,-0.0002808578031118952,-0.002908377721263114,-0.006197867923363553,0.002,8e-05,0,-1.268110562145218,-0.0010007550304176177,-0.00010144884497161745,0.0,-0.0011022038753892352,0.2,0.02,0.0,0.013249310034986103,0.00509434010406707,0.0002649862006997221,-0.0,0.005359326304766793,-0.015043161994942718,0.0,0.015043161994942718,-0.01006237340253127,0.0,0.01006237340253127,-0.5003775152088089,0.0,0.5003775152088089,0.025471700520335348,0,-0.025471700520335348,0.006477670690788655,0.006194988789710426,-0.005359326304766793,0.4,0.03359723091125488,2.369062900543213,STABILIZE
0.2,0.015,0.15,-0.03386092541254533,-0.0016642915362967547,-0.00050791388118818,0.008345728631587016,0.006173523214102081,0.2,0.015,0.15,-0.01914363011900502,-0.0025106348789734954,-0.0002871544517850753,-0.0041035004612141905,-0.006901289791972761,0.002,8e-05,0,-1.2846533658386783,-0.0009894058435970473,-0.00010277226926709427,0.0,-0.0010921781128641415,0.2,0.02,0.0,0.013920670840655494,0.004015330874982853,0.0002784134168131099,-0.0,0.004293744291795963,-0.012553174394867476,0.0,0.012553174394867476,-0.008321457681483773,0.0,0.008321457681483773,-0.49470292179852365,0.0,0.49470292179852365,0.020076654374914262,0,-0.020076654374914262,0.006175941072678598,0.006899126142827529,-0.004293744291795963,0.4,0.03343987464904785,2.4024999141693115,STABILIZE
0.2,0.015,0.15,-0.0340694315374709,-0.0012466153604262357,-0.0005110414730620634,0.006666193369242656,0.004908536535754357,0.2,0.015,0.15,-0.01950104431242626,-0.0021369061638468628,-0.0002925156646863939,-0.004381501312319613,-0.006810923140852869,0.002,8e-05,0,-1.3017105592730915,-0.001019814614495938,-0.00010413684474184733,0.0,-0.0011239514592377854,0.2,0.02,0.0,0.014421104083583665,0.0029919877304557157,0.0002884220816716733,-0.0,0.003280409812127389,-0.010684530819234313,0.0,0.010684530819234313,-0.006233076802131178,0.0,0.006233076802131178,-0.509907307247969,0.0,0.509907307247969,0.014959938652278577,0,-0.014959938652278577,0.0049103147017132455,0.0068096412889064335,-0.003280409812127389,0.4,0.03345155715942383,2.4359374046325684,STABILIZE
0.2,0.015,0.15,-0.03423974591562541,-0.0009949514642584902,-0.0005135961887343812,0.009165095755602167,0.007656548102609296,0.2,0.015,0.15,-0.01976557574928206,-0.0015453536177861783,-0.0002964836362392309,-9.92673845393032e-05,-0.0019411046385647125,0.002,8e-05,0,-1.3194511097351174,-0.0010363767786493458,-0.0001055560887788094,-0.0,-0.0011419328674281551,0.2,0.02,0.0,0.014813370358472817,0.002291561692026425,0.0002962674071694563,-0.0,0.0025878290991958814,-0.007726768088930891,0.0,0.007726768088930891,-0.004974757321292451,0.0,0.004974757321292451,-0.5181883893246729,0.0,0.5181883893246729,0.011457808460132125,0,-0.011457808460132125,0.007656936124789915,0.0019395734702028313,-0.0025878290991958814,0.4,0.03423571586608887,2.4702117443084717,STABILIZE
0.2,0.015,0.15,-0.03455061388166586,-0.0018576360641620268,-0.0005182592082249879,0.002938481997807271,0.0005625867254202563,0.2,0.015,0.15,-0.02037120203480728,-0.0036190066275588666,-0.0003055680305221092,-0.005992199623537701,-0.009916774281618676,0.002,8e-05,0,-1.3373144042719065,-0.001067446754934222,-0.00010698515234175253,-0.0,-0.0011744319072759745,0.2,0.02,0.0,0.015239674239252692,0.0025474399093468473,0.0003047934847850539,-0.0,0.002852233394131901,-0.01809503313779433,0.0,0.01809503313779433,-0.009288180320810134,0.0,0.009288180320810134,-0.533723377467111,0.0,0.533723377467111,0.012737199546734235,0,-0.012737199546734235,0.000564791270613983,0.009916648970132549,-0.002852233394131901,0.4,0.033469200134277344,2.503682851791382,STABILIZE
0.2,0.015,0.15,-0.034868095636969236,-0.0018994308564116774,-0.0005230214345545385,0.00048351074663643447,-0.0019389415443297814,0.2,0.015,0.15,-0.02087679648125351,-0.003024872063884969,-0.00031315194721880265,-0.00012610890348974056,-0.0034641329145935124,0.002,8e-05,0,-1.3551987154847802,-0.0010699831406356173,-0.00010841589723878243,-0.0,-0.0011783990378743997,0.2,0.02,0.0,0.015694943095222944,0.002723783960961195,0.0003138988619044589,-0.0,0.003037682822865654,-0.015124360319424844,0.0,0.015124360319424844,-0.009497154282058386,0.0,0.009497154282058386,-0.5349915703178086,0.0,0.5349915703178086,0.013618919804805975,0,-0.013618919804805975,-0.0019381180825209867,0.003464593693422545,-0.003037682822865654,0.4,0.03342914581298828,2.5370912551879883,STABILIZE
0.2,0.015,0.15,-0.03517491782651706,-0.0015384037882049705,-0.000527623767397756,0.0002793185208421409,-0.0017867090347605855,0.2,0.015,0.15,-0.021623771088991495,-0.003745324182486809,-0.0003243565663348724,-0.0050692133170354555,-0.009138894065857137,0.002,8e-05,0,-1.376162787529671,-0.0010511367478861589,-0.00011009302300237368,-0.0,-0.0011612297708885324,0.2,0.02,0.0,0.01622552723766498,0.002660344272678725,0.0003245105447532996,-0.0,0.0029848548174320243,-0.018726620912434044,0.0,0.018726620912434044,-0.007692018941024852,0.0,0.007692018941024852,-0.5255683739430794,0.0,0.5255683739430794,0.013301721363393623,0,-0.013301721363393623,-0.0017845873116397273,0.009139308619856778,-0.0029848548174320243,0.4,0.03988838195800781,2.577012538909912,STABILIZE
0.2,0.015,0.15,-0.0354357757971559,-0.001556654022724656,-0.0005315366369573384,-0.0016752619986069271,-0.0037634526582889212,0.2,0.015,0.15,-0.022201278508233453,-0.003446240285910126,-0.0003330191776235018,-0.0054064751470739554,-0.009185734610607583,0.002,8e-05,0,-1.3935456278830252,-0.0010373103914042567,-0.00011148365023064202,-0.0,-0.0011487940416348987,0.2,0.02,0.0,0.0168852415401921,0.003936804845804959,0.00033770483080384204,0.0,0.004274509676608801,-0.01723120142955063,0.0,0.01723120142955063,-0.007783270113623279,0.0,0.007783270113623279,-0.5186551957021284,0.0,0.5186551957021284,0.019684024229024797,0,-0.019684024229024797,-0.0037602966676430426,0.009187027006546167,-0.004274509676608801,0.4,0.033515214920043945,2.6105124950408936,STABILIZE
0.2,0.015,0.15,-0.035637491587355775,-0.001157136003088909,-0.0005345623738103366,-0.001059033011471319,-0.002750731388370564,0.2,0.015,0.15,-0.022734901046227992,-0.003061108156983228,-0.00034102351569341986,-0.006341323804026968,-0.009743455476703616,0.002,8e-05,0,-1.4116099096955563,-0.0010362515911377912,-0.00011292879277564452,-0.0,-0.0011491803839134358,0.2,0.02,0.0,0.017740836765250807,0.004908093897881629,0.00035481673530501613,0.0,0.0052629106331866455,-0.015305540784916138,0.0,0.015305540784916138,-0.005785680015444545,0.0,0.005785680015444545,-0.5181257955688956,0.0,0.5181257955688956,0.02454046948940814,0,-0.02454046948940814,-0.002746557897355933,0.00974463275418548,-0.0052629106331866455,0.4,0.03486466407775879,2.6453940868377686,STABILIZE
