Mode,Time,Freq,North-Vision,East-Vision,Down-Vision,Yaw-Vision,North-Desired,East-Desired,Down-Desired,Roll-UAV,Pitch-UAV,Yaw-UAV,Roll-Control,Pitch-Control,Yaw-Control,Thrust-Control,northVraw,eastVraw,downVraw,yawVraw,zGyro
GUIDED_NOGPS,0.007340431213378906,136.70688699846812,236.61773441558233,54.69158903487117,18.71679026623881,-0.0025803714089043662,235.32085177037197,52.74729453872592,50,-0.9556378068726946,0.9622626634807839,102.69067156728028,5.114883481318334,-4.264659772700483,0.0051607428178087325,0.5062566419467522,236.61773441558233,54.69158903487117,18.71679026623881,-6.45350889366982,-1.7188733853924698
GUIDED_NOGPS,0.0325169563293457,39.72894584789672,237.60188310122544,55.13914040953283,19.587590365827204,-0.006718551302349895,235.3207460667251,52.747136683489806,50,-0.9239983429247858,0.9689402406115292,102.63430201606016,0.3945349748671264,-0.905259375146096,0.01343710260469979,0.5060824819268346,238.58603178686857,55.58669178419448,20.458390465415597,-7.516294629495178,-1.4896902673401404
GUIDED_NOGPS,0.07308435440063477,24.65584255264117,237.4088724302593,55.2894347243635,20.386252060504265,-0.04497467403860401,235.3200146713241,52.74604443551991,50,-0.8469166165725771,0.8491021170244225,102.53622732976795,0.18234152962810413,-0.030786405243474757,0.08994934807720802,0.5059227495878992,237.02285108832697,55.590023354024844,21.983575449858396,-3.233615531140842,-1.7188733853924698
GUIDED_NOGPS,0.10932612419128418,27.601187146702113,237.48427622646184,55.4383804792252,21.117056123715845,-0.11106485609595185,235.31805519443682,52.74311820075109,50,-0.5433393606795458,0.6034460392318629,102.47717351420403,0.19733575901069442,-0.1735182717370379,0.2221297121919037,0.5057765887752569,237.71048761506952,55.885217743810315,23.309468313350575,-19.749132265583413,-1.3178029288008934
GUIDED_NOGPS,0.14845824241638184,25.556324640506947,237.77698866586326,55.697942867118265,21.831490380615048,-0.14887098022605388,235.31429035191516,52.737495877182226,50,-0.1190971681240793,0.23563795118829622,102.45523494658994,0.2507569023450811,-0.2992782713493304,0.29774196045210777,0.505633701923877,238.94783842346877,56.73619241869049,24.68922740821187,-4.34858908652852,-0.6875493541569879
GUIDED_NOGPS,0.18403244018554688,28.11723379722736,237.45370266269228,56.166371133662516,23.37920547295384,-0.17980088926212112,235.3081676189112,52.72835233774431,50,0.11831845985763174,0.030967490727456016,102.44471645526812,0.38146735544839006,0.04871867903144167,0.35960177852424224,0.5053241589054093,235.83727264683745,57.033730367592455,26.455365727932747,-2.5329568527339887,-0.34377467707849396
GUIDED_NOGPS,0.22031617164611816,27.56726345400531,237.3740670779348,56.56011963705944,24.595744043869228,-0.19777941387901618,235.2991588835931,52.71489891316855,50,0.3551257074153224,-0.21565279099641246,102.4254963029437,0.3659282814208136,-0.08694710362481523,0.39555882775803236,0.5050808511912261,236.8962535693899,57.55543430117912,26.541083319992534,-1.762441937015339,-0.2291831180523293
GUIDED_NOGPS,0.25853395462036133,26.173177245837806,237.3143403893667,56.95320182649029,25.507245617896057,-0.20855705022964569,235.28676010086144,52.69638287485439,50,0.48592655142456403,-0.38483665677890766,102.43445068094559,0.37876715056854093,-0.09852816899998648,0.41711410045929137,0.5048985508764208,236.8962535693899,57.55543430117912,26.541083319992534,-1.762441937015339,-0.057295779513082325
GUIDED_NOGPS,0.28902339935302734,32.80413580584863,237.60223681893396,57.53549027998603,26.17944303839394,-0.22550077717438563,235.2704909460651,52.67208691773771,50,0.5467428759594749,-0.4695312159304773,102.42727898231708,0.5528776460178004,-0.340556646664473,0.45100155434877126,0.5047641113923212,238.92090585212048,58.79666001128896,26.670455415840003,-3.9356395244655005,-0.34377467707849396
GUIDED_NOGPS,0.3252277374267578,27.63464820097907,237.92845193340864,58.12372156029495,26.645997481975748,-0.22762498182370347,235.24989446871749,52.64132864315875,50,0.594785252642581,-0.4744467109770651,102.42854256731353,0.5409606238726596,-0.3554950997319756,0.45524996364740694,0.5046708005036048,241.19575270266574,59.67734882023513,27.021999626120902,-4.54253539882788,0.11459155902616465
GUIDED_NOGPS,0.36118531227111816,27.811658300787077,238.28608885068562,58.5782666226883,26.80733355160309,-0.22629367184090898,235.22453674621246,52.603460041730344,50,0.6523813564272425,-0.5191940016333161,102.43931377563464,0.5085886904546911,-0.39862291995735133,0.45258734368181797,0.5046385332896793,239.88394642654293,59.30645567955921,27.26204607606947,-8.377655935942855,0.34377467707849396
GUIDED_NOGPS,0.4001784324645996,25.648999859350443,238.70406638146093,59.055305663221645,27.157029850781477,-0.23309553505193517,235.19400653754053,52.557866976205894,50,0.7772112810805706,-0.5471559423217021,102.43428675640551,0.529863577525037,-0.4431562402015084,0.46619107010387034,0.5045685940298437,241.05430786127198,59.94062950384587,28.28956481588446,-6.8170906705129255,-0.11459155902616465
GUIDED_NOGPS,0.42722082138061523,36.99365843762954,238.66539776885062,59.44136006943687,27.694254135752068,-0.2302978650734144,235.157914937005,52.503968664347504,50,0.850825138964264,-0.532896641768831,102.44156090787158,0.5993783700890198,-0.21172422660583942,0.4605957301468288,0.5044611491728496,238.63848952258624,59.48570633225523,29.227204744845487,0.6881752035131967,0.17188733853924698
GUIDED_NOGPS,0.4600820541381836,30.440270560571314,239.2362842804473,59.69934051765309,28.43510788807536,-0.2280936835659698,235.11589502793777,52.441217161794064,50,0.8696576780532816,-0.5868150622114108,102.46715362669161,0.5114571091990986,-0.6285758105815789,0.4561873671319396,0.504312978422385,240.40436473961103,60.08656225237009,30.37472417745647,-7.880522522561705,0.2291831180523293
GUIDED_NOGPS,0.4933795928955078,30.040208275140916,239.74968421077313,59.83571659663115,29.282989120270877,-0.22357421326874696,235.06760153641582,52.3690968449293,50,0.9623824052346707,-0.7027345782056342,102.4619421923549,0.4625493505309254,-0.6171060427191242,0.4471484265374939,0.5041434021759458,241.00345301199667,60.35922921512542,31.261405787098482,-2.657417829932811,0.2291831180523293
GUIDED_NOGPS,0.5335202217102051,24.91700280993994,240.1414540196434,59.99938693192534,30.299067208079958,-0.21675532547310244,235.0127104849769,52.28712389374989,50,1.025251841945405,-0.6972058602376263,102.48032906160057,0.47435956628866216,-0.5349259747522617,0.4335106509462049,0.503940186558384,240.03041204035193,60.12480735603014,32.3424365151149,-1.6683515663971349,0.2864788975654116
GUIDED_NOGPS,0.5659534931182861,30.838883292771694,240.3070395170193,60.06538433022651,31.24563282251326,-0.20580380623957628,234.95091884633595,52.19484577473354,50,1.055824302278911,-0.7544094415884235,102.49059483592309,0.4626456964598254,-0.4665966136682774,0.41160761247915256,0.5037508734354973,240.24558983112757,60.270616495351646,33.02239288805097,-4.8421996429596135,0.4583662361046586
GUIDED_NOGPS,0.6070702075958252,24.326651818856718,240.70155371245278,60.413599968592564,32.23703338155611,-0.20216207814386936,234.8819441971009,52.09184072370702,50,1.012730077484362,-0.8089389505183079,102.50905000706047,0.5828357208017707,-0.5806794996645069,0.4043241562877387,0.5035525933236887,244.3518662661336,61.22678452408553,34.184207540059724,-5.6763801884800955,0.17188733853924698
GUIDED_NOGPS,0.6444728374481201,26.741713156300808,240.92500349861518,60.524251228308664,33.05784386920716,-0.19877635296222024,234.8055243714889,51.97771722871433,50,1.0295058758595594,-0.9026616857313122,102.50823721454924,0.5151176455982076,-0.5345578361192537,0.3975527059244405,0.5033884312261586,241.671544715842,60.639818550950544,34.47877661571175,-3.71099452057409,0.057295779513082325
GUIDED_NOGPS,0.677513837814331,30.274384126227957,241.2875710650516,60.65383021182282,33.95208257992535,-0.18729456184910487,234.72141711504244,51.85211351288472,50,0.945429875714699,-0.8749246076770077,102.51645393212077,0.5552054975489757,-0.6715671601820481,0.37458912369820974,0.5032095834840149,243.95484839276324,61.0071241326962,35.732599340689426,-4.357352714436644,0.4583662361046586
GUIDED_NOGPS,0.7078075408935547,33.02107558711689,241.9521159238237,60.83029356715603,34.63011514504026,-0.18843049792900596,234.6293997383453,51.71469701730078,50,0.9221244164929693,-0.934202538823079,102.5168569132818,0.6131418830950266,-0.9467172020225957,0.3768609958580119,0.503073976970992,243.95484839276324,61.0071241326962,35.732599340689426,-4.357352714436644,-0.057295779513082325
GUIDED_NOGPS,0.7455120086669922,26.527759155018657,242.2893847533768,60.86480010027795,35.26853264576275,-0.1845221963341114,234.52926877073878,51.56516388386654,50,0.8824227680035066,-0.8266156401728596,102.52417887607204,0.5360396312782663,-0.7090742015731902,0.3690443926682228,0.5029462934708474,243.10251537603577,60.443149160961184,36.21448039166341,-6.18606910496419,0.2291831180523293
GUIDED_NOGPS,0.7815332412719727,27.76820459856866,242.19212364731797,60.56641237407738,35.68517901060551,-0.1912631887674722,234.4208396140376,51.40323843817555,50,0.8037538764429162,-0.8152242720194535,102.52103015886468,0.39141614813203857,-0.48204934329774707,0.3825263775349444,0.5028629641978789,240.2253641635261,59.734845893082735,36.26743936427353,-5.327950883951132,-0.2864788975654116
GUIDED_NOGPS,0.8136920928955078,31.102555356162963,242.49070787286573,60.43344912543127,36.412015936558994,-0.19327485627223062,234.30394619624616,51.22867267237894,50,0.7559653906978642,-0.7348539696644424,102.52484823461072,0.4747098781866777,-0.7600918493025962,0.38654971254446124,0.5027175968126882,242.4190858447341,59.97500230771998,38.11296124547916,-3.183480352009184,-0.057295779513082325
GUIDED_NOGPS,0.8467731475830078,30.234229818276184,242.69016343810168,60.14696433177098,36.993670376746465,-0.19778914504329,234.17844062527453,51.041245728053546,50,0.667242994287544,-0.7246795491220621,102.52680166871333,0.4021571175740421,-0.7180746982575119,0.39557829008658,0.5026012659246507,241.8412343530153,59.574700164394834,38.64087154162679,-8.475408356077025,-0.057295779513082325
GUIDED_NOGPS,0.8879458904266357,24.294806593992192,242.37633444896187,59.8604795381107,37.57532481693393,-0.20650994303788917,234.04419284265455,50.840763379069934,50,0.5604700620873196,-0.6144687906134999,102.51146106383749,0.41330448800600095,-0.42497158103355076,0.41301988607577833,0.5024849350366132,241.8412343530153,59.574700164394834,38.64087154162679,-8.475408356077025,-0.2291831180523293
GUIDED_NOGPS,0.9260299205780029,26.264137710789807,242.4547530502093,59.63854776830307,38.349033037346615,-0.21484118368809813,233.90109027725595,50.62705751446053,50,0.4464924542514954,-0.4893342822118715,102.50461038409996,0.443702550461836,-0.6430927531645381,0.42968236737619625,0.5023301933925307,242.29889352582146,59.333490311923036,40.08302149372681,-4.725551430057195,-0.2291831180523293
GUIDED_NOGPS,0.9602158069610596,29.25775511485313,242.23814043248427,59.50178734815586,39.26907860088767,-0.21939544838359368,233.74903749900233,50.3999856212877,50,0.3461396864276715,-0.4468858037785794,102.50739710128133,0.4943732960667262,-0.4858660192648195,0.43879089676718736,0.5021461842798225,242.2219474509632,59.05104379234674,40.86766718197881,-4.694356345199509,-0.057295779513082325
GUIDED_NOGPS,0.997020959854126,27.174157266972898,242.1473701974282,59.32529194136256,40.02098238773111,-0.2304967111676326,233.58795587258734,50.15943026751178,50,0.26085786440961295,-0.3388679895608409,102.4826240051617,0.4839771064466553,-0.5668688896625774,0.4609934223352652,0.5019958035224538,243.22868651231468,59.09252527375347,41.87248017969636,-5.035929421007751,-0.34377467707849396
GUIDED_NOGPS,1.0310664176940918,29.380929698226343,242.1658761710403,59.1599833000905,40.8086071063338,-0.24057624970264838,233.4177832111907,49.905298584859224,50,0.2097657148806036,-0.20762905294936645,102.47338958940384,0.5030561519084724,-0.6521477416347916,0.48115249940529675,0.5018382785787332,243.25056316493266,58.74815695803455,42.578995134640245,-6.836376045128645,-0.2291831180523293
GUIDED_NOGPS,1.0608227252960205,33.6160165423055,242.5314078478321,58.93692392625294,41.75279811879675,-0.24327934041649743,233.2384734301944,49.637521751690656,50,0.16117582916641224,-0.13389254514530374,102.4689089853083,0.48800059449876576,-0.9405036006952756,0.48655868083299486,0.5016494403762406,243.14961757786045,58.459403295207004,43.36182660394149,-6.756427973234949,0.057295779513082325
GUIDED_NOGPS,1.0994374752044678,25.903237361198602,242.2672236734013,58.57462695122068,42.455404984122794,-0.25011084151311597,233.04999620089862,49.35605447586896,50,0.08259422929104447,-0.03954257978699546,102.46295306035205,0.42738857174114964,-0.5316484300999478,0.5002216830262319,0.5015089190031754,240.30561244928768,57.52200543676174,43.596055820357066,-5.827331997112196,-0.17188733853924698
GUIDED_NOGPS,1.139249563217163,25.122061369095036,242.2532921212673,58.2705430862721,43.22427184852081,-0.2555510871881181,232.85233660423785,49.06087447762733,50,0.03264766390242626,0.019267590122635736,102.45248921054359,0.45780616092511356,-0.6754441191423698,0.5111021743762362,0.5013551456302958,241.72978193594338,57.530624467603786,44.7120015039689,-6.195809979192774,-0.057295779513082325
GUIDED_NOGPS,1.1741533279418945,28.65881806317602,242.18614572883837,57.91160304754546,43.92056824441617,-0.25938701507355033,232.6454947844971,48.751981972437406,50,-0.04700625566231367,0.0322004465943491,102.46369755097159,0.4369296361879155,-0.6720999583597762,0.5187740301471007,0.5012158863511168,241.30406321358387,57.29782508012034,45.35396215917314,-6.015164361905349,0.0
GUIDED_NOGPS,1.2049272060394287,32.50390576565406,241.94077070361814,57.526344458333675,44.56686133451071,-0.26590560618761155,232.42948560302779,48.42939915387733,50,-0.09054382910310546,0.05634308423708143,102.44839792723076,0.42471048719449267,-0.5724134503095277,0.5318112123752231,0.5010866277330979,240.33589332405992,56.82186401197562,45.81046058511297,-4.510248523371189,-0.17188733853924698
GUIDED_NOGPS,1.2379732131958008,30.266956277015666,242.0531744461156,57.249004632131026,45.32300509826365,-0.26448931926379643,232.20433829196406,48.09316967649981,50,-0.10264815161198454,0.10000005258621622,102.45518030507658,0.4893413995491526,-0.8160537549636396,0.5289786385275929,0.5009353989803472,243.1211773909427,57.072704164193716,47.14254542270616,-5.604832671490286,0.17188733853924698
GUIDED_NOGPS,1.2773292064666748,25.415711273238482,241.5643741583262,56.89019977592611,45.96611731742145,-0.26530082216050904,231.97009610793862,47.743358138700245,50,-0.14041816390722947,0.12440703989416921,102.46053517338586,0.45770555370424987,-0.46801561956490256,0.5306016443210181,0.5008067765365157,239.31828420999935,55.72798115573715,46.81161691614609,-5.177302395007075,0.057295779513082325
GUIDED_NOGPS,1.309419870376587,31.278134484738658,241.51481292925737,56.57570884547907,46.692016951311416,-0.26459239491932895,231.72681598579896,47.38004956558475,50,-0.1511348641171117,0.19856309740408523,102.46681894742228,0.4888024439703066,-0.7320169246323005,0.5291847898386579,0.5006615966097377,242.85407333238186,55.958169815368606,48.34149967341873,-5.266444857867896,0.11459155902616465
GUIDED_NOGPS,1.3442068099975586,28.703141787623096,241.1407195773402,56.08760888748664,47.2513570237933,-0.2576870429579823,231.47456819232343,47.0033488918383,50,-0.19565902636700008,0.18509017574026485,102.48575906199072,0.40891870220317805,-0.5352664215672296,0.5153740859159646,0.5005497285952414,240.15687076252328,54.857325290158165,48.15066252158253,-7.178519524372263,0.40107045659157625
GUIDED_NOGPS,1.3814380168914795,26.864693486712742,241.12212686649463,55.69470114312314,47.719397411087215,-0.2550195064138373,231.2134359799373,46.61338044459278,50,-0.18218466396015165,0.24957730006723444,102.49821049684766,0.45927793215858415,-0.7504775748393149,0.5100390128276746,0.5004561205177825,240.15687076252328,54.857325290158165,48.15066252158253,-7.178519524372263,0.17188733853924698
GUIDED_NOGPS,1.418013334274292,27.344942465038955,240.98593873999204,55.15060805706762,48.07179422856402,-0.24512106084184312,230.94351524042878,46.21028742629505,50,-0.19177854510350725,0.23169527785075927,102.50398200669632,0.392952387860355,-0.7027444215368389,0.49024212168368625,0.5003856411542872,240.6402769239226,54.352238733916096,48.90452951009019,-3.8920770504072237,0.40107045659157625
GUIDED_NOGPS,1.4492504596710205,32.02492173780255,240.81962487386892,54.75981658747658,48.52684986786808,-0.24121484893789832,230.66491415866525,45.79423139757507,50,-0.20418195519283885,0.26207948109526674,102.51088049775804,0.46942438730688696,-0.709544982947109,0.48242969787579665,0.5002946300264264,239.97355228459892,53.77402380778192,49.08689511266635,-7.059599682992143,0.17188733853924698
GUIDED_NOGPS,1.4916737079620361,23.576220883172947,240.60632397321345,54.21718645907803,48.69290487974643,-0.2388307802171374,230.37775286630924,45.365391760113944,50,-0.21006258798566116,0.2986937773581779,102.52828381976323,0.40889741179744127,-0.6779979002890275,0.4776615604342748,0.5002614190240507,238.62948611881623,53.24501917337584,49.171774732810476,-4.255083561197154,0.11459155902616465
GUIDED_NOGPS,1.5241420269012451,30.805587790296283,240.2172123134281,53.836280004938644,49.05722544354238,-0.22130951495388917,230.08216309553447,44.923965239512036,50,-0.20643797201177935,0.26823342817659535,102.5431872925322,0.48518285975355513,-0.5811275438885204,0.44261902990777835,0.5001885549112915,240.00828411265988,52.95279301946125,49.972265340562274,-5.461959396053885,0.6875493541569879
GUIDED_NOGPS,1.5631897449493408,25.616260321493137,240.22093175205467,53.39475324510662,49.40340727800268,-0.21407742274334185,229.77828783274205,44.470165368157026,50,-0.2070231004441526,0.22066932481794882,102.55267442528934,0.46194420104153694,-0.8161819079199197,0.4281548454866837,0.5001193185443995,239.34803971901206,52.64969149099803,49.88157169388401,-1.9847639155426577,0.2291831180523293
GUIDED_NOGPS,1.6031548976898193,25.026128152651896,239.92662283379397,53.02155789361395,49.70814508013967,-0.20321803016148732,229.4662809722765,44.004221968092004,50,-0.1860239773256393,0.18872591745197437,102.57175797383036,0.49930231730293606,-0.6693451975714048,0.40643606032297463,0.5000583709839721,240.49960198629626,52.48626197645282,50.42821852077515,-4.326941326388422,0.34377467707849396
GUIDED_NOGPS,1.6328508853912354,33.68891816129991,239.8877384362512,52.64199019078484,50.02065014675005,-0.17946628309082105,229.1463069701418,43.526380633883534,50,-0.1983409428332879,0.20915431956839492,102.59780831532478,0.5206049576027958,-0.8678866572736033,0.3589325661816421,0.5,239.84579558218127,51.87618529363633,50.64942044571828,-5.359569965034964,0.8594366926962349
GUIDED_NOGPS,1.6731040477752686,24.84747811044893,239.7740584219764,52.24023255418846,50.29312193100353,-0.16945448307713182,228.81854049771752,43.036902215489775,50,-0.2011335297084711,0.18658684094214387,102.61435103349456,0.5075198652343285,-0.7987597087896489,0.33890896615426364,0.5,239.24743064832518,51.236230990393956,50.53413365407788,-4.484300438624928,0.40107045659157625
GUIDED_NOGPS,1.7085888385772705,28.189610791120312,239.8569726916969,51.91699493105715,50.53877797439718,-0.1508794007196659,228.48316609547493,42.536062301128524,50,-0.19972485655300887,0.1607777972244871,102.63637156337867,0.5621507851125225,-0.9547364851377478,0.3017588014393318,0.5,241.3035910816867,51.336604903804684,51.200545557530525,-5.805351097547884,0.5729577951308232
GUIDED_NOGPS,1.7498655319213867,24.232625588583645,239.86444153012195,51.52653743328997,50.74457747719097,-0.1306617180597317,228.14037782669297,42.02415070014533,50,-0.1578807431395571,0.09808471813255655,102.66898571666549,0.5358753919794397,-0.9110378618385626,0.2613234361194634,0.5,240.0333029919993,50.6974040021621,50.910569207852944,-3.784860165921245,0.6875493541569879
GUIDED_NOGPS,1.7858130931854248,27.823096670624683,240.06510525021082,51.0104619812587,50.921119634376794,-0.10482576962543487,227.79037893117447,41.50147092588154,50,-0.11953670146934021,0.0039039333583383035,102.69907269995939,0.4928531847937235,-1.0815673881372865,0.20965153925086974,0.5,240.2347958795272,49.905884716296505,51.310929306704246,-2.7547402264900995,0.7448451336700702
GUIDED_NOGPS,1.81687593460083,32.20368081202061,239.85377778628273,50.441133445487715,50.97568393332601,-0.08229101178412282,227.43338147896216,40.968339678542414,50,-0.1353618762502895,-0.0011352521452501663,102.72095662606012,0.4702068899827335,-0.8794851807333841,0.16458202356824564,0.5,238.3176644012352,49.029542614781406,50.92224194046433,-4.943626441113437,0.7448451336700702
GUIDED_NOGPS,1.8613083362579346,22.511050761584784,239.71022409820867,49.91731409148008,51.07500434723536,-0.06399401049233842,227.06960602405468,40.425086328065206,50,-0.10717832793984838,-0.10797181716254668,102.75266919437648,0.4978291919733,-0.8995621403138405,0.12798802098467685,0.5,238.19961021441972,48.61713422035576,51.030735723624645,-4.956780350693194,0.6875493541569879
GUIDED_NOGPS,1.8931782245635986,31.38415491903864,239.44799352804083,49.29140233473703,51.04418880899457,-0.03330389205395332,226.69928125812282,39.872052396987215,50,-0.11363114915821794,-0.1548022888352251,102.78227123423932,0.4515581143265478,-0.8757959666450841,0.06660778410790665,0.5,238.40175742495336,48.207046120089416,51.04646786632658,0.7369786821293332,0.7448451336700702
GUIDED_NOGPS,1.923995018005371,32.45712163186975,239.2363370809428,48.69259506785968,51.04090054951857,-0.00897753259844697,226.32264366422552,39.30959104331389,50,-0.07623468951363453,-0.2142285097914797,102.81304123645023,0.46808382800228376,-0.926561913080637,0.01795506519689394,0.5,238.15254400539698,47.70336766777536,50.894127910472925,-5.04943440661269,0.9167324722093172
GUIDED_NOGPS,1.9577791690826416,29.606782101689173,239.1223774441688,48.15339594806393,50.97507827593549,0.009193310078393442,225.93993717052592,38.738066543386935,50,-0.08432817019540874,-0.27267841390281916,102.82907169043224,0.5046000953581903,-0.9954956264842585,-0.018386620156786885,0.5,238.3357535541331,47.209889117317736,50.981817938788836,-6.159175352406663,0.6875493541569879
GUIDED_NOGPS,1.9924240112304688,28.871279495580826,238.9674129814909,47.77675370551195,51.0194382731154,0.035251593350610164,225.5514128040075,38.15785377475235,50,-0.029961678671105524,-0.3252220453315223,102.86303822117472,0.5939396382863742,-0.9869733743877345,-0.07050318670122033,0.5,240.0638753802634,47.146331402021524,51.14404192636389,-1.946798640654407,0.8594366926962349
GUIDED_NOGPS,2.03204607963562,25.245448143444424,238.70075250541356,47.29988488877878,50.95705502283745,0.055403799725866766,225.1573283441901,37.56933769902851,50,-0.03379723009646436,-0.3701237889764655,102.8971413557006,0.5512643258547669,-0.9256746403079983,-0.11080759945173353,0.5,237.90001918338075,46.23279013668986,50.71881947223496,-5.156516188657093,0.6302535746439055
GUIDED_NOGPS,2.0693376064300537,26.822602511958664,238.47445044823627,46.855485697266474,50.93060916036817,0.07184858703042478,224.7579479768461,36.9729128447743,50,0.0020412794066950023,-0.41563710135638926,102.90931275280155,0.5794667111664623,-0.9659264110578734,-0.14369717406084956,0.5,238.42437942210867,45.985050162527884,50.91423855398014,-1.781272514698287,0.2864788975654116
GUIDED_NOGPS,2.1080737113952637,25.82127114679012,238.51787123702053,46.42376853854633,50.95965305743951,0.0910524762751283,224.3535419477164,36.36898279035716,50,-0.00523467298815364,-0.40814478404328197,102.94519173651163,0.5949263751070761,-1.1337746387949688,-0.1821049525502566,0.5,238.66503071150922,45.54478187417464,51.0393473958296,-4.780208192601194,0.5729577951308232
GUIDED_NOGPS,2.141772747039795,29.684730528327258,238.75370927956678,45.940604259329476,51.05645979912125,0.104366249334997,223.94438621622658,35.757959646821135,50,0.03860755090200452,-0.4466266567965156,102.94817652917892,0.5912419944587394,-1.3249014304901192,-0.208732498669994,0.5,240.0863145547898,44.79406772123351,51.46585164719753,-2.8399795638494254,0.2864788975654116
GUIDED_NOGPS,2.172079086303711,33.030957387325664,238.96427892079635,45.470151523171864,51.12082174328798,0.10721578042761928,223.53076210920287,35.14026354075506,50,0.07405783351995741,-0.47331588778260486,102.95392071827091,0.6175343176072482,-1.4005591633002457,-0.21443156085523857,0.5,240.0863145547898,44.79406772123351,51.46585164719753,-2.8399795638494254,0.0
GUIDED_NOGPS,2.2092347145080566,26.951697371211196,238.95147167161002,45.0431869645087,51.22688830194519,0.10785041663234222,223.11295597458843,34.516322097160504,50,0.08765924811753867,-0.46957064960076356,102.95483596361969,0.6327217734435099,-1.2227708268536943,-0.21570083326468445,0.5,238.05008601190633,44.097967343374,51.24915226552094,-2.1692420231334495,0.0
GUIDED_NOGPS,2.247739315032959,25.951479077595113,238.81499660408866,44.52518845721236,51.28749518580237,0.10051456780336561,222.6912588351592,33.88656992231998,50,0.10741661749853854,-0.5153829161590077,102.95054660482093,0.6017198793354877,-1.1746941745293626,-0.20102913560673122,0.5,237.2439530139624,43.395057626046174,51.21727297326599,-5.424745636370474,-0.34377467707849396
GUIDED_NOGPS,2.283622980117798,27.872648374213355,238.5263214552002,43.976186281982315,51.41260104027342,0.08899819269037836,222.26596604224017,33.25144808666495,50,0.15152703970543208,-0.6314602735560818,102.92217399900869,0.5982026677819602,-1.1113106092788225,-0.1779963853807567,0.5,237.75447418915587,42.799770998024414,51.66487666818486,-3.515996106588176,-0.4583662361046586
GUIDED_NOGPS,2.323228120803833,25.253656216320362,238.4215625735838,43.483738357651745,51.44297555245888,0.06940019251776564,221.83737692942134,32.611403607643936,50,0.15947826035339963,-0.6721408802526777,102.9068675450787,0.6276315056704348,-1.2200705830548502,-0.13880038503553127,0.5,237.06194813044974,42.33182809958068,51.617724208124876,-5.25341454223927,-0.6875493541569879
GUIDED_NOGPS,2.3609251976013184,26.53262567924039,238.28811267039745,42.959824298095924,51.48551415801681,0.042753777114199504,221.40579446627385,31.96688893259057,50,0.17328227276919372,-0.7726874546942007,102.87393920309006,0.6263300020108338,-1.2355242472673371,-0.08550755422839901,0.5,237.35678019661768,42.174497423454454,51.67854467498723,-1.1405970667932621,-0.9167324722093172
GUIDED_NOGPS,2.3908495903015137,33.42660864852803,237.79643263140997,42.396081741212484,51.47096344990405,0.01285584090217556,220.9715249120661,31.31836142159174,50,0.20745090774199076,-0.7919174254155485,102.85121516372143,0.6252357100951277,-1.0367105396325762,-0.02571168180435112,0.5,234.7315903996092,41.279254558956815,51.176398724957075,-5.123747848332599,-0.9167324722093172
GUIDED_NOGPS,2.4285683631896973,26.518702106674084,237.20832717389837,41.95798130293092,51.510298568640636,-0.026249901532852997,220.53487746947974,30.666282830355627,50,0.23286473430271237,-0.8405852980162397,102.79991361286547,0.6821678430192999,-0.987383936263405,0.052499803065705994,0.5,235.38147089469686,41.204555434638316,51.41394856694894,-4.805499942985264,-1.432394487827058
GUIDED_NOGPS,2.464937686920166,27.502370382998812,236.64292797297136,41.59464173499828,51.43753280614426,-0.06731973156675705,220.09616393832584,30.01111879307976,50,0.22806236426425294,-0.7864247260232418,102.75467043980329,0.7345027748070149,-0.992466348786871,0.1346394631335141,0.5,235.5631209473739,40.98307315836123,51.30104785570301,-4.745305555429482,-1.2032113697747289
GUIDED_NOGPS,2.498444080352783,29.85206009836089,236.24643757756564,41.244842227044835,51.36836028861755,-0.11395739960121444,219.6556983692609,29.353338305319184,50,0.2458769650431007,-0.7352587117336185,102.7121456820308,0.7687034463905074,-1.0925860605270763,0.22791479920242888,0.5,234.8781628486604,40.58283055981348,51.27186162049136,-1.2743254462319982,-1.4896902673401404
GUIDED_NOGPS,2.54323148727417,22.33341142893655,235.91909689601803,40.88293559585403,51.32557516793203,-0.16359916152451687,219.21379671750304,28.693413206854437,50,0.26210557455233036,-0.6345866325660965,102.63777858234769,0.7467398448332796,-1.1279301658137582,0.32719832304903373,0.5,234.62522756158143,40.36496426750041,51.464619071559554,-5.278269072370051,-1.604281826366305
GUIDED_NOGPS,2.5779926776885986,28.774029787263235,235.35016158163896,40.560660939044084,51.488414860610916,-0.22909175284278988,218.77077649654797,28.031817664559753,50,0.2920994431579422,-0.5827742049045549,102.56799453959768,0.8057912262863486,-0.9997007124882143,0.45818350568557975,0.5,233.20299167412315,39.66788127490707,51.990597188351565,-5.6577779229298955,-1.7188733853924698
GUIDED_NOGPS,2.614116907119751,27.68645415959813,234.86779202459815,40.253326107097834,51.603744584891444,-0.29324422634082636,218.32695643188504,27.369027655271005,50,0.29485355685819115,-0.4747876334661839,102.49829928930687,0.830555892459917,-1.047821506801594,0.5864884526816527,0.5,233.20299167412315,39.66788127490707,51.990597188351565,-5.6577779229298955,-1.948056503444799
GUIDED_NOGPS,2.6500699520111084,27.822173872666728,234.45773372906544,39.984882249374564,51.88078588721802,-0.35180572595673837,217.8826561147135,26.7055204486539,50,0.3276874234567796,-0.47353818909574763,102.43242894495127,0.8697702725098001,-1.092135593533342,0.7036114519134767,0.5,234.07631383235605,39.64085386974485,52.686254367335884,-4.20510546331721,-1.6615776058793874
GUIDED_NOGPS,2.689328908920288,25.47684532776131,234.09660254466013,39.66435965596363,52.31794337372779,-0.42208785486495787,217.4381956556585,26.041774090072046,50,0.3298791938088397,-0.4745827811519365,102.36444807214212,0.8508256315438867,-1.1224168627822688,0.8441757097299157,0.5,231.84254092436672,38.98021759275884,53.4576490530402,-6.206096853763725,-2.119943841984046
GUIDED_NOGPS,2.724087715148926,28.776793616597942,233.73178592734618,39.40142958218007,52.86045831704348,-0.49040701313970353,216.99389533848694,25.378266883454963,50,0.3444801905831964,-0.4592057308135634,102.31400712512159,0.9154770067845199,-1.1321528655112334,0.9808140262794071,0.5,232.462937956185,39.050313898582615,54.17719378813805,-3.585937466413455,-1.776169164905552
GUIDED_NOGPS,2.757357120513916,30.065186693140845,233.34426305344758,39.27791610691518,53.29777763700078,-0.5597731673367827,216.550075273824,24.715476874166207,50,0.35046837217501997,-0.3853987333228321,102.2305695342207,1.0173236837830912,-1.1253275881368414,1.1195463346735655,0.5,232.462937956185,39.050313898582615,54.17719378813805,-3.585937466413455,-2.119943841984046
GUIDED_NOGPS,2.7977211475372314,24.779511417008834,233.19729421292618,39.13064162887232,53.88580945994323,-0.6190480264818111,216.10705505286893,24.05388133187151,50,0.34977937684249494,-0.41206790062823445,102.16922760528483,0.9889810219515724,-1.2584675739048985,1.2380960529636222,0.5,233.7024121244891,38.93150888469279,54.93075630306384,-4.2223326882516545,-1.776169164905552
GUIDED_NOGPS,2.8393537998199463,24.025937424816984,232.64308185651478,38.8522395115977,54.2575159957466,-0.6817779994197599,215.66515340111107,23.393956233406776,50,0.3764477437351039,-0.370312766436978,102.10003095880343,0.9510472316960737,-1.0527836482608204,1.3635559988395198,0.5,230.19152871029019,38.24884328337178,54.54478704635275,-1.560846722366236,-1.5469860468532228
GUIDED_NOGPS,2.8736441135406494,29.16437670356567,231.99444254614502,38.56467489431365,54.57360645107576,-0.7533641122385744,215.22468783204616,22.736175745646186,50,0.3509888539341161,-0.34906999766416563,102.04947389856699,0.9954389003962912,-0.9751185561052624,1.5067282244771487,0.5,228.01387719116485,37.54239450633855,55.038101329686,-4.145850588718147,-1.7188733853924698
GUIDED_NOGPS,2.9072036743164062,29.80581434185374,231.54349218101015,38.29251921693533,54.882043935725015,-0.7988579583148627,214.78597430089226,22.081011708370333,50,0.3821308880113777,-0.3353650630119764,102.00240706499643,1.026003893737658,-1.0896384637878225,1.5977159166297255,0.5,229.5953887530442,37.689535511691005,55.719381211384295,-2.9878393656163524,-1.2032113697747289
GUIDED_NOGPS,2.9388375282287598,31.620997715672896,231.04651278722906,37.9605647062465,55.27936146737151,-0.838210686819996,214.34932685830591,21.4289331171342,50,0.3508754087608704,-0.3442946815781218,101.97072181743674,1.0217371794804573,-1.0567514378224094,1.676421373639992,0.5,230.10047868210717,37.390541345138445,56.16378144637049,-3.4477339101171367,-1.1459155902616465
GUIDED_NOGPS,2.9727282524108887,29.51324270314391,230.80115574277644,37.591688305321455,55.602697645460694,-0.8804895935566428,213.91505730409813,20.78040560613539,50,0.3884825370526664,-0.27718748601336474,101.93160532406009,1.0070830100595642,-1.2198474597772924,1.7609791871132856,0.5,229.8796845687457,37.08712688006757,56.5474371935098,-4.779335881446968,-1.3178029288008934
GUIDED_NOGPS,3.013571262359619,24.48656664136844,230.1489770667686,37.23457448398511,55.9450318776263,-0.9079228834970696,213.48347484095066,20.135890931082038,50,0.4004774698131195,-0.2408919941660492,101.90362886921972,1.002143215181607,-0.9892146002676756,1.8158457669941392,0.5,227.24550854812222,36.46327417669005,56.25645820718081,-5.700920888899091,-0.5729577951308232
GUIDED_NOGPS,3.047667980194092,29.335310327462967,229.39690979286488,36.93107703700447,56.215105721350234,-0.938242288996349,213.0548857281318,19.495846452060995,50,0.33250977713464663,-0.18882212706973633,101.89009143428474,1.0659108699795508,-0.8888493548335266,1.876484577992698,0.5,226.4463997649552,36.02490727143537,56.38847054830571,-5.771184630644115,-0.40107045659157625
GUIDED_NOGPS,3.0897159576416016,23.784784285260628,228.29498338734578,36.41333862995144,56.453024644697486,-0.9566756783856367,212.62959293521277,18.860724616405967,50,0.33346728427891775,-0.1575118995841632,101.8598063755049,0.9596303715768957,-0.7190622765226786,1.9133513567712734,0.5,224.88700088033605,35.10084347642586,56.90897582812057,-5.558797161800143,-0.40107045659157625
GUIDED_NOGPS,3.1247494220733643,28.551909108855625,227.92088554920196,35.9460221028171,56.84783499354347,-0.9721008029215605,212.20789579578357,18.23097244156545,50,0.29016505887980054,-0.08118026674103944,101.86941645166712,0.9993702229821656,-1.0723906495414455,1.944201605843121,0.5,227.19874600513947,35.053958709466734,58.137833190600404,-3.353419966787243,-0.057295779513082325
GUIDED_NOGPS,3.158811330795288,29.37002569866045,227.4802527786864,35.341374218659055,57.11765584013983,-0.9780117610702632,211.7900896611691,17.607030997970888,50,0.20138675363586403,-0.008410604230503787,101.87894456555928,0.9356822939429837,-1.0318386081160722,1.9560235221405264,0.5,224.48881502704035,34.06388745927733,57.89654142649157,-4.9182941558997015,0.0
GUIDED_NOGPS,3.1903867721557617,31.704895231760045,226.68196869807812,34.736926487308374,57.496231241159236,-0.9857616861757655,211.37646555414543,16.98933489190481,50,0.19930950901432068,0.057855117364593006,101.87163626314737,0.9354336644992396,-0.777540794269179,1.971523372351531,0.5,223.20911610817808,33.441035519936655,58.149335212277826,-4.9847039952839225,-0.11459155902616465
GUIDED_NOGPS,3.2255055904388428,28.468964019303733,226.1026914324127,34.184747329840434,58.07758450450092,-0.965960418748786,210.96730982265558,16.378311748368795,50,0.13033076157570078,0.13614514686965923,101.9044758126768,0.9595436088017968,-0.9189640833257607,1.931920837497572,0.5,225.46626055678382,33.26401148409567,59.29523686501409,-1.7950031842167817,0.9167324722093172
GUIDED_NOGPS,3.259958028793335,29.0325536966408,225.37466140360945,33.59406296936574,58.602318652401756,-0.9470737820178997,210.56290379352586,15.774381693951646,50,0.12823271956174326,0.15067173193465988,101.92883909744623,0.9412584638954898,-0.8091088507822405,1.8941475640357994,0.5,224.05544433831963,32.14742167405238,59.53264656762473,-5.924014144059072,0.8594366926962349
GUIDED_NOGPS,3.2911360263824463,32.08322369427531,224.80000846536655,32.865379551440995,58.933787903001054,-0.9174649012126483,210.16352342618188,15.177956839697451,50,0.08579823501212175,0.21894384827887436,101.9653806095058,0.8618929964139518,-0.8749131425817183,1.8349298024252967,0.5,222.64828504217894,31.410541619843034,59.795179443596915,-4.842294143620748,1.2032113697747289
GUIDED_NOGPS,3.324885129928589,29.63648825295884,224.37606900650187,32.22406775529183,59.430900941951656,-0.8943013906951873,209.7694389663645,14.58944076397362,50,0.07735812222996939,0.22395875459439754,101.99850702698036,0.9040549661635849,-0.9699378420587528,1.7886027813903747,0.5,223.05488409403787,30.857328478531493,60.38210662124462,-4.961264895256335,0.9167324722093172
GUIDED_NOGPS,3.3599417209625244,28.53365080444913,224.10639717130948,31.52600583149619,60.02439192485434,-0.8575509247135185,209.38091459984605,14.00922799533901,50,0.03520999869738597,0.3339400080746767,102.06417246566086,0.8708505978344672,-1.0642245444416676,1.715101849427037,0.5,222.72962619879684,29.95072590095847,61.116790126791294,-5.722526503000154,1.432394487827058
GUIDED_NOGPS,3.390455722808838,32.77978023352142,223.29564222101834,30.665378828946082,60.367193247208135,-0.8131093289328177,208.99820810614645,13.437703495412045,50,0.025895261515714963,0.34865175529920817,102.10641035548822,0.7610240984698196,-0.6921102988368273,1.6262186578656355,0.5,220.71270640281014,28.960876471345124,61.009243476783084,-5.166000806859174,1.604281826366305
GUIDED_NOGPS,3.4259681701660156,28.16859637340497,222.68738507782413,29.83732536869087,60.70865717967634,-0.7655693396487754,208.62157051224915,12.875242141738745,50,0.029951393366710835,0.3819569849918068,102.16432352946076,0.7806570106253301,-0.8284102111962341,1.5311386792975508,0.5,219.6227578814867,28.00715437277633,61.239966229965724,-7.659155270850434,1.8907607239317168
GUIDED_NOGPS,3.4604990482330322,28.96558772953599,222.62190075528406,29.082463630360262,61.282476076331555,-0.7134813758667355,208.2512457463173,12.322208210660754,50,0.020143388460917976,0.3210648880457911,102.21696379739404,0.7993273770564275,-1.1552829846610724,1.426962751733471,0.5,222.68524152785756,27.636232928189997,62.664273926873,-5.4224400417602965,1.7188733853924698
GUIDED_NOGPS,3.4941537380218506,29.71985715095516,221.92872322525756,28.19795071624801,61.66133073224064,-0.6549357606318581,207.88747029140984,11.77895486018354,50,-0.0037502541020130167,0.3374747376918641,102.27141406545739,0.7153705384670039,-0.7652472552115355,1.3098715212637162,0.5,219.92084031657163,26.43476390797023,62.27637990079005,-1.7639099945747745,1.948056503444799
GUIDED_NOGPS,3.5300307273864746,27.88246868933975,221.27084534190013,27.31368873894767,61.92938343820263,-0.6058146829951487,207.5304728391975,11.245823612844426,50,-0.0741269358244509,0.3520010559526003,102.33552222100712,0.7050330967228473,-0.7761354586262894,1.2116293659902975,0.5,218.7924212714601,25.529416014456757,62.457053656601225,-5.905993902002095,1.604281826366305
GUIDED_NOGPS,3.557718515396118,36.11980503263809,220.71261998362388,26.46030159282754,62.245118480973225,-0.5461615649953916,207.180473943679,10.723143838580647,50,-0.10293888821895965,0.4218879784269938,102.38990418717877,0.6575599717552559,-0.7836762086123316,1.0923231299907832,0.5,218.18248217596891,24.69394074074451,62.58791869063605,-5.172595065837029,1.8907607239317168
GUIDED_NOGPS,3.5978915691375732,24.897035603623284,220.26349768705415,25.611609273213777,62.67783470618785,-0.49315646439030236,206.83768567489705,10.211232237597393,50,-0.14748097971541932,0.393616384709283,102.4797280049536,0.6965518237771283,-0.8745035225764228,0.9863129287806047,0.5,219.46190572147992,23.76369277470753,63.40354735603888,-4.906268047685742,2.119943841984046
GUIDED_NOGPS,3.6355643272399902,26.55244582592126,219.54407690592427,24.593565772453196,62.749269405705355,-0.42660661191835625,206.50231127265445,9.710392323236185,50,-0.0793385302437293,0.3025640400183422,102.55848008608385,0.5911180892522844,-0.7043265570999071,0.8532132238367125,0.5,216.97425994975774,22.546015424387104,63.021447424460504,-4.687265139710092,1.776169164905552
GUIDED_NOGPS,3.670999526977539,28.22793380309179,219.25080649438644,23.685989311360014,63.05232494016193,-0.3612535527717795,206.1745448002302,9.220913904842426,50,-0.04759613321059419,0.26338100565812445,102.63462986514033,0.601687895855761,-0.9295159891785094,0.722507105543559,0.5,218.3665431105076,21.896881602504312,63.79165757307297,-6.33616209800212,1.948056503444799
GUIDED_NOGPS,3.7076950073242188,27.256448080684677,218.8531742035591,22.735170712246134,63.30386453742513,-0.2864767806664351,205.8545707980955,8.743072570633977,50,0.031137458384126196,0.08406351370528396,102.72444002253683,0.5624269964335085,-0.8644985401493223,0.5729535613328702,0.5,216.4416995548679,20.775323018887338,63.71475164291719,-4.738119158570328,2.4064227395494577
GUIDED_NOGPS,3.736257314682007,35.0234558313919,217.74333572491952,21.542413710049125,63.43654139827307,-0.2144381333900054,205.54256393762992,8.277129170568934,50,0.028677923272260472,0.027307683271092776,102.7814311209714,0.3282248543018344,-0.3021838564703252,0.4288762667800108,0.5,213.80653369874076,18.730155729759474,63.25130299487581,-7.788833607375608,2.177239621497128
GUIDED_NOGPS,3.7667348384857178,32.833410309601156,216.97904739769066,20.535706301059513,63.40609252604046,-0.14932238565032546,205.2386886748375,7.823329299213917,50,0.06944246659045353,-0.08061157345135654,102.87493641070888,0.4193262270303395,-0.5317835923062146,0.2986447713006509,0.5,213.80653369874076,18.730155729759474,63.25130299487581,-7.788833607375608,2.5783100780887045
GUIDED_NOGPS,3.793750286102295,37.02043302117443,216.7516789437986,19.656328337850972,63.645413854088474,-0.07535713932620579,204.94309890406277,7.381902778612009,50,0.10225209402161636,-0.20993456195936308,102.92769962204723,0.4304770320043105,-0.8888509847208838,0.15071427865241158,0.5,216.97347364032353,18.14912560834439,64.21805406470061,-5.549170151169378,2.6929016371148693
GUIDED_NOGPS,3.827806234359741,29.386487679448464,216.35413759515555,18.677341342347866,63.593931094930596,-0.003803106297882563,204.65593761170672,6.9530631411508566,50,0.15433446089771888,-0.3464066774551102,103.04237849821175,0.4039772502611185,-0.7680078439582643,0.007606212595765126,0.5,215.0021513868245,17.001946624988793,63.53424377728355,-4.210928154595962,2.9220847551671985
GUIDED_NOGPS,3.860788106918335,30.315740780895386,215.4956057243673,17.68790594192236,63.384209702847876,0.0885795493527403,204.3773365299432,6.537007112430892,50,0.18162049300275124,-0.4062165896240756,103.1387592975898,0.3591022391854642,-0.4482490271569647,-0.1771590987054806,0.5,212.59365075517394,15.828146016759808,62.666144682503536,-8.476499550427405,3.151267873219528
GUIDED_NOGPS,3.886427640914917,39.01133795284379,215.02530769056182,16.958443772170106,63.24603897547068,0.18850497568741403,204.1074157904347,6.133914094133154,50,0.17835408843432488,-0.4037862162183147,103.20454767967536,0.41828049476006746,-0.631987297971224,-0.37700995137482807,0.5,213.21187567931378,15.08284488099821,62.560449357989846,-6.711085729106983,3.495042550298022
GUIDED_NOGPS,3.91631817817688,33.46287756697675,214.54776160204105,16.079164244366446,63.12658165729565,0.26313233494444804,203.84628357804854,5.743945646887646,50,0.2064715760088873,-0.46542403108347824,103.34055040642865,0.33739049432600116,-0.6315018257288514,-0.5262646698888961,0.5,214.54617440234153,14.33375809074117,62.65401640400063,-4.045740092943873,3.151267873219528
GUIDED_NOGPS,3.9526116847991943,27.581040559734863,214.31082095797527,15.316090740845803,62.81377412515566,0.3485444813275008,203.594035784573,5.367244973141219,50,0.278664274297542,-0.525258409203494,103.46256490576177,0.4093040566668572,-0.7867871838414892,-0.6970889626550016,0.5,214.54617440234153,14.33375809074117,62.65401640400063,-4.045740092943873,3.0939720937064457
GUIDED_NOGPS,3.98728346824646,28.834956929444036,214.05150507480855,14.508050639317645,62.46322576010067,0.4499075378620524,203.35075566243333,5.0039364000256725,50,0.3140175202045131,-0.5462049452014835,103.55189694991635,0.3565325408921992,-0.7692102707904548,-0.8998150757241048,0.5,211.73200663340717,12.961746117348,61.781501952008604,-6.0245612684649075,3.0366763141933633
GUIDED_NOGPS,4.019939422607422,30.630337464307363,213.8519983703859,13.547818562029846,62.370466524695566,0.5406153080502322,203.1165134784079,4.654124862226119,50,0.37315239090398433,-0.5425050637445994,103.66265529749728,0.2343155688224734,-0.8027525574623994,-1.0812306161004643,0.5,212.21048006335977,11.026985630320803,62.20234850547806,-5.390630387105119,2.6929016371148693
GUIDED_NOGPS,4.0568506717681885,27.0981380263855,213.1544121375436,12.521252436506169,62.29974187732726,0.622408413789918,202.8913661673442,4.317895384848605,50,0.39202012147548343,-0.5413301644856514,103.75629036082898,0.1989840038982122,-0.49696901731270465,-1.244816827579836,0.5,211.3927837775852,9.95001425337982,62.20682612114831,-4.705668895670783,2.5783100780887045
GUIDED_NOGPS,4.094724178314209,26.409167611132098,212.58754814793292,11.43772403976019,62.21271641324758,0.7061788227488532,202.67535698587488,3.995312566288554,50,0.4698270484989035,-0.5702207440968946,103.83745349873625,0.1440170077831323,-0.5500010317103715,-1.4123576454977065,0.5,210.46723946993896,8.916116107011273,62.218889083602214,-5.5198819999627915,2.2345354010102105
GUIDED_NOGPS,4.135877370834351,24.303393768723094,212.4373025650956,10.145507357138115,62.27813017051253,0.7872816447681489,202.46851516613413,3.686420061098623,50,0.5526977870595211,-0.6369196224153318,103.93808267577805,0.035445823266207044,-0.7665339552164326,-1.5745632895362978,0.5,211.39168609247534,7.872674677630797,62.981085190325395,-4.156645422863818,2.0626480624709638
GUIDED_NOGPS,4.168508529663086,30.65429085115402,211.87806220509398,8.915342565239744,62.42172966297811,0.8729508138974981,202.27085556947335,3.391240062857001,50,0.5775378510495353,-0.6505668739855462,104.01460811523887,-0.08604261435799226,-0.4963950908308005,-1.7459016277949961,0.5,208.73795279930096,6.810922157856148,62.49949941433651,-3.3440604417685904,2.119943841984046
GUIDED_NOGPS,4.206943511962891,26.02587506747994,211.07864415648805,7.880028268815994,62.51958777666566,0.9369615442573824,202.0823783401776,3.1097727870353182,50,0.6378455932955446,-0.6316990633727678,104.09209661137267,0.023278638789732575,-0.36461144905399084,-1.8739230885147649,0.5,208.15083001349402,5.85041414820205,62.691639073915795,-5.512857493271582,2.0626480624709638
GUIDED_NOGPS,4.241979122161865,28.54763379457267,210.21970167640347,6.68834383346682,62.68676389858742,1.0062488403854926,201.90306855918126,2.84199595386675,50,0.7358640372488109,-0.7357244986185016,104.15821284253839,-0.12834133704023593,-0.2551385280641121,-2.012497680770985,0.5,207.67463456166487,3.991592076633953,63.042706730757125,-3.022186864928443,1.7188733853924698
GUIDED_NOGPS,4.277850389480591,27.88395160218056,209.46710554278903,5.523274893315245,62.805765241757705,1.0544347129948866,201.73289589778466,2.587864271214208,50,0.7905623799172415,-0.7604065611231063,104.20973295944779,-0.15667948062531395,-0.28383483120388875,-2.108869425989773,0.5,205.71123756449148,3.090771406253393,62.81389579945363,-4.229419744746053,1.260507149287811
GUIDED_NOGPS,4.305812835693359,35.77567191804775,208.6547002304305,4.5668942390397635,62.77232736358335,1.1020780605398608,201.57181427136962,2.3473089174382196,50,0.8219336522185217,-0.7489206375383778,104.23025084771452,-0.19413008040504695,-0.104226862354246,-2.2041561210797216,0.5,205.71123756449148,3.090771406253393,62.81389579945363,-4.229419744746053,1.260507149287811
GUIDED_NOGPS,4.339592933654785,29.605737195776157,208.179170862592,3.643160544689553,63.008616664256024,1.108615701978447,201.419761493116,2.1202370242653714,50,0.8834401460247211,-0.7822950762571758,104.2558094155887,-0.14619736432856079,-0.3608349149811412,-2.217231403956894,0.5,207.58854883487726,2.192253686105099,63.68094591769988,-5.573111764832191,0.17188733853924698
GUIDED_NOGPS,4.375648498535156,27.742858087773257,207.6250901507535,2.709168202932489,63.17013384482236,1.1037917054781654,201.27665892771736,1.9065311596559908,50,0.8732559604462619,-0.8619341214841724,104.24117915038653,-0.17362440638385218,-0.29828738348819955,-2.207583410956331,0.5,206.03459377523077,1.1804524394167304,63.49922497674747,-3.8637746216837314,-0.6302535746439055
GUIDED_NOGPS,4.414185285568237,25.955815191158088,206.5172589345928,1.9884655694707685,63.09453183441254,1.068451308938801,201.14241114509738,1.7060488106723923,50,0.8224021071460493,-0.9364276863886223,104.18078661774528,-0.09311641846696904,0.03536809769123894,-2.136902617877602,0.5,202.52903636318987,0.38807890932535055,62.66469667870803,-3.3985252248485267,-1.776169164905552
GUIDED_NOGPS,4.453676462173462,25.343379718306455,205.74992857088736,1.1180578395925858,63.172098356960916,1.0045824727013184,201.01690557412584,1.5186218663470399,50,0.6786501038925528,-0.9134957531371275,104.10029966856585,-0.18776134451547774,-0.10550520094908206,-2.009164945402637,0.5,202.59930988965738,-1.2612672431375205,63.201728412195486,-2.1425945280822134,-2.635605857601787
GUIDED_NOGPS,4.4879820346832275,29.14775743929728,204.8926797824304,0.0859680420006316,63.251539748655354,0.9293899256826065,200.9000121563344,1.3440561005503682,50,0.595811702008787,-0.8901676689137721,104.00618649199224,-0.34968464348348993,0.04220448961538448,-1.858779851365213,0.5,201.29283970583845,-2.069677581706378,63.21110275792581,-5.307279541115605,-2.5783100780887045
GUIDED_NOGPS,4.5160908699035645,35.58656734146714,204.21483434679988,-0.9179641860412001,63.263969882510615,0.8396458202038966,200.79158299963322,1.182130654859428,50,0.586354504690111,-0.9543428456947426,103.9160006741914,-0.46928780282601584,0.049726328924790786,-1.679291640407793,0.5,202.25187107662057,-2.8274074541040597,63.74309658697619,-3.2124843824085616,-3.151267873219528
GUIDED_NOGPS,4.5507261753082275,28.879429889489447,203.45222015605214,-1.8524860412127986,63.18438384604828,0.7445826862457795,200.6914520320267,1.032597521425167,50,0.5390847397960097,-0.840219402647968,103.79568689196162,-0.3933043613817385,0.06909775729171164,-1.489165372491559,0.5,199.61032403850956,-3.4921568364412607,63.10129479443578,-2.44230070337872,-3.724225668350351
GUIDED_NOGPS,4.588571071624756,26.4298028935827,202.61820470758965,-2.740945567000538,63.298354737783164,0.6293661847533256,200.5994346553295,0.8951810258413033,50,0.5118345261634802,-0.7869786650371005,103.67976492136816,-0.3836665119454814,0.12199955544612945,-1.2587323695066512,0.5,199.03911397679178,-4.054218719613347,63.23455113738246,-4.343266130481524,-3.8388172273765155
GUIDED_NOGPS,4.62730860710144,25.820317405597073,201.63361274062225,-3.426219430119945,63.44724824942993,0.48109141712517606,200.51532739888307,0.7695773100116625,50,0.3645612935885777,-0.5541093950618924,103.48443517148414,-0.32506085601626683,0.24967916514399202,-0.9621828342503521,0.5,199.71181309913808,-4.687636558734555,63.94619597042938,-1.4996144261235145,-4.8128454790989155
GUIDED_NOGPS,4.660663604736328,29.988231508955064,200.55544113459,-4.075454528991111,63.59109149653612,0.31049929571419116,200.4389075732711,0.6554538150189373,50,0.2734149270748434,-0.4277606604527354,103.30135878097111,-0.3766822707823242,0.44575717988112273,-0.6209985914283823,0.5,197.40922092697284,-5.315853076062206,63.93031899345677,-3.7858687233523654,-5.156620156177409
GUIDED_NOGPS,4.691834926605225,32.085187111777486,199.82804642274286,-4.667066349285137,63.70972449785039,0.16380723480379097,200.36993292403596,0.5524487639923663,50,0.11730489713739888,-0.2194054463368056,103.15667488378274,-0.3920143882050819,0.30234537824705277,-0.32761446960758195,0.5,196.70987866841264,-5.785466555574191,64.33626159354752,-3.8314212207908867,-4.870141258611998
GUIDED_NOGPS,4.722860336303711,32.243290822013634,199.30652003725652,-5.244184119759931,64.24754020974916,0.015049776741468051,200.30814128539498,0.4601706449759817,50,-0.01690710609394842,-0.040147931982614286,102.99972396684501,-0.4184657447632584,0.2091567574778887,-0.030099553482936102,0.5,198.42709880576678,-6.377745688815229,65.79037335392962,-3.5681926059116904,-5.099324376664327
GUIDED_NOGPS,4.7566046714782715,29.63732590922902,198.5149095795171,-5.8110034510919375,64.72599143492424,-0.1328389394776519,200.25325023395612,0.37819769379662915,50,-0.11276707686735843,0.12176653144972459,102.84042346483281,-0.41960898555155024,0.3900997693838942,0.2656778789553038,0.5,194.9599560439232,-6.8883153762733835,65.6268072632579,-5.766769129910784,-5.099324376664327
GUIDED_NOGPS,4.787190675735474,32.70488978299687,197.60342020042995,-6.251139214599704,65.06211369348995,-0.2941015818329784,200.20495674243415,0.3060773769318743,50,-0.24510816855507758,0.33283389095510485,102.68457903854063,-0.40245100899447284,0.5748870220603046,0.5882031636659568,0.5,194.9599560439232,-6.8883153762733835,65.6268072632579,-5.766769129910784,-4.984732817638163
GUIDED_NOGPS,4.820614337921143,29.927676456317606,197.02212420110666,-6.565631674641939,65.40141134745018,-0.4347032943383982,200.16293683336698,0.24332587437836395,50,-0.31982974438392947,0.41950947177024267,102.55057072702498,-0.3419666485435523,0.36258880332089316,0.8694065886767964,0.5,194.9599560439232,-6.8883153762733835,65.6268072632579,-5.766769129910784,-4.755549699585833
GUIDED_NOGPS,4.845751047134399,39.79075790492273,196.5122294594981,-6.786201438781778,65.65952048139225,-0.5856937791659197,200.1268452328314,0.18942756251995974,50,-0.31638567485580343,0.4143018260540782,102.4887711754147,-0.3361210894470866,0.4460208262494613,1.1713875583318394,0.5,194.9599560439232,-6.8883153762733835,65.6268072632579,-5.766769129910784,-4.583662361046586
GUIDED_NOGPS,4.876830577850342,32.18415923635303,195.91824732759625,-6.888315376273408,65.6268072632579,-0.6984249671675922,200.09631502415945,0.14383449699564466,50,-0.44212652262882923,0.5634496253910318,102.32499689949614,-0.2623372249304813,0.4657837749484026,1.3968499343351843,0.5,194.9599560439232,-6.8883153762733835,65.6268072632579,-5.766769129910784,-4.640958140559668
GUIDED_NOGPS,4.927769660949707,26.272198837442374,195.61208921721504,-6.888315376273408,65.6268072632579,-0.8247272476008256,200.07095730165446,0.10596589556720204,50,-0.5774916405509318,0.6324512913159683,102.10253080803965,-0.21595370353110793,0.26962613827691095,1.6494544952016512,0.5,194.9599560439232,-6.8883153762733835,65.6268072632579,-5.766769129910784,-4.1252961249419275
GUIDED_NOGPS,4.9475932121276855,50.45415067784581,195.39334888915388,-6.888315376273408,65.6268072632579,-0.9669432989722082,200.05036082430684,0.07520762098825884,50,-0.6064961989439497,0.6438656046361174,101.98950483765428,-0.21621388521863877,0.2528581055698178,1.9338865979444164,0.5,194.9599560439232,-6.8883153762733835,65.6268072632579,-5.766769129910784,-3.495042550298022
GUIDED_NOGPS,4.9766058921813965,34.474203756215836,194.95995604392346,-6.888315376273408,65.6268072632579,-1.0784479281070165,200.03409166951047,0.050911663871509916,50,-0.6542375670558992,0.684580148835152,101.91325260576026,-0.2169313383946021,0.4480805508796034,2.156895856214033,0.5,194.9599560439232,-6.8883153762733835,65.6268072632579,-5.766769129910784,-3.323155211758775
GUIDED_NOGPS,5.008810997009277,31.05994564533209,194.95995604392346,-6.888315376273408,65.6268072632579,-1.1494551879425539,200.0216928867788,0.03239562555730657,50,-0.7077324090482324,0.6999466870855054,101.81755482529921,-0.22097948899235692,0.1504014623994509,2.2989103758851077,0.5,194.9599560439232,-6.8883153762733835,65.6268072632579,-5.766769129910784,-2.4064227395494577
GUIDED_NOGPS,5.03702449798584,35.45540922078142,194.95995604392346,-6.888315376273408,65.6268072632579,-1.209727836583149,200.0126841514608,0.01894220098167665,50,-0.7468152850875742,0.8295625466346027,101.78654576646736,-0.22226387068165898,0.1515126396050533,2.419455673166298,0.5,194.9599560439232,-6.8883153762733835,65.6268072632579,-5.766769129910784,-1.2032113697747289
GUIDED_NOGPS,5.07694149017334,25.053783480276206,194.95995604392346,-6.888315376273408,65.6268072632579,-1.237176900663811,200.00656141845678,0.009798661543776177,50,-0.7123921988877678,0.8438629350441996,101.75766089646737,-0.22648490975861957,0.1550972017489245,2.474353801327622,0.5,194.9599560439232,-6.8883153762733835,65.6268072632579,-5.766769129910784,-0.5156620156177409
GUIDED_NOGPS,5.113142490386963,27.629915087317116,194.95995604392346,-6.888315376273408,65.6268072632579,-1.2671361270722603,200.00279657593512,0.004176337974875821,50,-0.7565032680950027,0.944281870325608,101.79054142713181,-0.2279634574045391,0.15638100992073795,2.5342722541445206,0.5,194.9599560439232,-6.8883153762733835,65.6268072632579,-5.766769129910784,0.4583662361046586
GUIDED_NOGPS,5.1374125480651855,41.21396495986008,194.95995604392346,-6.888315376273408,65.6268072632579,-1.2536935515261818,200.00083709904783,0.001250103205926223,50,-0.7926352889694874,0.9756208059500363,101.8277386373517,-0.22877669889417715,0.15709264965328354,2.5073871030523636,0.5,194.9599560439232,-6.8883153762733835,65.6268072632579,-5.766769129910784,1.3750987083139758
GUIDED_NOGPS,5.175386905670166,26.346627134933446,194.95995604392346,-6.888315376273408,65.6268072632579,-1.192865763801313,200.0001057036468,0.00015785523608968788,50,-0.7474250929144095,0.9434098472676677,101.93584687153466,-0.23083615780495056,0.15886532124058214,2.385731527602626,0.5,194.9599560439232,-6.8883153762733835,65.6268072632579,-5.766769129910784,2.864788975654116
GUIDED_NOGPS,5.2016050815582275,38.14564139875404,194.95995604392346,-6.888315376273408,65.6268072632579,-1.10944160977002,199.99999999999994,2.1316282072803006e-14,50,-0.7119817472073323,1.0184663691701148,102.02816370835656,-0.23162738295853905,0.15956140389538837,2.21888321954004,0.5,194.9599560439232,-6.8883153762733835,65.6268072632579,-5.766769129910784,3.666929888837269
GUIDED_NOGPS,5.237185478210449,28.114029854748004,194.95995604392346,-6.888315376273408,65.6268072632579,-0.9991828457216536,200.0,0.0,50,-0.6506559866098738,0.9923180571497787,102.21544749539831,-0.2323091419777066,0.16017750840523076,1.9983656914433072,0.5,194.9599560439232,-6.8883153762733835,65.6268072632579,-5.766769129910784,4.92743703812508
GUIDED_NOGPS,5.2712602615356445,29.35152800229533,194.95995604392346,-6.888315376273408,65.6268072632579,-0.8459704296825716,200.0,0.0,50,-0.5418822358696588,0.9880395839650005,102.38885916823575,-0.2328727367924009,0.16069297236196153,1.6919408593651433,0.5,194.9599560439232,-6.8883153762733835,65.6268072632579,-5.766769129910784,5.844169510334397
GUIDED_NOGPS,5.299901723861694,34.92168584417098,194.95995604392346,-6.888315376273408,65.6268072632579,-0.6656045851965964,200.0,0.0,50,-0.40754004549747136,0.9647081913687658,102.5833214840952,-0.2333474856768545,0.16112717780898314,1.3312091703931928,0.5,194.9599560439232,-6.8883153762733835,65.6268072632579,-5.766769129910784,6.64631042351755
GUIDED_NOGPS,5.33129096031189,31.86991573396552,194.95995604392346,-6.888315376273408,65.6268072632579,-0.48552087072237216,200.0,0.0,50,-0.29190243488906964,0.9561829413458263,102.79048112162168,-0.23386395166904805,0.16159953773305108,0.9710417414447443,0.5,194.9599560439232,-6.8883153762733835,65.6268072632579,-5.766769129910784,7.219268218648373
GUIDED_NOGPS,5.362428188323975,32.121061740875184,194.95995604392346,-6.888315376273408,65.6268072632579,-0.2580568510070189,200.0,0.0,50,-0.1179201877918686,0.9895948393833536,103.1366419389471,-0.23438122567400485,0.16207263666579197,0.5161137020140378,0.5,194.9599560439232,-6.8883153762733835,65.6268072632579,-5.766769129910784,8.651662706475431
