Mode,Time,Freq,North-Vision,East-Vision,Down-Vision,Yaw-Vision,North-Desired,East-Desired,Down-Desired,Roll-UAV,Pitch-UAV,Yaw-UAV,Roll-Control,Pitch-Control,Yaw-Control,Thrust-Control,northVraw,eastVraw,downVraw,yawVraw,zGyro
GUIDED_NOGPS,0.0038428306579589844,262.01299350324837,-1.4537153738808977,-13.534359193978192,81.37988251161534,-7.153135148249158,-5.580330173561853,-12.989062737441259,84.2455651609541,-0.16404948451734966,0.40545475672735476,-9.733905784312979,-0.7158103594773176,2.0,0.07153135148249158,0.5042985239740081,-1.4537153738808977,-13.534359193978192,81.37988251161534,2.6196696491921014,0.17188733853924698
GUIDED_NOGPS,0.016534805297851562,78.8521582192811,-1.458997836240594,-13.858981343598437,81.0568962613533,-7.074845083242147,-5.580313473476193,-12.989023865465297,84.2455710251433,-0.19199747134270467,0.5597231168685552,-9.718122070914726,-0.12181851755448259,0.16327641971307721,0.07074845083242147,0.504783012145685,-1.4642802986002903,-14.183603493218682,80.73391001109125,2.6297420309351454,0.11459155902616465
GUIDED_NOGPS,0.0600733757019043,22.96939826071718,-1.2513139398907265,-14.029369038700928,80.77624950010653,-6.956849997599749,-5.58019792054866,-12.988754898544249,84.24561183887995,-0.27299417674980003,0.6973845123731044,-9.680062549312122,-0.051589290994929905,0.19243037545657848,0.06956849997599748,0.5052040435081602,-0.835946147190991,-14.370144428905908,80.21495597761297,2.6217616844074296,0.40107045659157625
GUIDED_NOGPS,0.10734438896179199,21.160910145804955,-1.059889417113076,-14.155233640829287,80.49553033181023,-6.8261247042197235,-5.579888343416445,-12.988034310932521,84.24572190598094,-0.3616590501607041,0.6174456858745677,-9.644088796727312,-0.05180416937600426,0.19751028337646112,0.06826124704219724,0.5056252873612561,-0.4856158487801248,-14.53282744721437,79.65337282692134,2.653754058777531,0.8594366926962349
GUIDED_NOGPS,0.1434335708618164,27.717740976196456,-0.8306801399108128,-14.262225303507922,80.22877841086523,-6.691886479722589,-5.579293537140005,-12.986649809334766,84.24593483014489,-0.4290517262884265,0.7854516908707795,-9.62924764943452,-0.05685782129704667,0.21588161420441304,0.06691886479722589,0.5060257346289195,0.08615696889823973,-14.690191954222461,79.16177072708525,2.6695248401688176,0.4583662361046586
GUIDED_NOGPS,0.18604779243469238,23.474618579088173,-0.3555010103847679,-14.517633010509238,79.70525702139604,-6.56804063778363,-5.578326208493773,-12.98439820556172,84.24628351969876,-0.48905098944387465,0.8533666096657434,-9.587530561531375,-0.07735646527821145,0.254675806329175,0.0656804063778363,0.5068115397474541,0.9221802737493269,-14.81139772898477,78.7622755642694,2.674394254277209,0.4583662361046586
GUIDED_NOGPS,0.21824860572814941,31.062015848330002,0.09105163360215193,-14.762768962324666,79.22175270511643,-6.433111336181027,-5.576902921256875,-12.98108528918608,84.24680019234438,-0.5479994173233457,0.961400778984893,-9.539798638290387,-0.0919547504091403,0.2826257295844705,0.06433111336181027,0.507537571230842,0.768482921334309,-15.409283252295827,78.31638842969323,2.615564835328509,1.1459155902616465
GUIDED_NOGPS,0.2550625801086426,27.17010856891146,0.4119374473072119,-14.970596727002649,78.84203919553248,-6.29866755196653,-5.57494404150384,-12.97652570019835,84.247516379905,-0.539497699436531,0.9227299554515732,-9.495479248313467,-0.09280165547762403,0.2752685725697894,0.0629866755196653,0.5081082157765587,0.768482921334309,-15.409283252295827,78.31638842969323,2.615564835328509,1.260507149287811
GUIDED_NOGPS,0.2915167808532715,27.44119282681374,0.8489264735767958,-15.140276629449398,78.45059896164751,-6.158441771998687,-5.572373682895319,-12.970542801662706,84.24846293307183,-0.5269745475933126,0.9276762930711319,-9.461732991171726,-0.09587023094711372,0.30607576158719635,0.06158441771998687,0.5086967959571365,1.6993292825677955,-15.381226959448108,77.69617165749649,2.8082534529802827,1.2032113697747289
GUIDED_NOGPS,0.3303639888763428,25.812213449194733,1.1715609363107071,-15.278483630494529,78.15747914772977,-6.010095370702025,-5.5691196519687916,-12.962968552372857,84.24967002615075,-0.5192442141958862,0.9844641933779104,-9.398636557392795,-0.09744737199691493,0.3045329890739428,0.06010095370702025,0.5091382863176315,1.6993292825677955,-15.381226959448108,77.69617165749649,2.8082534529802827,1.776169164905552
GUIDED_NOGPS,0.3740246295928955,22.891673579880365,1.4866525796971635,-15.425301848447944,77.91043729359713,-5.848782712700549,-5.565113393429287,-12.953643379507893,84.25116716180867,-0.582181365828939,1.0807442474657025,-9.285145280370216,-0.1023294213648904,0.3124302028760341,0.058487827127005496,0.5095110948023173,2.4976384906816103,-15.545488818751844,77.52706629360621,2.880981927102139,2.177239621497128
GUIDED_NOGPS,0.4067873954772949,30.484962132775138,1.9716326871093526,-15.49539506006432,77.72760655379518,-5.676578629573817,-5.560289935440091,-12.942416051288156,84.25298317582025,-0.5667960979192208,1.0945668427985158,-9.239161885556753,-0.10148116767367164,0.36217325152493174,0.056765786295738176,0.5097880649330376,3.1933834583952545,-15.7597493103777,77.40223473068353,2.995898828835156,1.8334649444186344
GUIDED_NOGPS,0.443692684173584,27.10566825428625,2.4566127945215417,-15.565488271680696,77.54477581399324,-5.516386768758194,-5.554587834913464,-12.929143549631094,84.25514624181436,-0.5738927711885699,0.9566659637861932,-9.151811450035105,-0.10377444953637187,0.3750171159862226,0.05516386768758194,0.5100655556417317,3.1933834583952545,-15.7597493103777,77.40223473068353,2.995898828835156,2.46371851906254
GUIDED_NOGPS,0.4885702133178711,22.286181868417977,2.8529899626593385,-15.652622367216495,77.49303126567433,-5.3399007890299135,-5.547949122801354,-12.91369094280712,84.25768387602074,-0.5965297790061375,0.8721688397903191,-9.05326121182193,-0.1076858735455964,0.37381483942566107,0.05339900789029914,0.5101469789155196,3.681215123256779,-15.816897437127109,77.43744891590198,3.0813782854576357,2.7501974166279517
GUIDED_NOGPS,0.5248205661773682,27.593379121602062,3.2875995968013614,-15.762033792872339,77.45838339362773,-5.153767663845829,-5.540319249386106,-12.895931258095466,84.26062294201648,-0.52655048889539,0.7433649189788071,-8.977871291310622,-0.11677161796759121,0.4036372704965906,0.05153767663845829,0.5102033593225831,3.8723774532779105,-15.928284087727333,77.5229322972635,3.149086461177953,2.2345354010102105
GUIDED_NOGPS,0.5658061504364014,24.40606325099648,3.594921758784808,-15.847814529375487,77.48479589625732,-4.981699382803023,-5.531647029571182,-12.87574535444005,84.26398965547267,-0.5173805864086777,0.6330285490225402,-8.86288676418075,-0.11739938749815235,0.39805154631934925,0.04981699382803023,0.510168790638823,4.034249300598844,-15.97439250126758,77.65912880675418,3.1936635433402802,2.635605857601787
GUIDED_NOGPS,0.6093735694885254,22.960596472404394,3.8336861639356945,-15.950960544705575,77.61385444987842,-4.799845141432222,-5.521884588171871,-12.853021795105333,84.26780958890086,-0.48881972350744624,0.6563999622584429,-8.72680122138377,-0.12301902795817854,0.39918548123638004,0.04799845141432222,0.5099809327085336,4.387205484149685,-16.27547938702814,78.04752749878902,3.3651274051564,2.46371851906254
GUIDED_NOGPS,0.6485917568206787,25.511246274557507,4.089405833842452,-16.03918753140345,77.78465967682835,-4.613513269539401,-5.510987305206002,-12.827656720332172,84.2721076763997,-0.3954286259951578,0.4786216641072354,-8.64591555991154,-0.1273527542379366,0.41352254025063145,0.04613513269539401,0.509731171999357,4.4719818079290405,-16.200884243867073,78.25626086543322,3.463356046438373,2.4064227395494577
GUIDED_NOGPS,0.6921176910400391,22.974808420199277,4.315078483322634,-16.14318450487488,78.0086807893862,-4.441971534015671,-5.498913761184659,-12.799553719993686,84.2769082184015,-0.30722900586060803,0.5447910426824379,-8.502574648668713,-0.13269901820414298,0.41706469160048987,0.044419715340156714,0.5094023411435229,4.809578370657688,-16.336882304484273,78.55755447869124,3.558133792671052,2.5783100780887045
GUIDED_NOGPS,0.7326192855834961,24.695474002154956,4.5620013323368,-16.228718838716524,78.34175008798195,-4.251885913026644,-5.485625682402896,-12.768623706251107,84.28223488641876,-0.2219290945134195,0.37998647541625813,-8.413877812106927,-0.13643794479905513,0.43024452927007084,0.04251885913026644,0.5089107271976552,5.10699169834874,-16.355955756935547,79.18827879024218,3.7487015441960874,2.7501974166279517
GUIDED_NOGPS,0.7692148685455322,27.334071921066695,4.916862747157023,-16.316324161284236,78.73032099494105,-4.0717584297034,-5.471087886230445,-12.73478478620965,84.28811072779078,-0.15298968736359328,0.326109729799786,-8.327475919106266,-0.14254966807516664,0.45843243772134107,0.040717584297034,0.5083366845992746,5.808556374699962,-16.41241911410614,79.60198334154965,3.825320724662001,2.635605857601787
GUIDED_NOGPS,0.815697193145752,21.51885200063618,5.126434298679777,-16.36734908226715,79.11044836792554,-3.909780414918618,-5.455268226402438,-12.697962134574361,84.29455817043015,-0.12704305268675778,0.3005699449458158,-8.219226812271673,-0.14071783879084054,0.4461294718631122,0.039097804149186184,0.5077761647037569,5.435063241763452,-16.530603991942726,79.94816436371144,3.9286435590452284,2.177239621497128
GUIDED_NOGPS,0.8594388961791992,22.868209277473667,5.430622569637073,-16.461136478021995,79.61129212170474,-3.729155709156164,-5.438137538310114,-12.65808786630598,84.30159902756942,-0.08710665646521555,0.27665062247243116,-8.14000942450422,-0.1499129964554968,0.46775107571186686,0.03729155709156164,0.507035460358797,5.992923162715525,-16.669821222641293,80.76047963432922,4.061313412082984,2.2345354010102105
GUIDED_NOGPS,0.8997073173522949,24.835560713630148,5.638013381497461,-16.523936034584054,80.13379653780781,-3.565634683746788,-5.419669584291533,-12.615100909276803,84.30925450250756,-0.06526294443725446,0.19357268372003889,-8.057726135573075,-0.15222014671244186,0.4680546712304494,0.03565634683746788,0.5062631869470496,5.846532429959633,-16.65088008729457,81.17007655920662,4.13938395846221,1.8907607239317168
GUIDED_NOGPS,0.9451718330383301,22.000597970049043,5.7607945828662785,-16.61005217945847,80.61338062640793,-3.4239143315829454,-5.399840998922294,-12.568946876926534,84.3175451933566,-0.01201142793410294,-0.10897951018896157,-8.00728774987347,-0.15822063803052128,0.46308343568715016,0.03423914331582945,0.505556246850423,5.720897705192829,-16.78653648130762,81.58619923324277,4.20469065871556,1.432394487827058
GUIDED_NOGPS,0.9865694046020508,24.16087650274483,5.789256617799097,-16.71280547406831,81.1008577253076,-3.2815522454588364,-5.378631234306245,-12.51957794091815,84.32649109778814,-0.001206635626204733,-0.16846682932177606,-7.925260593036201,-0.16661473042667543,0.4554775140446253,0.03281552245458837,0.5048384500587207,5.950866549364051,-16.92618558715534,82.03936883604803,4.265812737779292,1.432394487827058
GUIDED_NOGPS,1.024928092956543,26.07927674735278,5.920410193717937,-16.83089839190457,81.67823454345725,-3.158488781116894,-5.356022505366196,-12.466952703793758,84.33611161777996,-0.017036853007752217,-0.24096693948393422,-7.902134426280185,-0.1757689010546929,0.4709191904467453,0.031584887811168944,0.5039868156114841,6.090831121357655,-17.121068581124014,82.83504845445964,4.3638779061180974,1.0313240312354819
GUIDED_NOGPS,1.063840627670288,25.704172182183655,5.909130568580928,-16.906042870073712,82.16498915032835,-3.0462267543464914,-5.331999735134636,-12.411036071630452,84.34642556436259,0.014697099670412946,-0.2885693025741034,-7.833335638317939,-0.176629019567525,0.45496068426109576,0.030462267543464913,0.5032721546210513,5.936525037030478,-17.045543613486995,83.19425266868475,4.412473485586049,1.088619810748564
GUIDED_NOGPS,1.1057658195495605,23.948156057119693,5.98984956751083,-16.990882674012195,82.63898962057038,-2.940570683294531,-5.3065505000444455,-12.35179912669617,84.35745116236579,-0.022572381154610372,-0.15473857597687357,-7.787916587884647,-0.1824444389353173,0.46659674896129805,0.02940570683294531,0.5025776923126931,6.250127424609143,-17.075079106986987,83.54007891041674,4.462554140112876,0.8021409131831525
GUIDED_NOGPS,1.1410548686981201,28.216539856169312,6.186550684530314,-17.062821108836022,83.10448190748527,-2.8277750454931847,-5.279664975219605,-12.289219000105563,84.36920605516521,0.07387668676460662,-0.26993996161289363,-7.740591060899274,-0.18838929668383642,0.4873700284646932,0.028277750454931846,0.50189708622152,6.704403290290244,-17.146228655426757,83.9136606678172,4.497544995291156,1.3750987083139758
GUIDED_NOGPS,1.188704252243042,20.991566946433846,6.339183177673638,-17.115961337782732,83.54754520383428,-2.721033734213542,-5.251335879765916,-12.22327874447584,84.38170730942892,0.16200761814127285,-0.2984229176689046,-7.69615641148011,-0.18843937527084773,0.484461848120394,0.027210337342135422,0.501251243158392,6.71402901508067,-17.191886731888903,84.25468531779309,4.570338136319066,1.1459155902616465
GUIDED_NOGPS,1.2232348918914795,28.964387572595626,6.461445039352755,-17.17524619311343,83.8880835592985,-2.6193541394673105,-5.221558422061713,-12.153967206582639,84.39497141986395,0.15163320112225817,-0.2505371017281799,-7.661220847649141,-0.1974955489451078,0.4887192994062913,0.026193541394673107,0.5007603317908482,6.702140429753234,-17.417492857777503,84.53774023178072,4.606111314418717,0.2864788975654116
GUIDED_NOGPS,1.2692265510559082,21.749612383001892,6.705234595475071,-17.261041268502332,84.22400283209137,-2.531572764190567,-5.19033024504857,-12.081278900015874,84.4090143139629,0.23080986121874347,-0.4008629486144021,-7.637019779872493,-0.20255073494076586,0.5056764640010488,0.02531572764190567,0.5002775172228073,7.155472817642057,-17.474518990431516,84.87384903264915,4.653628277388067,0.7448451336700702
GUIDED_NOGPS,1.3050973415374756,27.884507735162913,6.804708981301877,-17.364577503028592,84.60082942618921,-2.440376683450399,-5.157651371522025,-12.005213877835608,84.42385135675048,0.2759685640507819,-0.44316828655981483,-7.612962999842062,-0.21477438135043317,0.4976845507856791,0.02440376683450399,0.4997345328958419,6.747499353743174,-17.59276027961828,85.42421188090587,4.718312810583628,0.5156620156177409
GUIDED_NOGPS,1.3474955558776855,23.59319593195932,6.813328193992463,-17.453883827866896,84.90293966880695,-2.366295499767785,-5.123524149422287,-11.925777605227896,84.43949735553007,0.25913454898508054,-0.22665555873864188,-7.588486163177675,-0.21751142981074215,0.4872831708508298,0.02366295499767785,0.4993048365300847,6.747499353743174,-17.59276027961828,85.42421188090587,4.718312810583628,0.11459155902616465
GUIDED_NOGPS,1.3921804428100586,22.380602749082215,6.8532218538355965,-17.54765264488557,85.23076002877508,-2.291995883770549,-5.087953197124948,-11.84298083216066,84.45596656463026,0.2558466666733657,0.04983007197665115,-7.566568086131104,-0.22367545799909427,0.4908106881515835,0.022919958837705492,0.4988378098037828,6.913497314296335,-17.660730816982277,85.89378711763375,4.782364980235335,0.2864788975654116
GUIDED_NOGPS,1.4434709548950195,19.501769166748034,6.995821553871075,-17.67804281030724,85.57800306094138,-2.2219508031775983,-5.050945348731703,-11.75683946603953,84.4732726901515,0.3071064893423709,0.17845704819997754,-7.569308699535572,-0.23307133983610184,0.5035996638499948,0.022219508031775984,0.4983429044438152,7.415138929930625,-18.069443684885844,86.27395539261228,4.823036864390941,0.057295779513082325
GUIDED_NOGPS,1.4770843982696533,29.752745226002325,7.118566372378896,-17.814750633069156,85.88631824380451,-2.1529474134883704,-5.012509599361057,-11.66737444436372,84.4914288947126,0.4276984416982649,0.07380766450139248,-7.59255524837571,-0.24982215433932878,0.5089098455394087,0.021529474134883705,0.49790766597636216,7.769196910181165,-18.158058104241103,86.41542494696475,4.809618689844375,0.2291831180523293
GUIDED_NOGPS,1.5239641666412354,21.33702320754525,7.357724598443342,-17.932051461121553,86.12190305736911,-2.09464674816879,-4.972657050439045,-11.574611607381879,84.51044780219726,0.5077579170851875,0.1816138762569928,-7.60470017849364,-0.25000397116545076,0.5246331972684948,0.0209464674816879,0.4975828171172422,7.943290484065399,-18.179264419880266,86.60213594872883,4.809665417819196,-0.17188733853924698
GUIDED_NOGPS,1.5603349208831787,27.502370382998812,7.768038817651392,-18.108860517874106,86.42353239350027,-2.0516864576597156,-4.931400854989938,-11.478581570747945,84.5303415025007,0.5916768228791376,0.014301348904948887,-7.635834742051496,-0.2709313499105549,0.563472599962636,0.020516864576597155,0.49716021366350066,8.799070449783425,-18.476805563381028,86.93235856156173,4.818625802557373,-0.8594366926962349
GUIDED_NOGPS,1.605208396911621,22.291630349284635,8.274935073379218,-18.279361443051183,86.67010719740713,-2.023548470840199,-4.888756162926964,-11.379319598177016,84.55112155627624,0.5488609282932665,0.06884190353138164,-7.676423141194297,-0.2755180330956231,0.5833692987837615,0.02023548470840199,0.49682152153830367,9.447978592935472,-18.513235442867675,87.12666113716803,4.823263512560691,-1.1459155902616465
GUIDED_NOGPS,1.6454527378082275,24.851011387740108,8.604928901251707,-18.439598707747614,86.85232786419586,-2.009723215723914,-4.844740066343018,-11.276865474101195,84.57279899968178,0.6061960441464394,-0.07694869774595209,-7.747362339687696,-0.2872018874748383,0.5825223777043302,0.02009723215723914,0.4965807067032289,9.065108069293077,-18.870630008367996,87.18505872655578,4.808594782170915,-1.2032113697747289
GUIDED_NOGPS,1.6888558864593506,23.04398037502816,8.948562610484023,-18.598005504248047,87.02774369806507,-2.030743484950084,-4.7993715448013745,-11.17126337632546,84.59538434912642,0.5085392800540663,-0.24795315578779945,-7.859186196779144,-0.295116110427897,0.5937698268173118,0.02030743484950084,0.49635146097659205,9.487365456342745,-18.95009208674327,87.29250411631081,4.767905918996567,-3.0366763141933633
GUIDED_NOGPS,1.7297093868255615,24.482278776558488,9.256914136136675,-18.849274305271642,87.16849102711895,-2.0740166635177495,-4.7526714106264025,-11.062561748683514,84.61888760601703,0.3486756609613032,-0.2545686208857799,-7.9871105172916055,-0.3185516079836629,0.6033086953403712,0.020740166635177495,0.4961755948683471,9.48504811232866,-19.43560842499824,87.30587259399815,4.633420471335065,-2.5783100780887045
GUIDED_NOGPS,1.769690752029419,25.01747040052489,9.528386973215083,-19.10437102390958,87.24774932730679,-2.1455591086607573,-4.7046622541942815,-10.950813173693655,84.64331826150479,0.31938759635687697,-0.2980201499512854,-8.109767908180341,-0.33312882837139823,0.6093705182832755,0.021455591086607575,0.496093353401297,10.156434635175465,-19.75228915657073,87.32865006250101,4.552059198813063,-4.1252961249419275
GUIDED_NOGPS,1.808457612991333,25.801574803149606,9.699744486806045,-19.411881447201097,87.27163992992213,-2.237207649925525,-4.655368389223711,-10.836074245214624,84.66868530123178,0.20656977331841944,-0.12505350662694034,-8.307951823363785,-0.35494037500393566,0.6051000558727145,0.022372076499255253,0.4960955680569645,10.304766160890285,-20.05078755932528,87.24611415024465,4.458046440917063,-4.239887683968092
GUIDED_NOGPS,1.8498060703277588,24.19697703934464,10.014025728861073,-19.72049732867033,87.2665886042001,-2.3289334707436766,-4.604815798066626,-10.718405441101465,84.6949972100775,0.18836337047722154,-0.15975214827107448,-8.457947046405495,-0.36831922125091854,0.6290681505759079,0.023289334707436767,0.4961426129088161,10.636514279568212,-20.413709415714166,87.15980209794559,4.352454751861695,-4.18259190445501
GUIDED_NOGPS,1.8854997158050537,28.01993453136482,10.308009344047665,-20.089108991420623,87.23250777954033,-2.4611243298786194,-4.55303207699891,-10.597870995861392,84.7222619769055,0.1531556662965099,-0.07902528869704753,-8.657101702224727,-0.39869998805684964,0.6410651598522097,0.024611243298786195,0.4962346312960478,10.957283532275705,-20.793150400494742,87.12209999301197,4.109393701921824,-5.328507494716656
GUIDED_NOGPS,1.9284934997558594,23.30091219181583,10.602456428037073,-20.360617386519927,87.19575325934309,-2.570888700727894,-4.500046381511111,-10.47453877330964,84.7504870993099,0.11790703434163104,-0.03824308293654764,-8.875578963205927,-0.3971587434400806,0.6468024356985999,0.02570888700727894,0.4963321007599502,10.957283532275705,-20.793150400494742,87.12209999301197,4.109393701921824,-4.92743703812508
GUIDED_NOGPS,1.964139699935913,28.004406668758723,10.927636524031922,-20.671418338008323,87.14476398550504,-2.712466389701869,-4.44588937159915,-10.348480139225327,84.77967958836192,0.09626959536062565,0.11844252384060268,-9.072490755656455,-0.42320189517443874,0.6654079459290946,0.027124663897018692,0.49645237340428533,11.782335115149701,-21.30629391401271,87.07370369331082,3.8191395582504803,-4.583662361046586
GUIDED_NOGPS,2.003584384918213,25.361615672995526,11.37003566424585,-20.936204774496055,87.10942588033308,-2.8251679922500337,-4.39059315705504,-10.21976983400731,84.80984597335656,0.020132702950126608,0.33792296885614614,-9.220423261568822,-0.4309974403804013,0.6916205603966944,0.02825167992250034,0.4965506301395352,12.516761861959923,-21.374719741763933,87.06942362438477,3.6591394227239835,-4.5263665815335035
GUIDED_NOGPS,2.0398409366607666,27.587027012805926,11.590728864687346,-21.208388449174972,87.0698051309238,-2.932109103675605,-4.334191242757598,-10.08848584533005,84.84099230655902,0.1146588258240404,0.2933036908859801,-9.388398957600591,-0.4487646646397201,0.6766480885596651,0.02932109103675605,0.4966567807634528,11.739980281775681,-21.77462778910877,86.96169835089925,3.503288680248879,-3.896113006889598
GUIDED_NOGPS,2.0789217948913574,25.596875381423168,11.929824299893967,-21.546037720871787,87.04556682423731,-3.0097623468399384,-4.276718473963156,-9.954709280799465,84.87312416795139,0.091990561886892,0.42411376632277176,-9.516715160216682,-0.4702041947853949,0.69957723268046,0.030097623468399386,0.49674133601557113,12.65276070830881,-22.481396758978825,87.00090845957959,3.308406176504197,-2.864788975654116
GUIDED_NOGPS,2.1236274242401123,22.36985994517275,12.08031019587028,-21.916997610035445,86.97782785567946,-3.08357038696755,-4.218210981596276,-9.81852424060879,84.90624666997913,0.11482912698604114,0.34656294471280075,-9.642896074943499,-0.4861008589090105,0.6833014480143689,0.0308357038696755,0.4968926282214495,11.709713012157277,-22.647949846313022,86.78340515022268,3.1857995326415955,-2.864788975654116
GUIDED_NOGPS,2.1639931201934814,24.77658386744248,12.2100810015487,-22.2539115038297,86.89471604732526,-3.155314505300317,-4.158706127540467,-9.680017690194434,84.94036446229768,0.16583244403520067,0.31651096613839086,-9.731890878507825,-0.5054311819252988,0.6855447617473679,0.03155314505300317,0.4970684726224586,12.431189143541799,-22.990863382983967,86.65814465153974,3.049210276966596,-2.0053522829578814
GUIDED_NOGPS,2.2121145725250244,20.786210929562948,12.312243832600924,-22.738311375305376,86.77758968542932,-3.1901126521357677,-4.098242449928893,-9.539279332891848,84.97548173651901,0.1747222554050896,0.4286152878726333,-9.799179340889852,-0.5330269341108973,0.684512403649097,0.031901126521357674,0.49729683807663455,13.027576017221037,-23.7967190991423,86.48379181490503,2.817020359262226,-1.4896902673401404
GUIDED_NOGPS,2.249661684036255,26.637266607392352,12.623136272149408,-23.170860805884264,86.67448664024349,-3.2341787109760323,-4.036859608435091,-9.396401482591372,85.01160223095818,0.2049598230258534,0.25970300215092545,-9.8706086054562,-0.5622829728996314,0.7181464474601701,0.03234178710976032,0.49750567338607204,13.294442479518102,-23.937374942003196,86.44618312497,2.7006167465569297,-1.776169164905552
GUIDED_NOGPS,2.283670663833618,29.408534447700916,12.753628546654086,-23.50511280218921,86.56504385166029,-3.251685947022503,-3.974598329563683,-9.251478936394099,85.0487292353799,0.1462591762667804,0.367706862505633,-9.913568787788288,-0.5755848663658278,0.7029505394245018,0.03251685947022503,0.4977255280755794,13.305222080832204,-24.152656740503563,86.45369451666369,2.6420320117858953,-1.4896902673401404
GUIDED_NOGPS,2.327871799468994,22.63032265026438,13.10063527582704,-23.910045938461515,86.48281134295097,-3.252390504662091,-3.9115003519410876,-9.104608847267738,85.0868655957451,0.08705709757309328,0.41511968784633435,-9.949358125265508,-0.590428639297648,0.7327843928408743,0.03252390504662091,0.4979060813791912,13.444746658022042,-24.672615527674548,86.37224260667611,2.5767145894287427,-1.0313240312354819
GUIDED_NOGPS,2.3696091175079346,23.96758838621935,13.356745555896458,-24.322059499960623,86.44452694447462,-3.2621129950845256,-3.847608371606237,-8.95589059670246,85.12601371895752,0.05512390881044738,0.43884712469272397,-9.989459873429945,-0.6145868590053357,0.7338941931044338,0.032621129950845255,0.49802223016172437,13.711740543888899,-25.05093119047952,86.46672265915798,2.4394734656874233,-0.9740282517223995
GUIDED_NOGPS,2.4096553325653076,24.974866173239413,13.499366283239477,-24.675090463088377,86.43150704499132,-3.2592891969886546,-3.782965987301288,-8.805425667366777,85.16617557761025,0.05605410853825171,0.43081717010631615,-10.035904306012386,-0.6301652768421007,0.7270587320667802,0.032592891969886545,0.4981020027989284,13.740679653936132,-25.56187391478107,86.41869231748855,2.387130767586613,-0.6875493541569879
GUIDED_NOGPS,2.446561574935913,27.10269068727545,13.611733397424166,-25.17762187498272,86.40008017252464,-3.243821875338992,-3.7176176457623384,-8.653317515763382,85.20735271473227,-0.004688137792633615,0.5325045995826428,-10.049599689071908,-0.6729127059578937,0.726885383769576,0.03243821875338992,0.4982109088133114,13.85627805044155,-26.45003200147492,86.2890487626366,2.3590928018965176,-0.34377467707849396
GUIDED_NOGPS,2.4907634258270264,22.628857525141353,13.679404495244885,-25.746886516275573,86.36763919168644,-3.2269071954706696,-3.6516085870101374,-8.499671444885013,85.24954624853507,-0.08330364181990682,0.5389595552351281,-10.07380417194314,-0.6945694990452265,0.7227665677242064,0.0322690719547067,0.498322860585273,13.643577569935799,-26.99897994696785,86.29148961247276,2.325099401402105,-0.6875493541569879
GUIDED_NOGPS,2.5364229679107666,21.90351454384041,13.74199318942809,-26.26977230622841,86.34962061314755,-3.2019468160601043,-3.584984789640801,-8.34459447687032,85.29275687715915,-0.18900586182645232,0.639641452799582,-10.075207775817578,-0.7141008629285485,0.7228965679173186,0.03201946816060104,0.49841470439601737,13.75769012893806,-27.28704447743875,86.28214971398154,2.3002774273286244,0.057295779513082325
GUIDED_NOGPS,2.5781359672546387,23.978275907409632,13.80457284069025,-26.986870675342647,86.28500348158286,-3.1696433566125743,-3.5177929161165267,-8.188195225659713,85.33698488342068,-0.3130703383852763,0.6227346001696847,-10.081941488565564,-0.7685521399161899,0.7233418812983502,0.031696433566125747,0.49857797210275673,14.024638800199696,-28.636423036050704,86.14363700133461,2.268314814716184,0.057295779513082325
GUIDED_NOGPS,2.6267833709716797,20.56384183560905,13.910841611803283,-27.66571184137676,86.25251653860452,-3.1482838228602223,-3.4500802580563024,-8.030583769651228,85.38223013955793,-0.40697041839286285,0.48708405504546964,-10.11292578796168,-0.7865729165744749,0.7293694468829,0.031482838228602227,0.4986945704014301,14.272023509501292,-28.956079744951644,86.25625760259682,2.2574823149496153,-0.8021409131831525
GUIDED_NOGPS,2.662383556365967,28.091998981956518,14.037674884044943,-28.328789195302285,86.28085381891825,-3.134731181537723,-3.3818946815266253,-7.871871524356385,85.42849211197797,-0.5080651155152794,0.559734429369368,-10.13759557747012,-0.8363623635003508,0.7356504863694027,0.031347311815377234,0.49872145743958957,14.490444411649845,-29.76541877110254,86.43073516420516,2.2456904142747565,-0.5729577951308232
GUIDED_NOGPS,2.694566488265991,31.08204204738297,14.231855588250422,-28.992179070044937,86.3142249293689,-3.1232108072784768,-3.313284572332215,-7.712171115056037,85.47576986600313,-0.5578364905537507,0.4960834696071961,-10.174479452761835,-0.8764941790220839,0.7503258760083481,0.03123210807278477,0.49874231740495134,14.614481090963189,-30.315929320681104,86.45834516472605,2.2384840017957806,-0.9167324722093172
GUIDED_NOGPS,2.7313153743743896,27.22159916926272,14.470564140238967,-29.601734911374002,86.39806228631161,-3.116773777771805,-3.2442987813067234,-7.551596249456253,85.52406207061765,-0.6390146762215275,0.5156289096908339,-10.233715975886064,-0.8881933674198299,0.7606003993638694,0.03116773777771805,0.498688999676459,14.951232888880787,-30.334823684084057,86.70133649869507,2.2147802557291683,-1.1459155902616465
GUIDED_NOGPS,2.767469882965088,27.676406155145564,14.658340557994913,-29.97765034071511,86.52380898386346,-3.116990196473448,-3.1749865696034494,-7.39026159034414,85.57336700321416,-0.6800370591808885,0.6596709825406443,-10.248203660889306,-0.886650555439135,0.7606955321809198,0.031169901964734483,0.49857433702902604,14.963520888979428,-30.516000182756237,86.77237048909373,2.2157976185882267,-1.1459155902616465
GUIDED_NOGPS,2.7993922233581543,31.319942054092802,14.814520395947302,-30.447626198006315,86.6139057656924,-3.1179644267660804,-3.1053975539860574,-7.228282628243742,85.6236825543403,-0.6867684240513476,0.6392263053640921,-10.300848197690826,-0.9271385812426252,0.7623550995590939,0.031179644267660806,0.4985146651829719,15.052922699263236,-31.305959031407657,86.7067415117415,2.2099771677362794,-1.1459155902616465
GUIDED_NOGPS,2.838672637939453,25.46941948020403,14.979175393678654,-30.902814622835848,86.6619004224687,-3.1237136893149446,-3.035581652119282,-7.065775554071864,85.67500623244528,-0.6681871612185925,0.6925698693384801,-10.347775866157045,-0.936452152673048,0.7658023643635093,0.031237136893149445,0.49851965871496484,15.313719400306617,-32.041360895250186,86.67070844808676,2.1790219833398945,-1.5469860468532228
GUIDED_NOGPS,2.8842740058898926,21.937310076100317,15.135606205892202,-31.378150310331172,86.70365048784343,-3.1545554424875233,-2.965589027859652,-6.902857131793958,85.72733516862645,-0.6843649445154436,0.8381395566848463,-10.457916935391733,-0.9537713257962993,0.7679373627523036,0.031545554424875236,0.49853552702117454,15.396635152030944,-32.69260775815771,86.6670954915997,2.158388075465968,-2.3491269600363753
GUIDED_NOGPS,2.921246290206909,27.0554874666185,15.320936525516364,-32.03792271002288,86.70705907807498,-3.200610721383424,-2.895470036546193,-6.739644571079964,85.78066612137582,-0.7037355210841585,0.9135883875777459,-10.535704252301715,-1.0141162322334667,0.7781210833107034,0.03200610721383424,0.49861041056495126,15.877884487001591,-33.63368568254263,86.71837944985279,2.0805294341178233,-1.8334649444186344
GUIDED_NOGPS,2.964398145675659,23.17973771325305,15.503809245120797,-32.66145980998016,86.69626087022678,-3.240183766089822,-2.8252751702911523,-6.576255399960171,85.83499548132664,-0.6971549539839685,0.9453041575452885,-10.634606245257146,-1.0289069638854436,0.7813888166470094,0.03240183766089822,0.49870810191664977,15.877884487001591,-33.63368568254263,86.71837944985279,2.0805294341178233,-2.3491269600363753
GUIDED_NOGPS,3.0115842819213867,21.19587837257369,15.712005022698293,-33.37680580508782,86.69538429629411,-3.318095641420641,-2.755055003270704,-6.412807337481098,85.89031927600004,-0.7674056907533711,1.0350647960703037,-10.79529242189722,-1.0632079951470779,0.7890509420986641,0.03318095641420641,0.4987924024695589,16.09390158715071,-34.88268900694599,86.70235864207812,1.9551946193709764,-3.552338329811104
GUIDED_NOGPS,3.050920248031616,25.451182659983736,15.922683458180671,-34.01498538090524,86.72351191477787,-3.4199676162026447,-2.684860137015664,-6.249418166361309,85.94663317455148,-0.8260936109490297,1.1342867406996673,-10.93438922434453,-1.0995079366177587,0.798020606286527,0.034199676162026446,0.4988346818896604,16.367111577718518,-35.23225877433727,86.81134654050555,1.8782758382162779,-3.380450991271857
GUIDED_NOGPS,3.088728666305542,26.440632663224715,16.13127615237285,-34.576024439892265,86.79493397631676,-3.5095227492159164,-2.6147411457022045,-6.086205605647308,86.00393249251738,-0.8586406896437568,1.0794751129405495,-11.041814439610489,-1.121812824686612,0.8045659454363352,0.03509522749215917,0.49881349777430095,16.439598622991827,-35.49780305309288,87.02420579929415,1.7913215830492373,-3.4377467707849396
GUIDED_NOGPS,3.13053297996521,23.931212735001285,16.21784953426768,-35.04618692190506,86.87195761220705,-3.6023853022757777,-2.5447485214425747,-5.923287183369405,86.0622121965617,-0.9907359078615687,1.3057398567926197,-11.21673473048087,-1.1319861251907612,0.7929759960868883,0.036023853022757776,0.498785381876532,16.310751396475748,-35.98449809260656,87.10349762930424,1.716986938245428,-3.9534087864026803
GUIDED_NOGPS,3.167147636413574,27.31591424180061,16.398561281660584,-35.58256457358397,87.02752797297705,-3.715453813533453,-2.4749326195757986,-5.760780109197526,86.12146690922243,-1.0145342079205972,1.1421034653179236,-11.368628746111845,-1.170486968686811,0.808414408748657,0.03715453813533453,0.4986409084043681,16.781443223966114,-36.31557394093717,87.4962312537028,1.4732113294349904,-3.724225668350351
GUIDED_NOGPS,3.202967643737793,27.923306348530037,16.47826456841167,-35.96578317915193,87.21758085303081,-3.8090627877302063,-2.4053436039584053,-5.598801147097127,86.18169091365824,-1.0177409817359182,1.07157599916543,-11.474674263165463,-1.1783139524446862,0.7987191608495599,0.038090627877302066,0.49844616509094114,16.49241802090615,-36.79878203478578,87.65262304234697,1.3694351845964554,-3.380450991271857
GUIDED_NOGPS,3.239506721496582,27.375819126439183,16.55472301027154,-36.325519095350025,87.39677158380378,-3.8984570046781712,-2.3360313922551335,-5.4374664879850165,86.24287815839499,-0.9758748036097962,1.022060756220834,-11.620724198187846,-1.194681520555056,0.7993490956566522,0.038984570046781714,0.4982691598618868,16.74940378701787,-37.03093835532772,87.70730019437038,1.2357755266802963,-3.6096341093241864
GUIDED_NOGPS,3.281290292739868,23.935582909611774,16.689448118794893,-36.715843426189586,87.55237749627295,-3.9754903341396743,-2.2670456012296407,-5.276891622385227,86.3050222620723,-0.9461167366131085,1.0109802683963691,-11.741522070075044,-1.2118289648799774,0.8082826661452992,0.039754903341396745,0.49812896714869903,17.11322416560857,-37.44942470729068,87.80223536163989,1.1032845855882822,-2.5783100780887045
GUIDED_NOGPS,3.3204028606414795,25.577519758025172,16.904894714403117,-37.03708671405025,87.72024661651933,-4.052449209345132,-2.1984354920352303,-5.117191213084883,86.36811651819015,-0.8866304313364989,0.8955479369890381,-11.857228889709646,-1.227093056412765,0.8236363400402378,0.04052449209345132,0.49797180485250625,17.387984374516876,-37.59071453190983,87.9428432305361,0.9770647181573756,-2.177239621497128
GUIDED_NOGPS,3.356567621231079,27.65414386497,17.07905931606419,-37.319566553149095,87.83442283267148,-4.112813999893654,-2.130249915505554,-4.95847896779004,86.4321538998554,-0.9128654547427824,0.901998623773292,-11.916515785479003,-1.2434464204104427,0.8252122977973974,0.041128139998936546,0.4978965966007759,17.65226623227149,-37.7279731364314,88.06711233446359,0.8472730974803915,-2.2345354010102105
GUIDED_NOGPS,3.4045495986938477,20.845923312044928,17.318124132387887,-37.63696845099944,87.89018603511718,-4.1505662965186945,-2.0625372574453316,-4.800867511781556,86.49712706452837,-0.9182509521816316,0.7513750233279396,-12.019715674969664,-1.2540644100689315,0.8356814598537955,0.04150566296518694,0.4979104115441168,17.68774210252464,-38.38579152403751,87.93143905457552,0.7366856595653379,-1.4896902673401404
GUIDED_NOGPS,3.4457387924194336,24.283272735693938,17.44741718926432,-38.19463471268165,87.88774194112236,-4.191391162463825,-1.9953453839210535,-4.644468260570946,86.56302835876942,-0.9643038228255599,0.7047515117231978,-12.050545441335808,-1.3074627354241597,0.8306282865783484,0.04191391162463825,0.4980129296264706,17.39586907140004,-39.81926966373876,87.69507972439612,0.5845707669471077,-0.8021409131831525
GUIDED_NOGPS,3.479966640472412,29.22635895506268,17.44449852747098,-38.71668641996464,87.90107288634616,-4.214636309477508,-1.9287215865517187,-4.489391292556256,86.62984982298549,-1.0478002173863212,0.6170409971662444,-12.10147901575024,-1.3419138884672492,0.8143577935225214,0.04214636309477508,0.498093165404959,17.098630856641883,-40.059683243705656,87.86889008775888,0.4966393117824293,-1.3178029288008934
GUIDED_NOGPS,3.5192103385925293,25.489386269302525,17.337806794551767,-39.24546775892887,87.91485906368263,-4.218770592337584,-1.8627125277995162,-4.335745221677886,86.69758319617671,-1.1368027049134648,0.7100047809685839,-12.130321197067913,-1.3593606533942335,0.7986364185271256,0.04218770592337583,0.4981740861987411,16.85452570992081,-40.23462122673098,88.01177411721848,0.4447380210852105,-0.7448451336700702
GUIDED_NOGPS,3.556990385055542,26.476684657387242,17.15715889163638,-39.84504767705025,87.90561002196003,-4.214747958409512,-1.7973641862605696,-4.183637070074493,86.76621992068289,-1.23432457276973,0.6519769878840366,-12.153666783651015,-1.39594329488948,0.7813092977992346,0.04214747958409512,0.4982909148480843,16.74902671769457,-40.72587272703834,88.02086712585056,0.40378117740913627,-0.2291831180523293
GUIDED_NOGPS,3.599212646484375,23.690743543977767,16.90018268696855,-40.39937673437792,87.99238873523112,-4.20921421238085,-1.732721801955618,-4.033172140738806,86.83575114693012,-1.2791111903745616,0.4946852018180476,-12.169582831964437,-1.4115417847791643,0.7646710823616574,0.042092142123808504,0.49826504361754853,16.402861079185474,-41.157436810675826,88.36533262093101,0.32918728612624526,-0.5729577951308232
GUIDED_NOGPS,3.6393048763275146,24.945900937336443,16.710003770659668,-40.66657029236998,88.16969394833366,-4.209228517621248,-1.6688298216207667,-3.884453890173525,86.9061677381774,-1.3129091008219003,0.4229039690660332,-12.205838329852511,-1.4053565242001373,0.7601779083047896,0.042092285176212475,0.49810471068476564,16.444974489855632,-41.15523745369909,88.58160578990882,0.29372620690707263,-0.7448451336700702
GUIDED_NOGPS,3.6705267429351807,32.042047364400304,16.520990118594888,-41.01404053466278,88.29231761625543,-4.211548211544985,-1.6057318439981731,-3.737583801047169,86.9774602752631,-1.3994813216649886,0.45845745157347684,-12.22480747272493,-1.4433140655230328,0.7440496231234219,0.04211548211544985,0.4980277139885115,16.153562596317986,-41.79703445516964,88.48200842736772,0.3170731725113107,-0.8594366926962349
GUIDED_NOGPS,3.7058753967285156,28.295918505025973,16.37566396408713,-41.446328690535466,88.35714858147769,-4.220923255517954,-1.5434705651267642,-3.5926612548498973,87.04961906135155,-1.3889314541616693,0.4265681521123335,-12.281383637167437,-1.4672694469422343,0.7450689822323177,0.04220923255517955,0.4980387057198108,16.12789493738203,-42.396062006094425,88.33592894332975,0.2813883042037654,-1.4896902673401404
GUIDED_NOGPS,3.751728057861328,21.810799567351694,16.23641063655627,-41.871198780438036,88.39222998979257,-4.242701022992639,-1.4820877236329615,-3.4497834045494216,87.12263412667967,-1.4963933816944186,0.5165701951358262,-12.36425005349897,-1.4750004345062488,0.7438819914979443,0.04242701022992639,0.49809560620533067,16.05276008004025,-42.85022317655118,88.19627416742487,0.27755748642706507,-1.7188733853924698
GUIDED_NOGPS,3.789466381072998,26.507473251132836,16.121247092113727,-42.40181308063378,88.32247131651475,-4.277586158816538,-1.4216240460213871,-3.3090450472468262,87.19649523330347,-1.4788491870375946,0.5034681847604493,-12.426354402300959,-1.5213668169761583,0.7359596368057925,0.04277586158816538,0.49831103587518305,15.82704335697277,-43.81050831165455,88.01653925454193,0.2342091187605886,-1.3178029288008934
GUIDED_NOGPS,3.8437576293945312,18.422491907252947,15.997660865537153,-42.93286725222488,88.20945800944136,-4.312201455453906,-1.362119191965581,-3.1705384968324815,87.27119187984462,-1.5632433245873896,0.5375862603251323,-12.500751384061676,-1.5260785029740993,0.735217985602465,0.04312201455453906,0.4985926008056049,15.82704335697277,-43.81050831165455,88.01653925454193,0.2342091187605886,-2.0626480624709638
GUIDED_NOGPS,3.8780953884124756,29.12852708117756,15.89131809984686,-43.45673411496155,88.0984599601744,-4.371885742376097,-1.3036116995986973,-3.034353456641803,87.34671330623704,-1.6468928647959473,0.5171703980091411,-12.579172201017178,-1.576289541134841,0.7233788734557831,0.04371885742376097,0.49887238001909395,15.621848767866503,-44.41636876885297,87.92701818103286,0.13266921588167047,-2.177239621497128
GUIDED_NOGPS,3.9276039600372314,20.20319258595609,15.816511597260211,-43.88475801654296,88.03082305482404,-4.399713827372523,-1.246138930804257,-2.9005768921112143,87.42304849847345,-1.7690775852497764,0.664821372061657,-12.66899516501837,-1.5701591274686817,0.7274002207930517,0.04399713827372523,0.4990883381654741,15.7538624244488,-44.536181514001484,87.99774441657793,0.05783856870786355,-1.3178029288008934
GUIDED_NOGPS,3.9710376262664795,23.026521951567656,15.697380683261049,-44.22798142628433,88.04842471249486,-4.4548471438312145,-1.1897370165068129,-2.769292903433957,87.50018619335194,-1.8976628332861423,0.5962044378860627,-12.738536736052854,-1.5871214485919725,0.7157144380390641,0.04454847143831214,0.49917764222128563,15.457105510044437,-44.56634022525807,88.28428245577899,-0.06433624218817456,-1.7188733853924698
GUIDED_NOGPS,4.0052289962768555,29.251633690641412,15.61393124161547,-44.39035127049557,88.12430052345432,-4.500116332340843,-1.1344408019627057,-2.6405825982159428,87.5781148832225,-1.98440837017942,0.5069071850075507,-12.804541976644565,-1.590316996004983,0.7106268341094492,0.04500116332340843,0.49918072153965226,15.409796148744872,-44.622357532710765,88.39591830933921,-0.1278211550111246,-1.604281826366305
GUIDED_NOGPS,4.047886610031128,23.448109304769783,15.433921766274121,-44.55162079436975,88.21588233798506,-4.517878329043827,-1.0802837920507393,-2.5145239641316266,87.65682282073367,-2.121609795132051,0.5801312952217302,-12.846064404156364,-1.595927403976366,0.6961937145064678,0.04517878329043828,0.4991614107241229,14.926995980266032,-44.6168559310254,88.47444832719569,-0.15095613399344252,-1.0313240312354819
GUIDED_NOGPS,4.079998254776001,31.1503709700179,15.254357789829907,-44.65459573180037,88.31120739379165,-4.541566436801448,-1.0272980965629461,-2.391191741579874,87.73629802357898,-2.192823268409308,0.5421554434364593,-12.88141063311118,-1.6063632968915185,0.6804596808412217,0.04541566436801448,0.499137635944681,14.724028885645428,-44.931243456006115,88.40364346006571,-0.20084389387458826,-0.9740282517223995
GUIDED_NOGPS,4.12377405166626,22.849148802876364,15.016103329853141,-44.751402857935375,88.38883983012113,-4.55376795716214,-0.9755143754952282,-2.270657296339806,87.81652827924367,-2.2998297077017824,0.5493066514974627,-12.917880428184464,-1.6083733988203364,0.6720165596524705,0.04553767957162141,0.49914153267368383,14.562590124564968,-45.02021714467648,88.38590659822532,-0.25877026156590793,-1.2032113697747289
GUIDED_NOGPS,4.167292356491089,22.98009522296309,14.777172729296613,-44.874925336070845,88.39003610830726,-4.5625009415830196,-0.9249617843381479,-2.1529884922266476,87.8975011497511,-2.391422757915065,0.6168582896059466,-12.950073671063672,-1.6207996213605258,0.6610277268402556,0.0456250094158302,0.49926119756216575,14.262452507261798,-45.1839526159354,88.29026384670968,-0.3095735816886118,-0.2291831180523293
GUIDED_NOGPS,4.207476615905762,24.892750526721862,14.509062911365021,-45.06260074884857,88.31509349007709,-4.558133225416501,-0.875667919367574,-2.0382495637476126,87.9792039764094,-2.4375177836327766,0.6627106301647115,-12.95837405845253,-1.6405230781885647,0.6437846993950841,0.04558133225416501,0.49949616572949845,14.069247059086925,-45.56073459659937,88.02120521818833,-0.3442877422675241,-0.2291831180523293
GUIDED_NOGPS,4.248307704925537,24.50387628600973,14.3396188283612,-45.26173906474245,88.21434846634818,-4.559038584556364,-0.827658762935453,-1.926500988757759,88.061623884558,-2.506126606958732,0.6815685690197052,-12.993015070375542,-1.6535190036780318,0.6461293704493045,0.045590385845563644,0.49977091312731475,14.079775565246916,-45.612547510494814,87.97072320855118,-0.3672519255654349,-0.8594366926962349
GUIDED_NOGPS,4.28911018371582,24.513901308599117,14.2761135292502,-45.3899070747192,88.1278857727114,-4.557259224105538,-0.7809586287604819,-1.8177993611158172,88.14474778831426,-2.5601113549414545,0.677441427213725,-13.01395899169174,-1.6572288542352829,0.652783604953391,0.04557259224105538,0.5000252930234043,14.406502390090429,-45.57208350588986,87.97132999188183,-0.419676615305536,-0.40107045659157625
GUIDED_NOGPS,4.33539342880249,21.609875729035714,14.227931656556205,-45.49143918993579,88.02833721970948,-4.554694060246824,-0.7355901072188349,-1.7121972633400802,88.22856239531995,-2.5696627341654827,0.7098466194006158,-13.03483887998447,-1.661489631673761,0.652583021967048,0.04554694060246824,0.5003003377634158,14.321680761095,-45.52787772075943,87.88816383321578,-0.41418273951095,-0.5729577951308232
GUIDED_NOGPS,4.372701168060303,26.81385729720054,14.172624625653029,-45.51847039475495,87.94840837512331,-4.571458133203589,-0.6915740106348895,-1.6097431392642463,88.31305421148787,-2.5879226045812773,0.7362664314404598,-13.073730830892169,-1.6641780171682514,0.6464887960576783,0.045714581332035896,0.5005469687545469,13.985917352745911,-45.31910864003122,87.89061962377873,-0.4385083019094422,-1.3750987083139758
GUIDED_NOGPS,4.418428421020508,21.870393158827824,14.133522977691953,-45.44259094263605,87.92295072202751,-4.6022796806917246,-0.6489293185719145,-1.5104811666933102,88.39820954574836,-2.5878291163670126,0.8549714906772848,-13.170383130289727,-1.6561146225438532,0.6474674874229959,0.046022796806917246,0.5007128882355812,13.873738819281549,-45.18133733600486,87.89391695270938,-0.4432145940481434,-1.948056503444799
GUIDED_NOGPS,4.457790374755859,25.41540326001333,14.088762059418334,-45.277199469815486,87.93896109907072,-4.662717867724787,-0.6076731231228099,-1.4144511300593905,88.48401451479593,-2.498077869352106,0.9246848836580778,-13.260584316016207,-1.646953068692387,0.642946646935197,0.04662717867724787,0.5008175801235878,13.855970973878819,-44.78559014639196,88.05077509376723,-0.4559674792102642,-2.4064227395494577
GUIDED_NOGPS,4.499563932418823,23.9410478729173,13.968093919329718,-45.05224825173709,87.97779457573631,-4.741253022946875,-0.5678205742007965,-1.3216882930775498,88.5704550478358,-2.3993692561275513,0.9486300327842616,-13.382548442704186,-1.6388890659975917,0.6306295206567064,0.04741253022946875,0.5008889907081492,13.803161689647334,-44.4473274154979,88.16549737520972,-0.4784934540739542,-3.495042550298022
GUIDED_NOGPS,4.540292024612427,24.556814988290398,13.852257520775101,-44.811992674292036,87.97933360878508,-4.859419303746628,-0.5293848248301547,-1.232223271401736,88.65751689133043,-2.241978005431774,0.9147591246901684,-13.542666859869502,-1.6330840357750356,0.6252068789201544,0.04859419303746628,0.501017274923818,13.742498768321902,-44.32659983353412,87.89585899845963,-0.5974873686580572,-4.297183463481175
GUIDED_NOGPS,4.572856426239014,30.717600187485353,13.8469794655703,-44.533082114747025,87.99555675867883,-4.989743736183792,-0.4923769764368995,-1.146081905280596,88.74518561374612,-2.115123463298066,0.8988524678868549,-13.664841868648105,-1.6193689066343735,0.6339065799733646,0.049897437361837924,0.501124443282601,13.959527076721914,-43.92455584230618,87.97173537324754,-0.6927261285596258,-4.18259190445501
GUIDED_NOGPS,4.616761684417725,22.781758533034957,13.89545767333314,-44.250428892673014,88.0168511393361,-5.096255314191575,-0.45680602413956883,-1.063285132213366,88.8334466102996,-1.9309717448775905,0.9886513127825397,-13.841087216217469,-1.6188430752820877,0.6414337409750257,0.05096255314191575,0.5012248932064453,14.116129858095741,-43.768071225634806,88.00038885599574,-0.8062977659203636,-4.297183463481175
GUIDED_NOGPS,4.659289836883545,23.53983353818351,13.83738917388627,-43.912725348076876,88.0458426575821,-5.26195847076245,-0.4226788020398278,-0.9838488596056507,88.92228510770451,-1.7562047063767123,1.0597789818083485,-14.088173578310911,-1.6055038362509517,0.6284203704148201,0.052619584707624505,0.5013146636751836,13.56562847664446,-43.09707242341125,88.19573268499728,-0.8806907101617629,-5.213915935690491
GUIDED_NOGPS,4.697444915771484,26.197862599234234,13.655429182350654,-43.46601936783751,88.11770095109605,-5.44357431197471,-0.3899999285132889,-0.9077838374253915,89.01168616891806,-1.6812701673839736,1.1704867433007349,-14.29358554118352,-1.581079614810132,0.6068513711782952,0.0544357431197471,0.501340977826733,12.893361731969256,-42.21379751430112,88.5247888427794,-0.8940214326184902,-5.443099053742821
GUIDED_NOGPS,4.73537278175354,26.372801639849346,13.569645166972226,-43.088976524947846,88.13894780497662,-5.6113639734480625,-0.3587717515001412,-0.8350955308586236,89.10163469788752,-1.5406255800377155,1.1732847729829128,-14.490078984547386,-1.5771965486953305,0.6125919217138506,0.05611363973448063,0.5014440303393664,13.313578691429768,-42.44138561908582,88.00209326786252,-1.1349556376759058,-5.156620156177409
GUIDED_NOGPS,4.775034427642822,25.221462546377307,13.303731208214842,-42.58321228827673,88.1565423362081,-5.788725437169841,-0.3289942937959349,-0.7657839929654244,89.19211544429685,-1.498979355347209,1.198617090840844,-14.728983633788799,-1.5523647724870293,0.5838799100327027,0.057887254371698414,0.5015533596621331,12.629957282934997,-41.39573465895061,88.05970802940502,-1.4478143032815964,-5.901465289847479
GUIDED_NOGPS,4.810047149658203,28.60604407221241,13.09985333203617,-42.07040543274238,88.14245201481594,-5.975632075555255,-0.3006651983422497,-0.6998437373356978,89.28311300831317,-1.4957387507511553,1.2688679343319522,-14.917792260562754,-1.5310901596829531,0.5782586768325845,0.05975632075555255,0.5017109914902458,13.096740477202392,-41.204036947963075,87.92993724903495,-1.6638676272263127,-5.385803274229739
GUIDED_NOGPS,4.856771469116211,21.40038368913017,12.764739377935678,-41.56327901204227,88.06281056341996,-6.122364862880657,-0.27377967351741184,-0.6372636107450944,89.37461184533345,-1.425768692067958,1.2319270696493498,-15.110593132906581,-1.528592351721906,0.5599635740216584,0.06122364862880657,0.5019677019228702,11.890058706142,-40.561440319910695,87.79752542801734,-1.7936416044522687,-4.698253920072751
GUIDED_NOGPS,4.899397611618042,23.464769033672916,12.46598399789285,-41.1013494220128,87.92026579156672,-6.312794175137929,-0.24833043842721558,-0.5780266658108104,89.46659627073099,-1.482812724468612,1.2113323417544688,-15.331781978988275,-1.5160799284141724,0.5482698138084243,0.0631279417513793,0.5023194957187465,11.399584831755115,-39.90414956415377,87.81206498351315,-1.956168194154953,-4.698253920072751
GUIDED_NOGPS,4.9369752407073975,26.62103632993983,11.870602290448034,-40.24450151926946,87.9371306579585,-6.485215858991207,-0.22430766819565484,-0.5221100336475075,89.55905046460195,-1.4822473128713818,1.1116581105360035,-15.518703766004014,-1.4455987166922148,0.48820219698588274,0.06485215858991207,0.5024328797099652,10.336670154205684,-38.157146105369115,88.08641759982143,-2.2549148701098094,-4.5263665815335035
GUIDED_NOGPS,4.97906756401062,23.76241572715427,11.278400035144054,-39.404896161257135,87.97172858703689,-6.606257417353385,-0.20169893925560523,-0.4694847965231048,89.65195847651205,-1.5038558969711866,1.055615768065814,-15.665931908658223,-1.4283467068577143,0.4717568656807783,0.06606257417353385,0.5025203448342127,9.668946006415098,-37.19770786888898,88.23269767479692,-2.3709135596086073,-3.2658594322456924
GUIDED_NOGPS,5.016715049743652,26.564722275001582,10.41703407753242,-38.353860177745524,88.06499370450557,-6.721128489298548,-0.18048917463955227,-0.42011586051472705,89.745304230243,-1.5466490598337264,0.942367176202183,-15.779579426258065,-1.365443593764966,0.4018473527035179,0.06721128489298547,0.5025204657886061,8.789910689144222,-35.94885703040504,88.39626283637831,-2.459867402840079,-2.7501974166279517
GUIDED_NOGPS,5.055137634277344,26.04219597908828,9.4879774539755,-37.08095909118753,88.20227342392707,-6.804218227421672,-0.16066058927031968,-0.3739618281644539,89.83907152853914,-1.619987895881621,0.8027156343282214,-15.873552583953686,-1.302546763117563,0.35847943555864636,0.06804218227421673,0.5024551971569181,7.244775588357393,-34.196934887120726,88.48392402512481,-2.6843440055005825,-2.4064227395494577
GUIDED_NOGPS,5.10018253326416,22.20641895826936,8.517273837674816,-35.79722831346047,88.31130531809978,-6.8587718490073275,-0.1421926352517371,-0.33097487113529667,89.93324405785393,-1.6971745830314655,0.7094903823467174,-15.933601899589146,-1.2756569253228227,0.3307310410826491,0.06858771849007328,0.5024329081096313,6.546066750251694,-33.48549567551845,88.35722445437669,-2.748620730712123,-1.2032113697747289
GUIDED_NOGPS,5.139110088348389,25.690002817488025,7.68079427480414,-34.783362158299724,88.36155744015107,-6.884299344934837,-0.12506194715941454,-0.2911006028669192,90.02780539309664,-1.7228535329897747,0.6717143135946693,-15.934588861924212,-1.2508475851056116,0.29698609742660637,0.06884299344934837,0.5024993719294184,6.154272339852304,-33.087815329565395,88.33767821007784,-2.8565381787538944,0.2864788975654116
GUIDED_NOGPS,5.179800748825073,24.582865917629338,6.602727660097621,-33.589229201920524,88.37211094972,-6.8484976285147035,-0.10924228733140318,-0.25427795123162866,90.1227390023788,-1.699396208780718,0.4977143907149482,-15.86353440398857,-1.197824516854081,0.2334133643045983,0.06848497628514703,0.5026259420789881,4.2786129328825,-31.22704308699298,88.28546522264148,-2.7407049236735537,1.604281826366305
GUIDED_NOGPS,5.213517665863037,29.66562460215297,5.6595061956834884,-32.68648811134854,88.3407454672354,-6.78299228707023,-0.0947044911589554,-0.2204390311901392,90.21802825176078,-1.6573261921965534,0.37198298781288414,-15.806505739513549,-1.1775075280613778,0.1896129641534532,0.0678299228707023,0.5028159241767881,4.073803367073556,-31.4351515775451,88.23943542395531,-2.910785504308214,1.948056503444799
GUIDED_NOGPS,5.245843887329102,30.942170221241877,5.041235673726372,-32.095840084589305,88.26394519772096,-6.70264858750406,-0.08141641237719277,-0.18950901744757687,90.31365640999844,-1.6327711285218287,0.23889696527859725,-15.731488064312005,-1.1885633351283469,0.19979127534467106,0.06702648587504059,0.5030745668184162,4.153422978571813,-31.243694753324576,88.09992267755261,-2.9013663353388144,2.4064227395494577
GUIDED_NOGPS,5.289381742477417,22.97556352879954,4.419296341576788,-31.48904260022503,88.20330479997119,-6.590238188206286,-0.0693428683558519,-0.16140601710910119,90.4096066532896,-1.6159784681171177,0.09967871353010828,-15.576654506016986,-1.1833150795448482,0.1943756689822696,0.06590238188206286,0.5033094527799776,3.436370089503776,-30.451508253697092,88.05402246562791,-2.840569697278429,3.896113006889598
GUIDED_NOGPS,5.332530498504639,23.181146924879517,3.6007825450633275,-30.725434054326165,88.09232796826005,-6.417441022625997,-0.05844558538998079,-0.13604094233592434,90.50586207002061,-1.61242324793242,-0.0038266134824996435,-15.345085479944167,-1.144302983687216,0.14286375782432673,0.06417441022625997,0.5036203011526409,2.0617033572850008,-29.269772600071054,87.78279405152217,-2.702081997003173,4.92743703812508
GUIDED_NOGPS,5.387565612792969,18.174154187465337,3.037953326386952,-30.14522588934131,87.99274515535426,-6.208141304285773,-0.04868314399067053,-0.11331738300118843,90.60240566551299,-1.6869813794688677,-0.044718102269719735,-15.120805973263044,-1.150865911769723,0.1554221247943393,0.06208141304285773,0.5039144907652381,1.4644668395006206,-28.32600226206871,87.78755115811255,-2.597306183579872,5.557690612768986
GUIDED_NOGPS,5.413595914840698,38.41746888080823,2.355955763649734,-29.431880639861298,87.8399525951786,-5.954190023034292,-0.04001092417574448,-0.0931314793457858,90.69922036676992,-1.7007280956688704,-0.041412504154845126,-14.837361660443976,-1.0677333572887056,0.06392476429547181,0.05954190023034293,0.5042889016573869,0.6638155533874646,-27.868425330145033,87.47547262307707,-2.496006273494826,6.64631042351755
GUIDED_NOGPS,5.451391220092773,26.467328407090257,1.586297287223805,-28.693314979636465,87.67381987040335,-5.76305211992238,-0.03238105076050424,-0.07537179463413679,90.79628902722283,-1.720210143059274,0.05670807247085399,-14.712382859011083,-1.0673496992431806,0.05371220331094681,0.057630521199223794,0.5046837037352292,0.3051305964421695,-27.550866452200406,87.26925905367636,-2.4033475482020688,7.505747116213785
GUIDED_NOGPS,5.486978530883789,28.133453174677705,0.6692658423949597,-27.6703861645211,87.44991549315868,-5.4971003715415785,-0.025742338648397478,-0.059919187810194785,90.89359443147798,-1.634097145716163,0.1195308717961619,-14.296037579095556,-1.002369478221652,-0.0006820340443419864,0.05497100371541579,0.5051655184074789,-1.14878713464045,-25.33686417812026,86.93450057940453,-1.9743677436234857,7.62033867523995
GUIDED_NOGPS,5.520667552947998,29.67464961122942,0.027167744009869564,-26.88380448013094,87.28025679873517,-5.212702025069458,-0.02004023812174971,-0.04664668615308187,90.99111930006299,-1.5483763506417991,0.2040141219702843,-14.051852339852076,-0.9939497858906289,-0.0004651916238622572,0.05212702025069458,0.5055662937519917,-1.14878713464045,-25.33686417812026,86.93450057940453,-1.9743677436234857,8.307888029396937
GUIDED_NOGPS,5.559802532196045,25.55492326158083,-0.2522527949259107,-26.36248205071165,87.15083810313855,-4.908632803349041,-0.015216780132560004,-0.035419357933363926,91.08884629417346,-1.3804414223016377,0.31681725743398365,-13.674326440084315,-1.0114239761248196,0.03523292856108104,0.04908632803349042,0.5059070122865523,0.06736414482171926,-25.719390114972253,87.14045768012937,-1.935837574904847,9.969465635276325
GUIDED_NOGPS,5.599841594696045,24.982899211969954,-0.2891853043161291,-25.667115673770343,87.161546805396,-4.526109134832743,-0.01121052159306224,-0.026094185068387787,91.18675802041945,-1.228111768667663,0.24407275456558597,-13.325799815985135,-0.9726414987631216,0.05846543412292808,0.04526109134832743,0.5060378168225351,0.4791530064363725,-24.391593445438517,87.52901613436434,-1.4791095683378281,10.771606548459477
GUIDED_NOGPS,5.639891862869263,24.972933065005893,-0.3055211073598677,-24.985677379078094,87.2278761598404,-4.1150438196474255,-0.007956490666542138,-0.018519935778556373,91.28483703557212,-1.137996067027513,0.1673942761786725,-13.08139259559363,-0.950547500503731,0.05981259829751447,0.04115043819647426,0.5060854413135976,0.22345158122347655,-24.14367497873917,87.60090582589842,-1.2412994547643958,10.828902327972559
GUIDED_NOGPS,5.675116777420044,28.39918478444861,-0.18640081250846413,-24.451934221227994,87.38596672393444,-3.7304015050794788,-0.005386132058012194,-0.012537037242893234,91.38306585131028,-0.9479838328557549,0.20311232355643105,-12.388084852381377,-0.9387428568686729,0.07970495401984912,0.03730401505079479,0.5059956486910637,-0.5531856603834319,-22.668148388869746,87.72495339987469,-0.8618431562977534,11.860226359208042
GUIDED_NOGPS,5.71599268913269,24.467711262265052,-0.5274195464701937,-23.78583923641283,87.48791334263913,-3.313989679265026,-0.003427252304971873,-0.007977448255161335,91.48142693896692,-0.7893086666785739,0.04618488539397997,-11.857054719885811,-0.9117051632263136,0.019143527120137234,0.03313989679265026,0.5059902703944916,-2.8538808044490978,-22.006389254044443,87.44423367292794,-0.4379333822402448,12.719663051904275
