Mode,Time,Freq,time2delay,actualDelay,North-Desired,East-Desired,Down-Desired,Roll-UAV,Pitch-UAV,Yaw-UAV,Roll-Control,Pitch-Control,Yaw-Control,Thrust-Control,North-Pos,East-Pos,Down-Pos,Yaw-Ang,North-Vel,East-Vel,Down-Vel,Yaw-Vel,North-Acc,East-Acc,Down-Acc,North-Avg,East-Avg,Down-Avg,Yaw-Avg,North-Dif,East-Dif,Down-Dif,Yaw-Dif,North-One,East-One,Down-One,Yaw-One,North-Two,East-Two,Down-Two,Yaw-Two,Landing-State,Q-Size,Kalman-Time,Kalman-Dt
STABILIZE,0.03457283973693848,28.933817138284518,0.03278187115987142,0.032900333404541016,0.0,0.0,0.0,0.6877557599123847,-1.0954254189215276,38.40620151430589,-0.02586904758055435,-0.023946554355198785,0.0013550089016621716,0.4,-0.018024498253336334,0.01947615700907157,0.6637864848225015,0.006752689317195973,-0.05283510545268655,0.07492126896977425,1.3236784376204014,0.05528828358272395,5.068882554769516,0.5612907465547323,16.281986236572266,0.0,0.0,0.0,0.0,0.0,0.0,0.0,0.0,0.0,0.0,0.0,0.0,0.0,0.0,0.0,0.0,False,0,3.489204168319702,0.03990771484375
STABILIZE,0.06782650947570801,30.078985678736114,0.03210118611653646,0.03223395347595215,0.0,0.0,0.0,0.6877225694618867,-1.0954745109061872,38.41192521283036,-0.013450467102241473,-0.014235842456874344,0.0021080834615362603,0.4,-0.019658910289193584,0.01856582313916482,0.6656370433878763,0.010483102977228142,-0.1046176184900105,-0.012791577319148928,1.153107825666666,0.21336950678164482,0.05559064447879791,-1.3079164549708366,19.306159019470215,0.0,0.0,0.0,0.0,0.0,0.0,0.0,0.0,0.0,0.0,0.0,0.0,0.0,0.0,0.0,0.0,False,1,3.518605947494507,0.024943115234375
STABILIZE,0.10115456581115723,29.995952198757053,0.03229502042134603,0.032447099685668945,0.0,0.0,0.0,0.6874921572991045,-1.0949542425905026,38.41444555263409,-0.00991115288127851,-0.008982469241627987,0.0031847911838398667,0.4,-0.017152121030890657,0.01894789129275911,0.6563274974023234,0.015813716982090883,0.134003977291286,0.03971192636527121,1.0202601552009583,0.16463053084447676,3.4452762454748154,2.5367844849824905,16.182613372802734,0.0,0.0,0.0,0.0,0.0,0.0,0.0,0.0,0.0,0.0,0.0,0.0,0.0,0.0,0.0,0.0,False,0,3.5760295391082764,0.034919189453125
STABILIZE,0.13458967208862305,29.909536271776258,0.03247216542561849,0.03258466720581055,0.0,0.0,0.0,0.6874226814686408,-1.0951695002710637,38.42021364738817,-0.007996637698900372,-0.006146522153660963,0.0037478766418898076,0.4,-0.014505388312549987,0.018925316842915266,0.65305385995147,0.01856706421048018,0.134003977291286,0.03971192636527121,1.0202601552009583,0.16463053084447676,3.4452762454748154,2.5367844849824905,16.182613372802734,0.0,0.0,0.0,0.0,0.0,0.0,0.0,0.0,0.0,0.0,0.0,0.0,0.0,0.0,0.0,0.0,False,0,3.6045188903808594,0.034919189453125
STABILIZE,0.1681365966796875,29.80962737112926,0.03247025807698568,0.03263258934020996,0.0,0.0,0.0,0.6871690039739983,-1.0951749430780586,38.42286034569155,-0.007233109652132193,-0.005653663398700441,0.004022869492369091,0.4,-0.015576171258095104,0.019977451138841078,0.6499979197125594,0.01987537779775106,-0.08916393853724003,0.1026580692268908,1.0381224565207958,0.08057400741092148,-2.146306447684765,0.5063277669250965,12.553030252456665,0.0,0.0,0.0,0.0,0.0,0.0,0.0,0.0,0.0,0.0,0.0,0.0,0.0,0.0,0.0,0.0,False,0,3.633314371109009,0.029931884765625
STABILIZE,0.20163369178771973,29.85375992028186,0.03240707715352376,0.03253483772277832,0.0,0.0,0.0,0.6874877817091675,-1.0942798681316697,38.42546264776532,-0.0021109822159772642,-0.0015134109750376216,0.003429400277958523,0.4,-0.016174489999021963,0.018810007941131225,0.6472742882021001,0.01685174799373225,-0.06637763581238687,-0.02567370538599789,1.2319866567850113,-0.16082193999004096,-0.46724029816687107,0.5051543470472097,12.531876564025879,0.0,0.0,0.0,0.0,0.0,0.0,0.0,0.0,0.0,0.0,0.0,0.0,0.0,0.0,0.0,0.0,False,0,3.6702821254730225,0.034919189453125
STABILIZE,0.2350630760192871,29.915082699151966,0.03235295613606771,0.03246259689331055,0.0,0.0,0.0,0.6870300523130709,-1.0949490132269193,38.43130245950569,-0.002649697715050499,-0.0013288055032902335,0.004732389142781288,0.4,-0.016744505330957258,0.01969458175675895,0.6464011830085094,0.0232888231140126,-0.058897159760817885,0.0918383535463363,1.1522671207785606,0.3932362419932895,-1.2436119839549065,0.7668332196772099,19.25915628671646,0.0,0.0,0.0,0.0,0.0,0.0,0.0,0.0,0.0,0.0,0.0,0.0,0.0,0.0,0.0,0.0,False,0,3.699467658996582,0.034911865234375
STABILIZE,0.2683882713317871,30.00453540693474,0.0323517640431722,0.032453298568725586,0.0,0.0,0.0,0.6876066696894081,-1.0939999370974047,38.433508610607596,-0.002918625358057797,-0.002371899799289345,0.0046081518363816605,0.4,-0.017972524235249438,0.020690253956310935,0.6493308555883793,0.02259215387795104,-0.09816247038543224,0.09728269651532173,1.38043574988842,-0.031964791727770434,-2.2488873451948166,0.7429798599332571,19.292034208774567,0.0,0.0,0.0,0.0,0.0,0.0,0.0,0.0,0.0,0.0,0.0,0.0,0.0,0.0,0.0,0.0,False,0,3.7276782989501953,0.034919921875
STABILIZE,0.3019134998321533,29.828495028944488,0.032460721333821614,0.03258109092712402,0.0,0.0,0.0,0.6875186242821384,-1.0939381452297574,38.43582062964165,-0.002838210521010317,-0.0035770793641302133,0.004672384673490286,0.4,-0.019557635079020995,0.020445067566725598,0.6493809282403055,0.022836927706615745,-0.11911100009456277,0.023105657601263374,1.209241896867752,0.028410622084864303,3.244425356388092,0.5207079462707043,12.968263030052185,0.0,0.0,0.0,0.0,0.0,0.0,0.0,0.0,0.0,0.0,0.0,0.0,0.0,0.0,0.0,0.0,False,0,3.757404327392578,0.02993115234375
STABILIZE,0.33573460578918457,29.567335889916535,0.03237417538960775,0.03295755386352539,0.0,0.0,0.0,0.68877185727313,-1.0943927796963864,38.44104230926212,-0.0024825174674182027,-0.0031662723615123985,0.004629106802448162,0.4,-0.01911442448192665,0.020142832017179254,0.6499681658543438,0.02254412714698433,-0.007434168219333515,0.025434111012145877,1.4196675270795822,0.012793604655988406,1.9858602434396744,-1.2791238725185394,18.331696093082428,0.0,0.0,0.0,0.0,0.0,0.0,0.0,0.0,0.0,0.0,0.0,0.0,0.0,0.0,0.0,0.0,False,1,3.7864491939544678,0.034919921875
STABILIZE,0.37503790855407715,25.443926112408626,0.032463820775349934,0.03838658332824707,0.0,0.0,0.0,0.6898058838804464,-1.0944560656679148,38.4475617248249,-0.0026412412290433194,-0.002656879356544138,0.004087077432784849,0.4,-0.017975327649462976,0.019758823361449417,0.6498056662304318,0.01975642710516636,0.01480643986724317,0.06099328747950494,1.2147460132837296,-0.1289680587950039,1.4376918785274029,-1.2160628102719784,22.005245089530945,0.0,0.0,0.0,0.0,0.0,0.0,0.0,0.0,0.0,0.0,0.0,0.0,0.0,0.0,0.0,0.0,False,0,3.8439083099365234,0.034919189453125
STABILIZE,0.40875816345214844,29.654298642533938,0.032388957341512044,0.03281736373901367,0.0,0.0,0.0,0.6905127017378369,-1.0928423267547935,38.449139498523174,-0.0023173840249626617,-0.0023211627040673304,0.004035469572193041,0.4,-0.01741093739062054,0.019436906932556435,0.6464418270589088,0.01943282691915335,0.005525467349798419,0.01781768660293892,0.9772912599146366,0.005077700366689003,-3.6901701241731644,0.3449701238423586,9.063035249710083,0.0,0.0,0.0,0.0,0.0,0.0,0.0,0.0,0.0,0.0,0.0,0.0,0.0,0.0,0.0,0.0,False,0,3.8726983070373535,0.034919921875
STABILIZE,0.442293643951416,29.819164213908913,0.0324278195699056,0.03256535530090332,0.0,0.0,0.0,0.6908380962187646,-1.0932071015451545,38.451362725098015,-0.00196446717117509,-0.0018196411420208602,0.003977313854974609,0.4,-0.016827224643159756,0.019110381953051942,0.6429387198811749,0.01907821100692159,0.005525467349798419,0.01781768660293892,0.9772912599146366,0.005077700366689003,-3.6901701241731644,0.3449701238423586,9.063035249710083,0.0,0.0,0.0,0.0,0.0,0.0,0.0,0.0,0.0,0.0,0.0,0.0,0.0,0.0,0.0,0.0,False,0,3.9013113975524902,0.034919921875
STABILIZE,0.4756035804748535,30.020857042651723,0.0323517640431722,0.0324559211730957,0.0,0.0,0.0,0.6907116309974135,-1.0922355071357202,38.45744159345932,-0.001843155528962107,-0.0013395410221711936,0.003681550589850531,0.4,-0.016540307106721573,0.018602257509014848,0.6415740880540118,0.01754078493709111,-0.01295786933042109,0.007220621046144515,1.1106740683317184,-0.06348081868272988,-0.37011599633842707,0.5586979445070028,15.511666238307953,0.0,0.0,0.0,0.0,0.0,0.0,0.0,0.0,0.0,0.0,0.0,0.0,0.0,0.0,0.0,0.0,False,0,3.929946184158325,0.02993115234375
STABILIZE,0.5090925693511963,29.862049325055533,0.03247025807698568,0.032592058181762695,0.0,0.0,0.0,0.6903100372185579,-1.0929032648487946,38.45927891434606,-0.0018988636292623037,-0.0026404307684508234,0.0033642734280335913,0.4,-0.019863572375078173,0.018552734335363502,0.6352445043398993,0.015901213915447417,-0.08495316724292934,0.02527700853534043,1.1039271019399166,-0.07976391629286755,-2.74167750030756,-1.5081836842000484,11.498598009347916,0.0,0.0,0.0,0.0,0.0,0.0,0.0,0.0,0.0,0.0,0.0,0.0,0.0,0.0,0.0,0.0,False,0,3.9874279499053955,0.034920166015625
STABILIZE,0.5425162315368652,29.918070089091465,0.03242352803548177,0.03256845474243164,0.0,0.0,0.0,0.6907135519881176,-1.0932163863335573,38.464620122277005,-0.0024888033582550384,-0.0025414890177398405,0.0031958830153099127,0.4,-0.018934080972264126,0.019970143836872217,0.6360158479192578,0.01500903568247362,0.026234303368255496,0.12073058169335127,1.2285549193620682,-0.022344456941594253,-8.410363644361496,0.8306842297315598,24.241819977760315,0.0,0.0,0.0,0.0,0.0,0.0,0.0,0.0,0.0,0.0,0.0,0.0,0.0,0.0,0.0,0.0,False,0,4.016158580780029,0.034919921875
STABILIZE,0.5760204792022705,29.84738658601672,0.03246787389119466,0.03260016441345215,0.0,0.0,0.0,0.6910511127435043,-1.093236663457656,38.4672873111479,-0.0030846441122853504,-0.0023335295189990907,0.003024940608278771,0.4,-0.017975250964463035,0.02140864356465173,0.6367674383061735,0.0141071206873364,0.026234303368255496,0.12073058169335127,1.2285549193620682,-0.022344456941594253,-8.410363644361496,0.8306842297315598,24.241819977760315,0.0,0.0,0.0,0.0,0.0,0.0,0.0,0.0,0.0,0.0,0.0,0.0,0.0,0.0,0.0,0.0,False,0,4.045032739639282,0.034919921875
STABILIZE,0.6094341278076172,29.927676456317606,0.03241089185078939,0.03252553939819336,0.0,0.0,0.0,0.6905649953736698,-1.0938031422719439,38.46918951883175,-0.003488338227960979,-0.002153340853256694,0.002667395390260413,0.4,-0.017078976357758145,0.02230634535772383,0.638375399860125,0.012278344456709365,0.021229467529337853,0.08808214333839715,1.2803083285689354,-0.0766887903717346,1.6998931765556335,0.6816353648900986,18.118299543857574,0.0,0.0,0.0,0.0,0.0,0.0,0.0,0.0,0.0,0.0,0.0,0.0,0.0,0.0,0.0,0.0,False,0,4.073862314224243,0.029930908203125
STABILIZE,0.6428637504577637,29.913375887030632,0.03243830998738607,0.03254890441894531,0.0,0.0,0.0,0.6909018090771161,-1.0938356923922072,38.47425410410131,-0.003532906721606443,-0.0015315114286801386,0.0022816117967764467,0.4,-0.015151870467821802,0.022083066233286604,0.632520415646711,0.010314945001094982,0.07800948224030435,0.029767813975922763,1.0115405544638634,-0.08450635542342409,0.8771139197051525,-1.2367673218250275,19.84901875257492,0.0,0.0,0.0,0.0,0.0,0.0,0.0,0.0,0.0,0.0,0.0,0.0,0.0,0.0,0.0,0.0,False,0,4.102413892745972,0.0349189453125
STABILIZE,0.6763904094696045,29.82870716078883,0.03242543538411458,0.03256845474243164,0.0,0.0,0.0,0.6906250796940248,-1.0935986634836665,38.47763846283505,-0.0036292424333660635,-0.00034813704009571043,0.002768827479748433,0.4,-0.014064117323277595,0.02230951215934663,0.633931917015477,0.012708493649131614,0.03174591693095863,0.04880965279880911,1.2560134753584862,0.17350290655568365,0.0853299512527883,0.5714412778615952,14.320427179336548,0.0,0.0,0.0,0.0,0.0,0.0,0.0,0.0,0.0,0.0,0.0,0.0,0.0,0.0,0.0,0.0,False,0,4.131229877471924,0.034919921875
STABILIZE,0.7097787857055664,29.949473744341145,0.032370599110921223,0.03248023986816406,0.0,0.0,0.0,0.6915461947366245,-1.0933902359922754,38.48196880276884,-0.003307894979904888,-0.001648484528440515,0.0031826180981341197,0.4,-0.01705740251738955,0.02235086343594043,0.6348180013068342,0.014728231536558743,-0.2098503289744258,0.038471262087114155,1.2263686396181583,0.14818518289101823,-5.679164081811905,2.4201003834605217,13.63852471113205,0.0,0.0,0.0,0.0,0.0,0.0,0.0,0.0,0.0,0.0,0.0,0.0,0.0,0.0,0.0,0.0,False,0,4.159778594970703,0.02993115234375
STABILIZE,0.7432956695556641,29.836133676677715,0.03240397771199544,0.032590389251708984,0.0,0.0,0.0,0.6919211080890347,-1.093561310886643,38.4837788028989,-0.003521566686682891,-0.002812535831731961,0.0032059976298253116,0.4,-0.019656455971464464,0.02389755894592986,0.6296953659472162,0.0147955286110323,-0.017143430886790156,0.14292467385530472,1.1524033732712269,-0.08236118243615084,-0.24466596078127623,0.5412977188825607,14.057676494121552,0.0,0.0,0.0,0.0,0.0,0.0,0.0,0.0,0.0,0.0,0.0,0.0,0.0,0.0,0.0,0.0,False,0,4.221630096435547,0.034817138671875
STABILIZE,0.7767443656921387,29.89567919713752,0.0324125607808431,0.03253912925720215,0.0,0.0,0.0,0.6919977342737857,-1.0933018704198885,38.486726029525755,-0.0034677020891835083,-0.002609908156705901,0.0038623459023860536,0.4,-0.01848782667084846,0.024336838802788027,0.62988995994802,0.018017007152319048,0.04106153210159391,0.061978044686838984,1.1611822992563248,0.22041372633260226,2.2206006571650505,0.47287815250456333,12.847316265106201,0.0,0.0,0.0,0.0,0.0,0.0,0.0,0.0,0.0,0.0,0.0,0.0,0.0,0.0,0.0,0.0,False,0,4.250379323959351,0.034919921875
STABILIZE,0.8102118968963623,29.88077054599339,0.03240922292073568,0.03252077102661133,0.0,0.0,0.0,0.692885872309299,-1.0936493562939127,38.49164376572816,-0.003814882616251936,-0.002718051901082709,0.0036822834734579345,0.4,-0.017498788578589584,0.025144852996165548,0.6295909649763206,0.017059678973587514,0.028514827135950327,0.0846535200253129,1.132424734532833,-0.03213999541813052,-0.12271599844098091,0.5626853555440903,18.759217858314514,0.0,0.0,0.0,0.0,0.0,0.0,0.0,0.0,0.0,0.0,0.0,0.0,0.0,0.0,0.0,0.0,False,0,4.2789716720581055,0.0349189453125
STABILIZE,0.8436453342437744,29.909536271776258,0.03237107594807943,0.03249835968017578,0.0,0.0,0.0,0.6937544802726542,-1.093371346250352,38.49437584139617,-0.0040512918671312854,-0.00261713161346585,0.0034953062243243227,0.4,-0.016487698509649228,0.025943898801345264,0.6292131636089272,0.01607103720391628,0.028514827135950327,0.0846535200253129,1.132424734532833,-0.03213999541813052,-0.12271599844098091,0.5626853555440903,18.759217858314514,0.0,0.0,0.0,0.0,0.0,0.0,0.0,0.0,0.0,0.0,0.0,0.0,0.0,0.0,0.0,0.0,False,0,4.3116161823272705,0.0349189453125
STABILIZE,0.8771030902862549,29.887158146759965,0.03238657315572103,0.032633066177368164,0.0,0.0,0.0,0.6938604549264952,-1.0940938521984924,38.50034884182534,-0.004050360046303186,-0.0018008290423306265,0.003312182709867986,0.4,-0.01620374041861738,0.025958475781195908,0.6312625809525093,0.015104745335484577,-0.015541345055680722,0.03879083087667823,1.2804621830582619,-0.02938736915165588,2.5978976860642433,-1.3627488166093826,18.377509713172913,0.0,0.0,0.0,0.0,0.0,0.0,0.0,0.0,0.0,0.0,0.0,0.0,0.0,0.0,0.0,0.0,False,0,4.340367078781128,0.06485107421875
STABILIZE,0.9106683731079102,29.794592751502407,0.03250888188680013,0.032622575759887695,0.0,0.0,0.0,0.6935275899261628,-1.0937656829532145,38.50363416281612,-0.004384909857133879,-0.0015314273106453978,0.003428486128055689,0.4,-0.017173829326962976,0.02790717940980075,0.6478260995977488,0.01563396140911109,-0.06495638517662883,0.09472414385527372,1.1204492300748825,0.03637286508400708,1.0876992717385292,0.6501658819615841,18.42236816883087,0.0,0.0,0.0,0.0,0.0,0.0,0.0,0.0,0.0,0.0,0.0,0.0,0.0,0.0,0.0,0.0,False,0,4.369017124176025,0.029931884765625
STABILIZE,0.944096565246582,29.914015918751605,0.032360347112019856,0.03248906135559082,0.0,0.0,0.0,0.6945816802141662,-1.093585216548738,38.50520510632522,-0.004422758820457292,-0.0017445754963788713,0.0031726037131525244,0.4,-0.016982987864075913,0.0282945983916756,0.6406649982520158,0.014306693944356378,-0.02772993757389486,0.07743758615106344,1.0369651950895786,-0.03900495585390819,1.3625802472233772,0.37731071934103966,11.940733343362808,0.0,0.0,0.0,0.0,0.0,0.0,0.0,0.0,0.0,0.0,0.0,0.0,0.0,0.0,0.0,0.0,False,0,4.397639751434326,0.034919189453125
STABILIZE,0.9778933525085449,29.592786487363654,0.03239396413167318,0.03280329704284668,0.0,0.0,0.0,0.6951585110339149,-1.0942604447812174,38.50948763493482,-0.004894367382486688,-0.0007186819088372012,0.0031328847923455007,0.4,-0.013443864354072656,0.030143709090059565,0.6341589247563444,0.014060698041282344,0.15754796331748366,0.1177435158751905,1.0944759473204613,0.08678793209089924,4.436783865094185,2.5793222710490227,17.310674488544464,0.0,0.0,0.0,0.0,0.0,0.0,0.0,0.0,0.0,0.0,0.0,0.0,0.0,0.0,0.0,0.0,False,0,4.455499172210693,0.034919921875
STABILIZE,1.0112760066986084,29.9503291869582,0.03231314023335775,0.03243112564086914,0.0,0.0,0.0,0.6954623477302747,-1.0943459288675483,38.51238705023749,-0.004712444855974167,-0.002712392155032998,0.0031812022858718277,0.4,-0.01831544642538467,0.03015944044575913,0.6306653673045793,0.01425459453355525,-0.3047109581530094,0.04803188785444945,1.04442797601223,0.04043341254557966,-4.884987324476242,0.43587335385382175,13.271011412143707,0.0,0.0,0.0,0.0,0.0,0.0,0.0,0.0,0.0,0.0,0.0,0.0,0.0,0.0,0.0,0.0,False,0,4.484247207641602,0.06485107421875
STABILIZE,1.0448367595672607,29.797767815912305,0.03238943417867025,0.032729148864746094,0.0,0.0,0.0,0.6962193247893825,-1.0939488174003356,38.517683861938835,-0.005111498356186664,-0.0048957310739406405,0.003301707348957318,0.4,-0.02421844722195894,0.0312742760349259,0.6436133863144795,0.014807309959915185,-0.3047109581530094,0.04803188785444945,1.04442797601223,0.04043341254557966,-4.884987324476242,0.43587335385382175,13.271011412143707,0.0,0.0,0.0,0.0,0.0,0.0,0.0,0.0,0.0,0.0,0.0,0.0,0.0,0.0,0.0,0.0,False,0,4.512821197509766,0.06485107421875
STABILIZE,1.0784218311309814,29.77682488747533,0.032494338353474934,0.03262066841125488,0.0,0.0,0.0,0.6968107764828233,-1.0939220302521844,38.51967827717648,-0.0051133222704909794,-0.004859142534391491,0.004119221693878992,0.4,-0.024752821749738033,0.032567013262610765,0.6547804334312085,0.018831786750810642,-0.008541614806745201,0.06656175246462226,1.0713438503444195,0.20535490678065632,-1.690797507762909,0.3062119008973241,13.97106945514679,0.0,0.0,0.0,0.0,0.0,0.0,0.0,0.0,0.0,0.0,0.0,0.0,0.0,0.0,0.0,0.0,False,0,4.541448354721069,0.034919921875
STABILIZE,1.1117870807647705,29.96830477714743,0.03234246571858724,0.03246188163757324,0.0,0.0,0.0,0.6969708590414955,-1.0939392124468152,38.52261867361417,-0.004484595648705093,-0.005908716767920622,0.004123808706512622,0.4,-0.027535735174489283,0.031065270426812567,0.6482446700333924,0.01879195165666425,-0.17866420093923807,-0.009092843538383022,1.0874255560338497,0.03199906607059281,-3.3981673419475555,0.21620446350425482,11.933325976133347,0.0,0.0,0.0,0.0,0.0,0.0,0.0,0.0,0.0,0.0,0.0,0.0,0.0,0.0,0.0,0.0,False,0,4.570638179779053,0.029930908203125
STABILIZE,1.1452445983886719,29.890352971358936,0.03243258794148763,0.032557010650634766,0.0,0.0,0.0,0.6978419216040838,-1.0935163810485091,38.52748859849239,-0.003473594072248961,-0.007640030554462468,0.004103619495083765,0.4,-0.030007219889019738,0.02946289654820326,0.639499389914998,0.018628705667422307,-0.17866420093923807,-0.009092843538383022,1.0874255560338497,0.03199906607059281,-3.3981673419475555,0.21620446350425482,11.933325976133347,0.0,0.0,0.0,0.0,0.0,0.0,0.0,0.0,0.0,0.0,0.0,0.0,0.0,0.0,0.0,0.0,False,0,4.598898410797119,0.029930908203125
STABILIZE,1.178657054901123,29.92874421126992,0.03241470654805501,0.032521963119506836,0.0,0.0,0.0,0.6981789487509416,-1.0937457259942334,38.52957522128383,-0.0030635375342575565,-0.005845003182893032,0.004442778775331077,0.4,-0.028243439454337396,0.02832068508209908,0.6540763042147948,0.020256807026276337,0.10638046078383923,0.02593256940599531,1.2926865369081497,0.08572183561099546,3.6738574504852295,0.48997458070516586,19.817347824573517,0.0,0.0,0.0,0.0,0.0,0.0,0.0,0.0,0.0,0.0,0.0,0.0,0.0,0.0,0.0,0.0,False,0,4.656524896621704,0.02993212890625
STABILIZE,1.2124545574188232,29.591116253474624,0.03243568738301595,0.03258466720581055,0.0,0.0,0.0,0.6970840907713296,-1.092894300225509,38.53253269319445,-0.0024875301376936693,-0.0031898504580819124,0.004625831668822038,0.4,-0.02474746568698108,0.027441581262813666,0.6485692630596116,0.021101387472327662,0.10638046078383923,0.02593256940599531,1.2926865369081497,0.08572183561099546,3.6738574504852295,0.48997458070516586,19.817347824573517,0.0,0.0,0.0,0.0,0.0,0.0,0.0,0.0,0.0,0.0,0.0,0.0,0.0,0.0,0.0,0.0,False,0,4.685208797454834,0.02993212890625
STABILIZE,1.2496604919433594,26.877260435490278,0.03207257588704427,0.036145925521850586,0.0,0.0,0.0,0.6970236862858573,-1.093529614540026,38.53851252381279,-0.0021085240614900948,-0.001987148876143506,0.0043151495080735545,0.4,-0.02152061126864291,0.027217400046923867,0.6472273323087381,0.01947520948410099,0.10297573171555996,0.05541519494727254,1.4653991907835007,-0.0360355044318187,0.6088146008551121,0.38364618085324764,17.399941384792328,0.0,0.0,0.0,0.0,0.0,0.0,0.0,0.0,0.0,0.0,0.0,0.0,0.0,0.0,0.0,0.0,False,0,4.714123964309692,0.0349189453125
STABILIZE,1.283092737197876,29.909109708703248,0.03226831754048665,0.03248405456542969,0.0,0.0,0.0,0.6968227293138709,-1.0936837206831744,38.54155537308803,-0.002360426246378927,-0.0016342980771531293,0.004258909910263688,0.4,-0.022386657408129878,0.026906476779080566,0.6451120350125641,0.019129878596031883,-0.09389777551405132,0.04411520785652101,1.2476335279643536,0.019311819599575536,2.8675561770796776,0.33714037854224443,14.8935005068779,0.0,0.0,0.0,0.0,0.0,0.0,0.0,0.0,0.0,0.0,0.0,0.0,0.0,0.0,0.0,0.0,False,0,4.742666959762573,0.034919921875
STABILIZE,1.3167059421539307,29.74915773570988,0.032384427388509114,0.03272414207458496,0.0,0.0,0.0,0.6959929680514201,-1.0949919153526435,38.547661562206024,-0.0027873189177283616,-0.0011522810060386947,0.0040180282528997305,0.4,-0.02268316685006872,0.02701763317744339,0.6399739656955985,0.017865341648553267,-0.06461999728344381,0.06454548565670848,1.0778340511023998,-0.027940516305950326,-0.49028145149350166,-1.5793099999427795,17.433956265449524,0.0,0.0,0.0,0.0,0.0,0.0,0.0,0.0,0.0,0.0,0.0,0.0,0.0,0.0,0.0,0.0,False,0,4.771480083465576,0.029930908203125
STABILIZE,1.350219488143921,29.839529887167227,0.03244593938191732,0.03257131576538086,0.0,0.0,0.0,0.6965155842446319,-1.0954757915666564,38.55007603407762,-0.0022033684006871617,-0.00012796584453784836,0.004075059338018432,0.4,-0.018648533684207623,0.02462003038383081,0.6282658832983016,0.018089972086857038,0.03036030102521181,-0.010518566705286503,1.3095465488731861,-0.0758497176404544,0.6916623562574387,0.3323388518765569,16.158613562583923,0.0,0.0,0.0,0.0,0.0,0.0,0.0,0.0,0.0,0.0,0.0,0.0,0.0,0.0,0.0,0.0,False,0,4.828815937042236,0.034919921875
STABILIZE,1.3836264610290527,29.934084129091193,0.03237202962239583,0.032489776611328125,0.0,0.0,0.0,0.6959043890356215,-1.094746562151052,38.5557075250483,-0.0024119868187814295,0.00029645720262167906,0.003411774453296664,0.4,-0.015138256111203813,0.02460683755790592,0.6273942098957906,0.014724326200602988,0.1407297677360475,0.05489820032380521,1.2386338785290718,-0.14333738942653557,4.590783268213272,0.38224111776798964,15.547032654285431,0.0,0.0,0.0,0.0,0.0,0.0,0.0,0.0,0.0,0.0,0.0,0.0,0.0,0.0,0.0,0.0,False,0,4.857449293136597,0.02993115234375
STABILIZE,1.4170925617218018,29.881196301098555,0.03240063985188802,0.032538652420043945,0.0,0.0,0.0,0.6958638347874245,-1.0944236222693573,38.55783512897476,-0.0021396499212645017,-4.806195337389784e-06,0.004073118320760954,0.4,-0.014047704681500206,0.023706054491120974,0.6237389462107064,0.017970906065032155,0.015034076932352036,0.010639411630108953,1.2378521263599396,0.21389533796624324,1.47722652181983,0.4247963894158602,17.675787210464478,0.0,0.0,0.0,0.0,0.0,0.0,0.0,0.0,0.0,0.0,0.0,0.0,0.0,0.0,0.0,0.0,False,0,4.886166095733643,0.034919921875
STABILIZE,1.4505641460418701,29.87502403931764,0.032395156224568684,0.032518625259399414,0.0,0.0,0.0,0.6969313720103564,-1.0946041953955394,38.560645751818214,-0.0025996154446982236,-0.0002606173484522908,0.003637991166652388,0.4,-0.015329744375953795,0.024771291077397544,0.6276064701380738,0.015742597220098985,-0.11311986017972231,0.11160689173266292,1.4602268114686012,-0.08749188847255351,-4.012712091207504,0.6914517842233181,24.70332980155945,0.0,0.0,0.0,0.0,0.0,0.0,0.0,0.0,0.0,0.0,0.0,0.0,0.0,0.0,0.0,0.0,False,0,4.914911270141602,0.0349189453125
STABILIZE,1.4839727878570557,29.933015993091782,0.03236559232076009,0.032512664794921875,0.0,0.0,0.0,0.6981594186787835,-1.0951326812825692,38.56685097867917,-0.0022682176180897516,0.0008868982146269896,0.0020735204152901076,0.4,-0.012327621468798115,0.023912738794086178,0.6229583132728035,0.007893839786654007,0.12381242122501135,0.005257114753476344,0.9858572855591774,-0.3974114886081507,-1.2462358921766281,-1.6541948541998863,11.847111582756042,0.0,0.0,0.0,0.0,0.0,0.0,0.0,0.0,0.0,0.0,0.0,0.0,0.0,0.0,0.0,0.0,False,0,4.943619728088379,0.034920166015625
STABILIZE,1.5174922943115234,29.834223647990214,0.03242352803548177,0.032547950744628906,0.0,0.0,0.0,0.6974359522352911,-1.095061391183107,38.569094695821526,-0.0025415609142483034,0.000985584806600697,0.0005136672674471204,0.4,-0.009364611748112598,0.02306947946142717,0.6184407984832501,9.425881343889768e-05,0.12381242122501135,0.005257114753476344,0.9858572855591774,-0.3974114886081507,-1.2462358921766281,-1.6541948541998863,11.847111582756042,0.0,0.0,0.0,0.0,0.0,0.0,0.0,0.0,0.0,0.0,0.0,0.0,0.0,0.0,0.0,0.0,False,0,4.972348928451538,0.034920166015625
STABILIZE,1.5509583950042725,29.880131936083664,0.032262357076009114,0.032385826110839844,0.0,0.0,0.0,0.698245116208526,-1.0938667484085896,38.57535456419584,-0.0021016150068996994,0.000968756369974919,7.835524741889527e-05,0.4,-0.0070703733828754,0.0218278849844786,0.6151289683256846,-0.002075360416835105,0.08915977668948472,-0.017776951426640153,1.0455087758600712,-0.0886344443845431,2.567872777581215,0.19655355717986822,7.143702358007431,0.0,0.0,0.0,0.0,0.0,0.0,0.0,0.0,0.0,0.0,0.0,0.0,0.0,0.0,0.0,0.0,False,0,5.003812789916992,0.029930908203125
STABILIZE,1.5844073295593262,29.898236459803545,0.03232935269673665,0.03244805335998535,0.0,0.0,0.0,0.6985730720103924,-1.0937895886153095,38.578100300242184,-0.001638748970365768,0.0012357732659197915,-0.0013948395268834606,0.4,-0.005600137831458693,0.019933436507491263,0.6077864398638553,-0.00940987809400716,0.12962110340595245,-0.015835418889764696,1.361770462244749,-0.2797470460439741,6.564079225063324,0.6185587961226702,22.029270231723785,0.0,0.0,0.0,0.0,0.0,0.0,0.0,0.0,0.0,0.0,0.0,0.0,0.0,0.0,0.0,0.0,False,0,5.060940742492676,0.034919921875
STABILIZE,1.6178669929504395,29.883964005044422,0.03229478200276693,0.032439231872558594,0.0,0.0,0.0,0.6984881215325904,-1.0935717696138096,38.581518809921775,-0.001587972045412853,0.0011000620194659282,-0.0011661870455614712,0.4,-0.0068295500930581655,0.020493776523553383,0.608399537799143,-0.008239030881227013,-0.10248664766550064,0.0801373680587858,1.2278546579182148,0.09021882148836127,-3.3944282680749893,0.5010752473026514,17.818406224250793,0.0,0.0,0.0,0.0,0.0,0.0,0.0,0.0,0.0,0.0,0.0,0.0,0.0,0.0,0.0,0.0,False,0,5.089618921279907,0.02993115234375
STABILIZE,1.6512317657470703,29.97087448015663,0.03232434590657552,0.032466888427734375,0.0,0.0,0.0,0.697998055459642,-1.0925405177708436,38.58646386688086,-0.0019280550798166794,-0.00026539198472634926,-0.001484469633386688,0.4,-0.008628967594268037,0.020860539679601095,0.601299652271271,-0.009797677240149252,-0.131102092564106,0.07187683950178325,0.9452172555029392,-0.08308756371623245,0.4397905897349119,0.39811027236282825,14.310182631015778,0.0,0.0,0.0,0.0,0.0,0.0,0.0,0.0,0.0,0.0,0.0,0.0,0.0,0.0,0.0,0.0,False,0,5.118354797363281,0.034919921875
STABILIZE,1.6848959922790527,29.705964842698698,0.03240254720052083,0.03272557258605957,0.0,0.0,0.0,0.6969616809747983,-1.0919832170232529,38.58953403691279,-0.0019832890521828297,-0.0013171910108152804,-0.0014222012963232172,0.4,-0.009584089712805601,0.02044295348416988,0.5974122698185476,-0.009454526557186739,-0.08329741540364921,0.021538554574362934,0.9419475682079792,0.036929678913815184,2.739967219531536,0.24883351288735867,7.848954200744629,0.0,0.0,0.0,0.0,0.0,0.0,0.0,0.0,0.0,0.0,0.0,0.0,0.0,0.0,0.0,0.0,False,0,5.147063970565796,0.034919189453125
STABILIZE,1.7183501720428467,29.8905659839512,0.03240087827046712,0.03252840042114258,0.0,0.0,0.0,0.6973569781730128,-1.092973381009493,38.593434074928865,-0.002137128785483691,-0.0022201258994328796,-0.0013452408864095887,0.4,-0.010566455136508933,0.020036430349353672,0.5935779991736698,-0.009039475708922792,-0.08329741540364921,0.021538554574362934,0.9419475682079792,0.036929678913815184,2.739967219531536,0.24883351288735867,7.848954200744629,0.0,0.0,0.0,0.0,0.0,0.0,0.0,0.0,0.0,0.0,0.0,0.0,0.0,0.0,0.0,0.0,False,0,5.17693018913269,0.034919189453125
STABILIZE,1.7518234252929688,29.875449630679594,0.032398494084676106,0.03253436088562012,0.0,0.0,0.0,0.697720152137787,-1.0936788114847085,38.595032339194645,-0.0029540654864426306,-0.0015986407335759826,-0.00042813716520863175,0.4,-0.007852753392590154,0.021041661802349478,0.5909111574883641,-0.004439104432257861,0.1316324225626886,0.10250948835164309,1.0058460757136345,0.2752788750271693,1.7878474667668343,0.5139613058418036,17.263510823249817,0.0,0.0,0.0,0.0,0.0,0.0,0.0,0.0,0.0,0.0,0.0,0.0,0.0,0.0,0.0,0.0,False,0,5.204374313354492,0.029900146484375
STABILIZE,1.785219669342041,29.943059481995487,0.03237799008687337,0.03250551223754883,0.0,0.0,0.0,0.697841814882378,-1.0935542672540615,38.597556094092965,-0.0018016937688697973,-0.0014166656688447048,0.0004866977164274314,0.4,-0.008160228363616037,0.01820023641651325,0.5889571976329105,0.0001346198409576363,0.15248467680066824,0.04393716808408499,1.156966295093298,0.16563861073707511,3.309471905231476,0.4449948202818632,17.39899218082428,0.0,0.0,0.0,0.0,0.0,0.0,0.0,0.0,0.0,0.0,0.0,0.0,0.0,0.0,0.0,0.0,False,0,5.262650728225708,0.0349189453125
STABILIZE,1.8186709880828857,29.89461380013257,0.03243687947591146,0.03255033493041992,0.0,0.0,0.0,0.698008300743397,-1.0943496641272505,38.60459801912725,-0.0016598052979412575,-0.0007771125872099529,0.0008271082227544208,0.4,-0.007575228236343403,0.018042845387398802,0.5872557030382035,0.0018305519463490824,0.01022799769998528,0.03305120626464486,1.030920073390007,0.10077858075978528,0.03322953125461936,0.15176384476944804,10.076954960823059,0.0,0.0,0.0,0.0,0.0,0.0,0.0,0.0,0.0,0.0,0.0,0.0,0.0,0.0,0.0,0.0,False,0,5.291558742523193,0.029930908203125
STABILIZE,1.8522109985351562,29.81640849926424,0.032419713338216145,0.03255891799926758,0.0,0.0,0.0,0.6993674016665238,-1.093824059726277,38.60723447214687,-0.0020582040803871528,-0.0008242580461831212,0.0007375893936705383,0.4,-0.008335841943218049,0.01886870151890395,0.5866921399419601,0.0013783462294655864,-0.06802199059166014,0.09347773739136755,1.2570268474519253,-0.024767503235242638,-1.8528720363974571,0.4833555780351162,19.083623588085175,0.0,0.0,0.0,0.0,0.0,0.0,0.0,0.0,0.0,0.0,0.0,0.0,0.0,0.0,0.0,0.0,False,0,5.320059299468994,0.034920166015625
STABILIZE,1.8857178688049316,29.84589986622264,0.03233221371968587,0.03246879577636719,0.0,0.0,0.0,0.698749056103226,-1.0936599217427851,38.61136332150015,-0.0020964041687931137,2.9860200302627412e-05,0.000910564928780936,0.4,-0.006609147602564327,0.01869744659467119,0.5881607033788381,0.0022357456274046243,0.08016728097572923,0.029731751419603825,1.1943819932639599,0.0518197380983876,5.212633311748505,0.4489629529416561,17.661213874816895,0.0,0.0,0.0,0.0,0.0,0.0,0.0,0.0,0.0,0.0,0.0,0.0,0.0,0.0,0.0,0.0,False,0,5.348745346069336,0.034920166015625
STABILIZE,1.919119119644165,29.93622062979987,0.032273324330647786,0.032410621643066406,0.0,0.0,0.0,0.6988096740321099,-1.0936719812955384,38.614887699111875,-0.0017997185839685656,1.6473905658224633e-06,0.0010851136952802344,0.4,-0.004879245131706547,0.01853369320771644,0.5896566790583812,0.0030981258940879536,0.08016728097572923,0.029731751419603825,1.1943819932639599,0.0518197380983876,5.212633311748505,0.4489629529416561,17.661213874816895,0.0,0.0,0.0,0.0,0.0,0.0,0.0,0.0,0.0,0.0,0.0,0.0,0.0,0.0,0.0,0.0,False,0,5.377323150634766,0.034920166015625
STABILIZE,1.9525115489959717,29.94840450978572,0.03233483632405599,0.03246808052062988,0.0,0.0,0.0,0.6996797760993461,-1.0940607684697004,38.61806715217051,-0.002185300460524632,-0.0003356635982135282,0.0010351487737407534,0.4,-0.00602077058424862,0.017708048659797387,0.5917155598007704,0.002838807739751488,-0.08867375436238945,-0.009665507241152227,1.226383913308382,-0.014293318096588832,-1.867988333106041,-1.4561427757143974,19.1117525100708,0.0,0.0,0.0,0.0,0.0,0.0,0.0,0.0,0.0,0.0,0.0,0.0,0.0,0.0,0.0,0.0,False,0,5.406131267547607,0.029930908203125
STABILIZE,1.9860174655914307,29.845262745935177,0.0323975404103597,0.03255462646484375,0.0,0.0,0.0,0.7001973763723861,-1.0947028062516815,38.62358936011447,-0.0022953483055825536,-0.0016718731914012986,-2.6385823809800784e-05,0.4,-0.009350196174915783,0.017902776530097062,0.5810440020785619,-0.002460628079988306,-0.13416176661849022,-0.023347277601715177,1.0213810950517654,-0.2119557376647315,-8.22574570775032,-1.87362190335989,6.9520920515060425,0.0,0.0,0.0,0.0,0.0,0.0,0.0,0.0,0.0,0.0,0.0,0.0,0.0,0.0,0.0,0.0,False,0,5.463587522506714,0.034919921875
STABILIZE,2.0193889141082764,29.964879191849914,0.03236368497212728,0.03248786926269531,0.0,0.0,0.0,0.6996172371797581,-1.09430793594029,38.625781850838045,-0.0020664916444841437,-0.0010620995591634687,-0.0005418777959211875,0.4,-0.008156422613641013,0.017808734677596135,0.5798604282521416,-0.0050213006052122295,0.05407396238297224,0.03190302231814712,1.021223422139883,-0.14734911170771312,1.3738085515797138,0.3073041792958975,11.265048384666443,0.0,0.0,0.0,0.0,0.0,0.0,0.0,0.0,0.0,0.0,0.0,0.0,0.0,0.0,0.0,0.0,False,0,5.492218017578125,0.02993115234375
STABILIZE,2.0528433322906494,29.892909322861357,0.032437833150227864,0.032569169998168945,0.0,0.0,0.0,0.6995408244384186,-1.093585323270444,38.63237981357628,-0.001986604629724582,-0.0009756674351587548,-0.00021802068747880677,0.4,-0.006763327072831126,0.017465880437606555,0.5723728516081458,-0.0033906742655594973,0.06436468102037907,0.020552935893647373,0.8053883910179138,0.09690180140546174,3.3294521272182465,0.3162861568853259,14.000843465328217,0.0,0.0,0.0,0.0,0.0,0.0,0.0,0.0,0.0,0.0,0.0,0.0,0.0,0.0,0.0,0.0,False,0,5.520896911621094,0.034919921875
STABILIZE,2.086369514465332,29.825525499900447,0.032384427388509114,0.03252840042114258,0.0,0.0,0.0,0.6995882088757855,-1.0930888538951486,38.63552853078365,-0.0023736162422702866,-0.001175405206003045,-0.0005135708492083437,0.4,-0.0061649665461897575,0.01842823568891973,0.5769763781806039,-0.004852173092070467,0.01812830741982907,0.09376841480843723,1.3515423983335495,-0.08460296524758275,4.811115562915802,0.3765286644920707,15.113353729248047,0.0,0.0,0.0,0.0,0.0,0.0,0.0,0.0,0.0,0.0,0.0,0.0,0.0,0.0,0.0,0.0,False,0,5.54960298538208,0.034919189453125
STABILIZE,2.1197707653045654,29.938998536707235,0.03237965901692708,0.03249621391296387,0.0,0.0,0.0,0.7007143363151914,-1.0930634541291726,38.638981191409094,-0.0024066853505450817,-0.0005042985246957612,-0.001477676691781503,0.4,-0.005056385459662209,0.017964144170999764,0.575970502119062,-0.009640496325003403,0.048634514678269625,0.007848980749258772,1.0143955238163471,-0.28242301277516463,3.4693866968154907,0.37535519804805517,15.503977239131927,0.0,0.0,0.0,0.0,0.0,0.0,0.0,0.0,0.0,0.0,0.0,0.0,0.0,0.0,0.0,0.0,False,0,5.5782411098480225,0.034919921875
STABILIZE,2.1532349586486816,29.882899442853276,0.03241923650105794,0.0325467586517334,0.0,0.0,0.0,0.7015014088953296,-1.092831334419098,38.643536927585494,-0.0026625835455378385,-0.00023257096904245203,-0.0009698801795755016,0.4,-0.0065125860369354424,0.018799394268475607,0.572864032947192,-0.007077836455155073,-0.1033725799061358,0.08503715507686138,0.8915864862501621,0.15497864645402892,-2.505386993288994,0.3741661552339792,14.89105075597763,0.0,0.0,0.0,0.0,0.0,0.0,0.0,0.0,0.0,0.0,0.0,0.0,0.0,0.0,0.0,0.0,False,0,5.607863903045654,0.029930908203125
STABILIZE,2.1866614818573,29.917003095621904,0.032401116689046223,0.0325164794921875,0.0,0.0,0.0,0.7012648068736121,-1.092921194095366,38.646241682496814,-0.0022238076593810168,5.6574918169098603e-05,0.00033624411635224563,0.4,-0.004910190941846972,0.017509194342728834,0.5638951169738465,-0.0005453918162706684,0.16810869565233588,-0.08317591855302453,1.0254960507154465,0.22698332777752317,4.099821671843529,-1.6036231070756912,13.853810727596283,0.0,0.0,0.0,0.0,0.0,0.0,0.0,0.0,0.0,0.0,0.0,0.0,0.0,0.0,0.0,0.0,False,0,5.665066957473755,0.034919921875
STABILIZE,2.2203330993652344,29.700495680498513,0.0324132760365804,0.03254866600036621,0.0,0.0,0.0,0.7010760161760847,-1.0931605708814338,38.649424550650046,-0.0024073184787753708,0.00044577348694577955,0.00046430523022387434,0.4,-0.002897058009968653,0.017785264809044136,0.5648645583282877,9.45971777307016e-05,0.10538407368585467,0.0513854727614671,1.1054773814976215,0.03312130817289755,1.4770720154047012,0.3863943973556161,15.50188809633255,0.0,0.0,0.0,0.0,0.0,0.0,0.0,0.0,0.0,0.0,0.0,0.0,0.0,0.0,0.0,0.0,False,0,5.693853855133057,0.034919921875
STABILIZE,2.253657102584839,30.006252638055244,0.03218701680501302,0.032385826110839844,0.0,0.0,0.0,0.7032257114956405,-1.093222469470787,38.654830645378105,-0.002599947853254532,-9.226523034438433e-05,0.00020798140835244657,0.4,-0.0039972713342706365,0.01895600789522902,0.5647046024117705,-0.0011830568910298864,-0.08205195772461593,0.10453322902321815,1.038217917084694,-0.08179117513546551,-2.9279373586177826,0.41282307356595993,14.227326214313507,0.0,0.0,0.0,0.0,0.0,0.0,0.0,0.0,0.0,0.0,0.0,0.0,0.0,0.0,0.0,0.0,False,0,5.722443103790283,0.02993115234375
STABILIZE,2.2871103286743164,29.892696276868694,0.03239587148030599,0.0325162410736084,0.0,0.0,0.0,0.7040175865525389,-1.0929679382024982,38.657081192709626,-0.002378904874179866,-0.0007540724539963337,0.0001396191737290805,0.4,-0.005098728276891616,0.018024512324595586,0.5601019969245488,-0.0015197855218327492,-0.0801710004452616,-0.017046833818312734,0.9284538216888905,-0.024119792527588495,-0.206330930814147,0.2979213371872902,10.89293658733368,0.0,0.0,0.0,0.0,0.0,0.0,0.0,0.0,0.0,0.0,0.0,0.0,0.0,0.0,0.0,0.0,False,0,5.751175403594971,0.034920166015625
STABILIZE,2.32053542137146,29.917429883876856,0.03237512906392415,0.032509803771972656,0.0,0.0,0.0,0.7048244026482466,-1.0924881174133048,38.661852079844884,-0.002324500694503281,-0.00014017985924046997,-0.00010446828571543826,0.4,-0.004357562023009511,0.018422367875963123,0.5617836792105708,-0.0027310867133827923,0.031779208802618086,0.057687185471877456,1.1367124505341053,-0.07641560948536052,5.157846212387085,0.37888449151068926,13.096444308757782,0.0,0.0,0.0,0.0,0.0,0.0,0.0,0.0,0.0,0.0,0.0,0.0,0.0,0.0,0.0,0.0,False,0,5.779940605163574,0.034919921875
STABILIZE,2.354323625564575,29.59905154406368,0.0324125607808431,0.03254199028015137,0.0,0.0,0.0,0.7055756167352422,-1.0929179924441925,38.66464904231,-0.0027759949989443933,0.00020381425249932621,0.00021765581071142912,0.4,-0.0023308842765852548,0.01881281104132949,0.56172889293978,-0.001116730275086489,0.10860271286219358,0.05690880352631211,1.033004466444254,0.09405415947030855,2.130039781332016,0.4748717416077852,15.485738217830658,0.0,0.0,0.0,0.0,0.0,0.0,0.0,0.0,0.0,0.0,0.0,0.0,0.0,0.0,0.0,0.0,False,0,5.808692693710327,0.029930908203125
STABILIZE,2.387505292892456,30.13517455436368,0.032063992818196614,0.03226923942565918,0.0,0.0,0.0,0.704762183893776,-1.092967084428852,38.667142061357055,-0.0025238886295342075,0.0009744708030113512,-6.495632982466814e-05,0.4,0.001157292653104039,0.01828743955477729,0.5581823065512259,-0.002521345563235161,0.0811376259662211,-0.011288977111689746,1.1300677433609962,-0.18747030990302915,1.2564916163682938,-1.4576996676623821,16.003236174583435,0.0,0.0,0.0,0.0,0.0,0.0,0.0,0.0,0.0,0.0,0.0,0.0,0.0,0.0,0.0,0.0,False,0,5.8667097091674805,0.034919921875
STABILIZE,2.420950412750244,29.898449584773854,0.03241613705952962,0.03255629539489746,0.0,0.0,0.0,0.7043774521444339,-1.0931861840908212,38.673825401459915,-0.002027494223840628,0.0019227631790912976,0.0002842632276251286,0.4,0.003066572113809269,0.017676431433118256,0.5625629339536751,-0.0007726609861793278,0.10225799633190036,-0.004060491846757941,1.2756172567605972,0.1038448621195516,-0.4788168240338564,0.6001538597047329,20.124445855617523,0.0,0.0,0.0,0.0,0.0,0.0,0.0,0.0,0.0,0.0,0.0,0.0,0.0,0.0,0.0,0.0,False,0,5.895062208175659,0.034919921875
STABILIZE,2.4544568061828613,29.844838014188433,0.03243378003438314,0.03258943557739258,0.0,0.0,0.0,0.704450129626071,-1.092745423445944,38.67771177909765,-0.0019779939678630032,0.0023980678083292996,0.0006630681987720262,0.4,0.0036554696470275936,0.016911270864404245,0.5616657874461999,0.0011176223443466532,0.02273232239531353,-0.012626757961697876,0.9574102237820625,0.11041749179287404,3.035379573702812,0.3903838573023677,13.494105637073517,0.0,0.0,0.0,0.0,0.0,0.0,0.0,0.0,0.0,0.0,0.0,0.0,0.0,0.0,0.0,0.0,False,0,5.9239442348480225,0.02993115234375
STABILIZE,2.487901449203491,29.899728398406033,0.032399924596150716,0.03252363204956055,0.0,0.0,0.0,0.7032402256476268,-1.092403593822326,38.682960779474804,-0.0018804368149344262,0.0022579529735919247,0.0010578716231152518,0.4,0.00375762362373648,0.016898055762733698,0.5617785407097617,0.0030813334685567237,0.0010023148206528276,0.03714316990226507,1.1854499578475952,0.11707013606510613,3.21400910615921,0.4031992983072996,13.72581273317337,0.0,0.0,0.0,0.0,0.0,0.0,0.0,0.0,0.0,0.0,0.0,0.0,0.0,0.0,0.0,0.0,False,0,5.9523632526397705,0.034919921875
STABILIZE,2.521381378173828,29.870343334496535,0.032407553990681966,0.032546281814575195,0.0,0.0,0.0,0.7037773559928248,-1.092910415203082,38.68596606270961,-0.0017754856459349338,0.0027857750244134147,0.0008417168836595364,0.4,0.006574160830941183,0.016859588111216316,0.56355501927446,0.0019938897095670887,0.16102894442155957,0.030944548780098557,1.1109955608844757,-0.07112471416857989,2.0895132794976234,-1.5731990337371826,14.537936449050903,0.0,0.0,0.0,0.0,0.0,0.0,0.0,0.0,0.0,0.0,0.0,0.0,0.0,0.0,0.0,0.0,False,0,5.981138229370117,0.034919189453125
STABILIZE,2.5547916889190674,29.92959847009041,0.03238657315572103,0.032499074935913086,0.0,0.0,0.0,0.7039851431539813,-1.0926681569309582,38.688684477999274,-0.0021437376333233752,0.002569307200949154,0.0005748544875642806,0.4,0.008287223558458442,0.0175289499852054,0.5647757847475886,0.0006573799915269162,0.09400057606399059,0.07340347510762513,1.082109846174717,-0.08368876043543241,-3.257925435900688,0.5318474024534225,18.999183177947998,0.0,0.0,0.0,0.0,0.0,0.0,0.0,0.0,0.0,0.0,0.0,0.0,0.0,0.0,0.0,0.0,False,0,6.0098631381988525,0.029931884765625
STABILIZE,2.588226556777954,29.909536271776258,0.03240564664204915,0.03253054618835449,0.0,0.0,0.0,0.7014156046438813,-1.100176989428035,38.68769068547504,-0.0028737533916020274,0.000498765273334224,0.0006609772121286049,0.4,0.0037931420151591745,0.019147233050739437,0.5625557354213714,0.0010843686883022727,-0.36684880033135414,0.09983229683712125,1.1269966140389442,0.10904126203596937,-4.615464061498642,-1.535072736442089,15.765273571014404,0.0,0.0,0.0,0.0,0.0,0.0,0.0,0.0,0.0,0.0,0.0,0.0,0.0,0.0,0.0,0.0,False,0,6.067137718200684,0.0349189453125
STABILIZE,2.621809244155884,29.778304733370724,0.032416375478108723,0.03255581855773926,0.0,0.0,0.0,0.6846339365748658,-1.1136825145729718,38.66155838171057,-0.00299294262321361,0.001046601523993936,7.38062925698151e-06,0.4,0.005708546088073311,0.018962976810457933,0.5653764646113015,-0.00217632944715728,0.1157853752374649,0.019378101569600403,1.1616948060691357,-0.20020259626893952,4.30518239736557,0.45511997304856777,17.340712249279022,0.0,0.0,0.0,0.0,0.0,0.0,0.0,0.0,0.0,0.0,0.0,0.0,0.0,0.0,0.0,0.0,False,0,6.095883846282959,0.034919921875
STABILIZE,2.655137777328491,30.003462237292016,0.03228762944539388,0.03239774703979492,0.0,0.0,0.0,0.6293986236437957,-1.1675563787033878,38.630580058729976,0.0019738095312451997,-0.0003417961808727373,0.005854243778906117,0.4,0.0019103730855079453,0.005132750645993342,0.5527433568488053,0.026967865250424786,-0.23091582115739584,-0.8055807091295719,0.2317506354302168,1.7646318791520388,-11.381442099809647,-30.192798376083374,-16.273310780525208,0.0,0.0,0.0,0.0,0.0,0.0,0.0,0.0,0.0,0.0,0.0,0.0,0.0,0.0,0.0,0.0,False,0,6.12453293800354,0.02993212890625
STABILIZE,2.688634157180786,29.856310016158538,0.03239134152730306,0.032526493072509766,0.0,0.0,0.0,0.614301771143952,-1.1779474443085043,38.6645807404183,0.005455369694351136,-0.003223741845627198,0.009738663326127417,0.4,-0.004248500302526761,-0.004581191749478689,0.5566362590934969,0.046235227299959145,-0.3722988534718752,-0.5588517524302006,1.4036275446414948,1.1827407430019723,-2.6340682059526443,4.20127771794796,32.482513785362244,0.0,0.0,0.0,0.0,0.0,0.0,0.0,0.0,0.0,0.0,0.0,0.0,0.0,0.0,0.0,0.0,False,0,6.160303354263306,0.0349189453125
STABILIZE,2.722184181213379,29.80539073214755,0.03233197530110677,0.032454729080200195,0.0,0.0,0.0,0.6129484331929375,-1.1750871958718558,38.715499800680746,0.0013659772477733819,0.0025250129067718313,0.007675484205980515,0.4,0.01289904407737738,0.007233001209784247,0.5461589195139773,0.03579963268627938,1.047009602189064,0.760891567915678,0.3598218783736229,-0.6588586169162359,29.66180443763733,26.42948627471924,10.030422359704971,0.0,0.0,0.0,0.0,0.0,0.0,0.0,0.0,0.0,0.0,0.0,0.0,0.0,0.0,0.0,0.0,False,0,6.189064979553223,0.034920166015625
STABILIZE,2.7556419372558594,29.889713951797955,0.03223708470662435,0.03237199783325195,0.0,0.0,0.0,0.5971583164923373,-1.1913634299422904,38.71021323426316,-7.481108669235142e-05,0.012648525835141896,0.00010895048135846754,0.4,0.03808044256033787,0.012324097027891147,0.5478921110189766,-0.002026257596411271,1.512615941464901,0.3370080143213272,1.112663373351097,-2.2860013493968565,20.771902799606323,6.994521617889404,16.922131180763245,0.0,0.0,0.0,0.0,0.0,0.0,0.0,0.0,0.0,0.0,0.0,0.0,0.0,0.0,0.0,0.0,False,0,6.217720985412598,0.029930908203125
STABILIZE,2.7911884784698486,28.1323209830172,0.03222206433614095,0.03234982490539551,0.0,0.0,0.0,0.6164489051425689,-1.1750517642655363,38.70919895117141,0.002030265225279248,0.0101154508268924,-0.0024501345292746142,0.4,0.032291062648133195,0.006343380223161083,0.5413350294401346,-0.014772260797366404,-0.33640009351074696,-0.3361628856509924,0.7607459090650082,-0.756354658119702,-32.47281014919281,-34.68197584152222,5.540203303098679,0.0,0.0,0.0,0.0,0.0,0.0,0.0,0.0,0.0,0.0,0.0,0.0,0.0,0.0,0.0,0.0,False,0,6.246427536010742,0.034919921875
STABILIZE,2.8224081993103027,32.02981290568919,0.030137093861897786,0.030240297317504883,0.0,0.0,0.0,0.6507897089072179,-1.128097415372872,38.72607293351592,-0.003610037049803639,0.007063251296446409,-0.0026073683488930296,0.4,0.021250045150356972,0.012821999242115027,0.5350354521772788,-0.015506565782109918,-0.6750623695552349,0.4198899492621422,0.6178585346788168,-0.011025579506840192,0.5697735119611025,81.15145564079285,-47.589120268821716,0.0,0.0,0.0,0.0,0.0,0.0,0.0,0.0,0.0,0.0,0.0,0.0,0.0,0.0,0.0,0.0,False,0,6.275316953659058,0.034919921875
STABILIZE,2.8559067249298096,29.851847634231053,0.03234055836995443,0.03246927261352539,0.0,0.0,0.0,0.697998055459642,-1.041019653809497,38.713891291131205,-0.02641090992938807,-1.563909442584457e-05,-0.013040121897683206,0.4,-0.0026245433020731495,0.06976896135838262,0.5130776434589964,-0.0674449672424304,-0.7295073010027409,3.0290409922599792,0.0801450340077281,-3.0506023937222913,-60.4356586933136,46.63474261760712,34.69558358192444,0.0,0.0,0.0,0.0,0.0,0.0,0.0,0.0,0.0,0.0,0.0,0.0,0.0,0.0,0.0,0.0,False,0,6.332416534423828,0.034919921875
STABILIZE,2.889359712600708,29.891418064681652,0.03230002721150716,0.032422780990600586,0.0,0.0,0.0,0.694027581117749,-1.0697353699058172,38.694882874671066,-0.022057610200658613,-0.010675268925544617,-0.011222015188158647,0.4,-0.02084517913770422,0.0654648496431294,0.5074454653559913,-0.05815994064911216,-1.058555580675602,-0.26475507766008377,0.6803446915000677,0.5956236583632001,-19.926603138446808,-71.59362435340881,42.77394711971283,0.0,0.0,0.0,0.0,0.0,0.0,0.0,0.0,0.0,0.0,0.0,0.0,0.0,0.0,0.0,0.0,False,0,6.361090183258057,0.02993115234375
STABILIZE,2.922769069671631,29.930666362196185,0.03228929837544759,0.03240489959716797,0.0,0.0,0.0,0.7027198506102365,-1.0765841286526359,38.683920421053195,-0.019902026729000155,-0.03113665411572947,-0.008532144098679275,0.4,-0.061000646588284496,0.06279275173394619,0.47678580632289236,-0.04456155703953411,-2.4055365473031998,-0.10235143126919866,-0.7118986919522285,0.78506663895632,-17.41519272327423,39.234328269958496,-75.34729242324829,0.0,0.0,0.0,0.0,0.0,0.0,0.0,0.0,0.0,0.0,0.0,0.0,0.0,0.0,0.0,0.0,False,0,6.391709327697754,0.034920166015625
STABILIZE,2.9563047885894775,29.821496370345617,0.0323212464650472,0.03244805335998535,0.0,0.0,0.0,0.7004180768599421,-1.0861231281587933,38.696539195544794,-0.020603784910284403,-0.04451776787380045,-0.005926513538112578,0.4,-0.10207221951909487,0.06074110691428602,0.4479819513485127,-0.031428236673694626,-2.4055365473031998,-0.10235143126919866,-0.7118986919522285,0.78506663895632,-17.41519272327423,39.234328269958496,-75.34729242324829,0.0,0.0,0.0,0.0,0.0,0.0,0.0,0.0,0.0,0.0,0.0,0.0,0.0,0.0,0.0,0.0,False,0,6.420311212539673,0.034920166015625
STABILIZE,2.9896082878112793,30.024295439415305,0.03222158749898275,0.03235435485839844,0.0,0.0,0.0,0.7186309897251927,-1.0636513789026283,38.740976406284894,-0.015992153573131263,-0.03928330335379591,0.006024900107357614,0.4,-0.09476732003118596,0.05232381124294079,0.45738202284546337,0.028234483783224774,0.488145649433136,-0.46728821471333504,1.572333462536335,3.5333420215688096,71.8327522277832,-48.030275106430054,147.3138451576233,0.0,0.0,0.0,0.0,0.0,0.0,0.0,0.0,0.0,0.0,0.0,0.0,0.0,0.0,0.0,0.0,False,0,6.449000120162964,0.034919921875
STABILIZE,3.0230281352996826,29.921484979704232,0.03236583073933919,0.032498836517333984,0.0,0.0,0.0,0.7105380693323738,-1.0603515437598658,38.75152563345798,-0.006620097687400188,-0.02724823838132311,0.01251525703655041,0.4,-0.0771454887690991,0.06419320449807572,0.42958586510865215,0.06048392442114828,1.0631469078361988,0.7519891951233149,-0.6611797027289867,1.855652260692098,30.503228306770325,57.80588388442993,-44.59369778633118,0.0,0.0,0.0,0.0,0.0,0.0,0.0,0.0,0.0,0.0,0.0,0.0,0.0,0.0,0.0,0.0,False,0,6.47779107093811,0.029930908203125
STABILIZE,3.056600332260132,29.790360384675484,0.03241756757100423,0.03254365921020508,0.0,0.0,0.0,0.7103672078814177,-1.0766058998806154,38.73575814175901,-0.018061841173720502,-0.017768273517822102,0.01980440294493614,0.4,-0.06279819585184532,0.09315184164215906,0.3961873859066543,0.09660650168815002,-0.34620140213519335,1.167587749660015,0.7327014580368996,0.33478703157303763,-4.2959969490766525,17.728933691978455,-29.381322860717773,0.0,0.0,0.0,0.0,0.0,0.0,0.0,0.0,0.0,0.0,0.0,0.0,0.0,0.0,0.0,0.0,False,0,6.535203695297241,0.06983984375
STABILIZE,3.0899574756622314,29.97644368210406,0.03227070172627767,0.03241324424743652,0.0,0.0,0.0,0.7113120151427009,-1.0926776551627726,38.68440194938968,-0.0211130947833126,-0.013171139863318313,0.020710927401253375,0.4,-0.07669692985253306,0.09981197242205486,0.40732948592824525,0.10080190666902653,-0.5638095084577799,0.033257625182159245,1.246457826346159,-0.363054223020385,-50.17184019088745,-3.3955082297325134,1.9154325127601624,0.0,0.0,0.0,0.0,0.0,0.0,0.0,0.0,0.0,0.0,0.0,0.0,0.0,0.0,0.0,0.0,False,0,6.563749551773071,0.02993115234375
STABILIZE,3.1241965293884277,29.208855338203445,0.03239157994588216,0.0331876277923584,0.0,0.0,0.0,0.7132655559670303,-1.08585429618193,38.67697070357271,-0.020834797405232003,-0.00620080441588912,0.01903748418497701,0.4,-0.08471160695740501,0.09756821836106769,0.4116718693558945,0.09212035540485425,-0.5638095084577799,0.033257625182159245,1.246457826346159,-0.363054223020385,-50.17184019088745,-3.3955082297325134,1.9154325127601624,0.0,0.0,0.0,0.0,0.0,0.0,0.0,0.0,0.0,0.0,0.0,0.0,0.0,0.0,0.0,0.0,False,0,6.592479467391968,0.02993115234375
STABILIZE,3.15905499458313,28.683708779560405,0.03225758870442708,0.03403162956237793,0.0,0.0,0.0,0.7206393855062938,-1.0755090141885937,38.72817663178029,-0.011607570766391016,-0.013239799247215439,0.026526724409879594,0.4,-0.09988902410296494,0.06530367413316815,0.4370554903337981,0.12911374919704485,-0.9808492846786976,-1.66801568120718,2.4225138127803802,2.21820489169531,-39.911335706710815,-27.574121952056885,52.35928297042847,0.0,0.0,0.0,0.0,0.0,0.0,0.0,0.0,0.0,0.0,0.0,0.0,0.0,0.0,0.0,0.0,False,0,6.6211161613464355,0.034920166015625
STABILIZE,3.1926307678222656,29.78486010509871,0.0325191338857015,0.03264904022216797,0.0,0.0,0.0,0.7222190801952708,-1.0756653614875635,38.76024095483891,-0.005073211121951601,-0.011811867169242232,0.026034825692136016,0.4,-0.08418215110750557,0.05497627315641863,0.4531647768576186,0.12623165699410774,0.8153935894370079,-0.45337057672441006,1.7840683460235596,-0.10540078454856579,19.08496469259262,-9.011319279670715,35.668325424194336,0.0,0.0,0.0,0.0,0.0,0.0,0.0,0.0,0.0,0.0,0.0,0.0,0.0,0.0,0.0,0.0,False,0,6.649797677993774,0.064849853515625
STABILIZE,3.226026773452759,29.942418206868982,0.0323822816212972,0.03249549865722656,0.0,0.0,0.0,0.6984590932286179,-1.1275771470571876,38.73595621724493,-0.005906510357060536,-0.012153005819343473,0.019313009697381117,0.4,-0.07556073006157091,0.07651845541748199,0.4776398236539922,0.0923140999213277,0.5805479362607002,1.219738181680441,1.4867806807160378,-2.1069942575252814,6.549824774265289,22.370517253875732,41.2680447101593,0.0,0.0,0.0,0.0,0.0,0.0,0.0,0.0,0.0,0.0,0.0,0.0,0.0,0.0,0.0,0.0,False,0,6.678571939468384,0.034919921875
STABILIZE,3.2595231533050537,29.85503491376549,0.032428773244222005,0.03256964683532715,0.0,0.0,0.0,0.5935331935903531,-1.1950807603980698,38.723313537091244,-0.011831586082556099,-0.003947328310708987,0.01065848589469257,0.4,-0.06193658473961886,0.09737891381105138,0.48824711057156245,0.048877860320151914,0.5805479362607002,1.219738181680441,1.4867806807160378,-2.1069942575252814,6.549824774265289,22.370517253875732,41.2680447101593,0.0,0.0,0.0,0.0,0.0,0.0,0.0,0.0,0.0,0.0,0.0,0.0,0.0,0.0,0.0,0.0,False,0,6.715644121170044,0.034919921875
STABILIZE,3.293287515640259,29.616607823753707,0.032385857899983723,0.0328671932220459,0.0,0.0,0.0,0.5927625561529052,-1.2022194820194967,38.841253828584435,-0.010028352615731182,-0.0017405060757788506,0.016999449203690075,0.4,-0.06098378172673862,0.09081393263912194,0.46010390824368497,0.08031137277253811,-0.08316839812323451,-0.21416526287794113,-0.5494219250977039,1.815288617461673,20.837494730949402,-72.05302119255066,-98.40559959411621,0.0,0.0,0.0,0.0,0.0,0.0,0.0,0.0,0.0,0.0,0.0,0.0,0.0,0.0,0.0,0.0,False,1,6.744306564331055,0.034836669921875
STABILIZE,3.3267338275909424,29.899088977915913,0.03242662747701009,0.03254365921020508,0.0,0.0,0.0,0.6147186261267343,-1.1958899243713048,38.67929638298509,-0.020310186784796937,0.0292663669547788,0.005825588864222745,0.4,0.01567705958481985,0.09886995473395793,0.4635552544148151,0.024360600240528066,2.398972027003765,3.2037008553743362,1.055389642715454,-5.34631819310961,109.38655138015747,151.56971216201782,74.02617931365967,0.0,0.0,0.0,0.0,0.0,0.0,0.0,0.0,0.0,0.0,0.0,0.0,0.0,0.0,0.0,0.0,False,0,6.8018670082092285,0.034919189453125
STABILIZE,3.360156774520874,29.920631183969295,0.03241613705952962,0.03253054618835449,0.0,0.0,0.0,0.6004967848925926,-1.2028216058835157,38.72202946152728,-0.009417782260374095,0.026154922006072712,0.013766003048183829,0.4,0.017461840346795873,0.06162523523034455,0.4486629563897324,0.06384929388309513,-0.029870134312659502,-1.8787948414683342,0.0989357940852642,2.295358495116363,1.5108492225408554,-157.28994607925415,48.495349287986755,0.0,0.0,0.0,0.0,0.0,0.0,0.0,0.0,0.0,0.0,0.0,0.0,0.0,0.0,0.0,0.0,False,0,6.830373764038086,0.034919921875
STABILIZE,3.3938369750976562,29.692505911169633,0.032431634267171223,0.03255629539489746,0.0,0.0,0.0,0.5627159136637844,-1.229031282884676,38.80621154304769,0.00909245291291175,0.024644174620682142,0.02175568683113095,0.4,0.018920593385278975,0.02438668479105685,0.4338683849823658,0.1034515427532793,-0.029870134312659502,-1.8787948414683342,0.0989357940852642,2.295358495116363,1.5108492225408554,-157.28994607925415,48.495349287986755,0.0,0.0,0.0,0.0,0.0,0.0,0.0,0.0,0.0,0.0,0.0,0.0,0.0,0.0,0.0,0.0,False,0,6.859368801116943,0.034919921875
STABILIZE,3.4270877838134766,30.07100659592773,0.032181533177693684,0.03232121467590332,0.0,0.0,0.0,0.5677383438595652,-1.2276355764164661,38.812939279380146,0.02335773344996614,0.025791991470095914,0.03347781399214995,0.4,0.031035296416941575,-0.0015353202508155209,0.41648098162702946,0.1615216900596493,0.5660282913595438,-1.272167731076479,-0.050233432557433844,3.304663232731963,22.448544204235077,67.27755665779114,17.31160134077072,0.0,0.0,0.0,0.0,0.0,0.0,0.0,0.0,0.0,0.0,0.0,0.0,0.0,0.0,0.0,0.0,False,0,6.887849807739258,0.029930908203125
STABILIZE,3.4604995250701904,29.92938490081347,0.03240493138631185,0.03251457214355469,0.0,0.0,0.0,0.5634360717343976,-1.223759444062484,38.82637426147756,0.00747413660507546,0.029483088813765546,0.011079800262059437,0.4,0.04208393967363238,0.03845346572522052,0.42017681036479265,0.049366636508897804,0.5815389100462198,2.3067256435751915,1.1798635125160217,-5.977165137022566,-3.352108597755432,22.23784327507019,24.8849093914032,0.0,0.0,0.0,0.0,0.0,0.0,0.0,0.0,0.0,0.0,0.0,0.0,0.0,0.0,0.0,0.0,False,0,6.916552305221558,0.034920166015625
STABILIZE,3.4940104484558105,29.84207755247243,0.03242972691853841,0.03263521194458008,0.0,0.0,0.0,0.5507070537207268,-1.2336792266148697,38.77087214428204,0.03108289004054716,0.014930112557357747,0.017001377071279432,0.4,0.05251346613429237,-0.021961057483158575,0.41905224462697566,0.07871077973661733,0.5068366415798664,-3.241083398461342,0.807171780616045,1.796255014678963,-21.95470780134201,-87.9126489162445,7.756556570529938,0.0,0.0,0.0,0.0,0.0,0.0,0.0,0.0,0.0,0.0,0.0,0.0,0.0,0.0,0.0,0.0,False,0,6.950782537460327,0.034919921875
STABILIZE,3.5274384021759033,29.914229268744965,0.03244498570760091,0.03254866600036621,0.0,0.0,0.0,0.5548423063763465,-1.2317016734067394,38.85919332043947,0.01765302610682211,0.019564992237148925,0.00832340051890633,0.4,0.06666626810857014,-0.009370597347673277,0.4182953495449308,0.03520320893979921,0.7317491807043552,0.8205175399780273,0.8197820745408535,-2.2707977751912316,13.710825145244598,75.81759691238403,58.41556787490845,0.0,0.0,0.0,0.0,0.0,0.0,0.0,0.0,0.0,0.0,0.0,0.0,0.0,0.0,0.0,0.0,False,1,6.977945566177368,0.029930908203125
STABILIZE,3.5609395503997803,29.85014803006149,0.03244498570760091,0.03258013725280762,0.0,0.0,0.0,0.5539166023003982,-1.2145237476441573,38.92331855146214,0.029031908819383695,0.015677181718935704,0.015764599530294982,0.4,0.05671601617739669,-0.06585886599949876,0.4268219454624267,0.07216766288091288,0.20616212859749794,-1.6157057136297226,1.372885424643755,-1.3179699508317624,37.20216155052185,28.995323181152344,-11.111249774694443,0.0,0.0,0.0,0.0,0.0,0.0,0.0,0.0,0.0,0.0,0.0,0.0,0.0,0.0,0.0,0.0,False,0,7.035677433013916,0.034919921875
STABILIZE,3.5944485664367676,29.844413294530344,0.03239444096883138,0.032526493072509766,0.0,0.0,0.0,0.6729042606141324,-1.14000937200708,38.767723427074664,-0.0038370780185021987,0.015489801414588528,-0.002029452909080503,0.4,0.06433738083875104,0.00850760232213535,0.42952552010994555,-0.01674653522911565,0.41761286556720734,4.309716448187828,0.9847468696534634,-4.90226411639181,-7.153825461864471,107.55269527435303,-6.066063418984413,0.0,0.0,0.0,0.0,0.0,0.0,0.0,0.0,0.0,0.0,0.0,0.0,0.0,0.0,0.0,0.0,False,0,7.06401515007019,0.034919921875
