E-kp,E-ki,E-kd,E-I-Tot,E-P,E-I,E-D,E-PID,N-kp,N-ki,N-kd,N-I-Tot,N-P,N-I,N-D,N-PID,D-kp,D-ki,D-kd,D-I-Tot,D-P,D-I,D-D,D-PID,Y-kp,Y-ki,Y-kd,Y-I-Tot,Y-P,Y-I,Y-D,Y-PID,errorN,desiredN,actualN,errorE,desiredE,actualE,errorD,desiredD,actualD,errorY,desiredY,actualY,roll,pitch,yaw-rate,thrust,dt,Time,Mode
0.17,0.004,0.1,-0.000950381223704639,-0.004895090985506372,-3.8015248948185564e-06,-0.08724204691891213,-0.09214093942931333,0.17,0.004,0.1,0.0022084242087046396,0.011374843238237007,8.833696834818558e-06,0.2027264887259063,0.21411016566097812,0.002,8e-05,0,-0.021292157853562647,-0.0012902197111110518,-1.7033726282850119e-06,-0.0,-0.0012919230837393368,0.2,0.02,0,0.00019198410298982335,0.0011633469731016407,3.839682059796467e-06,0.0,0.0011671866551614372,0.06691084257786474,0.0,-0.06691084257786474,-0.028794652855919835,0.0,0.028794652855919835,-0.6451098555555259,0.0,0.6451098555555259,0.005816734865508203,0,-0.005816734865508203,-0.09216267567007119,-0.21410081030117833,-0.0011671866551614372,0.4,0.033005475997924805,0.03360414505004883,STABILIZE
0.17,0.004,0.1,-0.0019162026081965403,-0.004915076826854134,-7.664810432786162e-06,-0.04379698918752126,-0.048719730824808176,0.17,0.004,0.1,0.004432833212477189,0.011320044599799217,1.7731332849908758e-05,0.10088076868720347,0.11221854461985259,0.002,8e-05,0,-0.04300053999373803,-0.001299696728960634,-3.4400431994990424e-06,-0.0,-0.001303136772160133,0.2,0.02,0,0.00028613395045083603,0.0005636820283846001,5.722679009016721e-06,0.0,0.0005694047073936169,0.06658849764587774,0.0,-0.06658849764587774,-0.028912216628553724,0.0,0.028912216628553724,-0.649848364480317,0.0,0.649848364480317,0.0028184101419230006,0,-0.0028184101419230006,-0.048725250856293895,-0.11221614793438082,-0.0005694047073936169,0.4,0.033405303955078125,0.0666499137878418,STABILIZE
0.17,0.004,0.1,-0.002959698887220878,-0.005309607405207036,-1.1838795548883513e-05,-0.03151343036917485,-0.03683487656993077,0.17,0.004,0.1,0.006573533021886584,0.010892492660340682,2.6294132087546338e-05,0.06474461106729199,0.07566339785972022,0.002,8e-05,0,-0.06521933784968172,-0.0013300658339619224,-5.217547027974538e-06,-0.0,-0.001335283380989897,0.2,0.02,0,0.0005317679646619472,0.0014704189312101737,1.0635359293238943e-05,0.0,0.0014810542905034127,0.06407348623729812,0.0,-0.06407348623729812,-0.031232984736511978,0.0,0.031232984736511978,-0.6650329169809611,0.0,0.6650329169809611,0.007352094656050868,0,-0.007352094656050868,-0.03684458526210855,-0.07565867064959285,-0.0014810542905034127,0.4,0.033410072326660156,0.10005950927734375,STABILIZE
0.17,0.004,0.1,-0.004347943394246697,-0.005514338232466652,-1.7391773576986787e-05,-0.02433855454155942,-0.02987028454760306,0.17,0.004,0.1,0.009093838495994964,0.010011072806724503,3.6375353983979854e-05,0.045529784981730846,0.05557723314243933,0.002,8e-05,0,-0.0933863131309186,-0.001316281338220715,-7.470905050473488e-06,-0.0,-0.0013237522432711884,0.2,0.02,0,0.0007982577707953534,0.0012453433680297372,1.5965155415907066e-05,0.0,0.0012613085234456443,0.05888866356896766,0.0,-0.05888866356896766,-0.03243728372039207,0.0,0.03243728372039207,-0.6581406691103575,0.0,0.6581406691103575,0.006226716840148685,0,-0.006226716840148685,-0.0298763243220716,-0.055573986609979885,-0.0012613085234456443,0.4,0.04279780387878418,0.14287638664245605,STABILIZE
0.17,0.004,0.1,-0.005465337536353494,-0.005693380941743797,-2.186135014541398e-05,-0.02010216813823175,-0.02581741043012096,0.17,0.004,0.1,0.010882055196818074,0.009111376640098034,4.3528220787272295e-05,0.033251399242964184,0.04240630410384949,0.002,8e-05,0,-0.11502354872378584,-0.0012970200841226724,-9.201883897902869e-06,-0.0,-0.0013062219680205754,0.2,0.02,0,0.0009678786157832876,0.0010167733382157804,1.9357572315665753e-05,0.0,0.0010361309105314462,0.05359633317704726,0.0,-0.05359633317704726,-0.033490476127904685,0.0,0.033490476127904685,-0.6485100420613362,0.0,0.6485100420613362,0.005083866691078902,0,-0.005083866691078902,-0.025821173048859256,-0.04240401315260556,-0.0010361309105314462,0.4,0.03336453437805176,0.17623496055603027,STABILIZE
0.17,0.004,0.1,-0.006548908446671605,-0.005506327809451959,-2.619563378668642e-05,-0.001995946645992355,-0.007528470089231,0.17,0.004,0.1,0.012790637475912539,0.009698746597875889,5.116254990365016e-05,-0.005228287166891739,0.004521621980887801,0.002,8e-05,0,-0.13659282413223722,-0.0012895000266937861,-1.0927425930578978e-05,-0.0,-0.0013004274526243651,0.2,0.02,0,0.0011458564210067672,0.0010640245452874766,2.2917128420135346e-05,-0.0,0.001086941673707612,0.05705145057574052,0.0,-0.05705145057574052,-0.03239016358501152,0.0,0.03239016358501152,-0.6447500133468931,0.0,0.6447500133468931,0.005320122726437383,0,-0.005320122726437383,-0.00752888990591777,-0.004520922915408208,-0.001086941673707612,0.4,0.03345370292663574,0.20972418785095215,STABILIZE
0.17,0.004,0.1,-0.007822035147888913,-0.0054285250360105895,-3.128814059155565e-05,-0.0016959785582775758,-0.007155791734879721,0.17,0.004,0.1,0.01480127846027774,0.008573235414526462,5.920511384111096e-05,-0.008356475152996964,0.00027596537537060914,0.002,8e-05,0,-0.16269568325793252,-0.0013094212127725718,-1.3015654660634603e-05,-0.0,-0.0013224368674332064,0.2,0.02,0,0.00133189788832524,0.0009332565547286756,2.66379577665048e-05,0.0,0.0009598945124951804,0.05043079655603801,0.0,-0.05043079655603801,-0.031932500211826996,0.0,0.031932500211826996,-0.6547106063862859,0.0,0.6547106063862859,0.0046662827736433776,0,-0.0046662827736433776,-0.007155814186319845,-0.00027538259247824156,-0.0009598945124951804,0.4,0.03986930847167969,0.24959206581115723,STABILIZE
0.17,0.004,0.1,-0.00890284384688533,-0.005488927019067026,-3.561137538754132e-05,-0.0005190023153742294,-0.0060435407098287965,0.17,0.004,0.1,0.01636026393746852,0.00791736550236068,6.544105574987408e-05,-0.009156027499976058,-0.0011732209418655031,0.002,8e-05,0,-0.1844849256678028,-0.0013018526448770103,-1.4758794053424225e-05,0.0,-0.0013166114389304346,0.2,0.02,0,0.0014555339389510232,0.0007386944276521175,2.9110678779020466e-05,-0.0,0.000767805106431138,0.04657273824918047,0.0,-0.04657273824918047,-0.03228780599451191,0.0,0.03228780599451191,-0.6509263224385051,0.0,0.6509263224385051,0.0036934721382605876,0,-0.0036934721382605876,-0.0060434650676373875,0.0011736105257010745,-0.000767805106431138,0.4,0.03347420692443848,0.2830657958984375,STABILIZE
0.17,0.004,0.1,-0.00998737616307083,-0.005516599604959681,-3.994950465228332e-05,-5.3628545552340535e-05,-0.005610177655164305,0.17,0.004,0.1,0.01772294529402842,0.0069314370084648455,7.089178117611369e-05,-0.010203704629841664,-0.0032013758402007052,0.002,8e-05,0,-0.20638506854821212,-0.0013105602431747107,-1.651080548385697e-05,0.0,-0.0013270710486585676,0.2,0.02,0,0.0016987810007900817,0.001455652277047483,3.397562001580163e-05,0.0,0.0014896278970632846,0.04077315887332262,0.0,-0.04077315887332262,-0.03245058591152753,0.0,0.03245058591152753,-0.6552801215873554,0.0,0.6552801215873554,0.007278261385237415,0,-0.007278261385237415,-0.005609770940328568,0.0032020884731329274,-0.0014896278970632846,0.4,0.03342103958129883,0.3165316581726074,STABILIZE
0.17,0.004,0.1,-0.011196887797309617,-0.006146489673231801,-4.478755118923847e-05,-0.0016375095340068835,-0.007828786758427922,0.17,0.004,0.1,0.019095535657848047,0.006975222278125875,7.638214263139219e-05,-0.006877291287932446,0.00017431313282482118,0.002,8e-05,0,-0.22843468937443023,-0.0013182546319232275,-1.8274775149954422e-05,-0.0,-0.001336529407073182,0.2,0.02,0,0.0018650266472937619,0.000993913207250995,3.7300532945875235e-05,-0.0,0.0010312137401968702,0.04103071928309338,0.0,-0.04103071928309338,-0.03615582160724588,0.0,0.03615582160724588,-0.6591273159616138,0.0,0.6591273159616138,0.004969566036254975,0,-0.004969566036254975,-0.00782880184807996,-0.00017363410008228237,-0.0010312137401968702,0.4,0.033452749252319336,0.3499295711517334,STABILIZE
0.17,0.004,0.1,-0.012542436309535302,-0.006658237386403287,-5.016974523814121e-05,-0.004047781094537766,-0.010756188226179193,0.17,0.004,0.1,0.020515848052182328,0.007028194820479513,8.206339220872931e-05,-0.008761500283474567,-0.0016512420707863245,0.002,8e-05,0,-0.2508923358628042,-0.0013073902147440624,-2.0071386869024336e-05,-0.0,-0.0013274616016130869,0.2,0.02,0,0.001955842519421269,0.0005286920097545258,3.9116850388425384e-05,-0.0,0.0005678088601429513,0.041342322473408896,0.0,-0.041342322473408896,-0.03916610227296051,0.0,0.03916610227296051,-0.6536951073720312,0.0,0.6536951073720312,0.002643460048772629,0,-0.002643460048772629,-0.010756112031241256,0.0016517383281614841,-0.0005678088601429513,0.4,0.03435492515563965,0.38428211212158203,STABILIZE
0.17,0.004,0.1,-0.013824094758382947,-0.0065153538493261266,-5.529637903353179e-05,-0.0037746962692920168,-0.010345346497651675,0.17,0.004,0.1,0.021906856272334987,0.00707123709110215,8.762742508933996e-05,-0.005288898614629887,0.0018699659015616035,0.002,8e-05,0,-0.27225891671155494,-0.0012778556785501324,-2.1780713336924396e-05,0.0,-0.0012996363918870567,0.2,0.02,0,0.001992943925326681,0.00022188970034106036,3.9858878506533616e-05,-0.0,0.000261748578847594,0.04159551230060088,0.0,-0.04159551230060088,-0.038325610878388976,0.0,0.038325610878388976,-0.6389278392750661,0.0,0.6389278392750661,0.0011094485017053017,0,-0.0011094485017053017,-0.010345382704851604,-0.001869765578791683,-0.000261748578847594,0.4,0.03344130516052246,0.41774487495422363,STABILIZE
0.17,0.004,0.1,-0.015183876286769891,-0.00690407812651289,-6.073550514707957e-05,-0.00492828314598423,-0.0118930967776442,0.17,0.004,0.1,0.023411421143211417,0.0076391929130410355,9.364568457284566e-05,-0.0009881605241427102,0.006744678073471171,0.002,8e-05,0,-0.2938121274788327,-0.001287447742484526,-2.3504970198306616e-05,0.0,-0.0013109527126828327,0.2,0.02,0,0.002117324877574321,0.0007429703996697178,4.234649755148642e-05,0.0,0.0007853168972212042,0.04493642890024138,0.0,-0.04493642890024138,-0.04061222427360523,0.0,0.04061222427360523,-0.643723871242263,0.0,0.643723871242263,0.0037148519983485886,0,-0.0037148519983485886,-0.011893534053282008,-0.006743906953732001,-0.0007853168972212042,0.4,0.03348207473754883,0.45124101638793945,STABILIZE
0.17,0.004,0.1,-0.016410305152912277,-0.006239886365638204,-6.564122061164911e-05,-0.0024922499186994115,-0.008797777504949264,0.17,0.004,0.1,0.024990777342540488,0.008035527772334324,9.996310937016195e-05,0.003877951729617061,0.012013442611321546,0.002,8e-05,0,-0.3152629785348073,-0.0012839849067741527,-2.5221038282784584e-05,0.0,-0.0013092059450569374,0.2,0.02,0,0.0021725365279420096,0.00033048071409949717,4.3450730558840195e-05,-0.0,0.00037393144465833737,0.04726781042549602,0.0,-0.04726781042549602,-0.03670521391551884,0.0,0.03670521391551884,-0.6419924533870763,0.0,0.6419924533870763,0.0016524035704974858,0,-0.0016524035704974858,-0.00879812396756835,-0.012013188879452737,-0.00037393144465833737,0.4,0.033412933349609375,0.4846608638763428,STABILIZE
0.17,0.004,0.1,-0.01759383895417818,-0.006014004180765779,-7.037535581671273e-05,0.0005172786749191425,-0.005567100861663349,0.17,0.004,0.1,0.026549125577998194,0.007918584828846829,0.00010619650231199278,0.0033127329220494594,0.011337514253208282,0.002,8e-05,0,-0.33686557218262086,-0.0012914275017089126,-2.694924577460967e-05,0.0,-0.0013183767474835224,0.2,0.02,0,0.0022746935017634628,0.0006107059533461842,4.549387003526926e-05,-0.0,0.0006561998233814535,0.046579910757922525,0.0,-0.046579910757922525,-0.035376495180975166,0.0,0.035376495180975166,-0.6457137508544563,0.0,0.6457137508544563,0.003053529766730921,0,-0.003053529766730921,-0.005567705076922291,-0.011337217543209072,-0.0006561998233814535,0.4,0.03345537185668945,0.5181112289428711,STABILIZE
0.17,0.004,0.1,-0.01873319666020005,-0.005785198994820943,-7.493278664080021e-05,0.0030737384525791503,-0.0027863933288825925,0.17,0.004,0.1,0.028085995154825752,0.007803603981472526,0.00011234398061930301,0.002727298486825041,0.010643246448916871,0.002,8e-05,0,-0.3586094888507556,-0.0012989040092977017,-2.8688759108060452e-05,0.0,-0.0013275927684057622,0.2,0.02,0,0.002424485795658886,0.0008948057246181296,4.848971591317772e-05,0.0,0.0009432954405313073,0.04590355283219132,0.0,-0.04590355283219132,-0.03403058232247613,0.0,0.03403058232247613,-0.6494520046488509,0.0,0.6494520046488509,0.004474028623090648,0,-0.004474028623090648,-0.0027872244145730612,-0.010643028836681355,-0.0009432954405313073,0.4,0.03348040580749512,0.5515995025634766,STABILIZE
0.17,0.004,0.1,-0.019884801042182508,-0.005861198086885514,-7.953920416873003e-05,0.0023033870702748043,-0.0036373502207794396,0.17,0.004,0.1,0.029617604627895016,0.007795269498675845,0.00011847041851158007,0.0025465192758976594,0.010460259193085084,0.002,8e-05,0,-0.38015169744399063,-0.0012898950958120166,-3.041213579551925e-05,-0.0,-0.0013203072316075358,0.2,0.02,0,0.0025503967958657382,0.0007539244686666301,5.1007935917314766e-05,0.0,0.0008049324045839449,0.04585452646279908,0.0,-0.04585452646279908,-0.034477635805208906,0.0,0.034477635805208906,-0.6449475479060083,0.0,0.6449475479060083,0.0037696223433331504,0,-0.0037696223433331504,-0.0036380384176418323,-0.010460019860731019,-0.0008049324045839449,0.4,0.0334014892578125,0.5849621295928955,STABILIZE
0.17,0.004,0.1,-0.021015984199723996,-0.005745655883070193,-8.406393679889598e-05,0.004075403726546238,-0.0017543160933228509,0.17,0.004,0.1,0.031031937032098854,0.0071838651810306586,0.00012412774812839541,-0.0015982786404180223,0.005709714288741031,0.002,8e-05,0,-0.4013980739360561,-0.0012696167077152023,-3.211184591488449e-05,0.0,-0.0013017285536300867,0.2,0.02,0,0.0027214736264532333,0.0010223013910064234,5.442947252906467e-05,0.0,0.001076730863535488,0.04225803047665093,0.0,-0.04225803047665093,-0.03379797578276584,0.0,0.03379797578276584,-0.6348083538576011,0.0,0.6348083538576011,0.005111506955032117,0,-0.005111506955032117,-0.00175482546494697,-0.005709557758874035,-0.001076730863535488,0.4,0.03346896171569824,0.618497371673584,STABILIZE
0.17,0.004,0.1,-0.022129639550591197,-0.0056605780238936825,-8.851855820236479e-05,0.002036049037043262,-0.003713047545052785,0.17,0.004,0.1,0.032331516943851724,0.006605610508703253,0.0001293260677754069,-0.005027823479598241,0.0017071130968804183,0.002,8e-05,0,-0.42240389444555393,-0.0012561187471755797,-3.379231155564432e-05,0.0,-0.001289911058731224,0.2,0.02,0,0.0029381874330475905,0.0012959183151730284,5.876374866095181e-05,0.0,0.0013546820638339803,0.03885653240413678,0.0,-0.03885653240413678,-0.03329751778760989,0.0,0.03329751778760989,-0.6280593735877898,0.0,0.6280593735877898,0.006479591575865142,0,-0.006479591575865142,-0.0037132405790823698,-0.00170669317664869,-0.0013546820638339803,0.4,0.03344559669494629,0.6519384384155273,STABILIZE
0.17,0.004,0.1,-0.02331566114048926,-0.00599337330537194,-9.326264456195705e-05,7.78999579877708e-05,-0.006008735991946126,0.17,0.004,0.1,0.03350231165527166,0.005916426673226086,0.00013400924662108665,-0.007026749801400319,-0.0009763138815531468,0.002,8e-05,0,-0.4440047235245579,-0.0012841927953647762,-3.552037788196464e-05,0.0,-0.0013197131732467409,0.2,0.02,0,0.003192870063665139,0.0015141159542876475,6.385740127330279e-05,0.0,0.0015779733555609503,0.034802509842506386,0.0,-0.034802509842506386,-0.035255137090423175,0.0,0.035255137090423175,-0.6420963976823881,0.0,0.6420963976823881,0.007570579771438237,0,-0.007570579771438237,-0.006008606937634097,0.000977107816588106,-0.0015779733555609503,0.4,0.03364109992980957,0.6855168342590332,STABILIZE
0.17,0.004,0.1,-0.024366821801776056,-0.005337826103103199,-9.746728720710423e-05,0.001577628916112852,-0.003857664474197451,0.17,0.004,0.1,0.03465996272611798,0.0058785876715404094,0.00013863985090447194,-0.0067556918319229015,-0.0007384643094780199,0.002,8e-05,0,-0.4655477867288006,-0.0012870157201126378,-3.724382293830405e-05,0.0,-0.0013242595430509418,0.2,0.02,0,0.0032661242015193603,0.0004376314829875895,6.53224840303872e-05,-0.0,0.0005029539670179768,0.03457992747964946,0.0,-0.03457992747964946,-0.03139897707707764,0.0,0.03139897707707764,-0.6435078600563189,0.0,0.6435078600563189,0.0021881574149379473,0,-0.0021881574149379473,-0.0038576362690250212,0.0007386116352730024,-0.0005029539670179768,0.4,0.0334775447845459,0.7190394401550293,STABILIZE
0.17,0.004,0.1,-0.025288422966461686,-0.004683855155461295,-0.00010115369186584674,0.00414543661887658,-0.0006395722284505611,0.17,0.004,0.1,0.0358111920391234,0.0058508946814079844,0.0001432447681564936,-0.006823736815795872,-0.0008295973662313938,0.002,8e-05,0,-0.4871272637084133,-0.0012902754387263797,-3.8970181096673066e-05,-0.0,-0.0013292456198230526,0.2,0.02,0,0.0031592612543354295,-0.0006389526316676043,6.318522508670859e-05,-0.0,-0.0005757674065808957,0.034417027537694024,0.0,-0.034417027537694024,-0.027552089149772318,0.0,0.027552089149772318,-0.6451377193631899,0.0,0.6451377193631899,-0.0031947631583380213,0,0.0031947631583380213,-0.0006396184850886107,0.0008295617029469434,0.0005757674065808957,0.4,0.033449411392211914,0.7525410652160645,STABILIZE
0.17,0.004,0.1,-0.02629356637984366,-0.005107167977971417,-0.00010517426551937464,0.0022508039427369254,-0.0029615383007538655,0.17,0.004,0.1,0.03684390889870886,0.005247269598912192,0.00014737563559483543,-0.006797102590003908,-0.0014024573554968804,0.002,8e-05,0,-0.5086860581247792,-0.0012887172940703616,-4.069488464998234e-05,-0.0,-0.001329412178720344,0.2,0.02,0,0.003050221706884349,-0.0006518043069752551,6.100443413768698e-05,-0.0,-0.0005907998728375681,0.03086629175830701,0.0,-0.03086629175830701,-0.030042164576302446,0.0,0.030042164576302446,-0.6443586470351808,0.0,0.6443586470351808,-0.003259021534876275,0,0.003259021534876275,-0.0029616180686575697,0.0014022888989863695,0.0005907998728375681,0.4,0.03345775604248047,0.7859680652618408,STABILIZE
0.17,0.004,0.1,-0.027363490078242687,-0.005275021899291745,-0.00010945396031297076,0.001378826601251042,-0.0040056492583536735,0.17,0.004,0.1,0.03777326946476275,0.0045820064978540995,0.000151093077859051,-0.007032903646346372,-0.0022998040706332214,0.002,8e-05,0,-0.5308628405955992,-0.0012863260674234422,-4.246902724764794e-05,-0.0,-0.0013287950946710902,0.2,0.02,0,0.0029852554060892083,-0.0003768258372323372,5.970510812178417e-05,-0.0,-0.000317120729110553,0.02695297939914176,0.0,-0.02695297939914176,-0.031029540584069083,0.0,0.031029540584069083,-0.6431630337117211,0.0,0.6431630337117211,-0.001884129186161686,0,0.001884129186161686,-0.004005724883537877,0.0022996723465867766,0.000317120729110553,0.4,0.03448081016540527,0.8204751014709473,STABILIZE
0.17,0.004,0.1,-0.028624902877552906,-0.00594749178370188,-0.00011449961151021162,0.00034842530035052513,-0.005713566094861567,0.17,0.004,0.1,0.03852756402295304,0.003556457243640634,0.00015411025609181217,-0.007969046352517689,-0.004258478852785243,0.002,8e-05,0,-0.5549098338200463,-0.0013338852576146182,-4.439278670560371e-05,-0.0,-0.001378278044320222,0.2,0.02,0,0.003068728785227048,0.000463026328472713,6.137457570454096e-05,-0.0,0.000524400904177254,0.020920336727297845,0.0,-0.020920336727297845,-0.03498524578648165,0.0,0.03498524578648165,-0.666942628807309,0.0,0.666942628807309,0.002315131642363565,0,-0.002315131642363565,-0.005713394019248593,0.004258709715487214,-0.000524400904177254,0.4,0.036055564880371094,0.8565104007720947,STABILIZE
0.17,0.004,0.1,-0.029727719634664238,-0.005500519628528962,-0.00011891087853865696,-0.0004124920687708522,-0.006031922575838471,0.17,0.004,0.1,0.039301698224084115,0.0038611494982998444,0.00015720679289633646,-0.006784367248221193,-0.0027660109570250124,0.002,8e-05,0,-0.5773312248690162,-0.0013156609656298835,-4.6186497989521305e-05,-0.0,-0.0013618474636194048,0.2,0.02,0,0.003122122398241792,0.0003133074674270673,6.244244796483585e-05,-0.0,0.00037574991539190316,0.022712644107646143,0.0,-0.022712644107646143,-0.03235599781487625,0.0,0.03235599781487625,-0.6578304828149417,0.0,0.6578304828149417,0.0015665373371353364,0,-0.0015665373371353364,-0.006031846947430022,0.0027661758762000947,-0.00037574991539190316,0.4,0.03408384323120117,0.8905441761016846,STABILIZE
0.17,0.004,0.1,-0.03072396272076955,-0.005059421385550456,-0.0001228958508830782,-0.001162360468824157,-0.006344677705257691,0.17,0.004,0.1,0.040037384462537955,0.003736183206490083,0.00016014953785015181,-0.0071261646820772575,-0.003229831937737023,0.002,8e-05,0,-0.5991918852073993,-0.0013061103844663406,-4.793535081659195e-05,-0.0,-0.0013540457352829325,0.2,0.02,0,0.003226842545652285,0.0006256721886645768,6.453685091304569e-05,0.0,0.0006902090395776224,0.021977548273471075,0.0,-0.021977548273471075,-0.029761302267943854,0.0,0.029761302267943854,-0.6530551922331703,0.0,0.6530551922331703,0.0031283609433228835,0,-0.0031283609433228835,-0.006344501346335047,0.003230178353585581,-0.0006902090395776224,0.4,0.03347444534301758,0.9240460395812988,STABILIZE
0.17,0.004,0.1,-0.03172072230452434,-0.005067205388322903,-0.00012688288921809738,0.00029874370122789473,-0.004895344576313106,0.17,0.004,0.1,0.04095235087482298,0.00465139519100499,0.00016380940349929192,-0.0017838233391018411,0.0030313812554024406,0.002,8e-05,0,-0.6209272679548111,-0.0012999494192743458,-4.96741814363849e-05,-0.0,-0.0013496236007107308,0.2,0.02,0,0.0033445366223595952,0.0007039045433231083,6.68907324471919e-05,0.0,0.0007707952757703002,0.027361148182382288,0.0,-0.027361148182382288,-0.029807090519546487,0.0,0.029807090519546487,-0.6499747096371729,0.0,0.6499747096371729,0.003519522716615541,0,-0.003519522716615541,-0.0048955307765201975,-0.003031080542081813,-0.0007707952757703002,0.4,0.033440351486206055,0.9575016498565674,STABILIZE
0.17,0.004,0.1,-0.0328757985659804,-0.005870613410748445,-0.0001315031942639216,-0.001954344031071207,-0.007956460636083573,0.17,0.004,0.1,0.04192682530036371,0.004952714224945923,0.00016770730120145482,0.0015458447018664074,0.0066662662280137855,0.002,8e-05,0,-0.6422517796529131,-0.0012750669629047215,-5.1380142372233055e-05,0.0,-0.0013264471052769546,0.2,0.02,0,0.003479034996711063,0.0008042127113054233,6.958069993422125e-05,0.0,0.0008737934112396445,0.029133613087917197,0.0,-0.029133613087917197,-0.034533020063226144,0.0,0.034533020063226144,-0.6375334814523608,0.0,0.6375334814523608,0.004021063556527116,0,-0.004021063556527116,-0.007956928460375885,-0.006665707820836793,-0.0008737934112396445,0.4,0.03344845771789551,0.9909307956695557,STABILIZE
0.17,0.004,0.1,-0.034191088190403035,-0.006685699411079877,-0.00013676435276161215,-0.002627336896734433,-0.009449800660575922,0.17,0.004,0.1,0.04296348245093688,0.0052693931225384506,0.00017185392980374753,0.006006126235231642,0.01144737328757384,0.002,8e-05,0,-0.6632807901809042,-0.0012575503004590264,-5.306246321447234e-05,0.0,-0.0013106127636734988,0.2,0.02,0,0.0036312385565992296,0.0009101884856328619,7.262477113198459e-05,0.0,0.0009828132567648465,0.03099643013257912,0.0,-0.03099643013257912,-0.039327643594587514,0.0,0.039327643594587514,-0.6287751502295132,0.0,0.6287751502295132,0.004550942428164309,0,-0.004550942428164309,-0.009450709883370916,-0.011446622663914255,-0.0009828132567648465,0.4,0.03344440460205078,1.0244202613830566,STABILIZE
0.17,0.004,0.1,-0.03544199339131067,-0.006359834838489146,-0.0001417679735652427,-0.0030236047757599173,-0.009525207587814305,0.17,0.004,0.1,0.0440230303429575,0.00538693866795906,0.00017609212137183,0.005368001484223669,0.01093103227355456,0.002,8e-05,0,-0.6840666970447766,-0.0012432872801564038,-5.4725335763582135e-05,0.0,-0.0012980126159199859,0.2,0.02,0,0.0036549691313251414,0.00014194195086483048,7.309938262650283e-05,-0.0,0.0002150413334913333,0.031687874517406234,0.0,-0.031687874517406234,-0.03741079316758321,0.0,0.03741079316758321,-0.6216436400782018,0.0,0.6216436400782018,0.0007097097543241524,0,-0.0007097097543241524,-0.009525342987287477,-0.010930914286141843,-0.0002150413334913333,0.4,0.03343701362609863,1.057800531387329,STABILIZE
0.17,0.004,0.1,-0.03669142901970409,-0.006344943594536064,-0.00014676571607881637,-0.004521526151660987,-0.011013235462275867,0.17,0.004,0.1,0.04506881657738515,0.00531076152992201,0.0001802752663095406,0.005539485945894564,0.011030522742126115,0.002,8e-05,0,-0.7046940526674194,-0.0012323626006519924,-5.6375524213393554e-05,0.0,-0.001288738124865386,0.2,0.02,0,0.0036174324084792754,-0.0002242597365970944,7.234864816958552e-05,-0.0,-0.00015191108842750888,0.031239773705423586,0.0,-0.031239773705423586,-0.03732319761491802,0.0,0.03732319761491802,-0.6161813003259962,0.0,0.6161813003259962,-0.001121298682985472,0,0.001121298682985472,-0.011013019588932907,-0.011030738272929524,0.00015191108842750888,0.4,0.03347611427307129,1.091294288635254,STABILIZE
0.17,0.004,0.1,-0.03782966637517287,-0.00578371134016507,-0.00015131866550069148,-0.002520589228842192,-0.008455619234507952,0.17,0.004,0.1,0.04605957708787191,0.005034339079066671,0.00018423830835148763,0.0013476343415155395,0.006566211728933698,0.002,8e-05,0,-0.7249488225304647,-0.0012108271834049603,-5.7995905802437176e-05,0.0,-0.0012688230892073974,0.2,0.02,0,0.003666879979626235,0.00029559685793974797,7.33375995925247e-05,-0.0,0.00036893445753227266,0.029613759288627476,0.0,-0.029613759288627476,-0.0340218314127357,0.0,0.0340218314127357,-0.6054135917024801,0.0,0.6054135917024801,0.0014779842896987397,0,-0.0014779842896987397,-0.008455788611671011,-0.006565993608198391,-0.00036893445753227266,0.4,0.03345608711242676,1.1247663497924805,STABILIZE
0.17,0.004,0.1,-0.03902314699370197,-0.006045762872996514,-0.00015609258797480788,-0.0006134506045795035,-0.006815306065550825,0.17,0.004,0.1,0.04710980172209364,0.005320077262510874,0.00018843920688837456,0.0012895122607853588,0.0067980287301846075,0.002,8e-05,0,-0.745989140300098,-0.0012539179156061345,-5.9679131224007845e-05,0.0,-0.0013135970468301423,0.2,0.02,0,0.003692549850900912,0.00015298205965822844,7.385099701801824e-05,-0.0,0.00022683305667624666,0.031294572132416903,0.0,-0.031294572132416903,-0.03556331101762655,0.0,0.03556331101762655,-0.6269589578030672,0.0,0.6269589578030672,0.0007649102982911422,0,-0.0007649102982911422,-0.0068153968200083065,-0.00679793774385805,-0.00022683305667624666,0.4,0.033559322357177734,1.158313512802124,STABILIZE
0.17,0.004,0.1,-0.04021989744442468,-0.006084979280485265,-0.00016087958977769874,0.0021157770469730805,-0.004130081823289883,0.17,0.004,0.1,0.048176760945001,0.0054250447623338666,0.000192707043780004,0.0005448877111811192,0.00616263951729499,0.002,8e-05,0,-0.7669819390236502,-0.0012557607949197727,-6.135855512189202e-05,0.0,-0.0013171193500416648,0.2,0.02,0,0.0036939517173205315,8.385775106287173e-06,7.387903434641063e-05,-0.0,8.22648094526978e-05,0.031912028013728624,0.0,-0.031912028013728624,-0.03579399576756038,0.0,0.03579399576756038,-0.6278803974598863,0.0,0.6278803974598863,4.192887553143587e-05,0,-4.192887553143587e-05,-0.004130086333089455,-0.006162636494912142,-8.22648094526978e-05,0.4,0.033434391021728516,1.1917400360107422,STABILIZE
0.17,0.004,0.1,-0.041292773484003925,-0.005453262748841141,-0.0001651710939360157,0.0031913211041673635,-0.0024271127386097935,0.17,0.004,0.1,0.04921595613936014,0.005282068228866308,0.00019686382455744056,-0.00037161817448485695,0.005107313878938892,0.002,8e-05,0,-0.7878178744617229,-0.0012459509752020927,-6.302542995693784e-05,-0.0,-0.0013089764051590306,0.2,0.02,0,0.0035963076132441885,-0.0005838939511894916,7.192615226488377e-05,-0.0,-0.0005119677989246078,0.031070989581566514,0.0,-0.031070989581566514,-0.03207801616965377,0.0,0.03207801616965377,-0.6229754876010464,0.0,0.6229754876010464,-0.002919469755947458,0,0.002919469755947458,-0.0024268524955508414,-0.0051074375442840625,0.0005119677989246078,0.4,0.03344583511352539,1.2252278327941895,STABILIZE
0.17,0.004,0.1,-0.0424288608913997,-0.005775626801864149,-0.00016971544356559883,0.0020048493232849222,-0.003940492922144826,0.17,0.004,0.1,0.050255407559150554,0.005284349989530171,0.00020102163023660223,-9.587674795131639e-05,0.005389494871815457,0.002,8e-05,0,-0.8084095119242034,-0.0012315706618673252,-6.467276095393628e-05,0.0,-0.0012962434228212616,0.2,0.02,0,0.0035347529791428128,-0.00036815373036438705,7.069505958285625e-05,-0.0,-0.0002974586707815308,0.031084411703118653,0.0,-0.031084411703118653,-0.03397427530508323,0.0,0.03397427530508323,-0.6157853309336626,0.0,0.6157853309336626,-0.0018407686518219352,0,0.0018407686518219352,-0.003940319769256242,-0.005389621467116872,0.0002974586707815308,0.4,0.03343963623046875,1.2586240768432617,STABILIZE
0.17,0.004,0.1,-0.043613826761963646,-0.006022354044853923,-0.0001744553070478546,-0.0008364826965333669,-0.007033292048435145,0.17,0.004,0.1,0.05140375640929282,0.005836255300134757,0.00020561502563717126,0.0028172936735286515,0.00885916399930058,0.002,8e-05,0,-0.8289349012674062,-0.001227249657850885,-6.63147921013925e-05,-0.0,-0.0012935644499522776,0.2,0.02,0,0.0034530656924827642,-0.0004884228646191842,6.906131384965528e-05,-0.0,-0.0004193615507695289,0.03433091353020445,0.0,-0.03433091353020445,-0.03542561202855249,0.0,0.03542561202855249,-0.6136248289254425,0.0,0.6136248289254425,-0.0024421143230959207,0,0.0024421143230959207,-0.007032914438469479,-0.008859463770807577,0.0004193615507695289,0.4,0.033449411392211914,1.2920856475830078,STABILIZE
0.17,0.004,0.1,-0.044764949310696925,-0.005845810327259308,-0.0001790597972427877,0.0007026279865683882,-0.0053222421379337075,0.17,0.004,0.1,0.05244362569874527,0.005280826648709369,0.00020977450279498108,-0.00013641983807113138,0.005354181313433219,0.002,8e-05,0,-0.8494425789113232,-0.001225238727299284,-6.795540631290587e-05,0.0,-0.0012931941336121898,0.2,0.02,0,0.003419277504795907,-0.00020186876738563348,6.838555009591815e-05,-0.0,-0.00013348321728971535,0.03106368616887864,0.0,-0.03106368616887864,-0.03438711957211357,0.0,0.03438711957211357,-0.612619363649642,0.0,0.612619363649642,-0.0010093438369281674,0,0.0010093438369281674,-0.005322147815851461,-0.005354275071206386,0.00013348321728971535,0.4,0.033475399017333984,1.325606346130371,STABILIZE
0.17,0.004,0.1,-0.045884072391629734,-0.00568609996311947,-0.00018353628956651894,0.001402187883251769,-0.00446744836943422,0.17,0.004,0.1,0.05348229418391073,0.005277321981662564,0.0002139291767356429,-0.0005180965604455304,0.0049731545979526766,0.002,8e-05,0,-0.8703837563857527,-0.0012517534854772343,-6.963070051086022e-05,0.0,-0.0013213841859880946,0.2,0.02,0,0.003409947736077914,-5.5768452016150515e-05,6.819895472155828e-05,-0.0,1.2430502705407766e-05,0.031043070480368026,0.0,-0.031043070480368026,-0.03344764684187923,0.0,0.03344764684187923,-0.6258767427386172,0.0,0.6258767427386172,-0.00027884226008075257,0,0.00027884226008075257,-0.004467424166452589,-0.0049731763396941514,-1.2430502705407766e-05,0.4,0.03345894813537598,1.359020709991455,STABILIZE
0.17,0.004,0.1,-0.046916148637839966,-0.005226175935994896,-0.00018766459455135987,0.0007918231281708413,-0.004622017402375414,0.17,0.004,0.1,0.05451136660134095,0.005210965298463407,0.00021804546640536378,-0.00024770629624667974,0.005181304468622092,0.002,8e-05,0,-0.8912697666610225,-0.0012442533103465697,-7.13015813328818e-05,0.0,-0.0013155548916794514,0.2,0.02,0,0.0033808124488280615,-0.00017356918401716537,6.761624897656124e-05,0.0,-0.00010595293504060414,0.030652737049784745,0.0,-0.030652737049784745,-0.03074221138820527,0.0,0.03074221138820527,-0.6221266551732848,0.0,0.6221266551732848,-0.0008678459200858269,0,0.0008678459200858269,-0.004621938921824836,-0.005181374476656276,0.00010595293504060414,0.4,0.03357195854187012,1.3926348686218262,STABILIZE
0.17,0.004,0.1,-0.047948968601051155,-0.005250449900585412,-0.00019179587440420462,0.00184056432046393,-0.003601681454525686,0.17,0.004,0.1,0.05556311517879618,0.005346675520069847,0.00022225246071518474,0.00022170362003060681,0.005790631600815639,0.002,8e-05,0,-0.9117337030941101,-0.0012238893268555697,-7.293869624752881e-05,0.0,-0.0012968280231030985,0.2,0.02,0,0.0032185565950003294,-0.0009704057104014262,6.43711319000066e-05,-0.0,-0.0009060345785014196,0.0314510324709991,0.0,-0.0314510324709991,-0.0308849994152083,0.0,0.0308849994152083,-0.6119446634277849,0.0,0.6119446634277849,-0.0048520285520071305,0,0.0048520285520071305,-0.0036011910684970575,-0.005790936584389089,0.0009060345785014196,0.4,0.03344082832336426,1.426065444946289,STABILIZE
0.17,0.004,0.1,-0.04910167037325403,-0.0057959965387660494,-0.00019640668149301614,0.0008099992263195879,-0.005182403993939478,0.17,0.004,0.1,0.05668674672327828,0.005649826086604095,0.00022674698689311313,-0.0006645610733384158,0.005212012000158792,0.002,8e-05,0,-0.9324697331536099,-0.0012266420391472991,-7.45975786522888e-05,0.0,-0.001301239617799588,0.2,0.02,0,0.002975388761389409,-0.0014384618773200465,5.950777522778818e-05,-0.0,-0.0013789541020922584,0.033234271097671145,0.0,-0.033234271097671145,-0.03409409728685911,0.0,0.03409409728685911,-0.6133210195736496,0.0,0.6133210195736496,-0.007192309386600232,0,0.007192309386600232,-0.005181749691955797,-0.005212662503569083,0.0013789541020922584,0.4,0.03380942344665527,1.4598414897918701,STABILIZE
0.17,0.004,0.1,-0.05019028037917862,-0.005523235479800342,-0.0002007611215167145,0.0011472619258364803,-0.004576734675480577,0.17,0.004,0.1,0.05778543207959025,0.005574354367582114,0.000231141728318361,0.001022460933305061,0.006827957029205536,0.002,8e-05,0,-0.9529226523338726,-0.0012208368066467326,-7.623381218670981e-05,0.0,-0.0012970706188334424,0.2,0.02,0,0.002718168549443593,-0.0015353500367808715,5.436337098887186e-05,-0.0,-0.0014809866657919998,0.03279031980930655,0.0,-0.03279031980930655,-0.032489620469413776,0.0,0.032489620469413776,-0.6104184033233663,0.0,0.6104184033233663,-0.0076767501839043574,0,0.0076767501839043574,-0.004575819793539791,-0.006828570179728188,0.0014809866657919998,0.4,0.03350639343261719,1.4933545589447021,STABILIZE
0.17,0.004,0.1,-0.05120147466199732,-0.005141943192114024,-0.0002048058986479893,0.00192747924542712,-0.003419269845334893,0.17,0.004,0.1,0.05912096002943729,0.006791186388486788,0.00023648384011774916,0.005316870559313149,0.012344540787917687,0.002,8e-05,0,-0.9731955968450258,-0.001212803871787702,-7.785564774760206e-05,0.0,-0.001290659519535304,0.2,0.02,0,0.0024865829338336846,-0.00138543234855458,4.973165867667369e-05,-0.0,-0.0013357006898779063,0.03994815522639287,0.0,-0.03994815522639287,-0.030246724659494257,0.0,0.030246724659494257,-0.606401935893851,0.0,0.606401935893851,-0.006927161742772899,0,0.006927161742772899,-0.0034177773433910082,-0.012344954093506505,0.0013357006898779063,0.4,0.0334315299987793,1.526806116104126,STABILIZE
0.17,0.004,0.1,-0.05215322910480794,-0.004836586103146698,-0.00020861291641923176,0.0013896319920422807,-0.0036555670275236493,0.17,0.004,0.1,0.06041194071619335,0.006560451906645382,0.0002416477628647734,0.0047379617433042625,0.011540061412814419,0.002,8e-05,0,-0.9935716347918712,-0.0012181894273419988,-7.94857307833497e-05,0.0,-0.0012976751581253484,0.2,0.02,0,0.0021275492991284996,-0.0021464966790844643,4.2550985982569995e-05,-0.0,-0.0021039456931018943,0.038590893568502246,0.0,-0.038590893568502246,-0.02845050648909822,0.0,0.02845050648909822,-0.6090947136709993,0.0,0.6090947136709993,-0.010732483395422321,0,0.010732483395422321,-0.0036534053117330614,-0.011540745960831433,0.0021039456931018943,0.4,0.03345298767089844,1.5602364540100098,STABILIZE
0.17,0.004,0.1,-0.05313234685266451,-0.004973158757333457,-0.00021252938741065806,0.0009949718657487332,-0.004190716278995382,0.17,0.004,0.1,0.06165442684015468,0.006310865839956945,0.00024661770736061873,0.0033832205977242704,0.009940704145041834,0.002,8e-05,0,-1.0138031034047703,-0.0012089431654907009,-8.110424827238163e-05,0.0,-0.0012900474137630825,0.2,0.02,0,0.0017194049027435695,-0.002438890561945119,3.438809805487139e-05,-0.0,-0.0024045024638902476,0.03712274023504085,0.0,-0.03712274023504085,-0.02925387504313798,0.0,0.02925387504313798,-0.6044715827453504,0.0,0.6044715827453504,-0.012194452809725594,0,0.012194452809725594,-0.004188600470711231,-0.009941595844080891,0.0024045024638902476,0.4,0.03346967697143555,1.5937223434448242,STABILIZE
0.17,0.004,0.1,-0.054088062219898904,-0.004858411226773662,-0.00021635224887959562,0.003297000777353065,-0.0017777626983001924,0.17,0.004,0.1,0.06280777302061613,0.005863074115597238,0.0002512310920824645,0.0007530052981049376,0.00686731050578464,0.002,8e-05,0,-1.033646633963038,-0.0011867677091558562,-8.269173071704304e-05,0.0,-0.0012694594398728993,0.2,0.02,0,0.001294122788081054,-0.0025434540465517604,2.588245576162108e-05,-0.0,-0.002517571590790139,0.03448867126821904,0.0,-0.03448867126821904,-0.028578889569256836,0.0,0.028578889569256836,-0.5933838545779281,0.0,0.5933838545779281,-0.012717270232758801,0,0.012717270232758801,-0.0017762383983858287,-0.006867704925695876,0.002517571590790139,0.4,0.03344130516052246,1.627166509628296,STABILIZE
0.17,0.004,0.1,-0.05505007982033827,-0.004890553442398758,-0.00022020031928135308,0.0022262076892338857,-0.0028845460724462257,0.17,0.004,0.1,0.06381144001246683,0.005102284053613628,0.0002552457600498673,-0.001658528865641456,0.003699000948022039,0.002,8e-05,0,-1.0533829347906223,-0.0011803799444793967,-8.427063478324979e-05,0.0,-0.0012646505792626465,0.2,0.02,0,0.0007776463130469302,-0.00308891964229506,1.5552926260938605e-05,-0.0,-0.0030733667160341214,0.030013435609491927,0.0,-0.030013435609491927,-0.028767961425875045,0.0,0.028767961425875045,-0.5901899722396983,0.0,0.5901899722396983,-0.0154445982114753,0,0.0154445982114753,-0.0028835488683286318,-0.0036997783692396436,0.0030733667160341214,0.4,0.033440589904785156,1.660630464553833,STABILIZE
0.17,0.004,0.1,-0.05604846567892689,-0.005062335080589152,-0.00022419386271570757,0.00028163946085299236,-0.005004889482451867,0.17,0.004,0.1,0.06483581058078147,0.005194091060978262,0.0002593432423231259,-0.005618463799506886,-0.00016502949620549826,0.002,8e-05,0,-1.0730026549688958,-0.0011703785415275371,-8.584021239751167e-05,0.0,-0.0012562187539250488,0.2,0.02,0,0.00036988616542236443,-0.002432418620314325,7.397723308447289e-06,-0.0,-0.002425020897005878,0.03055347682928389,0.0,-0.03055347682928389,-0.029778441650524422,0.0,0.029778441650524422,-0.5851892707637686,0.0,0.5851892707637686,-0.012162093101571625,0,0.012162093101571625,-0.005004924400271516,0.00016396711176930778,0.002425020897005878,0.4,0.03352713584899902,1.6941287517547607,STABILIZE
0.17,0.004,0.1,-0.05707741367113964,-0.005229088674184158,-0.00022830965468455854,-0.0013786987047477576,-0.006836097033616474,0.17,0.004,0.1,0.06579526907720008,0.004875944746423105,0.00026318107630880034,-0.005925920512400245,-0.0007867946896683402,0.002,8e-05,0,-1.0924401390247576,-0.0011621273092446132,-8.739521112198061e-05,0.0,-0.0012495225203665939,0.2,0.02,0,5.2178899917066865e-05,-0.0018995065849470895,1.0435779983413374e-06,0.0,-0.0018984630069487482,0.02868202792013591,0.0,-0.02868202792013591,-0.03075934514225975,0.0,0.03075934514225975,-0.5810636546223066,0.0,0.5810636546223066,-0.009497532924735447,0,0.009497532924735447,-0.006836227361318153,0.0007856615054050364,0.0018984630069487482,0.4,0.03345155715942383,1.7275991439819336,STABILIZE
0.17,0.004,0.1,-0.05810207465204893,-0.005209307108976729,-0.00023240829860819573,-0.000829043827870113,-0.006270759235455038,0.17,0.004,0.1,0.06674111727104637,0.004808628231206552,0.00026696446908418546,-0.00528545613115548,-0.00020986343086474256,0.002,8e-05,0,-1.1119372097316949,-0.0011661386882809474,-8.89549767785356e-05,0.0,-0.001255093665059483,0.2,0.02,0,-0.0003592573877198584,-0.0024608402974370513,-7.185147754397169e-06,-0.0,-0.0024680254451914484,0.028286048418862068,0.0,-0.028286048418862068,-0.030642982993980758,0.0,0.030642982993980758,-0.5830693441404736,0.0,0.5830693441404736,-0.012304201487185255,0,0.012304201487185255,-0.006270804158785977,0.00020851678784084533,0.0024680254451914484,0.4,0.033438682556152344,1.7610318660736084,STABILIZE
0.17,0.004,0.1,-0.05907166359941889,-0.004926900720865962,-0.00023628665439767558,-0.0002396278788069985,-0.005402815254070636,0.17,0.004,0.1,0.06764190010403051,0.004577267099848482,0.000270567600416122,-0.004523713333958921,0.00032412136630568383,0.002,8e-05,0,-1.131370229939218,-0.0011617362246348843,-9.050961839513745e-05,0.0,-0.0012522458430300218,0.2,0.02,0,-0.000715440101587935,-0.00212931575674023,-1.43088020317587e-05,0.0,-0.002143624558771989,0.02692510058734401,0.0,-0.02692510058734401,-0.028981768946270366,0.0,0.028981768946270366,-0.5808681123174422,0.0,0.5808681123174422,-0.01064657878370115,0,0.01064657878370115,-0.005402754933259365,-0.0003251253002394823,0.002143624558771989,0.4,0.03345513343811035,1.7945101261138916,STABILIZE
0.17,0.004,0.1,-0.06004366912582071,-0.004917627387321689,-0.00024017467650328284,-9.408066591568844e-05,-0.005251882729740661,0.17,0.004,0.1,0.06864042171213071,0.0050517791035646535,0.0002745616868485228,-0.00018581467008224774,0.005140526120330929,0.002,8e-05,0,-1.1509312504849014,-0.0011642854447244447,-9.207450003879212e-05,0.0,-0.001256359944763237,0.2,0.02,0,-0.0010836808731237743,-0.0021917944897199533,-2.1673617462475485e-05,0.0,-0.002213468107182429,0.02971634766802737,0.0,-0.02971634766802737,-0.0289272199254217,0.0,0.0289272199254217,-0.5821427223622223,0.0,0.5821427223622223,-0.010958972448599766,0,0.010958972448599766,-0.005250899404466813,-0.0051415305547008894,0.002213468107182429,0.4,0.03360176086425781,1.8280978202819824,STABILIZE
0.17,0.004,0.1,-0.061092487332823554,-0.005189445472519393,-0.0002443699493312942,-0.0004220432849826371,-0.005855858706833325,0.17,0.004,0.1,0.06953888066768717,0.004445483238206544,0.0002781555226707487,-0.0025840148848912847,0.0021396238759860075,0.002,8e-05,0,-1.1709076406699945,-0.0011628369453312371,-9.367261125359957e-05,0.0,-0.0012565095565848367,0.2,0.02,0,-0.0013645488239700802,-0.00163494819122667,-2.7290976479401605e-05,0.0,-0.0016622391677060715,0.02614990140121496,0.0,-0.02614990140121496,-0.03052614983834937,0.0,0.03052614983834937,-0.5814184726656185,0.0,0.5814184726656185,-0.00817474095613335,0,0.00817474095613335,-0.005855553373945253,-0.0021404593455525874,0.0016622391677060715,0.4,0.03435802459716797,1.8624703884124756,STABILIZE
0.17,0.004,0.1,-0.06206318929862881,-0.004933013466498164,-0.0002482527571945152,0.0010662614555697924,-0.004115004768122887,0.17,0.004,0.1,0.07042055552680819,0.0044805863244635315,0.0002816822221072328,-0.0013416603370480743,0.0034206082095226903,0.002,8e-05,0,-1.190507286034336,-0.001171805897742659,-9.524058288274689e-05,-0.0,-0.001267046480625406,0.2,0.02,0,-0.0015779930564769394,-0.0012761211024039248,-3.155986112953879e-05,0.0,-0.0013076809635334636,0.026356390143903126,0.0,-0.026356390143903126,-0.029017726273518608,0.0,0.029017726273518608,-0.5859029488713295,0.0,0.5859029488713295,-0.006380605512019624,0,0.006380605512019624,-0.004114623814870888,-0.0034210664458360716,0.0013076809635334636,0.4,0.03345203399658203,1.895909309387207,STABILIZE
0.17,0.004,0.1,-0.06303601480640492,-0.0049354683991351955,-0.0002521440592256197,0.0009880449630493063,-0.004199567495311508,0.17,0.004,0.1,0.07135231698209077,0.004727136759183071,0.00028540926792836307,-0.00023919304978378401,0.00477335297732765,0.002,8e-05,0,-1.2101760295926833,-0.001173954104119687,-9.681408236741467e-05,-0.0,-0.0012707681864871018,0.2,0.02,0,-0.00184010787951122,-0.001564465830462807,-3.68021575902244e-05,0.0,-0.0016012679880530313,0.027806686818723947,0.0,-0.027806686818723947,-0.029032167053736443,0.0,0.029032167053736443,-0.5869770520598435,0.0,0.5869770520598435,-0.007822329152314034,0,0.007822329152314034,-0.004198915772256039,-0.0047739262804675974,0.0016012679880530313,0.4,0.0335085391998291,1.9294815063476562,STABILIZE
0.17,0.004,0.1,-0.06400318283335207,-0.004918103872432932,-0.0002560127313334083,5.605231045961543e-05,-0.0051180642933067256,0.17,0.004,0.1,0.07232408244699609,0.004941482103304236,0.0002892963297879844,0.0013286990604303049,0.006559477493522526,0.002,8e-05,0,-1.2297810408994223,-0.0011728539568809284,-9.83824832719538e-05,-0.0,-0.0012712364401528823,0.2,0.02,0,-0.0020353873284696677,-0.001168243521133373,-4.070774656939336e-05,0.0,-0.0012089512677027664,0.029067541784142562,0.0,-0.029067541784142562,-0.028930022779017246,0.0,0.028930022779017246,-0.5864269784404642,0.0,0.5864269784404642,-0.005841217605666865,0,0.005841217605666865,-0.005117395537953533,-0.006559999238306595,0.0012089512677027664,0.4,0.033431291580200195,1.9628441333770752,STABILIZE
0.17,0.004,0.1,-0.0652933164606374,-0.006556754842783984,-0.0002611732658425496,-0.005739737355384219,-0.012557665464010753,0.17,0.004,0.1,0.0734568202923177,0.0057568333975955,0.00029382728116927084,0.002535012706647166,0.008585673385411937,0.002,8e-05,0,-1.2495540643444991,-0.0011822475046547592,-9.996432514755994e-05,-0.0,-0.001282211829802319,0.2,0.02,0,-0.0021282812978399633,-0.0005554217026574794,-4.256562595679927e-05,0.0,-0.0005979873286142786,0.03386372586820882,0.0,-0.03386372586820882,-0.03856914613402343,0.0,0.03856914613402343,-0.5911237523273796,0.0,0.5911237523273796,-0.0027771085132873964,0,0.0027771085132873964,-0.012557249304356234,-0.008586282041444022,0.0005979873286142786,0.4,0.03344988822937012,1.9963188171386719,STABILIZE
0.17,0.004,0.1,-0.06627436174534591,-0.004987816802822162,-0.00026509744698138365,0.0007112668866809629,-0.0045416473631225834,0.17,0.004,0.1,0.07480760801577156,0.006867656171540352,0.00029923043206308626,0.008519455467000432,0.01568634207060387,0.002,8e-05,0,-1.268940989941283,-0.0011596086787877254,-0.00010151527919530264,0.0,-0.001261123957983028,0.2,0.02,0,-0.0021498086891219934,-0.0001287638395148254,-4.299617378243987e-05,0.0,-0.00017176001329726525,0.04039797747964913,0.0,-0.04039797747964913,-0.029340098840130363,0.0,0.029340098840130363,-0.5798043393938627,0.0,0.5798043393938627,-0.0006438191975741269,0,0.0006438191975741269,-0.004541471099099675,-0.015686393103036708,0.00017176001329726525,0.4,0.03343701362609863,2.0297749042510986,STABILIZE
0.17,0.004,0.1,-0.06723913659299727,-0.004898981843345629,-0.0002689565463719891,0.00012159764489187056,-0.005046340744825748,0.17,0.004,0.1,0.07588141697524745,0.005452640694873553,0.0003035256679009898,0.0034235200658121463,0.009179686428586688,0.002,8e-05,0,-1.288128174682989,-0.0011462311025619797,-0.00010305025397463911,0.0,-0.001249281356536619,0.2,0.02,0,-0.002846436916565615,-0.004161615953396512,-5.69287383313123e-05,-0.0,-0.004218544691727825,0.032074357028667955,0.0,-0.032074357028667955,-0.028817540254974284,0.0,0.028817540254974284,-0.5731155512809898,0.0,0.5731155512809898,-0.02080807976698256,0,0.02080807976698256,-0.005043006629955306,-0.009181518500242427,0.004218544691727825,0.4,0.033478736877441406,2.0632309913635254,STABILIZE
0.17,0.004,0.1,-0.06915670036534757,-0.009741887967353787,-0.0002766268014613903,-0.016896523734636505,-0.026915038503451682,0.17,0.004,0.1,0.07805569855921506,0.01104610334525217,0.0003122227942368602,0.022223447067772434,0.03358177320726147,0.002,8e-05,0,-1.3073647498790517,-0.0011497466251205453,-0.00010458917999032414,0.0,-0.0012543358051108693,0.2,0.02,0,-0.004081026046236667,-0.007378988571418533,-8.162052092473334e-05,-0.0,-0.007460609092343266,0.06497707850148335,0.0,-0.06497707850148335,-0.05730522333737521,0.0,0.05730522333737521,-0.5748733125602726,0.0,0.5748733125602726,-0.03689494285709266,0,0.03689494285709266,-0.026893408337093482,-0.03359909786587404,0.007460609092343266,0.4,0.0334622859954834,2.096747398376465,STABILIZE
0.17,0.004,0.1,-0.07066578716265985,-0.007669361052254409,-0.00028266314865063943,-0.00966847386058906,-0.017620498061494107,0.17,0.004,0.1,0.07996801152762657,0.009718605070150476,0.00031987204611050627,0.016800288291386183,0.026838765407647167,0.002,8e-05,0,-1.3264333227198601,-0.001140103367599805,-0.00010611466581758881,0.0,-0.0012462180334173937,0.2,0.02,0,-0.006595875632316927,-0.01503619859773172,-0.00013191751264633855,-0.0,-0.01516811611037806,0.05716826511853221,0.0,-0.05716826511853221,-0.04511388854267299,0.0,0.04511388854267299,-0.5700516837999025,0.0,0.5700516837999025,-0.0751809929886586,0,0.0751809929886586,-0.017585266259155435,-0.026861863135986028,0.01516811611037806,0.4,0.03345060348510742,2.1301722526550293,STABILIZE
0.17,0.004,0.1,-0.0728878599811032,-0.01126914738448898,-0.0002915514399244128,-0.016539174724001942,-0.028099873548415335,0.17,0.004,0.1,0.08213175231455401,0.010973318978266944,0.00032852700925821605,0.018336223103094747,0.029638069090619907,0.002,8e-05,0,-1.345432593175398,-0.0011335763361770834,-0.00010763460745403185,0.0,-0.0012412109436311153,0.2,0.02,0,-0.008147978613039196,-0.009260498787961811,-0.00016295957226078394,-0.0,-0.009423458360222596,0.06454893516627613,0.0,-0.06454893516627613,-0.06628910226169989,0.0,0.06628910226169989,-0.5667881680885417,0.0,0.5667881680885417,-0.04630249393980906,0,0.04630249393980906,-0.02807591293379428,-0.029660767788297293,0.009423458360222596,0.4,0.03352093696594238,2.163651943206787,STABILIZE
0.17,0.004,0.1,-0.07446451806681535,-0.00801088227199857,-0.0002978580722672614,-0.01060268384804718,-0.01891142419231301,0.17,0.004,0.1,0.08404951721865005,0.009744020603645834,0.0003361980688746002,0.010105355858517363,0.020185574531037795,0.002,8e-05,0,-1.3644924984173978,-0.0011393171595986795,-0.00010915939987339183,0.0,-0.0012484765594720712,0.2,0.02,0,-0.01082073396367879,-0.015976553900607905,-0.00021641467927357582,-0.0,-0.01619296857988148,0.05731776825674019,0.0,-0.05731776825674019,-0.04712283689410923,0.0,0.04712283689410923,-0.5696585797993398,0.0,0.5696585797993398,-0.07988276950303952,0,0.07988276950303952,-0.018883262742924813,-0.020211921539313154,0.01619296857988148,0.4,0.03345847129821777,2.1971497535705566,STABILIZE
0.17,0.004,0.1,-0.0758079904377036,-0.006827542579722996,-0.0003032319617508144,-0.00675309505026964,-0.01388386959174345,0.17,0.004,0.1,0.08597141080686825,0.009767086090933743,0.000343885643227473,0.015158958106144003,0.025269929840305218,0.002,8e-05,0,-1.383218905872884,-0.001119621477440945,-0.00011065751246983074,0.0,-0.0012302789899107758,0.2,0.02,0,-0.014061695087850688,-0.0193771800106321,-0.00028123390175701377,-0.0,-0.019658413912389115,0.0574534475937279,0.0,-0.0574534475937279,-0.04016201517484115,0.0,0.04016201517484115,-0.5598107387204725,0.0,0.5598107387204725,-0.0968859000531605,0,0.0968859000531605,-0.013841118868022846,-0.025293371018030565,0.019658413912389115,0.4,0.03345131874084473,2.2306032180786133,STABILIZE
0.17,0.004,0.1,-0.07790300569408828,-0.010634764872997549,-0.00031161202277635313,-0.003100963373701065,-0.014047340269474967,0.17,0.004,0.1,0.0879243264673075,0.009913435619273903,0.00035169730586923,-0.003992477381551725,0.006272655543591409,0.002,8e-05,0,-1.4017224114888989,-0.0011050343874883148,-0.00011213779291911192,0.0,-0.0012171721804074267,0.2,0.02,0,-0.016550900437132098,-0.014865602040810767,-0.00033101800874264195,-0.0,-0.01519662004955341,0.05831432717219943,0.0,-0.05831432717219943,-0.06255744042939734,0.0,0.06255744042939734,-0.5525171937441574,0.0,0.5525171937441574,-0.07432801020405383,0,0.07432801020405383,-0.01403919113310902,-0.00629087343244117,0.01519662004955341,0.4,0.03348946571350098,2.2641003131866455,STABILIZE
0.17,0.004,0.1,-0.07989967478197184,-0.010151581997944135,-0.00031959869912788735,-0.008690032558553088,-0.019161213255625108,0.17,0.004,0.1,0.09141943127288397,0.01777001669456782,0.00036567772509153593,0.028319907568055726,0.04645560198771508,0.002,8e-05,0,-1.4213848220554675,-0.0011761032962643572,-0.00011371078576443741,-0.0,-0.0012898140820287946,0.2,0.02,0,-0.020544563966483784,-0.023888021385472195,-0.0004108912793296757,-0.0,-0.02429891266480187,0.104529509968046,0.0,-0.104529509968046,-0.059715188223200794,0.0,0.059715188223200794,-0.5880516481321786,0.0,0.5880516481321786,-0.11944010692736097,0,0.11944010692736097,-0.01906432926960249,-0.04649544492709709,0.02429891266480187,0.4,0.03343653678894043,2.2975244522094727,STABILIZE
0.17,0.004,0.1,-0.08217669713237748,-0.011348531949640606,-0.0003287067885295099,-0.00018439825483165917,-0.011861636993001776,0.17,0.004,0.1,0.09473406881773277,0.01651993888970556,0.0003789362752709311,0.01960465855522513,0.036503533720201625,0.002,8e-05,0,-1.441422302018954,-0.0011748882664053225,-0.00011531378416151633,-0.0,-0.0012902020505668388,0.2,0.02,0,-0.02374159006957357,-0.018745613034954357,-0.0004748318013914714,-0.0,-0.01922044483634583,0.09717611111591506,0.0,-0.09717611111591506,-0.06675607029200356,0.0,0.06675607029200356,-0.5874441332026612,0.0,0.5874441332026612,-0.09372806517477178,0,0.09372806517477178,-0.01180190635592811,-0.03652288888603349,0.01922044483634583,0.4,0.03410959243774414,2.331625461578369,STABILIZE
0.17,0.004,0.1,-0.08419027167428027,-0.010231624229769512,-0.0003367610866971211,-0.007713555709983293,-0.01828194102644993,0.17,0.004,0.1,0.09705118181670924,0.011774001413942206,0.000388204727266837,0.007238103842601155,0.019400309983810198,0.002,8e-05,0,-1.4609300024492802,-0.0011661757923907376,-0.00011687440019594242,-0.0,-0.00128305019258668,0.2,0.02,0,-0.026252919074179683,-0.015012795087562272,-0.0005250583814835936,0.0,-0.015537853469045865,0.06925883184671885,0.0,-0.06925883184671885,-0.06018602488099713,0.0,0.06018602488099713,-0.5830878961953688,0.0,0.5830878961953688,-0.07506397543781136,0,0.07506397543781136,-0.01825650873576275,-0.01942424474576906,0.015537853469045865,0.4,0.033455848693847656,2.3650765419006348,STABILIZE
0.17,0.004,0.1,-0.08642921409832625,-0.011376872487338388,-0.00034571685639330505,-0.015902597296812423,-0.027625186640544114,0.17,0.004,0.1,0.09965073017642977,0.01320924106648784,0.0003986029207057191,0.012204020996432401,0.025811864983625962,0.002,8e-05,0,-1.4805087326157047,-0.0011704303108108385,-0.00011844069860925638,-0.0,-0.001288871009420095,0.2,0.02,0,-0.028716202986639423,-0.014725685122418335,-0.0005743240597327885,0.0,-0.015300009182151124,0.07770141803816376,0.0,-0.07770141803816376,-0.06692277933728463,0.0,0.06692277933728463,-0.5852151554054192,0.0,0.5852151554054192,-0.07362842561209167,0,0.07362842561209167,-0.027591994084694982,-0.025847343640846163,0.015300009182151124,0.4,0.033455610275268555,2.39888334274292,STABILIZE
0.17,0.004,0.1,-0.0888086956726911,-0.012095829699775528,-0.0003552347826907644,-0.005057219540446845,-0.017508284022913136,0.17,0.004,0.1,0.10155202425212995,0.009665016782069527,0.0004062080970085198,-0.0007783820943272513,0.009292842784750795,0.002,8e-05,0,-1.4999269851132462,-0.0011613002933469447,-0.00011999415880905971,-0.0,-0.0012812944521560044,0.2,0.02,0,-0.030191341018364362,-0.008821999967228268,-0.0006038268203672872,0.0,-0.009425826787595556,0.05685303989452663,0.0,-0.05685303989452663,-0.07115193941044427,0.0,0.07115193941044427,-0.5806501466734724,0.0,0.5806501466734724,-0.04410999983614134,0,0.04410999983614134,-0.01750112460320954,-0.009306319039879515,0.009425826787595556,0.4,0.03344225883483887,2.4320030212402344,STABILIZE
0.17,0.004,0.1,-0.09032210146458892,-0.007693942948640585,-0.0003612884058583557,0.008729596131008516,0.0006743647765095756,0.17,0.004,0.1,0.10283972228937593,0.006546476355969929,0.00041135888915750377,-0.03939368482083556,-0.03243584957570812,0.002,8e-05,0,-1.5190363175870463,-0.0011429313906511042,-0.00012152290540696371,0.0,-0.001264454296058068,0.2,0.02,0,-0.031712433513308394,-0.009097671846669254,-0.0006342486702661679,0.0,-0.009731920516935421,0.03850868444688193,0.0,-0.03850868444688193,-0.04525848793317991,0.0,0.04525848793317991,-0.571465695325552,0.0,0.571465695325552,-0.045488359233346265,0,0.045488359233346265,0.0006486130437964953,0.03243637474609607,0.009731920516935421,0.4,0.03343915939331055,2.4654147624969482,STABILIZE
0.17,0.004,0.1,-0.09040642056454147,-0.0004271983678323222,-0.0003616256822581659,0.03833659087355495,0.03754776682346446,0.17,0.004,0.1,0.10285760027495859,9.057789119353628e-05,0.0004114304010998344,-0.05771767756957215,-0.05721566927727878,0.002,8e-05,0,-1.5382755095344245,-0.0011467573292072522,-0.00012306204076275397,0.0,-0.0012698193699700062,0.2,0.02,0,-0.03354170502212574,-0.010903423156148572,-0.0006708341004425148,0.0,-0.011574257256591086,0.0005328111246678605,0.0,-0.0005328111246678605,-0.0025129315754842483,0.0,0.0025129315754842483,-0.5733786646036261,0.0,0.5733786646036261,-0.05451711578074286,0,0.05451711578074286,0.03749330894395218,0.05725137019067366,0.011574257256591086,0.4,0.0335540771484375,2.49896502494812,STABILIZE
0.17,0.004,0.1,-0.0906581139511808,-0.0012783980846707568,-0.0003626324558047232,0.03141702454314479,0.02977599400266931,0.17,0.004,0.1,0.10300989344458503,0.0007735256732742628,0.0004120395737783401,-0.03862808217285695,-0.03744251692580435,0.002,8e-05,0,-1.5570538808107792,-0.0011221044963834607,-0.00012456431046486234,0.0,-0.001246668806848323,0.2,0.02,0,-0.03490357060534898,-0.008137848974841107,-0.0006980714121069796,0.0,-0.008835920386948087,0.004550151019260369,0.0,-0.004550151019260369,-0.007519988733357392,0.0,0.007519988733357392,-0.5610522481917303,0.0,0.5610522481917303,-0.040689244874205534,0,0.040689244874205534,0.02974939627021421,0.03746365324076002,0.008835920386948087,0.4,0.03346991539001465,2.5325186252593994,STABILIZE
0.17,0.004,0.1,-0.09115354969466255,-0.002516178384760554,-0.0003646141987786502,0.03109389769922298,0.028213105115683777,0.17,0.004,0.1,0.1033966027608469,0.0019639875313104517,0.0004135864110433876,-0.03949102293827887,-0.03711344899592503,0.002,8e-05,0,-1.5757672036945896,-0.0011181139779603022,-0.00012606137629556717,0.0,-0.0012441753542558694,0.2,0.02,0,-0.03615845213846492,-0.007497869788134007,-0.0007231690427692985,0.0,-0.008221038830903304,0.011552867831237951,0.0,-0.011552867831237951,-0.014801049322120906,0.0,0.014801049322120906,-0.5590569889801511,0.0,0.5590569889801511,-0.037489348940670034,0,0.037489348940670034,0.028188815281727824,0.03713190123942455,0.008221038830903304,0.4,0.03347301483154297,2.565922498703003,STABILIZE
0.17,0.004,0.1,-0.09163387590013634,-0.0024410234933680687,-0.0003665355036005454,0.03388744580152098,0.031079886804552363,0.17,0.004,0.1,0.10353719551417769,0.0007144940458520368,0.00041414878205671077,-0.0314171621479754,-0.030288519320066654,0.002,8e-05,0,-1.5944428547644336,-0.0011165868356060181,-0.0001275554283811547,0.0,-0.0012441422639871728,0.2,0.02,0,-0.037158569786838624,-0.005979540933030773,-0.0007431713957367725,0.0,-0.006722712328767545,0.004202906152070804,0.0,-0.004202906152070804,-0.014358961725694522,0.0,0.014358961725694522,-0.558293417803009,0.0,0.558293417803009,-0.029897704665153863,0,0.029897704665153863,0.031064077619111844,0.03030473309665726,0.006722712328767545,0.4,0.03345131874084473,2.5993971824645996,STABILIZE
0.17,0.004,0.1,-0.0907952716587484,0.0042523406920356235,-0.00036318108663499363,0.04188862725701773,0.04577778686241836,0.17,0.004,0.1,0.10430063188576101,0.0038711842707721384,0.00041720252754304406,-0.00936805131877877,-0.005079664520463587,0.002,8e-05,0,-1.6131952406766976,-0.0011186870327393177,-0.0001290556192541358,0.0,-0.0012477426519934536,0.2,0.02,0,-0.038225560204573204,-0.006365207872541453,-0.000764511204091464,0.0,-0.007129719076632917,0.022771672181012576,0.0,-0.022771672181012576,0.025013768776680136,0.0,-0.025013768776680136,-0.5593435163696588,0.0,0.5593435163696588,-0.03182603936270726,0,0.03182603936270726,0.045774958203227856,0.00510509188499117,0.007129719076632917,0.4,0.033525705337524414,2.632918119430542,STABILIZE
