E-kp,E-ki,E-kd,E-I-Tot,E-P,E-I,E-D,E-PID,N-kp,N-ki,N-kd,N-I-Tot,N-P,N-I,N-D,N-PID,D-kp,D-ki,D-kd,D-I-Tot,D-P,D-I,D-D,D-PID,Y-kp,Y-ki,Y-kd,Y-I-Tot,Y-P,Y-I,Y-D,Y-PID,errorN,desiredN,actualN,errorE,desiredE,actualE,errorD,desiredD,actualD,errorY,desiredY,actualY,roll,pitch,yaw-rate,thrust,dt,Time,Mode
0.17,0.004,0.07,-0.0010720770105512709,-0.005518635777000299,-4.288308042205084e-06,-0.06880780095291265,-0.07433072503795515,0.17,0.004,0.07,-0.0010375784148259617,-0.0053410504144263335,-4.150313659303847e-06,-0.0665936199897359,-0.07193882071782154,0.002,8e-05,0,-0.02163495983429123,-0.0013102160539544899,-1.7307967867432985e-06,-0.0,-0.0013119468507412331,0.2,0.02,0,-0.0010183132763512265,-0.006166918787229084,-2.036626552702453e-05,-0.0,-0.006187285052756109,-0.031417943614272546,0.0,0.031417943614272546,-0.032462563394119404,0.0,0.032462563394119404,-0.6551080269772449,0.0,0.6551080269772449,-0.03083459393614542,0,0.03083459393614542,-0.07436942924114319,0.07189880809363641,0.006187285052756109,0.4,0.03302502632141113,0.03332948684692383,STABILIZE
0.17,0.004,0.07,-0.0021613212491428885,-0.005514916206584549,-8.645284996571554e-06,-0.034381093031620576,-0.039904654523201695,0.17,0.004,0.07,-0.0021922254564094865,-0.005846054958938654,-8.768901825637946e-06,-0.03639336739353873,-0.04224819125430303,0.002,8e-05,0,-0.043541616333109004,-0.0013048807353492492,-3.4833293066487205e-06,-0.0,-0.0013083640646558978,0.2,0.02,0,-0.0020609392585953373,-0.006210452783967059,-4.1218785171906744e-05,-0.0,-0.0062516715691389654,-0.03438855858199208,0.0,0.03438855858199208,-0.032440683568144404,0.0,0.032440683568144404,-0.6524403676746245,0.0,0.6524403676746245,-0.03105226391983529,0,0.03105226391983529,-0.039927545670679826,0.042226558154697204,0.0062516715691389654,0.4,0.03357648849487305,0.06683540344238281,STABILIZE
0.17,0.004,0.07,-0.0031980636191575045,-0.0052808189065800615,-1.2792254476630019e-05,-0.021957995875063398,-0.02725160703612009,0.17,0.004,0.07,-0.003347575830688471,-0.005884968413252751,-1.3390303322753884e-05,-0.024422277784263067,-0.03032063650083857,0.002,8e-05,0,-0.0652549595442461,-0.0013011824534781848,-5.220396763539688e-06,-0.0,-0.0013064028502417246,0.2,0.02,0,-0.002944539686598505,-0.005295017729991139,-5.8890793731970104e-05,-0.0,-0.005353908523723108,-0.034617461254427946,0.0,0.034617461254427946,-0.031063640626941537,0.0,0.031063640626941537,-0.6505912267390924,0.0,0.6505912267390924,-0.02647508864995569,0,0.02647508864995569,-0.027265614609203164,0.030308040910779786,0.005353908523723108,0.4,0.033374786376953125,0.10021591186523438,STABILIZE
0.17,0.004,0.07,-0.004186791680267364,-0.004973681120860037,-1.6747166721069456e-05,-0.015532930686265252,-0.020523358973846356,0.17,0.004,0.07,-0.004509281416926482,-0.005843824373492354,-1.8037125667705927e-05,-0.018191380307765438,-0.024053241806925498,0.002,8e-05,0,-0.08688360860223764,-0.001280004645786873,-6.950688688179012e-06,-0.0,-0.001286955334475052,0.2,0.02,0,-0.003673715249014997,-0.004315332432390199,-7.347430498029995e-05,-0.0,-0.004388806737370499,-0.03437543749113149,0.0,0.03437543749113149,-0.029256947769764924,0.0,0.029256947769764924,-0.6400023228934365,0.0,0.6400023228934365,-0.021576662161950994,0,0.021576662161950994,-0.020532415579481923,0.024045511337113138,0.004388806737370499,0.4,0.03379464149475098,0.13401079177856445,STABILIZE
0.17,0.004,0.07,-0.0051744314413605195,-0.005019626339782108,-2.0697725765442077e-05,-0.012539465576688315,-0.017579789642235864,0.17,0.004,0.07,-0.005635644881454894,-0.005724682153801788,-2.2542579525819577e-05,-0.014259765991499281,-0.02000699072482689,0.002,8e-05,0,-0.10805728492254489,-0.001266047989350431,-8.644582793803592e-06,-0.0,-0.0012746925721442346,0.2,0.02,0,-0.0043166159067648795,-0.0038441273625953697,-8.633231813529759e-05,-0.0,-0.003930459680730667,-0.0336746009047164,0.0,0.0336746009047164,-0.02952721376342416,0.0,0.02952721376342416,-0.6330239946752154,0.0,0.6330239946752154,-0.01922063681297685,0,0.01922063681297685,-0.017586500265999734,0.020001092223240306,0.003930459680730667,0.4,0.03344845771789551,0.16746020317077637,STABILIZE
0.17,0.004,0.07,-0.006298965141452605,-0.005282448586499042,-2.519586056581042e-05,0.0006240203418896549,-0.0046836241051751975,0.17,0.004,0.07,-0.007017184300974715,-0.006489721876042999,-2.806873720389886e-05,-0.00268195464706418,-0.009199745260311077,0.002,8e-05,0,-0.13149151469262713,-0.0012950739327308607,-1.0519321175410171e-05,0.0,-0.0013055932539062709,0.2,0.02,0,-0.004975808121662038,-0.0036429729611268304,-9.951616243324077e-05,0.0,-0.0037424891235600713,-0.038174834564958814,0.0,0.038174834564958814,-0.031073226979406128,0.0,0.031073226979406128,-0.6475369663654303,0.0,0.6475369663654303,-0.01821486480563415,0,0.01821486480563415,-0.004686548553609083,0.009198255827484845,0.0037424891235600713,0.4,0.03618979454040527,0.20368099212646484,STABILIZE
0.17,0.004,0.07,-0.007549267777841343,-0.005312809600142375,-3.019707111136537e-05,0.0005524008828381077,-0.004790605788415632,0.17,0.004,0.07,-0.008504666066632478,-0.006320635640222891,-3.4018664266529916e-05,-0.0010952769464644377,-0.007449931250953858,0.002,8e-05,0,-0.15792513074861275,-0.0013214378951280346,-1.263401045988902e-05,-0.0,-0.0013340719055879237,0.2,0.02,0,-0.005722495032739185,-0.0037327483988707257,-0.00011444990065478369,0.0,-0.0038471982995255095,-0.03718020964836995,0.0,0.03718020964836995,-0.031251821177308084,0.0,0.031251821177308084,-0.6607189475640173,0.0,0.6607189475640173,-0.01866374199435363,0,0.01866374199435363,-0.0047930323027416295,0.007448370345841804,0.0038471982995255095,0.4,0.04000735282897949,0.24367475509643555,STABILIZE
0.17,0.004,0.07,-0.008568525997631703,-0.005176193161290056,-3.427410399052681e-05,0.0003108541474738957,-0.004899613117806687,0.17,0.004,0.07,-0.009668711897204878,-0.005911481458424083,-3.867484758881951e-05,7.31150789068364e-06,-0.005942844798122219,0.002,8e-05,0,-0.17984776850452014,-0.0013097853670475184,-1.4387821480361612e-05,-0.0,-0.00132417318852788,0.2,0.02,0,-0.006358342137215902,-0.0037989189184076243,-0.00012716684274431805,0.0,-0.003926085761151942,-0.03477342034367108,0.0,0.03477342034367108,-0.030448195066412092,0.0,0.030448195066412092,-0.6548926835237592,0.0,0.6548926835237592,-0.01899459459203812,0,0.01899459459203812,-0.004901583009829989,0.005941220160581297,0.003926085761151942,0.4,0.03347516059875488,0.27716708183288574,STABILIZE
0.17,0.004,0.07,-0.009612106785886807,-0.004909550237625681,-3.844842714354723e-05,0.00017008249434428678,-0.004777916170424941,0.17,0.004,0.07,-0.010885274453412759,-0.0057233470126482,-4.3541097813651034e-05,0.00033580896706394866,-0.005431079143397902,0.002,8e-05,0,-0.2037624601027514,-0.0013236144260700543,-1.6300996808220113e-05,-0.0,-0.0013399154228782744,0.2,0.02,0,-0.007105814796472786,-0.004137061901139181,-0.00014211629592945574,0.0,-0.004279178197068636,-0.033666747133224706,0.0,0.033666747133224706,-0.028879707280151063,0.0,0.028879707280151063,-0.6618072130350271,0.0,0.6618072130350271,-0.0206853095056959,0,0.0206853095056959,-0.004779876623898571,0.005429353833907661,0.004279178197068636,0.4,0.03613543510437012,0.31331753730773926,STABILIZE
0.17,0.004,0.07,-0.010687524124435153,-0.004833962463397338,-4.2750096497740614e-05,0.0004477952442949962,-0.004428917315600082,0.17,0.004,0.07,-0.01202673078668751,-0.005130805382127704,-4.810692314675004e-05,0.0013327249695029178,-0.0038461873357715365,0.002,8e-05,0,-0.2283917533330643,-0.0013024446111754382,-1.8271340266645147e-05,-0.0,-0.0013207159514420834,0.2,0.02,0,-0.008066332705398506,-0.005079404279770761,-0.00016132665410797012,-0.0,-0.005240730933878731,-0.03018120813016296,0.0,0.03018120813016296,-0.028435073314101986,0.0,0.028435073314101986,-0.6512223055877191,0.0,0.6512223055877191,-0.025397021398853806,0,0.025397021398853806,-0.0044306217477655474,0.0038442237888159617,0.005240730933878731,0.4,0.03782010078430176,0.35113096237182617,STABILIZE
0.17,0.004,0.07,-0.01162077634929526,-0.004747197444307041,-4.648310539718104e-05,0.001259672184511652,-0.00353400836519257,0.17,0.004,0.07,-0.012922768070219552,-0.004557895271050394,-5.1691072280878206e-05,0.0044853783415474205,-0.0001242080017838515,0.002,8e-05,0,-0.24973599764902185,-0.0012773211958109227,-1.997887981192175e-05,0.0,-0.0012973000756228445,0.2,0.02,0,-0.00906006654468516,-0.005946883277410913,-0.0001812013308937032,-0.0,-0.006128084608304616,-0.02681114865323761,0.0,0.02681114865323761,-0.027924690848864942,0.0,0.027924690848864942,-0.6386605979054614,0.0,0.6386605979054614,-0.02973441638705456,0,0.02973441638705456,-0.0035340723487099273,0.00012237396390612823,0.006128084608304616,0.4,0.03342032432556152,0.38453054428100586,STABILIZE
0.17,0.004,0.07,-0.012509398326489833,-0.004466863271135072,-5.003759330595934e-05,0.002004808841119414,-0.002512092023321617,0.17,0.004,0.07,-0.013884600506414366,-0.004834872524522593,-5.5538402025657464e-05,0.003462857841290881,-0.00142755308525737,0.002,8e-05,0,-0.2711078460376837,-0.0012638885170599195,-2.1688627683014695e-05,0.0,-0.0012855771447429342,0.2,0.02,0,-0.010055974055416722,-0.005889598522208886,-0.00020111948110833444,-0.0,-0.00609071800331722,-0.028440426614838782,0.0,0.028440426614838782,-0.026275666300794538,0.0,0.026275666300794538,-0.6319442585299597,0.0,0.6319442585299597,-0.029447992611044426,0,0.029447992611044426,-0.002512825402999485,0.001426261770820632,0.00609071800331722,0.4,0.03381919860839844,0.41835975646972656,STABILIZE
0.17,0.004,0.07,-0.013287245781101907,-0.003952353949260456,-5.314898312440763e-05,0.002935156522077161,-0.001070346410307703,0.17,0.004,0.07,-0.01483685030263332,-0.004838517141700284,-5.934740121053328e-05,0.0024473180453468083,-0.0024505464975640087,0.002,8e-05,0,-0.29206261995457394,-0.001252637616725103,-2.336500959636592e-05,0.0,-0.001276002626321469,0.2,0.02,0,-0.0110939456212331,-0.006204801987315376,-0.000221878912424662,-0.0,-0.006426680899740038,-0.028461865539413433,0.0,0.028461865539413433,-0.023249140878002682,0.0,0.023249140878002682,-0.6263188083625515,0.0,0.6263188083625515,-0.03102400993657688,0,0.03102400993657688,-0.001071673153492946,0.0024499665766830984,0.006426680899740038,0.4,0.033457040786743164,0.451815128326416,STABILIZE
0.17,0.004,0.07,-0.014051708055862068,-0.0038648701045751422,-5.6206832223448274e-05,0.002541733125642174,-0.0013793438111564167,0.17,0.004,0.07,-0.01585035470619148,-0.005123945287419331,-6.340141882476592e-05,0.0013195120365072051,-0.0038678346697368915,0.002,8e-05,0,-0.31282344336058493,-0.001234822380883257,-2.5025875468846796e-05,0.0,-0.0012598482563521039,0.2,0.02,0,-0.012172811990697663,-0.0064169340153020435,-0.00024345623981395328,-0.0,-0.0066603902551159964,-0.030140854631878416,0.0,0.030140854631878416,-0.0227345300269126,0.0,0.0227345300269126,-0.6174111904416285,0.0,0.6174111904416285,-0.03208467007651022,0,0.03208467007651022,-0.001381509516948532,0.003867061654069512,0.0066603902551159964,0.4,0.03362560272216797,0.4854435920715332,STABILIZE
0.17,0.004,0.07,-0.014733476659659494,-0.0034656453880539035,-5.893390663863798e-05,0.003360234710037348,-0.00016434458465519348,0.17,0.004,0.07,-0.01676264286607997,-0.004637449181853423,-6.705057146431988e-05,0.0012272574154255742,-0.0034772423378921693,0.002,8e-05,0,-0.3332888188394397,-0.0012239055847330846,-2.666310550715518e-05,0.0,-0.0012505686902402398,0.2,0.02,0,-0.013160934397121791,-0.00590933957147245,-0.00026321868794243583,-0.0,-0.006172558259414885,-0.027279112834431896,0.0,0.027279112834431896,-0.020386149341493548,0.0,0.020386149341493548,-0.6119527923665423,0.0,0.6119527923665423,-0.029546697857362247,0,0.029546697857362247,-0.00016613773195167577,0.003477157125146524,0.006172558259414885,0.4,0.03344273567199707,0.518883466720581,STABILIZE
0.17,0.004,0.07,-0.01534001549984651,-0.003079957043995776,-6.136006199938603e-05,0.004095184141619285,0.0009538670356241227,0.17,0.004,0.07,-0.017582923250223956,-0.004165319975909307,-7.033169300089583e-05,0.0009769040771818818,-0.0032587475917283215,0.002,8e-05,0,-0.3536105096004668,-0.0012140231144972724,-2.8288840768037345e-05,0.0,-0.0012423119552653098,0.2,0.02,0,-0.014066924767726988,-0.005412410140282383,-0.0002813384953545398,0.0,-0.005693748635636923,-0.02450188221123122,0.0,0.02450188221123122,-0.01811739437644574,0.0,0.01811739437644574,-0.6070115572486362,0.0,0.6070115572486362,-0.027062050701411915,0,0.027062050701411915,0.0009523277514711789,0.003259197760496183,0.005693748635636923,0.4,0.0334782600402832,0.552422285079956,STABILIZE
0.17,0.004,0.07,-0.016002805269834924,-0.0031994672171746555,-6.40112210793397e-05,0.003133072845301448,-0.0001304055929525474,0.17,0.004,0.07,-0.018536561524340342,-0.004603472372743084,-7.414624609736137e-05,0.0006267629917245461,-0.004050855627115898,0.002,8e-05,0,-0.37481125819234584,-0.0012040212122743043,-2.998490065538767e-05,0.0,-0.001234006112929692,0.2,0.02,0,-0.014937635716680329,-0.004944893562394699,-0.0002987527143336066,0.0,-0.0052436462767283054,-0.0270792492514299,0.0,0.0270792492514299,-0.01882039539514503,0.0,0.01882039539514503,-0.6020106061371521,0.0,0.6020106061371521,-0.024724467811973495,0,0.024724467811973495,-0.00013215361962476717,0.004050798976897016,0.0052436462767283054,0.4,0.035216569900512695,0.5875823497772217,STABILIZE
0.17,0.004,0.07,-0.016678739990683616,-0.0033840716578108173,-6.671495996273446e-05,0.0014189115556969894,-0.0020318750620765625,0.17,0.004,0.07,-0.01951811143925102,-0.004914136151498838,-7.807244575700407e-05,-0.00011771798571163982,-0.005109926582967482,0.002,8e-05,0,-0.39581766267820695,-0.001237278861413208,-3.166541301425656e-05,0.0,-0.0012689442744274646,0.2,0.02,0,-0.015764039519651413,-0.004867524840321069,-0.00031528079039302824,0.0,-0.005182805630714097,-0.02890668324411081,0.0,0.02890668324411081,-0.019906303869475395,0.0,0.019906303869475395,-0.618639430706604,0.0,0.618639430706604,-0.024337624201605342,0,0.024337624201605342,-0.00203404543077556,0.005109063039026572,0.005182805630714097,0.4,0.03395581245422363,0.6215376853942871,STABILIZE
0.17,0.004,0.07,-0.017297313257208444,-0.003142096254475858,-6.918925302883377e-05,0.0018000823149268816,-0.0014112031925778102,0.17,0.004,0.07,-0.02039004751798587,-0.004429074509680875,-8.156019007194348e-05,0.0017749189421712743,-0.002735715757581543,0.002,8e-05,0,-0.41629528962991474,-0.0012237396722146272,-3.330362317039318e-05,0.0,-0.0012570432953850205,0.2,0.02,0,-0.01663590231125645,-0.005210237931040617,-0.000332718046225129,0.0,-0.005542955977265746,-0.026053379468711023,0.0,0.026053379468711023,-0.018482919143975634,0.0,0.018482919143975634,-0.6118698361073136,0.0,0.6118698361073136,-0.026051189655203085,0,0.026051189655203085,-0.0014124469192605136,0.0027350738303185246,0.005542955977265746,0.4,0.03346729278564453,0.6550354957580566,STABILIZE
0.17,0.004,0.07,-0.017909471538160162,-0.0031088906516589464,-7.163788615264065e-05,0.0008986817138898969,-0.00228184682392169,0.17,0.004,0.07,-0.021301992517245297,-0.004631379450780263,-8.52079700689812e-05,7.920697446767767e-05,-0.004637380446381566,0.002,8e-05,0,-0.43663394575868936,-0.0012151924039251255,-3.4930715660695154e-05,0.0,-0.0012501231195858205,0.2,0.02,0,-0.017551078613946232,-0.005467988072759212,-0.00035102157227892463,0.0,-0.005819009645038137,-0.02724340853400154,0.0,0.02724340853400154,-0.018287592068582038,0.0,0.018287592068582038,-0.6075962019625627,0.0,0.6075962019625627,-0.02733994036379606,0,0.02733994036379606,-0.0022840593920514024,0.004636291085113766,0.005819009645038137,0.4,0.033473968505859375,0.6885018348693848,STABILIZE
0.17,0.004,0.07,-0.018509962642083364,-0.003052573205399888,-7.403985056833346e-05,8.861562488628886e-05,-0.0030379974310819325,0.17,0.004,0.07,-0.0221893398032232,-0.004510795466183741,-8.875735921289279e-05,-0.0007852331381488216,-0.005384785963545455,0.002,8e-05,0,-0.4566144640350406,-0.0011949433961226698,-3.652915712280325e-05,0.0,-0.001231472553245473,0.2,0.02,0,-0.018381679127741454,-0.004967441710210466,-0.0003676335825548291,0.0,-0.005335075292765295,-0.026534090977551415,0.0,0.026534090977551415,-0.017956312972940515,0.0,0.017956312972940515,-0.5974716980613349,0.0,0.5974716980613349,-0.02483720855105233,0,0.02483720855105233,-0.003040331402175645,0.005383468512901441,0.005335075292765295,0.4,0.033441781997680664,0.721951961517334,STABILIZE
0.17,0.004,0.07,-0.01911887079308253,-0.0030965751506499477,-7.647548317233012e-05,0.0002596860908311671,-0.0029133645429911107,0.17,0.004,0.07,-0.023124290900908756,-0.004754651964200671,-9.249716360363503e-05,-0.00036137709974440167,-0.005208526227548708,0.002,8e-05,0,-0.47648176348312893,-0.001188638378779184,-3.811854107865032e-05,0.0,-0.0012267569198578343,0.2,0.02,0,-0.01921714583343406,-0.004998504165970063,-0.0003843429166686812,-0.0,-0.0053828470826387444,-0.027968540965886298,0.0,0.027968540965886298,-0.01821514794499969,0.0,0.01821514794499969,-0.5943191893895919,0.0,0.5943191893895919,-0.024992520829850314,0,0.024992520829850314,-0.00291563623414848,0.005207254917280414,0.0053828470826387444,0.4,0.03342866897583008,0.7553703784942627,STABILIZE
0.17,0.004,0.07,-0.019810401649073297,-0.003514518335974852,-7.924160659629318e-05,-0.00032156083317238333,-0.003915320775743528,0.17,0.004,0.07,-0.023897998361801082,-0.003932158680165861,-9.559199344720433e-05,0.002417036587711588,-0.0016107140859014774,0.002,8e-05,0,-0.49614854977484113,-0.0011758954862183435,-3.96918839819873e-05,0.0,-0.0012155873702003309,0.2,0.02,0,-0.02009538507577896,-0.005251074301490662,-0.0004019077015155792,-0.0,-0.005652982003006241,-0.02313034517744624,0.0,0.02313034517744624,-0.020673637270440304,0.0,0.020673637270440304,-0.5879477431091717,0.0,0.5879477431091717,-0.026255371507453308,0,0.026255371507453308,-0.003916058462573789,0.001608919749768317,0.005652982003006241,0.4,0.03344988822937012,0.7888317108154297,STABILIZE
0.17,0.004,0.07,-0.020588090300030816,-0.003907523397288231,-8.235236120012326e-05,-0.0018735758312163062,-0.005863451589704661,0.17,0.004,0.07,-0.02451963088611524,-0.0031234140170133574,-9.807852354446096e-05,0.0031919549752720444,-2.9537565285773972e-05,0.002,8e-05,0,-0.5157487512246396,-0.0011586104339608948,-4.125990009797117e-05,0.0,-0.0011998703340588659,0.2,0.02,0,-0.021020833322062418,-0.005470525376900425,-0.0004204166664412484,-0.0,-0.005890942043341674,-0.018373023629490337,0.0,0.018373023629490337,-0.022985431748754302,0.0,0.022985431748754302,-0.5793052169804473,0.0,0.5793052169804473,-0.027352626884502126,0,0.027352626884502126,-0.00586346502258943,2.6738388946612423e-05,0.005890942043341674,0.4,0.033833980560302734,0.8226907253265381,STABILIZE
0.17,0.004,0.07,-0.021398542171180413,-0.0041222223277997795,-8.559416868472165e-05,-0.0024842789928132413,-0.006692095489297743,0.17,0.004,0.07,-0.025263891355242537,-0.0037855512865722996,-0.00010105556542097015,0.002058184848908587,-0.0018284220030846828,0.002,8e-05,0,-0.534621114633606,-0.0011293057699867516,-4.276968917068848e-05,0.0,-0.00117207545915744,0.2,0.02,0,-0.021757248400997246,-0.004406643618102615,-0.0004351449680199449,0.0,-0.00484178858612256,-0.022267948744542937,0.0,0.022267948744542937,-0.02424836663411635,0.0,0.02424836663411635,-0.5646528849933757,0.0,0.5646528849933757,-0.022033218090513076,0,0.022033218090513076,-0.006692798118170268,0.0018258484079079333,0.00484178858612256,0.4,0.03342294692993164,0.8560764789581299,STABILIZE
0.17,0.004,0.07,-0.022211741433288575,-0.004116463644491217,-8.88469657331543e-05,-0.0026088435079421298,-0.006814154118166501,0.17,0.004,0.07,-0.0259582237696438,-0.0035147525019451316,-0.0001038328950785752,0.002425292827437415,-0.001193292569586292,0.002,8e-05,0,-0.5535775468856522,-0.00112892472732094,-4.428620375085218e-05,0.0,-0.0011732109310717922,0.2,0.02,0,-0.02250947636472362,-0.004479792070268481,-0.0004501895272944724,0.0,-0.004929981597562953,-0.020675014717324303,0.0,0.020675014717324303,-0.024214492026418923,0.0,0.024214492026418923,-0.56446236366047,0.0,0.56446236366047,-0.022398960351342402,0,0.022398960351342402,-0.0068146200980040315,0.001190628582990878,0.004929981597562953,0.4,0.03358316421508789,0.8896629810333252,STABILIZE
0.17,0.004,0.07,-0.023002065733257894,-0.004015922288947261,-9.200826293303158e-05,-0.0022529544267303413,-0.006360884978610634,0.17,0.004,0.07,-0.026608348276551112,-0.00330351666775434,-0.00010643339310620445,0.0035460129925464503,0.0001360629316859061,0.002,8e-05,0,-0.5724041646368877,-0.00112546849968256,-4.579233317095102e-05,0.0,-0.001171260832853511,0.2,0.02,0,-0.0232307071471112,-0.0043115685318748384,-0.00046461414294222405,0.0,-0.004776182674817063,-0.019432450986790233,0.0,0.019432450986790233,-0.023623072287925064,0.0,0.023623072287925064,-0.56273424984128,0.0,0.56273424984128,-0.02155784265937419,0,0.02155784265937419,-0.006360833333958911,-0.00013845623890072536,0.004776182674817063,0.4,0.033455610275268555,0.9231324195861816,STABILIZE
0.17,0.004,0.07,-0.023822817356771234,-0.0041705641950402945,-9.529126942708494e-05,-0.0016046496543931732,-0.005870505118860552,0.17,0.004,0.07,-0.027328307383703565,-0.003658397483674788,-0.00010931322953481427,0.0006474852300466479,-0.003120225483162954,0.002,8e-05,0,-0.5911923580866805,-0.0011231794720605408,-4.729538864693444e-05,0.0,-0.0011704748607074753,0.2,0.02,0,-0.023923818317784246,-0.004143497036243262,-0.0004784763663556849,0.0,-0.004621973402598947,-0.021519985198086986,0.0,0.021519985198086986,-0.024532730559060554,0.0,0.024532730559060554,-0.5615897360302704,0.0,0.5615897360302704,-0.02071748518121631,0,0.02071748518121631,-0.005871632972182101,0.003118102573093357,0.004621973402598947,0.4,0.03345537185668945,0.9565985202789307,STABILIZE
0.17,0.004,0.07,-0.02462717938626685,-0.004086233839321366,-9.85087175450674e-05,-0.0004405310034580123,-0.004625273560324446,0.17,0.004,0.07,-0.028120207932536945,-0.0040229283598197906,-0.00011248083173014779,-0.0022181142731299217,-0.00635352346467986,0.002,8e-05,0,-0.609899280586261,-0.001118034167880425,-4.879194244690088e-05,0.0,-0.001166826110327326,0.2,0.02,0,-0.024552057453669163,-0.003754721384742805,-0.0004910411490733833,0.0,-0.0042457625338161884,-0.023664284469528177,0.0,0.023664284469528177,-0.024036669643066857,0.0,0.024036669643066857,-0.5590170839402125,0.0,0.5590170839402125,-0.018773606923714024,0,0.018773606923714024,-0.004627355115459395,0.006352007600712212,0.0042457625338161884,0.4,0.03346395492553711,0.9900913238525391,STABILIZE
0.17,0.004,0.07,-0.025409310388166205,-0.003981723550912672,-0.00010163724155266482,0.0003462188698269241,-0.0037371419226384125,0.17,0.004,0.07,-0.028974107399287064,-0.0043470871358046986,-0.00011589642959714826,-0.0013860602284876424,-0.00584904379388949,0.002,8e-05,0,-0.6284823677541712,-0.0011129881528864482,-5.02785894203337e-05,0.0,-0.0011632667423067818,0.2,0.02,0,-0.02518612218007156,-0.0037975742258137186,-0.0005037224436014313,0.0,-0.00430129666941515,-0.02557110079885117,0.0,0.02557110079885117,-0.023421903240662772,0.0,0.023421903240662772,-0.556494076443224,0.0,0.556494076443224,-0.018987871129068593,0,0.018987871129068593,-0.0037390800955812292,0.005847804980640766,0.00430129666941515,0.4,0.033393144607543945,1.0234427452087402,STABILIZE
0.17,0.004,0.07,-0.0261412537496221,-0.0037108054057702513,-0.0001045650149984884,0.0009974609015029861,-0.002817909519265754,0.17,0.004,0.07,-0.02983152750753291,-0.004346947236963934,-0.00011932611003013166,-0.0020497718890417813,-0.006516045236035847,0.002,8e-05,0,-0.6473072601207533,-0.0011228048513288928,-5.178458080966027e-05,0.0,-0.001174589432138553,0.2,0.02,0,-0.025740642850538658,-0.0033074212953688852,-0.0005148128570107731,0.0,-0.0038222341523796582,-0.025570277864493726,0.0,0.025570277864493726,-0.021828267092766182,0.0,0.021828267092766182,-0.5614024256644464,0.0,0.5614024256644464,-0.016537106476844424,0,0.016537106476844424,-0.002819790108172611,0.006515231639986863,0.0038222341523796582,0.4,0.033531904220581055,1.057007074356079,STABILIZE
0.17,0.004,0.07,-0.02684419552309386,-0.0035710349585752737,-0.00010737678209237545,0.0010939422614842465,-0.002584469479183403,0.17,0.004,0.07,-0.030593505667293727,-0.00387094742248382,-0.0001223740226691749,-0.001398323700440643,-0.005391645145593638,0.002,8e-05,0,-0.6659538456443258,-0.0011144360202606479,-5.327630765154607e-05,0.0,-0.001167712327912194,0.2,0.02,0,-0.026129045235738564,-0.0023213344227270573,-0.0005225809047147713,0.0,-0.0028439153274418287,-0.022770278955787177,0.0,0.022770278955787177,-0.021006087991619255,0.0,0.021006087991619255,-0.5572180101303239,0.0,0.5572180101303239,-0.011606672113635285,0,0.011606672113635285,-0.002585561636740851,0.005391121486986538,0.0028439153274418287,0.4,0.03346371650695801,1.0904710292816162,STABILIZE
0.17,0.004,0.07,-0.027526304429530322,-0.0034504023120152175,-0.00011010521771812129,0.0017702095856732358,-0.001790297944060103,0.17,0.004,0.07,-0.0312689956669096,-0.003416921014261602,-0.0001250759826676384,0.0005878123497857533,-0.002954184647143487,0.002,8e-05,0,-0.6846426263792862,-0.0011121876260723634,-5.47714101103429e-05,0.0,-0.0011669590361827063,0.2,0.02,0,-0.02635401581812974,-0.0013388219462476853,-0.0005270803163625948,0.0,-0.00186590226261028,-0.020099535378009424,0.0,0.020099535378009424,-0.020296484188324807,0.0,0.020296484188324807,-0.5560938130361817,0.0,0.5560938130361817,-0.006694109731238426,0,0.006694109731238426,-0.001790643081803584,0.0029539754588542343,0.00186590226261028,0.4,0.03360724449157715,1.1240694522857666,STABILIZE
0.17,0.004,0.07,-0.02825404844453361,-0.0036982192373263985,-0.00011301619377813445,0.0009526135698654287,-0.002858621861239104,0.17,0.004,0.07,-0.03195515624112649,-0.0034869022391786587,-0.00012782062496450596,0.0013126262803609603,-0.002302096583782204,0.002,8e-05,0,-0.7032735853895753,-0.0011138591980827236,-5.626188683116603e-05,0.0,-0.0011701210849138896,0.2,0.02,0,-0.02651792139465729,-0.0009799159234446166,-0.0005303584278931458,0.0,-0.0015102743513377625,-0.020511189642227402,0.0,0.020511189642227402,-0.021754230807802342,0.0,0.021754230807802342,-0.5569295990413619,0.0,0.5569295990413619,-0.004899579617223083,0,0.004899579617223083,-0.0028588187118051634,0.00230185212375784,0.0015102743513377625,0.4,0.03345298767089844,1.1575195789337158,STABILIZE
0.17,0.004,0.07,-0.029021159867365386,-0.0038993587259767088,-0.00011608463946946155,0.00019958105537591338,-0.003815862310070257,0.17,0.004,0.07,-0.03265722373021256,-0.003568729272321978,-0.00013062889492085024,0.0019105608699533376,-0.0017887972972894907,0.002,8e-05,0,-0.721873522868948,-0.0011123137334980036,-5.774988182951585e-05,0.0,-0.0011700636153275195,0.2,0.02,0,-0.02662500052979526,-0.0006403548007467316,-0.0005325000105959052,0.0,-0.0011728548113426368,-0.020992525131305752,0.0,0.020992525131305752,-0.022937404270451225,0.0,0.022937404270451225,-0.5561568667490018,0.0,0.5561568667490018,-0.003201774003733658,0,0.003201774003733658,-0.003815962264785302,0.0017885840583935471,0.0011728548113426368,0.4,0.03344368934631348,1.1909940242767334,STABILIZE
0.17,0.004,0.07,-0.029823848018254873,-0.0040781662123855495,-0.00011929539207301949,-0.0009058648322228945,-0.005103326436681464,0.17,0.004,0.07,-0.03337354853312724,-0.003639385488751984,-0.00013349419413250896,0.0017363176612081583,-0.0020365620216763343,0.002,8e-05,0,-0.7403682860499395,-0.0011054724380850567,-5.922946288399517e-05,0.0,-0.0011647019009690517,0.2,0.02,0,-0.02668183642519973,-0.000339720575217223,-0.0005336367285039946,0.0,-0.0008733573037212176,-0.021408149933835198,0.0,0.021408149933835198,-0.023989213014032642,0.0,0.023989213014032642,-0.5527362190425283,0.0,0.5527362190425283,-0.0016986028760861147,0,0.0016986028760861147,-0.005103386810790024,0.0020364107264794966,0.0008733573037212176,0.4,0.033460378646850586,1.2244417667388916,STABILIZE
0.17,0.004,0.07,-0.03075861383423933,-0.004707211696585107,-0.00012303445533695732,-0.0027843567276908078,-0.007614602879612872,0.17,0.004,0.07,-0.03406488787187871,-0.003481385996398546,-0.00013625955148751485,0.0009503312475796251,-0.002667314300306436,0.002,8e-05,0,-0.7594004251682351,-0.0011275338427546697,-6.0752034013458815e-05,-0.0,-0.0011882858767681284,0.2,0.02,0,-0.02664137620016084,0.00023970123764472057,-0.0005328275240032168,0.0,-0.00029312628635849627,-0.020478741155285564,0.0,0.020478741155285564,-0.027689480568147684,0.0,0.027689480568147684,-0.5637669213773349,0.0,0.5637669213773349,0.0011985061882236027,0,-0.0011985061882236027,-0.007614547083388933,0.002667473581065227,0.00029312628635849627,0.4,0.03375887870788574,1.258178472518921,STABILIZE
0.17,0.004,0.07,-0.031741912719499596,-0.004993862091777271,-0.00012696765087799838,-0.0037851960459718156,-0.008906025788627085,0.17,0.004,0.07,-0.03464078501437974,-0.002924798300709477,-0.00013856314005751896,0.001207112332984867,-0.0018562491077821288,0.002,8e-05,0,-0.7779581769879202,-0.0011088107678698647,-6.223665415903363e-05,0.0,-0.0011710474220288983,0.2,0.02,0,-0.02652131259677676,0.0007173703881539595,-0.0005304262519355352,0.0,0.00018694413621842432,-0.017204695886526334,0.0,0.017204695886526334,-0.029375659363395708,0.0,0.029375659363395708,-0.5544053839349323,0.0,0.5544053839349323,0.0035868519407697974,0,-0.0035868519407697974,-0.008905909565570679,0.0018568066425207943,-0.00018694413621842432,0.4,0.03347325325012207,1.2916579246520996,STABILIZE
0.17,0.004,0.07,-0.03272675434453287,-0.005008439450184072,-0.0001309070173781315,-0.0032110448205596165,-0.00835039128812182,0.17,0.004,0.07,-0.03534975448347909,-0.003605483935443163,-0.00014139901793391635,-0.0002975330816933105,-0.00404441603507039,0.002,8e-05,0,-0.7964421165876101,-0.001105889275914891,-6.371536932700882e-05,0.0,-0.0011696046452419,0.2,0.02,0,-0.026479932919391887,0.00024757352843502437,-0.0005295986583878378,0.0,-0.0002820251299528134,-0.021208729032018606,0.0,0.021208729032018606,-0.029461408530494542,0.0,0.029461408530494542,-0.5529446379574455,0.0,0.5529446379574455,0.0012378676421751218,0,-0.0012378676421751218,-0.008350303907106242,0.004044596443211796,0.0002820251299528134,0.4,0.033428192138671875,1.3251023292541504,STABILIZE
0.17,0.004,0.07,-0.03370311253455882,-0.004962111509187324,-0.00013481245013823528,-0.0026016924665283143,-0.007698616425853874,0.17,0.004,0.07,-0.0360925285582114,-0.0037749750272051204,-0.0001443701142328456,-0.0005133258360797476,-0.004432670977517713,0.002,8e-05,0,-0.8149021419933584,-0.0011037499950025177,-6.519217135946868e-05,0.0,-0.0011689421663619863,0.2,0.02,0,-0.026427034989629068,0.0003162839076763807,-0.0005285406997925814,0.0,-0.00021225679211620067,-0.022205735454147765,0.0,0.022205735454147765,-0.029188891230513672,0.0,0.029188891230513672,-0.5518749975012588,0.0,0.5518749975012588,0.0015814195383819034,0,-0.0015814195383819034,-0.007698494076868187,0.004432883465170313,0.00021225679211620067,0.4,0.033449649810791016,1.3585741519927979,STABILIZE
0.17,0.004,0.07,-0.03471227248859822,-0.005132367225750416,-0.0001388490899543929,-0.002581069196390576,-0.007852285512095386,0.17,0.004,0.07,-0.03689616930400655,-0.0040871413976417475,-0.0001475846772160262,-0.0011085106487570846,-0.0053432367236148585,0.002,8e-05,0,-0.8339097640386177,-0.0011372778393152578,-6.671278112308942e-05,-0.0,-0.0012039906204383472,0.2,0.02,0,-0.026339501114192903,0.0005237390373498267,-0.0005267900222838581,0.0,-3.0509849340313536e-06,-0.02404200822142204,0.0,0.02404200822142204,-0.03019039544559068,0.0,0.03019039544559068,-0.5686389196576289,0.0,0.5686389196576289,0.002618695186749134,0,-0.002618695186749134,-0.007852041292044408,0.005343595605589847,3.0509849340313536e-06,0.4,0.033426523208618164,1.3919649124145508,STABILIZE
0.17,0.004,0.07,-0.03573819101680713,-0.0052138044925049715,-0.00014295276406722852,-0.0012470382574680998,-0.0066037955140403,0.17,0.004,0.07,-0.03784956435116843,-0.0048452340447568245,-0.0001513982574046737,-0.003360297175267494,-0.008356929477428991,0.002,8e-05,0,-0.8535021299947892,-0.0011714124273812284,-6.828017039958315e-05,-0.0,-0.0012396925977808115,0.2,0.02,0,-0.02627094017081347,0.0004099205848201817,-0.0005254188034162694,0.0,-0.00011549821859608775,-0.02850137673386367,0.0,0.02850137673386367,-0.030669438191205715,0.0,0.030669438191205715,-0.5857062136906142,0.0,0.5857062136906142,0.0020496029241009084,0,-0.0020496029241009084,-0.0066034965630647246,0.008357165705164206,0.00011549821859608775,0.4,0.03345084190368652,1.4254212379455566,STABILIZE
0.17,0.004,0.07,-0.03677066131519089,-0.005245680388529898,-0.00014708264526076356,-0.0006202577737112902,-0.0060130208075019525,0.17,0.004,0.07,-0.0388208453881896,-0.004934795601993328,-0.0001552833815527584,-0.00495008093827029,-0.010040159921816377,0.002,8e-05,0,-0.872799165484196,-0.0011534424457765146,-6.982393323873569e-05,-0.0,-0.0012232663790152504,0.2,0.02,0,-0.026241076895543038,0.00017850187032995542,-0.0005248215379108608,-0.0,-0.00034631966758090537,-0.029028209423490162,0.0,0.029028209423490162,-0.030856943461940574,0.0,0.030856943461940574,-0.5767212228882573,0.0,0.5767212228882573,0.0008925093516497771,0,-0.0008925093516497771,-0.006012864408924308,0.01004025358678707,0.00034631966758090537,0.4,0.03345990180969238,1.4588942527770996,STABILIZE
0.17,0.004,0.07,-0.03790165210824428,-0.005309527436961061,-0.00015160660843297714,-0.0007295457236257761,-0.006190679769019814,0.17,0.004,0.07,-0.03989832465394505,-0.0050583132589790605,-0.0001595932986157802,-0.003554061921358968,-0.008771968478953809,0.002,8e-05,0,-0.8934816510738499,-0.0011423011250510605,-7.1478532085908e-05,-0.0,-0.0012137796571369684,0.2,0.02,0,-0.026247906030330195,-3.771755728622451e-05,-0.0005249581206066039,-0.0,-0.0005626756778928284,-0.02975478387634741,0.0,0.02975478387634741,-0.031232514335065062,0.0,0.031232514335065062,-0.5711505625255302,0.0,0.5711505625255302,-0.00018858778643112252,0,0.00018858778643112252,-0.006190708641725811,0.00877194810242125,0.0005626756778928284,0.4,0.03621196746826172,1.495093822479248,STABILIZE
0.17,0.004,0.07,-0.03891406450143594,-0.0051424895250631745,-0.00015565625800574375,-0.00043258663361368235,-0.0057307324166826,0.17,0.004,0.07,-0.040772558230648445,-0.004440618310175756,-0.0001630902329225938,-0.0016168571770569086,-0.006220565720155258,0.002,8e-05,0,-0.9123440618388564,-0.0011271824944621587,-7.298752494710853e-05,-0.0,-0.0012001700194092673,0.2,0.02,0,-0.026334859380910524,-0.0005196170088226981,-0.0005266971876182105,-0.0,-0.0010463141964409087,-0.026121284177504443,0.0,0.026121284177504443,-0.030249938382724554,0.0,0.030249938382724554,-0.5635912472310793,0.0,0.5635912472310793,-0.0025980850441134906,0,0.0025980850441134906,-0.005731014483203467,0.006220305852906237,0.0010463141964409087,0.4,0.03346824645996094,1.5285732746124268,STABILIZE
0.17,0.004,0.07,-0.039951705459224884,-0.005273792342892392,-0.00015980682183689955,-0.0003364085270376756,-0.005770007691766967,0.17,0.004,0.07,-0.041615825417309196,-0.004285890990174713,-0.00016646330166923679,-0.0004668182346030115,-0.004919172526446961,0.002,8e-05,0,-0.9309983392453297,-0.001115412287843646,-7.447986713962638e-05,0.0,-0.0011898921549832722,0.2,0.02,0,-0.026462430382470356,-0.0007627969693587788,-0.0005292486076494071,-0.0,-0.001292045577008186,-0.025211123471615957,0.0,0.025211123471615957,-0.031022307899367007,0.0,0.031022307899367007,-0.5577061439218229,0.0,0.5577061439218229,-0.003813984846793894,0,0.003813984846793894,-0.005770335131539389,0.004918788425793779,0.001292045577008186,0.4,0.033448219299316406,1.5620288848876953,STABILIZE
0.17,0.004,0.07,-0.04101691318370105,-0.005408541229017932,-0.0001640676527348042,-0.0004673545285437295,-0.006039963410296465,0.17,0.004,0.07,-0.04266576303853501,-0.005331008010751534,-0.00017066305215414004,-0.0011711010075356727,-0.006672772070441347,0.002,8e-05,0,-0.9493180011134347,-0.0010943200725201732,-7.594544008907478e-05,0.0,-0.001170265512609248,0.2,0.02,0,-0.026625873125341946,-0.0009763208268790881,-0.000532517462506839,-0.0,-0.001508838289385927,-0.03135887065147961,0.0,0.03135887065147961,-0.03181494840598783,0.0,0.03181494840598783,-0.5471600362600866,0.0,0.5471600362600866,-0.00488160413439544,0,0.00488160413439544,-0.006040531908987201,0.006672257440948276,0.001508838289385927,0.4,0.03348135948181152,1.595503807067871,STABILIZE
0.17,0.004,0.07,-0.04210745983393298,-0.00554055199388114,-0.0001684298393357319,-0.000713799174445738,-0.006422781007662611,0.17,0.004,0.07,-0.04391309319093501,-0.006337094851869157,-0.00017565237276374006,-0.0034268040109594637,-0.009939551235592361,0.002,8e-05,0,-0.9672984826577098,-0.001074709726861886,-7.738387861261679e-05,0.0,-0.0011520936054745029,0.2,0.02,0,-0.02682352220409829,-0.001181366510800506,-0.0005364704440819658,-0.0,-0.0017178369548824716,-0.037277028540406806,0.0,0.037277028540406806,-0.03259148231694788,0.0,0.03259148231694788,-0.5373548634309431,0.0,0.5373548634309431,-0.0059068325540025295,0,0.0059068325540025295,-0.0064238056784081095,0.009938889034666245,0.0017178369548824716,0.4,0.03346109390258789,1.6289706230163574,STABILIZE
0.17,0.004,0.07,-0.04303081191654108,-0.004655094226862046,-0.00017212324766616432,0.0015939165227866875,-0.0032333009517415225,0.17,0.004,0.07,-0.04519506634112656,-0.006463088049352111,-0.00018078026536450623,-0.003453608980123065,-0.010097477294839683,0.002,8e-05,0,-0.9852920416731482,-0.001067233109235384,-7.882336333385187e-05,0.0,-0.001146056472569236,0.2,0.02,0,-0.026942598341419904,-0.0007062638145152408,-0.0005388519668283981,-0.0,-0.0012451157813436389,-0.03801816499618888,0.0,0.03801816499618888,-0.02738290721683556,0.0,0.02738290721683556,-0.5336165546176921,0.0,0.5336165546176921,-0.0035313190725762035,0,0.0035313190725762035,-0.0032339232848798208,0.010097277997155851,0.0012451157813436389,0.4,0.03372001647949219,1.6627180576324463,STABILIZE
0.17,0.004,0.07,-0.04378780366847519,-0.003845533632286415,-0.00017515121467390077,0.003175153609879852,-0.0008455312370804643,0.17,0.004,0.07,-0.04656884426682971,-0.00697882005066281,-0.00018627537706731884,-0.006242696976140936,-0.013407792403871065,0.002,8e-05,0,-1.002993280176581,-0.00105791358592053,-8.02394624141265e-05,0.0,-0.0011381530483346564,0.2,0.02,0,-0.027060724139110766,-0.0007059782071216471,-0.0005412144827822153,-0.0,-0.0012471926899038624,-0.0410518826509577,0.0,0.0410518826509577,-0.022620786072273028,0.0,0.022620786072273028,-0.528956792960265,0.0,0.528956792960265,-0.0035298910356082354,0,0.0035298910356082354,-0.0008463572657102694,0.013407740286750817,0.0012471926899038624,0.4,0.03346443176269531,1.6961512565612793,STABILIZE
0.17,0.004,0.07,-0.04456679887411594,-0.003961206231475566,-0.00017826719549646376,0.0032134946353368143,-0.0009259787916352158,0.17,0.004,0.07,-0.047948800254566215,-0.007017103851477094,-0.00019179520101826486,-0.0067179571755765135,-0.013926856228071872,0.002,8e-05,0,-1.0207242787208177,-0.0010607350931820445,-8.165794229766543e-05,0.0,-0.00114239303547971,0.2,0.02,0,-0.027220396584715006,-0.0009552206890326097,-0.0005444079316943002,-0.0,-0.0014996286207269098,-0.04127708147927702,0.0,0.04127708147927702,-0.023301213126326856,0.0,0.023301213126326856,-0.5303675465910223,0.0,0.5303675465910223,-0.004776103445163048,0,0.004776103445163048,-0.0009271397134722079,0.01392677899126877,0.0014996286207269098,0.4,0.0334315299987793,1.7296702861785889,STABILIZE
0.17,0.004,0.07,-0.04537684190906192,-0.004115856298490932,-0.00018150736763624767,0.003164276037584874,-0.0011330876285423055,0.17,0.004,0.07,-0.04942468031510549,-0.007498996943283225,-0.00019769872126042197,-0.005333450960801189,-0.013030146625344834,0.002,8e-05,0,-1.0381777478315495,-0.0010433137888011148,-8.305421982652396e-05,0.0,-0.0011263680086276387,0.2,0.02,0,-0.02748518510796744,-0.001582822965869193,-0.0005497037021593488,-0.0,-0.002132526668028542,-0.04411174672519544,0.0,0.04411174672519544,-0.02421091940288783,0.0,0.02421091940288783,-0.5216568944005574,0.0,0.5216568944005574,-0.007914114829345965,0,0.007914114829345965,-0.0011348874374961934,0.01302998999063907,0.002132526668028542,0.4,0.03345775604248047,1.7630558013916016,STABILIZE
0.17,0.004,0.07,-0.046221924438610146,-0.0042874161528234775,-0.00018488769775444058,0.003067534445290232,-0.0014047694052876864,0.17,0.004,0.07,-0.051011389155087766,-0.008049960651777483,-0.00020404555662035108,-0.004211411993389383,-0.012465418201787216,0.002,8e-05,0,-1.055657837655633,-0.001043328931430903,-8.445262701245064e-05,0.0,-0.0011277815584433536,0.2,0.02,0,-0.027786663868879114,-0.001799427329244774,-0.0005557332773775823,-0.0,-0.0023551606066223563,-0.047352709716338134,0.0,0.047352709716338134,-0.02522009501660869,0.0,0.02522009501660869,-0.5216644657154514,0.0,0.5216644657154514,-0.008997136646223869,0,0.008997136646223869,-0.0014067268283136883,0.012465197457641129,0.0023551606066223563,0.4,0.03350830078125,1.7965507507324219,STABILIZE
0.17,0.004,0.07,-0.04697272534820681,-0.003814464494287259,-0.00018789090139282723,0.002069026525878368,-0.0019333288698017187,0.17,0.004,0.07,-0.052489598326232005,-0.007510082002282822,-0.000209958393304928,-0.002574979164229248,-0.010295019559816997,0.002,8e-05,0,-1.072980709635626,-0.0010354038054119616,-8.58384567708501e-05,0.0,-0.0011212422621828116,0.2,0.02,0,-0.02797304897210373,-0.0011140407051079839,-0.0005594609794420747,-0.0,-0.0016735016845500585,-0.04417695295460483,0.0,0.04417695295460483,-0.022438026436983876,0.0,0.022438026436983876,-0.5177019027059808,0.0,0.5177019027059808,-0.005570203525539919,0,0.005570203525539919,-0.001934329725906138,0.010294831556043023,0.0016735016845500585,0.4,0.03346109390258789,1.8300237655639648,STABILIZE
0.17,0.004,0.07,-0.04772960986042044,-0.0038439207922397367,-0.00019091843944168176,4.3019417371948374e-06,-0.004030537289944223,0.17,0.004,0.07,-0.054031119090628896,-0.007828781831728136,-0.0002161244763625156,-0.002089882941902232,-0.010134789249992882,0.002,8e-05,0,-1.0903017432443718,-0.0010349031054252029,-8.722413945954975e-05,0.0,-0.0011221272448847526,0.2,0.02,0,-0.028114340551945536,-0.0008441938169029797,-0.0005622868110389108,-0.0,-0.0014064806279418906,-0.046051657833694915,0.0,0.046051657833694915,-0.022611298777880803,0.0,0.022611298777880803,-0.5174515527126015,0.0,0.5174515527126015,-0.004220969084514898,0,0.004220969084514898,-0.004031283906985884,0.01013449229358229,0.0014064806279418906,0.4,0.03347373008728027,1.8634862899780273,STABILIZE
0.17,0.004,0.07,-0.048497818772806886,-0.0038989891690325604,-0.00019399127509122754,0.00015384611136332478,-0.003939134332760463,0.17,0.004,0.07,-0.055589481187150146,-0.007909354913485728,-0.0002223579247486006,-0.0021936810715005024,-0.010325393909734831,0.002,8e-05,0,-1.1075743488534922,-0.0010313631694997551,-8.860594790827939e-05,0.0,-0.0011199691174080344,0.2,0.02,0,-0.028327111347847503,-0.0012704739945116742,-0.00056654222695695,-0.0,-0.0018370162214686242,-0.04652561713815134,0.0,0.04652561713815134,-0.022935230406073884,0.0,0.022935230406073884,-0.5156815847498776,0.0,0.5156815847498776,-0.006352369972558371,0,0.006352369972558371,-0.0039402790826096115,0.010324957115352612,0.0018370162214686242,0.4,0.03349471092224121,1.897019386291504,STABILIZE
0.17,0.004,0.07,-0.04928248736924386,-0.003985763412912006,-0.00019712994947697544,0.00032097808795281254,-0.0038619152744361683,0.17,0.004,0.07,-0.0571765786499609,-0.008061741005974727,-0.00022870631459984361,-0.001382522788028414,-0.009672970108602984,0.002,8e-05,0,-1.1247171860891396,-0.0010244458804588457,-8.997737488713118e-05,0.0,-0.0011144232553459768,0.2,0.02,0,-0.02864115072781939,-0.0018766808824682833,-0.0005728230145563878,-0.0,-0.002449503897024671,-0.04742200591749839,0.0,0.04742200591749839,-0.023445667134776502,0.0,0.023445667134776502,-0.5122229402294228,0.0,0.5122229402294228,-0.009383404412341416,0,0.009383404412341416,-0.0038634993775480907,0.009672337507993387,0.002449503897024671,0.4,0.03346753120422363,1.9304819107055664,STABILIZE
0.17,0.004,0.07,-0.050087314401575475,-0.00409104446278589,-0.0002003492576063019,0.00048337265621537634,-0.003808021064176815,0.17,0.004,0.07,-0.05880362521274205,-0.008270497341617602,-0.0002352145008509682,-0.0005424714474525135,-0.009048183289921083,0.002,8e-05,0,-1.1418227544261688,-0.0010229401556706866,-9.134582035409351e-05,0.0,-0.0011142859760247801,0.2,0.02,0,-0.029058650792364145,-0.0024967166983479983,-0.0005811730158472829,-0.0,-0.0030778897141952814,-0.048649984362456475,0.0,0.048649984362456475,-0.02406496742815229,0.0,0.02406496742815229,-0.5114700778353433,0.0,0.5114700778353433,-0.01248358349173999,0,0.01248358349173999,-0.003809992388641912,0.009047353384924904,0.0030778897141952814,0.4,0.03344392776489258,1.96390962600708,STABILIZE
0.17,0.004,0.07,-0.05090026442002425,-0.004133071304683537,-0.000203601057680097,-0.0007841408333781737,-0.005120813195741808,0.17,0.004,0.07,-0.06049656469354736,-0.008606973897403477,-0.00024198625877418944,-0.0026998902619912194,-0.011548850418168884,0.002,8e-05,0,-1.15892314901111,-0.0010228130455004628,-9.27138519208888e-05,0.0,-0.0011155268974213516,0.2,0.02,0,-0.029372699129627537,-0.0018783937100117507,-0.0005874539825925508,-0.0,-0.0024658476926043013,-0.05062925822002045,0.0,0.05062925822002045,-0.02431218414519728,0.0,0.02431218414519728,-0.5114065227502314,0.0,0.5114065227502314,-0.009391968550058753,0,0.009391968550058753,-0.005122706223439618,0.0115480108553489,0.0024658476926043013,0.4,0.03343796730041504,1.9973435401916504,STABILIZE
0.17,0.004,0.07,-0.05175616163968497,-0.004342313971112091,-0.00020702464655873986,-0.0012259284854482014,-0.005775267103119033,0.17,0.004,0.07,-0.06221749767769157,-0.008730991489094174,-0.0002488699907107663,-0.0022206153420895216,-0.011200476821894461,0.002,8e-05,0,-1.1759866268861272,-0.0010184699843477885,-9.407893015089018e-05,0.0,-0.0011125489144986787,0.2,0.02,0,-0.02951767621840729,-0.000865326602359812,-0.0005903535243681458,-0.0,-0.0014556801267279578,-0.05135877346525984,0.0,0.05135877346525984,-0.025543023359482886,0.0,0.025543023359482886,-0.5092349921738942,0.0,0.5092349921738942,-0.00432663301179906,0,0.00432663301179906,-0.00577611287936433,0.011200040676488878,0.0014556801267279578,0.4,0.0335080623626709,2.0308778285980225,STABILIZE
0.17,0.004,0.07,-0.052621698338748794,-0.004384106716831843,-0.0002104867933549952,-0.0011930805867190843,-0.005787674096905922,0.17,0.004,0.07,-0.06389747408223967,-0.008509397518631568,-0.00025558989632895867,-0.0014787809354508412,-0.010243768350411369,0.002,8e-05,0,-1.1929037112016858,-0.001008096758751225,-9.543229689613488e-05,0.0,-0.00110352905564736,0.2,0.02,0,-0.029552755329400205,-0.00020903801998143202,-0.0005910551065880041,0.0,-0.0008000931265694361,-0.05005527952136216,0.0,0.05005527952136216,-0.025788863040187307,0.0,0.025788863040187307,-0.5040483793756125,0.0,0.5040483793756125,-0.0010451900999071601,0,0.0010451900999071601,-0.005787860962852786,0.010243662769906585,0.0008000931265694361,0.4,0.033562421798706055,2.0644195079803467,STABILIZE
0.17,0.004,0.07,-0.05349280506948624,-0.004424136868670761,-0.00021397122027794497,-0.0010780428201615866,-0.005716150909110292,0.17,0.004,0.07,-0.065666696433889,-0.00898544524869172,-0.00026266678573555604,-0.0022750256405807633,-0.01152313767500804,0.002,8e-05,0,-1.209841521723971,-0.0010120349930533559,-9.67873217379177e-05,0.0,-0.0011088223147912735,0.2,0.02,0,-0.0295486250791006,2.467826539782668e-05,-0.000590972501582012,0.0,-0.0005662942361841853,-0.052855560286421875,0.0,0.052855560286421875,-0.026024334521592706,0.0,0.026024334521592706,-0.5060174965266779,0.0,0.5060174965266779,0.0001233913269891334,0,-0.0001233913269891334,-0.005716126093041458,0.011523149985197741,0.0005662942361841853,0.4,0.03347277641296387,2.097896099090576,STABILIZE
0.17,0.004,0.07,-0.05438736307405742,-0.0045346807682129725,-0.0002175494522962297,-0.001090255170261498,-0.0058424853907707,0.17,0.004,0.07,-0.06761383081786462,-0.009870386044304718,-0.0002704553232714585,-0.003934094773974998,-0.014074936141551175,0.002,8e-05,0,-1.2267218732512308,-0.0010067016341844415,-9.813774986009848e-05,0.0,-0.00110483938404454,0.2,0.02,0,-0.029680657875718098,-0.0007874103326943908,-0.000593613157514362,0.0,-0.0013810234902087528,-0.05806109437826304,0.0,0.05806109437826304,-0.026674592754193954,0.0,0.026674592754193954,-0.5033508170922207,0.0,0.5033508170922207,-0.003937051663471954,0,0.003937051663471954,-0.005843452529378209,0.014074534644776572,0.0013810234902087528,0.4,0.03353595733642578,2.131464719772339,STABILIZE
0.17,0.004,0.07,-0.05516199564983483,-0.003940511574522868,-0.00022064798259933933,0.000477440061198773,-0.003683719495923435,0.17,0.004,0.07,-0.06946055315254755,-0.009394170813749774,-0.00027784221261019024,-0.0019318814999886341,-0.011603894526348598,0.002,8e-05,0,-1.2436209706417543,-0.0010113498959322179,-9.948967765134035e-05,0.0,-0.0011108395735835582,0.2,0.02,0,-0.029775316765377157,-0.0005664992395359217,-0.0005955063353075431,0.0,-0.0011620055748434647,-0.05525982831617514,0.0,0.05525982831617514,-0.023179479850134518,0.0,0.023179479850134518,-0.5056749479661089,0.0,0.5056749479661089,-0.0028324961976796087,0,0.0028324961976796087,-0.0036842931460155967,0.011603712402394842,0.0011620055748434647,0.4,0.033418893814086914,2.1648552417755127,STABILIZE
0.17,0.004,0.07,-0.05593940059365326,-0.00395204871760416,-0.00022375760237461305,0.0009632847550366563,-0.003212521564942116,0.17,0.004,0.07,-0.07138820345472409,-0.009799484766957382,-0.00028555281381889634,-0.0026252349454807776,-0.012710272526257055,0.002,8e-05,0,-1.2604829197663754,-0.0010084719900355728,-0.00010083863358131004,0.0,-0.0011093106236168828,0.2,0.02,0,-0.02986009587684392,-0.0005070431574810953,-0.0005972019175368784,0.0,-0.0011042450750179738,-0.05764402804092578,0.0,0.05764402804092578,-0.023247345397671527,0.0,0.023247345397671527,-0.5042359950177864,0.0,0.5042359950177864,-0.0025352157874054763,0,0.0025352157874054763,-0.003213083964191191,0.012710130366601298,0.0011042450750179738,0.4,0.033440589904785156,2.1983253955841064,STABILIZE
0.17,0.004,0.07,-0.05669368571665728,-0.003833996453172368,-0.00022677474286662914,0.0013565163448106391,-0.002704254851228358,0.17,0.004,0.07,-0.07324672714332464,-0.009446790096897239,-0.0002929869085732986,-0.002300514660392784,-0.012040291665863321,0.002,8e-05,0,-1.277488718649066,-0.0010169375355807329,-0.00010219909749192529,-0.0,-0.001119136633072658,0.2,0.02,0,-0.02987719530823547,-0.00010225367087491802,-0.0005975439061647094,0.0,-0.0006997975770396275,-0.05556935351116023,0.0,0.05556935351116023,-0.022552920312778633,0.0,0.022552920312778633,-0.5084687677903664,0.0,0.5084687677903664,-0.0005112683543745901,0,0.0005112683543745901,-0.002704362290449706,0.01204026753446299,0.0006997975770396275,0.4,0.033445119857788086,2.231745958328247,STABILIZE
0.17,0.004,0.07,-0.05741554132913953,-0.003632517397247892,-0.00022966216531655813,0.0019461561226343349,-0.0019160234399301153,0.17,0.004,0.07,-0.07505279938360171,-0.009088505679041603,-0.00030021119753440684,-0.0002558916796435927,-0.009644608556219602,0.002,8e-05,0,-1.2946878045169843,-0.0010182251140083971,-0.00010357502436135875,-0.0,-0.0011218001383697558,0.2,0.02,0,-0.029747335667534017,0.000768798693568779,-0.0005949467133506803,0.0,0.00017385198021809868,-0.05346179811200942,0.0,0.05346179811200942,-0.021367749395575834,0.0,0.021367749395575834,-0.5091125570041986,0.0,0.5091125570041986,0.003843993467843895,0,-0.003843993467843895,-0.0019153763755277535,0.009644737081182471,-0.00017385198021809868,0.4,0.0337824821472168,2.265611410140991,STABILIZE
0.17,0.004,0.07,-0.05816509257011536,-0.0038120267941903975,-0.00023266037028046144,0.0017753602286115422,-0.0022693269358593166,0.17,0.004,0.07,-0.07685712375106236,-0.009176334396052881,-0.00030742849500424945,0.0017008407751371052,-0.007782922115920026,0.002,8e-05,0,-1.3119095810941765,-0.0010304184873942417,-0.00010495276648753414,-0.0,-0.0011353712538817759,0.2,0.02,0,-0.029713064036709314,0.00020505504665350763,-0.0005942612807341862,0.0,-0.0003892062340806786,-0.05397843762384047,0.0,0.05397843762384047,-0.022423687024649395,0.0,0.022423687024649395,-0.5152092436971208,0.0,0.5152092436971208,0.001025275233267538,0,-0.001025275233267538,-0.002269187664552204,0.007782962722982669,0.0003892062340806786,0.4,0.033426761627197266,2.298956871032715,STABILIZE
0.17,0.004,0.07,-0.058927568464857576,-0.003877122254858586,-0.0002357102738594303,0.00015082284201338848,-0.003962009686704627,0.17,0.004,0.07,-0.07872231324454267,-0.009484323038364129,-0.0003148892529781707,-0.0002313406591924888,-0.010030552950534788,0.002,8e-05,0,-1.3292529398550206,-0.001037522824375721,-0.00010634023518840166,-0.0,-0.0011438630595641227,0.2,0.02,0,-0.029742495090781813,-0.00017606387993652787,-0.0005948499018156363,0.0,-0.0007709137817521642,-0.055790135519788994,0.0,0.055790135519788994,-0.02280660149916815,0.0,0.02280660149916815,-0.5187614121878605,0.0,0.5187614121878605,-0.0008803193996826393,0,0.0008803193996826393,-0.003962163800386861,0.010030492075163978,0.0007709137817521642,0.4,0.0334322452545166,2.332385301589966,STABILIZE
0.17,0.004,0.07,-0.059674581550642,-0.0037886066358362325,-0.00023869832620256802,0.0003967059796074653,-0.0036305989824313356,0.17,0.004,0.07,-0.08064382769520899,-0.009745294342474843,-0.000322575310780836,0.00012563990760050382,-0.009942229745655175,0.002,8e-05,0,-1.3465919388441632,-0.0010345617118614563,-0.00010772735510753307,-0.0,-0.0011422890669689893,0.2,0.02,0,-0.02967602948057816,0.00039657869243353875,-0.0005935205896115632,0.0,-0.00019694189717802443,-0.05732526083808731,0.0,0.05732526083808731,-0.022285921387271954,0.0,0.022285921387271954,-0.5172808559307281,0.0,0.5172808559307281,0.0019828934621676938,0,-0.0019828934621676938,-0.0036302548993749784,0.009942355387542028,0.00019694189717802443,0.4,0.03351950645446777,2.365936517715454,STABILIZE
0.17,0.004,0.07,-0.06068933671405537,-0.0051585787950928115,-0.00024275734685622147,-0.003267710906494782,-0.008669047048443814,0.17,0.004,0.07,-0.0821782412580445,-0.007800298587809869,-0.000328712965032178,0.0040469920133691965,-0.00408201953947285,0.002,8e-05,0,-1.3638833355326634,-0.0010341414537959402,-0.00010911066684261307,-0.0,-0.0011432521206385534,0.2,0.02,0,-0.029418517384149388,0.0015400949880931304,-0.0005883703476829877,0.0,0.0009517246404101427,-0.04588410934005805,0.0,0.04588410934005805,-0.03034458114760477,0.0,0.03034458114760477,-0.5170707268979701,0.0,0.5170707268979701,0.007700474940465652,0,-0.007700474940465652,-0.008668498352269578,0.004083184610750551,-0.0009517246404101427,0.4,0.03344106674194336,2.3993632793426514,STABILIZE
0.17,0.004,0.07,-0.061980903786934535,-0.00654807801286762,-0.00024792361514773813,-0.007171464606006221,-0.013967466234021578,0.17,0.004,0.07,-0.08332649749935726,-0.005821510632132312,-0.0003333059899974291,0.00803347619686792,0.0018786595747381793,0.002,8e-05,0,-1.381210171384943,-0.001033468432712507,-0.00011049681371079545,-0.0,-0.0011439652464233024,0.2,0.02,0,-0.028966590132512585,0.00269554437077275,-0.0005793318026502517,0.0,0.0021162125681224984,-0.034244180189013596,0.0,0.034244180189013596,-0.03851810595804482,0.0,0.03851810595804482,-0.5167342163562535,0.0,0.5167342163562535,0.013477721853863749,0,-0.013477721853863749,-0.013967907765843814,-0.001875373947021883,-0.0021162125681224984,0.4,0.03353142738342285,2.4329869747161865,STABILIZE
0.17,0.004,0.07,-0.0635595747223058,-0.008026428525084832,-0.0002542382988892232,-0.010370358428343386,-0.01865102525231744,0.17,0.004,0.07,-0.08441289830546934,-0.0055235820363047465,-0.0003376515932218774,0.0089836505409684,0.0031224169114417756,0.002,8e-05,0,-1.3987352908428556,-0.0010482691154262117,-0.00011189882326742846,-0.0,-0.00116016793869364,0.2,0.02,0,-0.02802484481864043,0.005633071600455255,-0.0005604968963728086,0.0,0.005072574704082447,-0.03249165903708674,0.0,0.03249165903708674,-0.047214285441675476,0.0,0.047214285441675476,-0.5241345577131058,0.0,0.5241345577131058,0.02816535800227627,0,-0.02816535800227627,-0.018652557910938727,-0.0031132480965251493,-0.005072574704082447,0.4,0.03343629837036133,2.466320514678955,STABILIZE
0.17,0.004,0.07,-0.06413258347883317,-0.0029127846945612872,-0.0002565303339153327,0.0023823690554068085,-0.0007869459730698116,0.17,0.004,0.07,-0.08588173750012457,-0.007466574072780568,-0.0003435269500004983,0.004957682660126125,-0.0028524183626549415,0.002,8e-05,0,-1.4162428199117159,-0.0010470153662411026,-0.00011329942559293728,-0.0,-0.00116031479183404,0.2,0.02,0,-0.02835995958241287,-0.0020041109498888546,-0.0005671991916482574,-0.0,-0.002571310141537112,-0.04392102395753275,0.0,0.04392102395753275,-0.017134027615066393,0.0,0.017134027615066393,-0.5235076831205513,0.0,0.5235076831205513,-0.010020554749444271,0,0.010020554749444271,-0.0007874448252523376,0.0028522806887340533,0.002571310141537112,0.4,0.03344273567199707,2.4997732639312744,STABILIZE
0.17,0.004,0.07,-0.06465878548941871,-0.0026740505279499397,-0.00025863514195767484,0.0027526063975531947,-0.00018007927235441992,0.17,0.004,0.07,-0.08760680587124949,-0.008766443106941456,-0.000350427223484998,0.0023988769301270664,-0.006717993400299388,0.002,8e-05,0,-1.4336718134158561,-0.0010420066448160092,-0.0001146937450732685,-0.0,-0.0011567003898892776,0.2,0.02,0,-0.028681555878046782,-0.001922689780790538,-0.0005736311175609356,-0.0,-0.0024963208983514737,-0.05156731239377327,0.0,0.05156731239377327,-0.01572970898794082,0.0,0.01572970898794082,-0.5210033224080046,0.0,0.5210033224080046,-0.009613448903952689,0,0.009613448903952689,-0.00018120645731118764,0.006717963090894929,0.0024963208983514737,0.4,0.033452749252319336,2.533254623413086,STABILIZE
0.17,0.004,0.07,-0.06556647468378393,-0.004613709375364131,-0.0002622658987351357,0.0013502923472983337,-0.0035256829268009333,0.17,0.004,0.07,-0.08942225470016212,-0.009227776792369564,-0.0003576890188006485,-0.00352687398567605,-0.013112339796846263,0.002,8e-05,0,-1.4514267901565057,-0.001061730395825686,-0.00011611414321252046,-0.0,-0.0011778445390382064,0.2,0.02,0,-0.028750268023963955,-0.0004108919710136633,-0.0005750053604792791,-0.0,-0.0009858973314929424,-0.05428103995511508,0.0,0.05428103995511508,-0.027139466913906653,0.0,0.027139466913906653,-0.5308651979128429,0.0,0.5308651979128429,-0.0020544598550683163,0,0.0020544598550683163,-0.0035261530948670393,0.013112213367690959,0.0009858973314929424,0.4,0.03344535827636719,2.5667037963867188,STABILIZE
0.17,0.004,0.07,-0.06598619848720177,-0.0021270833180785285,-0.0002639447939488071,0.010867553620844354,0.008476525508817018,0.17,0.004,0.07,-0.09100027323310844,-0.007997108740833961,-0.00036400109293243375,-0.0053654755048374,-0.013726585338603794,0.002,8e-05,0,-1.4692294784233284,-0.0010614207253591094,-0.00011753835827386629,-0.0,-0.0011789590836329756,0.2,0.02,0,-0.02916455933029395,-0.0024700616686877228,-0.0005832911866058791,-0.0,-0.003053352855293602,-0.04704181612255271,0.0,0.04704181612255271,-0.012512254812226637,0.0,0.012512254812226637,-0.5307103626795546,0.0,0.5307103626795546,-0.012350308343438613,0,0.012350308343438613,0.008473566497796224,0.013728412164814388,0.003053352855293602,0.4,0.03354501724243164,2.600231170654297,STABILIZE
0.17,0.004,0.07,-0.06718984213598148,-0.0061141423890653645,-0.00026875936854392593,0.004697538856655998,-0.0016853629009532922,0.17,0.004,0.07,-0.09144483374591675,-0.0022582317271574656,-0.000365779334983667,0.008022684249076775,0.005398673186935643,0.002,8e-05,0,-1.4872673310762032,-0.0010779621929822676,-0.00011898138648609626,-0.0,-0.0011969435794683637,0.2,0.02,0,-0.030054392464753228,-0.0053177420587096555,-0.0006010878492950645,-0.0,-0.0059188299080047205,-0.013283716042102739,0.0,0.013283716042102739,-0.03596554346509038,0.0,0.03596554346509038,-0.5389810964911338,0.0,0.5389810964911338,-0.026588710293548277,0,0.026588710293548277,-0.0016828574083837119,-0.005399454716014906,0.0059188299080047205,0.4,0.03346657752990723,2.6337292194366455,STABILIZE
