Mode,Time,Freq,North-Vision,East-Vision,Down-Vision,Yaw-Vision,North-Desired,East-Desired,Down-Desired,Roll-UAV,Pitch-UAV,Yaw-UAV,Roll-Control,Pitch-Control,Yaw-Control,Thrust-Control,northVraw,eastVraw,downVraw,N-Velocity,E-Velocity,D-Velocity,N-Acceleration,E-Acceleration,D-Acceleration,yawVraw,yawRate,Landing-State,Q-Size
GUIDED_NOGPS,0.005163908004760742,194.14478800222182,5.84671232548668,-1.3472435784274148,1.7704000733597909,0.10085095275617745,5.9468073080608574,-1.3688680162332854,1.887687616435745,-0.7317244623641072,-0.10822221296473641,166.57597853496995,-0.49700641780007976,-1.3930124391595284,9.357714913629554,0.5002346157988136,0.0,0.0,0.0,3.672606498003006,-1.0145077481865883,-3.055744618177414,42.54690706729889,-2.513214386999607,47.40624129772186,0.0,2.970457807775008,False,1
GUIDED_NOGPS,0.013234615325927734,123.97812657030534,6.1709302491379905,-1.4097026292010397,1.6111519013409985,0.20412144663620985,6.155488764701815,-1.434547063670444,1.8449135384652278,-0.5674427247345506,-0.1939038411730787,166.58787672450413,-0.04354977542206409,0.846923588290954,5.162738707260218,0.5004677172529829,0.0,0.0,0.0,8.014721423387527,-1.427203044295311,-6.143791973590851,50.883471965789795,-19.256427884101868,-152.55029201507568,0.0,-4.164985322850307,False,1
GUIDED_NOGPS,0.01822352409362793,200.66519950243995,5.939738206058897,-1.3514828262245742,1.4415379992320607,0.10511608764925436,6.3368006882365515,-1.4946551513921107,1.781493735255644,-0.5674427247345506,-0.1939038411730787,166.58787672450413,-2.35609867725365,-4.004329286591798,-7.822959369305209,0.5006802420262453,0.0,0.0,0.0,8.014721423387527,-1.427203044295311,-6.143791973590851,50.883471965789795,-19.256427884101868,-152.55029201507568,0.0,-4.164985322850307,False,0
GUIDED_NOGPS,0.04885149002075195,32.653712007972096,5.726111036541072,-1.2874820997068765,1.3351627011633898,0.13552735703082577,6.491777515629289,-1.5486735275025445,1.6983445325221525,-0.6606224065476859,-0.31427621361932734,166.59696087610024,-0.3981317329569595,-0.7872933853190607,0.480109938721239,0.50072758047568,0.0,0.0,0.0,9.251697361469269,-0.921118725091219,-3.655843064188957,150.78014135360718,8.396624028682709,60.6974720954895,0.0,4.084288345353898,False,0
GUIDED_NOGPS,0.08381295204162598,28.60604407221241,5.700425426158091,-1.250004193722588,1.1996529501940632,0.09707444420427379,6.62143256120012,-1.5961087363143682,1.5963644410518762,-0.923652991484877,-0.496929772734043,166.76598073730136,-0.2586242605177016,-0.33967937765246187,-0.3798076745856044,0.5007957541610453,0.0,0.0,0.0,10.848169028759003,-0.3111570840701461,-4.93352934718132,117.98534393310547,14.477576315402985,309.4966173171997,0.0,-3.636449063175441,False,0
GUIDED_NOGPS,0.11441230773925781,32.68857697313558,5.656315452084581,-1.2028493832638978,1.0850111145662018,0.0805588423791765,6.726758213161501,-1.6364922541065483,1.4764343011787133,-1.2654529464686517,-0.8257919620476384,166.8510712339814,-0.3100907160669453,-0.38210057279515786,-0.16964512110724722,0.5007861265683317,0.0,0.0,0.0,7.9450346529483795,0.6564880255609751,-3.395652025938034,25.3042995929718,22.275182604789734,117.90156364440918,0.0,-2.2393774109052917,False,0
GUIDED_NOGPS,0.15114212036132812,27.23043562942284,5.618415498074727,-1.1500592648025247,0.9360731713281828,0.0037299188732613647,6.808726130154749,-1.669380124882376,1.339417427258146,-1.5829889745910732,-1.2637242682784038,167.0497067954237,-0.25848298151165033,-0.29057348794477095,-0.8312627177565339,0.5008111584266588,0.0,0.0,0.0,8.958977460861206,0.9471425786614418,-6.115821376442909,8.517588675022125,-20.171351730823517,-48.97811412811279,0.0,-6.126741584090791,False,0
STABILIZE,0.18183374404907227,32.58369845561045,5.6041149801477825,-1.1002787191027517,0.7828772046508106,-0.07338287361006747,6.868287437786526,-1.6943525961274468,1.1861597521420517,-1.562722522663176,-1.3124760241398392,167.18801812611645,-0.2744745804977738,-0.24592593212126634,-1.0518335878247702,0.5008120224477388,0.0,0.0,0.0,8.958977460861206,0.9471425786614418,-6.115821376442909,8.517588675022125,-20.171351730823517,-48.97811412811279,0.0,-6.126741584090791,False,0
STABILIZE,0.21984577178955078,26.310268039167717,5.607574684730128,-1.0751952925142525,0.8011139160751722,-0.16966164630865058,6.906372925165334,-1.7110137545676405,1.017489971653513,-1.5515116209142465,-1.5817235753256227,167.5094878095923,-0.14172435771911132,-0.15826521911977134,-1.1090050376308824,0.5004388713306192,0.0,0.0,0.0,11.409759521484375,-0.8886254392564297,5.075876414775848,52.03372240066528,-45.12592554092407,282.8733205795288,0.0,-7.147678560749746,False,0
STABILIZE,0.24859356880187988,34.79075631646179,5.634572452921263,-1.054459312900022,0.8987007235880022,-0.31058556634976464,6.923893241438008,-1.7189911619271032,0.8342196890616269,-1.567361074883261,-1.6333386745531744,167.700746766731,-0.1337890783092026,-0.0831836179449301,-2.1449081678427784,0.4,0.0,0.0,0.0,11.83541715145111,-1.0223843157291412,10.420865565538406,66.56580567359924,-33.098745346069336,116.18566513061523,0.0,-10.03686907023265,False,0
STABILIZE,0.2831571102142334,28.937609957017585,5.634518876364475,-1.031659598260961,1.004664693446019,-0.4501864787623623,6.921739092326208,-1.717935490686226,0.6371435595563157,-1.5770774458644272,-1.6266967424721601,167.75264254404473,-0.09914930974860202,-0.09912053999744627,-1.9043886131025887,0.4,0.0,0.0,0.0,11.83541715145111,-1.0223843157291412,10.420865565538406,66.56580567359924,-33.098745346069336,116.18566513061523,0.0,-10.03686907023265,False,0
STABILIZE,0.3159799575805664,30.474109056562646,5.708206089482657,-1.0009853477387882,1.0174412408555042,-0.4710795537981395,6.900781436662905,-1.7075201598396261,0.4270394347231379,-1.5401660363726206,-1.6686095579837086,167.84826519242492,-0.09632010679420551,0.07605186510226668,-0.5348204427811332,0.4,0.0,0.0,0.0,14.778763055801392,-0.24747555144131184,4.035507142543793,33.41560959815979,-21.24563604593277,-71.44752144813538,0.0,-1.6524154996267257,False,0
STABILIZE,0.3496370315551758,29.712698884969043,5.778734150622846,-0.9703246890561877,1.0329062181294124,-0.49068789929089474,6.86187168292888,-1.6874409706541265,0.20466850701809558,-1.449956953239912,-1.5449598686746175,167.98400837198975,-0.06695549070175116,0.10843867557612542,-0.5276627255603856,0.4,0.0,0.0,0.0,14.778763055801392,-0.24747555144131184,4.035507142543793,33.41560959815979,-21.24563604593277,-71.44752144813538,0.0,-1.6524154996267257,False,0
STABILIZE,0.3949460983276367,22.072379950006578,5.86817937168843,-0.9825490673945929,1.1342306175647856,-0.7501954464722277,6.805841885789213,-1.6574157424267373,-0.029224545757553955,-1.2985845933067968,-1.8326601363985426,168.62707068234644,0.06036889392321506,0.11598645565409137,-2.7408870670990613,0.4,0.0,0.0,0.0,15.849708020687103,-3.0783064663410187,9.63849201798439,22.566905617713928,-77.39531397819519,-60.3585422039032,0.0,-17.730996915529268,False,0
STABILIZE,0.43062353134155273,28.03191958616818,6.053213738353308,-1.0010940497640055,1.2613900501658457,-0.9126985599829144,6.73350494262977,-1.6171839482426353,-0.27391141598248603,-1.0434682766269465,-1.889481333877525,168.93201130803084,0.13919024089715099,0.37526655728270875,-2.369205326878516,0.4,0.0,0.0,0.0,22.191497683525085,-3.430325537919998,11.155280470848083,102.02933549880981,-21.11489474773407,52.93318033218384,0.0,-11.088328027858276,False,0
STABILIZE,0.4506990909576416,49.82719745298597,6.167396975586197,-1.0041546897287161,1.324837433986795,-1.0351589276860018,6.645654790093704,-1.5665063507331443,-0.528680021740503,-0.7340673773319801,-1.9790601186158883,169.27569276668754,0.24956804285748174,0.5615155120021581,-3.0662824940891333,0.4,0.0,0.0,0.0,22.175952792167664,-2.7844469994306564,7.519131898880005,124.91412162780762,7.198827713727951,34.552425146102905,0.0,-10.069205747084428,False,0
STABILIZE,0.4871537685394287,27.432936759694687,6.2028913790592295,-0.9772568354403077,1.3649182244780527,-1.1880808519931798,6.543066600617939,-1.5051646378337165,-0.7928343623457186,-0.615831199909506,-1.9414983470490494,169.37266779252337,0.07113719224896618,0.1970921528590392,-2.386421518049859,0.4,0.0,0.0,0.0,19.414857029914856,-0.897109042853117,6.509363651275635,-4.356580972671509,24.856065213680267,50.59702396392822,0.0,-13.53876340675884,False,0
STABILIZE,0.5217137336730957,28.93980625396738,6.4100348038070685,-0.9510252291055341,1.4622161193503787,-1.3020140024611508,6.426496978969665,-1.4329610585419115,-1.065694373867754,-0.27166917341167046,-1.85806844011099,169.7090819299032,0.1210075101033309,0.5581049624637054,-2.1021404054306467,0.4,0.0,0.0,0.0,21.652191877365112,-0.03169497358612716,8.751340210437775,14.80846256017685,45.525115728378296,41.82311296463013,0.0,-7.27014043747349,False,0
STABILIZE,0.5514817237854004,33.59851324938319,6.598832500610916,-0.922893007814963,1.5580043354791964,-1.4073793791391154,6.296684158782828,-1.3497180586753768,-1.3465957846569243,-0.21812700034282315,-1.8697467829312424,170.36882356221307,0.17896893430400695,0.6605287274464567,-2.258674344110193,0.4,0.0,0.0,0.0,21.652191877365112,-0.03169497358612716,8.751340210437775,14.80846256017685,45.525115728378296,41.82311296463013,0.0,-7.27014043747349,False,0
STABILIZE,0.5852963924407959,29.577761166664317,6.723608230328503,-0.8865225661390683,1.627283365796715,-1.5625323754205294,6.154348199094627,-1.2552779166298298,-1.6348899708694267,-0.3948452851513564,-1.9031826933525704,170.7249496255375,0.16689511303414467,0.515416007975743,-2.7773414050382135,0.4,0.0,0.0,0.0,20.7437202334404,0.34010668750852346,7.6878949999809265,-14.679020643234253,-3.196679800748825,-30.02617657184601,0.0,-12.209174023488416,False,0
STABILIZE,0.627227783203125,23.8514651608464,6.9304446079364785,-0.8617959424389101,1.668068150996512,-1.684755328525627,6.000191180881995,-1.1495023791370345,-1.929943811992535,-0.41307281889029906,-1.939932526181824,170.91709650726833,0.195797423048161,0.5861198386548071,-2.1800767510400947,0.4,0.0,0.0,0.0,24.07301664352417,-0.29910190496593714,5.134536698460579,58.81158709526062,-22.347639501094818,34.88653302192688,0.0,-9.055049867610826,False,0
STABILIZE,0.6576297283172607,32.89392204532978,7.22213664522129,-0.8336652979689247,1.7708636178851016,-1.8984474676813865,5.834897403598102,-1.0322722970227876,-2.231139546369784,-0.48831781132515606,-1.8101994861997788,171.46621639578066,0.3141359225876062,0.9983948357033664,-3.9384868959180706,0.4,0.0,0.0,0.0,24.90803599357605,0.14288778183981776,8.151767402887344,105.20106554031372,20.346568524837494,91.98132753372192,0.0,-13.266529995688703,False,0
STABILIZE,0.685356855392456,36.07258716480039,7.408900649355168,-0.8015253342341159,1.8478870282220985,-2.0668120582548273,5.659133581708841,-0.9034872609648921,-2.5378746267261674,-0.634513634919342,-1.6505234305049263,171.76660811547782,0.3748229390482113,0.9093886286022053,-3.664213683411737,0.4,0.0,0.0,0.0,24.90803599357605,0.14288778183981776,8.151767402887344,105.20106554031372,20.346568524837494,91.98132753372192,0.0,-13.266529995688703,False,0
STABILIZE,0.7193160057067871,29.44983218884723,7.648583023198372,-0.7701060114632834,1.8736707674930138,-2.183165417093005,5.473549041229319,-0.7630652372511431,-2.8495615756933166,-0.7519729316845801,-1.5088742717421477,171.94267673190242,0.3552687780179978,0.9118775253473977,-2.6801299285700533,0.4,0.0,0.0,0.0,30.59277832508087,0.10386992944404483,5.210404843091965,71.21797800064087,5.470224469900131,51.21150016784668,0.0,-10.78911536956659,False,0
STABILIZE,0.7526347637176514,30.018493601671867,7.994765805062079,-0.7466039853866698,1.9484878367270535,-2.239323078126587,5.278775916260354,-0.6109422035373047,-3.165627841334701,-0.7960557730006358,-1.243115666561771,172.19182837244614,0.4391798612862133,1.1774078288192693,-2.019536344124739,0.4,0.0,0.0,0.0,33.350685238838196,-0.2775416010990739,7.4211157858371735,49.95402693748474,45.65163552761078,94.41662430763245,0.0,-4.799715229306415,False,0
STABILIZE,0.7900795936584473,26.709697961574957,8.270676557119607,-0.7396181645980983,1.9727856996577033,-2.2906497140232918,5.075429345524958,-0.4470717846050929,-3.4855156526708164,-0.4914910211640088,-0.7835300598364787,172.46713963751102,0.47267953992478123,1.0044992775786181,-1.9220250535065815,0.4,0.0,0.0,0.0,29.338836669921875,-1.3809800148010254,4.196808487176895,-21.626093983650208,-17.820516228675842,45.678624510765076,0.0,-4.9986175950131795,False,0
STABILIZE,0.8204624652862549,32.92284023297069,8.56960425180377,-0.7334799431823307,1.947557557171321,-2.377835759126028,4.864107668904837,-0.2714248881201533,-3.808681875204364,-0.31466665497992874,-0.6298669184887647,172.63069534737613,0.6399652437422828,1.2893120785402652,-2.5865009407867072,0.4,0.0,0.0,0.0,30.989491939544678,-1.3903425075113773,0.910797156393528,20.979073643684387,-0.5179354920983315,-15.553098917007446,0.0,-7.608381650456276,False,0
STABILIZE,0.8538482189178467,29.953537532047392,8.812297242030967,-0.7218907251972277,1.973725571872907,-2.351553115659657,4.645392623976879,-0.0839893403900438,-4.134597866445458,-0.17123940587712522,-0.5479428548192815,172.74699980856312,0.5997777355271862,1.1316263451508635,-1.098978231652662,0.4,0.0,0.0,0.0,30.8154433965683,-1.0498330928385258,5.190183594822884,60.29555797576904,33.37013125419617,-62.82876133918762,0.0,-1.3085814289307567,False,0
STABILIZE,0.8872261047363281,29.9650932679874,9.096261262576641,-0.694550342828124,1.9506597805016834,-2.3386834939454633,4.419849542549649,0.11523047787778506,-4.462749331436795,-0.3694138228287544,-0.3728498882289468,172.79128675514147,0.6082940490014489,1.2693324639904797,-1.2485875833966475,0.4,0.0,0.0,0.0,30.413925647735596,0.1311160041950643,1.1835764162242413,-20.509397983551025,36.37795150279999,-45.01863121986389,0.0,-1.2143517122544376,False,0
STABILIZE,0.920879602432251,29.718383108371416,9.388871529767487,-0.6522500925370729,1.9742932635733106,-2.244962955149902,4.188027547199869,0.3262139958180146,-4.79263617827887,-1.0352709824058732,0.17855838045961703,172.76591943256406,0.6010271872697547,1.3278871661278484,-0.23513381678283318,0.4,0.0,0.0,0.0,31.438922882080078,1.1601396836340427,4.471737518906593,-32.074734568595886,44.40720081329346,91.01904034614563,0.0,3.9657845632541773,False,0
STABILIZE,0.956303596496582,28.230403704551268,9.715546075205634,-0.6174811920475819,2.0333748184644826,-2.1837348713243174,3.950459747808928,0.548924816649468,-5.123772373655139,-1.5484937445181586,0.7701696762114049,172.7062508999748,0.6408220885946797,1.3931102082615454,-0.6202460360378679,0.4,0.0,0.0,0.0,34.389907121658325,0.6651228293776512,6.977581232786179,-8.928164839744568,-44.86837983131409,172.70681858062744,0.0,1.434187753993645,False,0
STABILIZE,0.9976375102996826,24.197116632725468,9.990403798972117,-0.591988543296177,2.0723955676326145,-2.139454693818115,3.707663438099366,0.7833110819171414,-5.455685798357221,-2.590583603593232,1.9103360358476895,172.59636681660766,0.6213880266744081,1.2353213752220173,-0.8542618763473435,0.4,0.0,0.0,0.0,31.34000301361084,0.06958775920793414,5.682463571429253,-99.09505248069763,-40.019690990448,25.25559365749359,0.0,0.09084322350846209,False,0
STABILIZE,1.02474045753479,36.903498275497995,10.28731352563046,-0.5943805520470127,2.0803592874015915,-2.0198295927555536,3.4601402921713484,1.0293058357342142,-5.7879181028101,-3.3216373200365026,3.049743497434162,172.4043018971469,1.061126959181715,1.720685273826556,0.5582502960567943,0.4,0.0,0.0,0.0,32.35803544521332,-1.760617271065712,3.5023141652345657,-29.394716024398804,-18.380121886730194,-22.525009512901306,0.0,5.152710077783252,False,0
STABILIZE,1.0577807426452637,30.269795906584683,10.426685525595374,-0.6279714731082806,2.1093500861193624,-1.8811855568470577,3.208376561039194,1.2868273890240731,-6.120024562597294,-3.8791320876883413,3.9634866314852912,172.14261002928703,1.0222519946105033,1.260614925347274,0.5565225620769716,0.4,0.0,0.0,0.0,30.306044220924377,-3.904252126812935,6.408999860286713,-49.22969043254852,-62.943702936172485,31.183958053588867,0.0,5.118434480980835,False,0
STABILIZE,1.0924229621887207,28.8677027268848,10.650543876655135,-0.6996861110610029,2.073679284949736,-1.6930267343053944,2.952843269167831,1.555779683762334,-6.451573933986051,-4.160554664513084,4.697657688954438,171.81276653388878,1.1318915771636573,1.4111052848077779,1.1421061458484283,0.4,0.0,0.0,0.0,29.37915027141571,-6.39251321554184,0.8087929338216782,-7.387454062700272,-104.86011505126953,-117.33698844909668,0.0,9.56047276713437,False,0
STABILIZE,1.124871015548706,30.82324583321085,10.88133873057423,-0.7729067469005231,2.038813067365823,-1.504170664580085,2.693996411009307,1.8360526572188545,-6.782148309452552,-4.349653574326765,5.327958644620616,171.44004311088116,1.259306851993394,1.530476673894497,1.422167863979632,0.4,0.0,0.0,0.0,29.37915027141571,-6.39251321554184,0.8087929338216782,-7.387454062700272,-104.86011505126953,-117.33698844909668,0.0,9.56047276713437,False,0
STABILIZE,1.1605825424194336,28.007211634770762,10.98289135898564,-0.8516531882387749,1.9307982110011426,-1.2984522247858088,2.4322771475392786,2.1275226061997614,-7.111342973207085,-4.372279856612901,5.461913168396552,171.32279608358874,1.22026163118474,1.2743757137498675,1.535521996144762,0.4,0.0,0.0,0.0,22.52628058195114,-6.7906878888607025,-3.8608238101005554,-86.30746603012085,-16.152620315551758,-212.83206939697266,0.0,10.55300426769571,False,0
STABILIZE,1.197007417678833,27.464552079991094,11.110814704184566,-0.9805570777601379,1.8598626621049972,-1.1178013122883106,2.168112002793511,2.4300525512894646,-7.438766256719241,-4.132141077565831,5.846794755013594,170.82755272724944,1.6045980912576894,1.4552389769403284,1.6813624378325693,0.4,0.0,0.0,0.0,21.673038601875305,-9.915827214717865,-1.6383368521928787,-113.41454982757568,-62.619686126708984,-92.59854555130005,0.0,8.825994351152572,False,0
STABILIZE,1.237701654434204,24.57249649952253,11.088198182878404,-1.1376808970595513,1.7639439936232564,-0.8781914434641477,1.901913060404346,2.7434926010926763,-7.7640393942431025,-4.115994937254744,5.814715064029336,170.5872256911134,1.2310076692231862,1.0386848927570629,1.5491276903516602,0.4,0.0,0.0,0.0,16.454720497131348,-12.181030213832855,-2.762959897518158,-70.49769759178162,-95.92844247817993,54.70191240310669,0.0,12.88177775577907,False,0
STABILIZE,1.2813522815704346,22.909678828927245,11.208814960425597,-1.3177662708286337,1.6219318463724832,-0.7020223914990807,1.634078160137217,3.067680316476442,-8.08679637834244,-4.422672138535609,5.13839058618832,169.9299292665264,1.3824928791513873,1.285230124421616,1.1790693232481646,0.4,0.0,0.0,0.0,13.833698630332947,-11.866385489702225,-6.826093792915344,-96.77496552467346,33.90607833862305,-59.13369059562683,0.0,7.676546938373003,False,0
STABILIZE,1.2934505939483643,82.7050518594471,11.035869732205391,-1.5100799254754764,1.4622675928591171,-0.4991660280096401,1.3649910944271264,3.402441074812144,-8.406683815415894,-4.450290862218202,4.932932946425636,169.77084050037843,4.010822989590557,1.2248396074597336,6.438769622199639,0.4,0.0,0.0,0.0,9.542705863714218,-14.762167632579803,-6.734292209148407,40.348148345947266,-21.753105521202087,96.62450551986694,0.0,10.592037091255042,False,0
STABILIZE,1.3269968032836914,29.811534251638307,10.5794268869949,-1.6506636755358937,1.3006076098896693,-0.33544962342813045,1.095021804915148,3.7475884342175276,-8.723360781222155,-4.518359673712903,4.500521780921768,169.446775345018,1.732946069273203,0.42052659722080704,1.7639193124345771,0.4,0.0,0.0,0.0,6.301546096801758,-15.731202065944672,-6.980522722005844,-133.2662582397461,-47.518062591552734,43.86488497257233,0.0,11.023377197719686,False,0
STABILIZE,1.3593013286590576,30.959528185596078,10.375781067671017,-1.9407935209358023,1.1417803460952731,-0.15738960863057916,0.8245265789849148,4.10292449779873,-9.036498676405197,-3.8273682184029303,4.245461172972336,168.97989093411263,2.2917828188363667,0.8893612199780809,2.094422718717985,0.4,0.0,0.0,0.0,2.5484826415777206,-21.658778190612793,-7.602688670158386,-44.27037239074707,-58.781373500823975,126.4056921005249,0.0,9.364816021943831,False,0
STABILIZE,1.3932299613952637,29.480467267385468,10.129972318067626,-2.2480473572289528,0.9363352584864366,0.06974845374601003,0.553848246299105,4.468240277892283,-9.345781082019405,-2.8556820283016444,3.875978247839088,168.4844973136116,2.3240382229299166,0.8218970380036812,2.7233757199480024,0.4,0.0,0.0,0.0,-0.1968522323295474,-22.736652195453644,-10.863356292247772,-160.28592586517334,-19.3022221326828,-139.60838317871094,0.0,12.884653265419644,False,0
STABILIZE,1.4261882305145264,30.34271617799191,9.828588860349193,-2.5888933191617816,0.7038170546604455,0.3348874596464088,0.2833163753359349,4.8433160603071475,-9.650903615054808,-1.874093984894544,3.81881212580702,168.1064463430514,2.541988648506116,0.731958777775116,3.4150876756955495,0.4,0.0,0.0,0.0,-4.349786788225174,-24.67692196369171,-12.63706386089325,-58.60445499420166,-41.729435324668884,47.857630252838135,0.0,15.390533558681431,False,0
STABILIZE,1.4601244926452637,29.471145806252153,9.522101336872465,-2.934314837257422,0.538545250643342,0.5894147580144294,0.013247469925670607,5.227921768566718,-9.95157378396226,-0.8169030578122486,3.7595004706019215,167.65264857459573,2.5584292206721897,0.7328648847727348,3.3548291976510525,0.4,0.0,0.0,0.0,-3.834277391433716,-25.15988051891327,-7.972406595945358,-87.09309697151184,-25.02913773059845,22.918204963207245,0.0,14.835184537646034,False,0
STABILIZE,1.4943082332611084,29.25632655338858,9.192477236680267,-3.2587412650813397,0.38212927553979387,0.8625114786970483,-0.25605483421292075,5.621817328150865,-10.247510844178628,0.010591382246868366,3.5973987372563627,167.16415344515644,2.538629072314335,0.6993168905037442,3.7083105919579555,0.4,0.0,0.0,0.0,-5.3390007466077805,-23.507940769195557,-7.367503643035889,-12.02859878540039,67.54562854766846,64.93318676948547,0.0,16.077536183516116,False,0
STABILIZE,1.5297682285308838,28.208949000248843,8.846793302715605,-3.565672976841491,0.22527777541299876,1.0781412326523967,-0.5242995729360329,6.024753030737928,-10.53844565365197,0.21972558477372348,3.4414463085979308,166.90139606778604,2.488230973221728,0.6763659617907612,3.093155124103549,0.4,0.0,0.0,0.0,-5.893692746758461,-22.611436247825623,-7.549726963043213,-79.50413227081299,74.68189001083374,31.30360245704651,0.0,12.389444913799856,False,0
STABILIZE,1.5622875690460205,30.7518329520793,8.443137130914746,-3.847955995736027,0.09559268017843797,1.3689963132256064,-0.791208257138357,6.436469898446756,-10.82412052836675,0.40324604430450184,2.9725435767928006,166.18071548770132,2.6341854570732113,0.5628571305546409,4.382029185539211,0.4,0.0,0.0,0.0,-10.217344760894775,-20.220941305160522,-5.54964654147625,-87.49343752861023,30.799445509910583,80.97792863845825,0.0,17.146380533900366,False,0
STABILIZE,1.6037161350250244,24.141685421067475,8.022233113202791,-4.106693203649034,-0.02576060390186636,1.6443443070227317,-1.0565146762166,6.856700048078714,-11.104289097869016,0.28097071712246424,2.5244934125237193,165.76001681596355,2.183460233606237,0.5764431664275742,3.6483867809852297,0.4,0.0,0.0,0.0,-10.217344760894775,-20.220941305160522,-5.54964654147625,-87.49343752861023,30.799445509910583,80.97792863845825,0.0,17.146380533900366,False,0
STABILIZE,1.6479029655456543,22.6327649471185,7.664000783272225,-4.396175730602678,-0.1598846618750937,1.825937639939772,-1.319964701532963,7.285167055359716,-11.378716160791562,-0.047941631392848405,1.765433572605869,165.29367882019176,2.1978484997373284,0.6742358079968527,2.73715457195303,0.4,0.0,0.0,0.0,-7.6286450028419495,-18.368536233901978,-5.288410186767578,-29.869002103805542,61.28869652748108,52.48728394508362,0.0,8.215649500693878,False,0
STABILIZE,1.6749200820922852,37.01912604478336,7.249015262375735,-4.685552817533065,-0.28494078754366914,2.0580906940415775,-1.5813160898786576,7.721586319182229,-11.647177540379174,-0.34929123176025056,1.318713801121059,164.93262136028653,3.3115685004440203,0.49762179989643196,4.682110188187284,0.4,0.0,0.0,0.0,-11.064163595438004,-16.311606764793396,-4.097385331988335,83.38643908500671,14.648441970348358,154.7061324119568,0.0,10.34667705947432,False,0
STABILIZE,1.715113878250122,24.882265700081867,6.761889089772482,-4.751004167837533,-0.35433505991889014,2.0507707378403275,-1.840338286937432,8.165665425847298,-11.90945994001377,-0.5309398459324752,0.8631765222220271,164.64101326386202,1.9147852206009903,0.43095295389766036,1.1575405514388328,0.4,0.0,0.0,0.0,-12.701401114463806,-14.196857810020447,-4.3999336659908295,-40.41638672351837,15.112487971782684,83.60723853111267,0.0,3.1380971169901546,False,0
STABILIZE,1.7394275665283203,41.133532088498356,6.1983431757536405,-4.952944320861992,-0.42802792823475433,2.292264135299436,-2.0968122307490704,8.617104513306579,-12.16536079873962,-0.4438328426217159,0.6413765342921768,164.41787098367772,3.365114280613968,0.060263585669103684,5.324504524559697,0.4,0.0,0.0,0.0,-19.422325491905212,-13.683165609836578,-1.8710874021053314,-96.83412909507751,21.362043917179108,108.19765329360962,0.0,13.275680741629227,False,0
STABILIZE,1.7727134227752686,30.04881683299542,5.642768152628754,-4.999451790640328,-0.4529277293599595,2.4287881666463367,-2.3505301551728808,9.075596635404336,-12.414688146788526,-0.1396392155169439,0.38787785186770873,164.14337934131322,2.2330192520480776,0.20512967832109286,3.1003224054558443,0.4,0.0,0.0,0.0,-19.422325491905212,-13.683165609836578,-1.8710874021053314,-96.83412909507751,21.362043917179108,108.19765329360962,0.0,13.275680741629227,False,0
STABILIZE,1.8077988624572754,28.505919612880426,5.150994366751131,-5.136830536582529,-0.5310373444973503,2.5397549088888494,-2.6012953933512337,9.540828126119479,-12.657260461104999,0.20188288950582875,0.3838621275225643,163.9522160068229,2.4950626256595743,0.32620517998437626,2.816628399241718,0.4,0.0,0.0,0.0,-15.561333298683167,-14.407961070537567,-3.8953475654125214,-64.08419609069824,68.93753409385681,-15.29456377029419,0.0,8.116233536003405,False,0
STABILIZE,1.8415343761444092,29.644447899807048,4.697926863511481,-5.280785577547687,-0.48182881369718955,2.5964828641748245,-2.8489221811730543,10.012478963807567,-12.892906520871474,0.4490058571443543,0.3590858297517547,163.73731093477764,2.593085178850776,0.3733810929223571,2.2298686209218257,0.4,0.0,0.0,0.0,-13.368730247020721,-14.902128279209137,4.394983872771263,-40.896475315093994,12.935519218444824,168.70940923690796,0.0,4.68049128913608,False,0
STABILIZE,1.8742930889129639,30.534897095973385,4.255839767947489,-5.399519622610232,-0.3484549885000013,2.6865115501553496,-3.0932354607373496,10.490223135442864,-13.121465263033501,0.8113133483893865,0.4362241186080275,163.56352360153582,2.6142498182204665,0.3674944090480461,2.7064378007517993,0.4,0.0,0.0,0.0,-13.277649879455566,-13.971859216690063,9.600348770618439,-25.45170783996582,61.63297891616821,138.1062626838684,0.0,7.481492103603072,False,0
STABILIZE,1.909475564956665,28.427479260424008,3.8365893850727946,-5.5028523234864295,-0.31574442786876583,2.804784566996284,-3.334070683816676,10.9737290008603,-13.342785637824873,1.0223749449226545,0.35437081142947735,163.36453287025668,2.472595143794491,0.41322621252663244,3.007471683110791,0.4,0.0,0.0,0.0,-12.355174124240875,-13.30794095993042,2.7639392763376236,-52.5648832321167,64.23606872558594,-134.09826755523682,0.0,9.651853014266324,False,0
STABILIZE,1.9438459873199463,29.097811231745812,3.4115078850159106,-5.598152289822567,-0.2714956601018875,2.8644732790584624,-3.5712736153206732,11.462659656997532,-13.556726464292915,1.0616259076486023,0.19503274337683488,163.27724305266392,2.5602191613546763,0.377672771211331,2.4126572697884736,0.4,0.0,0.0,0.0,-12.675152719020844,-11.89049407839775,3.557686135172844,-45.1894611120224,20.28200328350067,-94.45890188217163,0.0,5.273560883636518,False,0
STABILIZE,1.9768283367156982,30.324069521964198,3.0060577687525454,-5.667354932746312,-0.22217720856257003,2.9056027341182578,-3.8047001367596094,11.956673302136968,-13.763156285823593,1.1026589094176884,0.00242791880652797,163.16487278043886,2.5990400583516284,0.382934790414066,2.242116809532826,0.4,0.0,0.0,0.0,-12.675152719020844,-11.89049407839775,3.557686135172844,-45.1894611120224,20.28200328350067,-94.45890188217163,0.0,5.273560883636518,False,0
STABILIZE,2.0225155353546143,21.891510738797987,2.6495273522918215,-5.665994960859116,-0.07016049491624679,2.8757708580773342,-4.034216049707784,12.455423600147757,-13.961953225666745,1.0616457578858776,-0.02411793156784393,163.07494650982647,2.0045876532828637,0.487991848944514,1.4635928239526357,0.4,0.0,0.0,0.0,-10.546962916851044,-8.175036311149597,10.160864889621735,79.56189513206482,57.9317569732666,31.071829795837402,0.0,1.277409192610759,False,0
STABILIZE,2.0448849201202393,44.70824495016788,2.197338563581018,-5.754204780854915,0.05813282039011461,2.8594494949312184,-4.259696879267186,12.95856004472785,-14.153004842461268,1.0054181465344516,-0.024306935708782878,163.0342659031299,3.5953026568165045,0.11061073456655937,1.4252572046034981,0.4,0.0,0.0,0.0,-12.252965569496155,-7.2584450244903564,8.580926060676575,-74.29530620574951,44.18192803859711,-117.15328693389893,0.0,-1.8572302478337825,False,0
STABILIZE,2.091811180114746,21.311545711832284,1.907872029555292,-5.634066539250647,0.18562267549624656,2.718439922239474,-4.481027677530865,13.465728323645955,-14.33620798576029,1.1170050814390655,0.01204450499278858,163.08909866178675,1.7903835493324851,0.5296521578118742,0.42784346533287465,0.4,0.0,0.0,0.0,-12.252965569496155,-7.2584450244903564,8.580926060676575,-74.29530620574951,44.18192803859711,-117.15328693389893,0.0,-1.8572302478337825,False,0
STABILIZE,2.1141409873962402,44.79323344404455,1.452550505276906,-5.655532821396041,0.38369835123777885,2.6120522589194852,-4.698102827046509,13.976570682983628,-14.51146865155636,1.1069271373187117,-0.1734129534979231,163.15965451591296,3.406128662255764,0.026539203767702024,-0.34184272053978115,0.4,0.0,0.0,0.0,-12.510339915752411,-3.1790904700756073,12.227517366409302,-32.12972283363342,92.59950518608093,8.319607377052307,0.0,-6.86722928588173,False,0
STABILIZE,2.153212785720825,25.5964067544229,1.204810638832022,-5.453992117167538,0.5705094930261632,2.5199161616866017,-4.910825844279931,14.490726291377246,-14.678701837806674,0.9710411641115428,-0.18317596186451587,163.2657000329666,1.8112645442079274,0.536675016387257,0.5695976351513281,0.4,0.0,0.0,0.0,-11.509192734956741,-1.741652563214302,13.310377299785614,51.9733726978302,65.44998288154602,79.27697896957397,0.0,0.8399916051669775,False,0
STABILIZE,2.177917957305908,40.48360600357125,0.9224003990959495,-5.359201940840026,0.8792311968336087,2.4039984716085967,-5.119109183078597,15.007831604260048,-14.837831399958198,0.7217307216696148,-0.28758863681967767,163.417617100486,2.7456865085813122,0.44056887835515696,-0.42995440863932743,0.4,0.0,0.0,0.0,-6.261777877807617,-0.5578768905252218,19.569580256938934,24.279184639453888,45.60966193675995,34.89928841590881,0.0,-4.713972876447483,False,0
STABILIZE,2.2120065689086914,29.338798693349936,0.7256600346070978,-5.1627852675446455,1.1048857529737897,2.2546047020254245,-5.322874038135116,15.527520728104157,-14.988789906472942,0.6139163990643751,-0.35126638373000074,163.4552514428128,2.001643957460854,0.597164641392257,-0.40132181826344215,0.4,0.0,0.0,0.0,-7.8882016241550446,0.35557139199227095,16.578780114650726,-107.86129236221313,54.628193378448486,-16.104140877723694,0.0,-4.268584778407414,False,0
STABILIZE,2.244952917098999,30.35808947532227,0.483177105562121,-5.018676333539573,1.3930775605743333,2.0989184951359534,-5.522050148450766,16.049425784662557,-15.131518494353084,0.5810026779494357,-0.3880994594897639,163.68417206303494,2.2262893157485504,0.505459186496326,-0.6324155455916503,0.4,0.0,0.0,0.0,-7.216969877481461,0.6307935807853937,19.152995944023132,74.63217377662659,20.69270610809326,14.040474593639374,0.0,-6.3598670395207275,False,0
STABILIZE,2.27824068069458,30.045803276574713,0.252477629258986,-4.855244967966035,1.7019750671342497,1.9554765110051735,-5.716575600798975,16.573177275211187,-15.265966724666193,0.44830512242419335,-0.40844008300317924,163.93427993006247,2.1823547952294517,0.5095686879226901,-0.5507447485564481,0.4,0.0,0.0,0.0,-7.420803606510162,1.5713034197688103,20.801326632499695,-50.60173273086548,54.50526475906372,101.59138441085815,0.0,-5.381039886642193,False,0
STABILIZE,2.3120830059051514,29.551295329486447,0.027283881209224817,-4.6933958521948185,2.0115636608723584,1.812424989374176,-5.906396633188861,17.098404444790894,-15.392092438070389,-0.020184809822974402,-0.6186791753499896,164.15277768161116,2.194311301656158,0.5045756497970956,-0.6021667274843892,0.4,0.0,0.0,0.0,-7.420803606510162,1.5713034197688103,20.801326632499695,-50.60173273086548,54.50526475906372,101.59138441085815,0.0,-5.381039886642193,False,0
STABILIZE,2.3485910892486572,27.395309040319262,-0.17841172481767426,-4.488850251570813,2.34945800599361,1.7035112268486343,-6.091467438328698,17.624735646449494,-15.509861610339573,-0.4520117273485417,-0.8899991553403432,164.37761384870964,2.021833494098269,0.5227979837915412,-0.1717190310825858,0.4,0.0,0.0,0.0,-6.403720378875732,4.515182599425316,22.54570573568344,35.41380763053894,34.966179728507996,-81.98190927505493,0.0,-3.1335823619487764,False,0
STABILIZE,2.379037618637085,32.85218372078451,-0.35095042527110887,-4.28254083895569,2.6530210870426294,1.5554369195841944,-6.271749967089485,18.151798705483767,-15.619248207888582,-0.8633604570819414,-1.1305614061159541,164.60321499699518,2.213545473767452,0.5729386759376381,-1.015815306118977,0.4,0.0,0.0,0.0,-5.1984041929244995,4.378485679626465,20.763200521469116,41.202300786972046,2.0175876095891,-89.86552953720093,0.0,-5.7032728437577624,False,0
STABILIZE,2.4125325679779053,29.861198917841378,-0.5008153289688053,-4.0604904760635465,3.022072838514718,1.3479882455222874,-6.447213731968362,18.679221283681485,-15.720234043298415,-1.176974462516895,-1.32145964388911,164.8289527490641,2.087851277058128,0.5948978046895061,-1.666518182198531,0.4,0.0,0.0,0.0,-5.703159421682358,4.9669865518808365,26.88128650188446,-54.771655797958374,3.8895223289728165,81.99748992919922,0.0,-9.70587639550654,False,0
STABILIZE,2.4466447830200195,29.316446494722864,-0.6069430514690006,-3.867742424725722,3.436475565868609,1.2334345755094582,-6.617835610552256,19.20663124356345,-15.812808630841356,-1.6775145238358184,-1.5956268522680068,165.10005661760025,2.1767134908717183,0.6658243163350598,-0.6032712591103462,0.4,0.0,0.0,0.0,-1.8369726836681366,3.687545284628868,28.624936938285828,49.628978967666626,19.19454038143158,121.55270576477051,0.0,-3.6170103447975848,False,0
STABILIZE,2.4838945865631104,26.847841254600738,-0.7170540972959217,-3.692878844411461,3.838255643391021,1.0982633791136411,-6.7835996489812525,19.73365701262546,-15.896969042006269,-1.9250205156763938,-1.698873699309212,165.40159580907797,2.1621728758237846,0.6413833503501342,-0.7910303734442424,0.4,0.0,0.0,0.0,-2.713204175233841,2.562195621430874,28.10545563697815,3.453114628791809,-37.843161821365356,-119.41375732421875,0.0,-5.089206393975059,False,0
STABILIZE,2.5246384143829346,24.546611186216502,-0.8193406124546199,-3.5197333233429045,4.235383284306905,0.9646076619627574,-6.944496865412206,20.259927947580405,-15.972719761023672,-2.225750756624293,-1.750144941200736,165.8181553861787,2.1098509035098645,0.637717493108316,-0.7385181113675713,0.4,0.0,0.0,0.0,-2.713204175233841,2.562195621430874,28.10545563697815,3.453114628791809,-37.843161821365356,-119.41375732421875,0.0,-5.089206393975059,False,0
STABILIZE,2.5475354194641113,43.682931147609274,-0.8857313510337658,-3.3761536891139783,4.706009683552003,0.7768771302107981,-7.100525053482117,20.785074698600244,-16.04007254039102,-2.3679275475004555,-1.7947517327313256,166.0521849879,2.9138886950034477,0.7955558526005154,-2.787857192612301,0.4,0.0,0.0,0.0,1.7767766490578651,1.095507014542818,28.50300967693329,112.9523515701294,-15.407945215702057,81.44533634185791,0.0,-8.167919285000183,False,0
STABILIZE,2.58467435836792,26.928337549275156,-0.8351938757203311,-3.2583162933244356,4.945065441261365,0.5813586460443674,-7.251688585771853,21.308729573557976,-16.099046256397862,-2.466926443764736,-1.8302302966013104,166.39604403147513,2.3782631950002533,0.8897105330281934,-1.757923822445625,0.4,0.0,0.0,0.0,2.3289060220122337,-1.4144373126327991,26.564335823059082,53.74496579170227,-50.91683268547058,-45.24410963058472,0.0,-10.564450810971007,False,0
STABILIZE,2.614217758178711,33.853698696476854,-0.8109384457247243,-3.17739574835731,5.38766866627169,0.3050570256488213,-7.3979982172694045,21.830526902269778,-16.14966676465097,-2.525414847731436,-1.9206752347037963,166.82536240194545,2.8059783795403006,0.91498117685353,-3.558589106960885,0.4,0.0,0.0,0.0,5.364885926246643,-2.879165858030319,29.86038625240326,40.552279353141785,-45.99213898181915,-166.06030464172363,0.0,-14.505501551693275,False,0
STABILIZE,2.6477162837982178,29.85439740341087,-0.7459622571460237,-3.0944737142344527,5.735683323999531,0.04875539450454594,-7.539470888833606,22.350103400736923,-16.191966755599655,-2.3539901196122215,-1.877747068883443,167.27166062269242,2.643311151029288,0.9419860375341952,-3.026436582131453,0.4,0.0,0.0,0.0,5.364885926246643,-2.879165858030319,29.86038625240326,40.552279353141785,-45.99213898181915,-166.06030464172363,0.0,-14.505501551693275,False,0
STABILIZE,2.6824941635131836,28.759626988480527,-0.6804800658941317,-3.036476174593935,6.083457201541322,-0.1669540131037559,-7.6761295306575414,22.86709853538783,-16.225985610060818,-2.212577242706043,-1.8721399104616856,167.6091539299611,2.6947542735737913,0.9291304055095835,-2.5886057927725035,0.4,0.0,0.0,0.0,6.274920701980591,-4.133419319987297,26.915916800498962,167.5068736076355,-41.199350357055664,45.36057710647583,0.0,-11.224602254631078,False,0
STABILIZE,2.7155404090881348,30.263680443315632,-0.6035507536253921,-3.00376988278228,6.475957602530233,-0.4437436953698083,-7.808002865731997,23.3811548873201,-16.251769254744328,-1.7433510374106889,-1.5611252188927451,168.04284362150023,2.8590595566213794,0.961361149822191,-3.6165050647346226,0.4,0.0,0.0,0.0,6.642002612352371,-5.620803683996201,30.493968725204468,92.69888401031494,-41.67507886886597,31.78480565547943,0.0,-15.513538435444191,False,0
STABILIZE,2.748836040496826,30.038702284609325,-0.4878194848422284,-2.987677866336481,6.817961799554845,-0.6888455879721995,-7.9351252133091394,23.891918516542535,-16.269370017777963,-1.4667962510300494,-1.2354391742649116,168.4068517231269,2.9261325658389103,1.0284391697238564,-3.36873821581076,0.4,0.0,0.0,0.0,8.727193623781204,-6.582442671060562,28.600040078163147,107.89355039596558,-12.30575367808342,140.2857542037964,0.0,-13.900927357309596,False,0
STABILIZE,2.7819488048553467,30.200704199998558,-0.40449601042516403,-2.975185634161541,7.165522333043828,-0.8858097664162602,-8.057536292365892,24.399039326217107,-16.27884648423276,-1.3902712384560496,-1.1009113414855172,168.65428215599977,2.94959183584127,0.9662457353359513,-2.895971510568544,0.4,0.0,0.0,0.0,6.396150588989258,-6.605195999145508,29.16836142539978,-26.028987765312195,-19.09478008747101,1.6089379787445068,0.0,-10.848437270055442,False,0
STABILIZE,2.815443277359009,29.861411515104052,-0.2725874235282302,-2.9623512983152125,7.496208009076214,-1.0178080148536943,-8.175281025067424,24.90217142690107,-16.280263351648248,-1.3022395982864,-0.9232468086726728,168.9567502532046,2.963214334710308,1.0574252693217172,-2.190270344940644,0.4,0.0,0.0,0.0,9.468578547239304,-6.379258632659912,28.30291986465454,32.22350478172302,7.718023657798767,13.426399230957031,0.0,-6.713482581438389,False,0
STABILIZE,2.861751079559326,21.596078592906867,-0.13790324331136977,-2.952269379318539,7.821412505165099,-1.1460164235689079,-8.288409340230782,25.400973500788904,-16.273691285557494,-1.3336599625723395,-1.0304389437332067,169.2986148815421,2.582462709733617,0.9525782724775719,-1.7971575022146655,0.4,0.0,0.0,0.0,9.468578547239304,-6.379258632659912,28.30291986465454,32.22350478172302,7.718023657798767,13.426399230957031,0.0,-6.713482581438389,False,0
STABILIZE,2.894192934036255,30.827323641388233,-0.06439637122812863,-2.9672551058437087,8.228678016111541,-1.3577153771996264,-8.396975976788344,25.895109165954317,-16.259206775012338,-1.4397839200797067,-1.120947061085515,169.58490909079234,3.122701095777396,0.9596020029372149,-3.4181089231696604,0.4,0.0,0.0,0.0,5.627457424998283,-6.7757487297058105,22.83579260110855,-57.532745599746704,-28.41850519180298,-57.191455364227295,0.0,-8.761408082360932,False,0
STABILIZE,2.925959348678589,31.493497522150474,0.0638906767311788,-2.9759471586247486,8.344420535577,-1.4919599470066416,-8.501040287251197,26.38424734059237,-16.236891988108734,-1.469011900363778,-1.3449061892058827,169.73976313965488,3.1603501050700142,1.0742731039152473,-2.588457083660129,0.4,0.0,0.0,0.0,8.45104306936264,-7.793556898832321,20.355135202407837,8.293639123439789,-16.450266540050507,-106.79099559783936,0.0,-9.174438159208066,False,0
STABILIZE,2.9585933685302734,30.643764657748424,0.2148666294776081,-2.9970920580233638,8.526620097445445,-1.6093735036779389,-8.600666041172893,26.868062607261386,-16.206834627511686,-1.4321820262551883,-1.3020576377780424,169.8020817856421,3.1668419347583683,1.1086963139084343,-2.402417585600584,0.4,0.0,0.0,0.0,10.05081757903099,-8.390861004590988,24.05671775341034,90.67964553833008,-31.807583570480347,51.67912840843201,0.0,-8.0294653741085,False,0
STABILIZE,2.992349624633789,29.628114293787306,0.4032204826217928,-3.0376198271668593,8.671870541229353,-1.671293505555322,-8.695921228612661,27.346235577125057,-16.169127785980614,-1.4420226213018843,-1.5591997458770364,170.04725825608887,3.1896415488357284,1.171701470776606,-1.7359526962129541,0.4,0.0,0.0,0.0,12.504613399505615,-9.325017780065536,20.242641866207123,76.5906035900116,-23.521211743354797,8.337639272212982,0.0,-4.0335690681246765,False,0
STABILIZE,3.025965929031372,29.754644835878917,0.6005967256751158,-3.083706222159755,8.856767554276253,-1.765756201926309,-8.786877863599265,27.818453254194385,-16.12386980189454,-1.4093380316892576,-1.6434590939124292,170.14700633872772,3.2314627142871166,1.2009730123559403,-2.185948938134353,0.4,0.0,0.0,0.0,13.041417300701141,-9.468238055706024,22.54498153924942,155.2160382270813,-31.198981404304504,72.48499393463135,0.0,-6.1871511922049685,False,0
STABILIZE,3.0740866661071777,20.781782327351284,0.8116286112099891,-3.1391560095392066,9.053968334845496,-1.7812066457238995,-8.873611787594257,28.284409399569718,-16.071164114777165,-1.4698837099783066,-1.7342030662345145,170.2314684580041,2.796261877060143,1.0935326571917927,-1.1970459181327588,0.4,0.0,0.0,0.0,13.99206668138504,-10.045130550861359,24.175891280174255,56.830644607543945,-27.57880687713623,32.28136897087097,0.0,-1.3859179533555186,False,0
STABILIZE,3.119450092315674,22.046160072746005,1.0801318733099907,-3.23999774402611,9.377853839285896,-1.8416163685058828,-8.95620247295546,28.74380489568288,-16.01111912082215,-1.5151222940071225,-1.9192007676167198,170.2892108772474,2.9843803677504672,1.2064481768998314,-1.6369525876119175,0.4,0.0,0.0,0.0,15.514825284481049,-10.622955858707428,20.877771079540253,117.08261966705322,-28.22083830833435,112.28563785552979,0.0,-0.9120422035043843,False,0
STABILIZE,3.1429409980773926,42.5809019106211,1.2948059942977495,-3.298484268408702,9.449695940975074,-1.8079175897318858,-9.034732826400713,29.196348110539013,-15.943848028418284,-1.5950946311212746,-2.0430376467977513,170.26848808330556,3.968606680878071,1.4883073632368502,-0.5094198896138272,0.4,0.0,0.0,0.0,15.053139626979828,-11.006972938776016,21.812355518341064,65.46681523323059,-9.615886211395264,38.62903118133545,0.0,-0.2716665053690259,False,0
STABILIZE,3.160135269165039,58.169391859094375,1.3900880770797357,-3.2885934400650054,9.167821364826473,-1.6869801743500659,-9.109288992471114,29.641755261958732,-15.869468713674753,-1.4655723665081477,-2.3990424742644487,170.33844288078484,4.041478463274914,1.3494564014085253,1.7981295500930203,0.4,0.0,0.0,0.0,13.246887922286987,-11.490578204393387,19.55278068780899,-45.56514620780945,-10.99335104227066,-26.704925298690796,0.0,-0.11225330523551331,False,0
STABILIZE,3.1936228275299072,29.86779084092317,1.5249004021364536,-3.3186682979454187,9.05270598361302,-1.618721186182526,-9.179960156994738,30.079750781820046,-15.78810357594606,-1.4842904999285678,-2.7343082860900485,170.32370333255594,3.2348044624889183,1.173916817338198,-0.1477892295142368,0.4,0.0,0.0,0.0,14.120529592037201,-12.022491544485092,19.186890125274658,-13.38767558336258,0.7447966374456882,2.62601301074028,0.0,-0.14238014908652885,False,0
STABILIZE,3.227708101272583,29.34187735228688,1.706836089544791,-3.4311196477683525,9.159395110184729,-1.6079326644164826,-9.24683835055,30.510067680300494,-15.699879393357659,-1.4020465913068574,-3.0759727045074805,170.33531465414498,3.433587198245957,1.2517657936425866,-0.8393159681655078,0.4,0.0,0.0,0.0,12.676489353179932,-13.490384817123413,17.634686827659607,-54.0627658367157,-22.57915586233139,-25.235378742218018,0.0,0.19382412005885996,False,0
STABILIZE,3.261050224304199,29.994879643005277,1.9289501283733423,-3.5421049732813317,9.247623312588681,-1.5805810026020235,-9.310018251929307,30.932447910119045,-15.604927178330712,-1.1271294495014343,-3.313125837113609,170.27216272507903,3.4893277197278576,1.3553667614183207,-0.6199122238431442,0.4,0.0,0.0,0.0,15.448260307312012,-13.106530904769897,16.319364309310913,-0.0990748405456543,-19.343888759613037,-71.75663709640503,0.0,1.2225214722754192,False,0
STABILIZE,3.2966721057891846,28.078646645735287,2.1444868159163355,-3.6490677216566576,9.312180255177019,-1.5458094505868976,-9.369596991602343,31.34664273077825,-15.503382033107435,-1.0150355864943585,-3.373348895686081,170.23247932600125,3.3834794243637645,1.3339238027342564,-0.5359701714608388,0.4,0.0,0.0,0.0,15.448260307312012,-13.106530904769897,16.319364309310913,-0.0990748405456543,-19.343888759613037,-71.75663709640503,0.0,1.2225214722754192,False,0
STABILIZE,3.3312935829162598,28.885197581367162,2.449796239024661,-3.7862582423414173,9.395037491002938,-1.4890912635502631,-9.425673955179818,31.752413072806085,-15.395383005276454,-0.938477276748155,-3.2193400827333405,170.21417441902562,3.5156823472697742,1.523848046443274,-0.23961428220528969,0.4,0.0,0.0,0.0,20.973031222820282,-14.461269974708557,16.03080779314041,57.4968159198761,5.889888480305672,-33.36768448352814,0.0,2.9427046147431306,False,0
STABILIZE,3.361928939819336,32.645833171179724,2.8109891490881176,-3.927132925829454,9.53244778553109,-1.4285631743049574,-9.47835058687685,32.14952990199816,-15.28107294329779,-0.8432507259789843,-3.1833992004339104,170.19608807810343,3.7399721857162027,1.7410553259988464,-0.06729523073797983,0.4,0.0,0.0,0.0,25.30941367149353,-15.057721734046936,21.487486362457275,115.39491415023804,-24.322311580181122,94.26242709159851,0.0,2.705617009264352,False,0
STABILIZE,3.395949125289917,29.40173145000175,3.1433877938409136,-4.025787216393583,9.576440357178239,-1.3393304772904686,-9.52773019297652,32.53777458365952,-15.160598352028067,-0.839131961826908,-3.0331632132239563,170.15991539625904,3.455544099570722,1.6557481081256729,0.2575558333270468,0.4,0.0,0.0,0.0,25.114497542381287,-13.424476981163025,18.554553389549255,34.387004375457764,4.358766973018646,-30.412057042121887,0.0,4.026076350605172,False,0
STABILIZE,3.428823471069336,30.42150384774394,3.4916854190411626,-4.1371768014440065,9.648900683134155,-1.2530889610130522,-9.57391774529328,32.916939246846965,-15.034109248245809,-0.9427810429772034,-2.7724745293984334,170.0933483726081,3.510056060554695,1.7227954206841951,0.28536788747220687,0.4,0.0,0.0,0.0,25.114497542381287,-13.424476981163025,18.554553389549255,34.387004375457764,4.358766973018646,-30.412057042121887,0.0,4.026076350605172,False,0
STABILIZE,3.462987184524536,29.276134769346744,3.9005132553440527,-4.261176331360908,9.751703800414798,-1.20654152076117,-9.617019684636649,33.286827148610776,-14.901759016176541,-1.0534038539917878,-1.9415184107297363,170.00635908333882,3.529858995180112,1.8549258754449642,-0.17165557307484014,0.4,0.0,0.0,0.0,29.66267764568329,-14.489848911762238,21.27905935049057,56.219661235809326,-3.8128580898046494,24.79124367237091,0.0,1.1245193567431375,False,0
STABILIZE,3.500028610229492,26.999929189867714,4.2996984033542605,-4.397982826145704,9.903574667915848,-1.1351957859028239,-9.657143724274459,33.64725303823688,-14.763704263017992,-1.2685309071850943,-0.931393730248617,169.84044012802087,3.419870411539249,1.798042297291653,0.08187027356268606,0.4,0.0,0.0,0.0,29.05307412147522,-15.357573330402374,24.754653871059418,-6.4899541437625885,2.440471388399601,-2.0662855356931686,0.0,2.7844709029019143,False,0
STABILIZE,3.535996198654175,27.807970510041038,4.733970338741204,-4.556837716909799,10.099368708233609,-1.0656842029665352,-9.694398653396721,33.99804352148887,-14.62010467446532,-1.428061821360084,-0.3052465968148647,169.67923400323022,3.536373763426998,1.9202219007725851,0.13322666372152603,0.4,0.0,0.0,0.0,29.05307412147522,-15.357573330402374,24.754653871059418,-6.4899541437625885,2.440471388399601,-2.0662855356931686,0.0,2.7844709029019143,False,0
STABILIZE,3.56730055809021,31.948082416117607,5.1592024267900465,-4.724543884334164,10.13758518455339,-1.0141604309506487,-9.72889414057867,34.33903742484997,-14.4711228702363,-1.4200454204303103,0.09118772117472461,169.5445836539326,3.7693269639607614,2.048972530009291,0.047634062080927686,0.4,0.0,0.0,0.0,31.36422634124756,-17.682641744613647,17.801837623119354,-38.10644745826721,-20.484422147274017,-51.13941431045532,0.0,1.2610680717432092,False,0
STABILIZE,3.600426197052002,30.19179107700724,5.505740505778053,-4.8613716378147185,10.115659526215937,-0.9284295816479152,-9.760740537244818,34.67008615976515,-14.316924259596455,-1.5333419303398375,0.33917033215331976,169.4507641754933,3.5834744945454045,1.8958276346047824,0.4778498834325231,0.4,0.0,0.0,0.0,27.294155955314636,-16.215944290161133,15.00961184501648,-53.264278173446655,-6.9735608994960785,-63.88576030731201,0.0,3.5222758344529197,False,0
STABILIZE,3.6364872455596924,27.755709228071336,5.861994432068305,-5.006132770976403,10.043257618127013,-0.8267658728091789,-9.790048681131875,34.99105408688298,-14.157676896884237,-1.474797070590779,0.5928983061626591,169.26091223732362,3.493327775055437,1.8948657320199096,0.6370789352533847,0.4,0.0,0.0,0.0,27.794498205184937,-16.53415560722351,11.244884133338928,-43.993449211120605,-10.330243408679962,-78.63095998764038,0.0,4.61715750628349,False,0
STABILIZE,3.6679394245147705,31.796950928291473,6.21485067340242,-5.150678594218299,9.969461368845003,-0.725040809963362,-9.816929699752851,35.30181888029781,-13.993551337036452,-1.4446758296293167,0.6846361777306872,169.1356465679456,3.666603022430854,2.009413655698795,0.8576085155957507,0.4,0.0,0.0,0.0,27.794498205184937,-16.53415560722351,11.244884133338928,-43.993449211120605,-10.330243408679962,-78.63095998764038,0.0,4.61715750628349,False,0
STABILIZE,3.701169013977051,30.097979979189837,6.5280314465447535,-5.275683857197021,9.908325621980177,-0.6485437481523656,-9.84149481386008,35.602271891791744,-13.824720491113103,-1.4328798794892932,0.6914574556382672,169.09649592362308,3.5202542775727226,1.929128844205613,0.5302795361294181,0.4,0.0,0.0,0.0,27.7010440826416,-16.580748558044434,14.12067711353302,-9.250374883413315,-13.664086163043976,18.084388971328735,0.0,2.9909276712741244,False,0
STABILIZE,3.7413625717163086,24.879461399294126,6.886965460422892,-5.421948139239365,9.867667705772398,-0.5812378333602591,-9.86385514090886,35.892318515076596,-13.651359481822649,-1.3895329376954535,0.6733631639489926,168.8941447392723,3.349280079864887,1.92576672093097,0.31948576437107723,0.4,0.0,0.0,0.0,29.337409138679504,-17.056702077388763,13.967983424663544,49.39901828765869,-9.11787822842598,46.395307779312134,0.0,2.393592623637013,False,0
STABILIZE,3.7681078910827637,37.400388778913204,7.239415697793899,-5.566124276489016,9.824982352667279,-0.5147580601828219,-9.884121498521239,36.17187855003606,-13.473645499047592,-1.4433323100752342,0.5628026784105847,168.70959302789853,3.8828310689371937,2.227677424273743,0.6899143398958151,0.4,0.0,0.0,0.0,29.337409138679504,-17.056702077388763,13.967983424663544,49.39901828765869,-9.11787822842598,46.395307779312134,0.0,2.393592623637013,False,0
STABILIZE,3.8326234817504883,15.501618792779741,7.416571466067301,-5.666971691251357,9.735335679497394,-0.42756239949146213,-9.902404207949196,36.44088656696748,-13.291757655369059,-1.3194142156761026,0.6279865887546014,168.47459353931507,3.020387095711912,1.6431678622909534,0.4147456718575085,0.4,0.0,0.0,0.0,24.599798023700714,-18.064096570014954,15.642298758029938,-55.689436197280884,-11.823119223117828,100.75373649597168,0.0,4.188458121706701,False,0
STABILIZE,3.846127986907959,74.0663617581098,7.968171571012078,-5.977072788546697,9.856950884475967,-0.34075472196899337,-9.918812897538217,36.69929227082411,-13.105876841592472,-1.300711130016198,0.6167900410750994,168.36488704086634,4.016550892430862,2.77100182200728,1.128713736990426,0.4,0.0,0.0,0.0,26.626470685005188,-18.600955605506897,13.193170726299286,83.9047908782959,-30.27133345603943,96.97626829147339,0.0,2.896821324889689,False,0
STABILIZE,3.8972792625427246,19.552132911303893,8.138361767962103,-6.063789770416922,9.663251364215979,-0.23085041399785522,-9.933456306190855,36.947060865457125,-12.91618558227249,-1.1296349549880653,0.6646206285330821,168.1290815899608,3.011880532831673,1.7075919774655635,0.7206387112236423,0.4,0.0,0.0,0.0,27.75312066078186,-19.054752588272095,10.643763840198517,23.36539775133133,-21.605630218982697,-36.405566334724426,0.0,6.000622567953329,False,0
STABILIZE,3.921567916870117,41.172698805351864,8.340363895942918,-6.211362305030894,9.525610460508195,-0.13731527062979385,-9.946442086830302,37.184173417857295,-12.722867891238314,-1.0573209674807902,0.7331607764413668,168.1173063438317,3.957041387777525,2.0408772518624447,1.4527891822483545,0.4,0.0,0.0,0.0,22.743724286556244,-18.79826933145523,9.075777977705002,-29.12805676460266,-12.608873844146729,-82.50359892845154,0.0,4.542260640052893,False,0
STABILIZE,3.9473676681518555,38.77117053826458,8.279025004019687,-6.204739782933975,9.291612376568368,-0.10690283690446806,-9.957876609863668,37.410627222397586,-12.526109127118726,-0.8675905853340008,0.7604466884844802,167.97813440930352,3.25697063990827,1.3939245509748817,0.4152817239573459,0.4,0.0,0.0,0.0,22.936154901981354,-19.35560554265976,12.937377393245697,-11.305807530879974,1.632462628185749,10.794106125831604,0.0,2.0399930899752183,False,0
STABILIZE,3.982147216796875,28.752726649528707,8.361831045199514,-6.2849273062185835,9.157053670447873,-0.06554924819916363,-9.967864766645889,37.62643616507462,-12.326095848867496,-0.7305767771401334,0.7465673172041911,167.93294587775472,3.2492854031351666,1.6809888051705169,0.43004600673802357,0.4,0.0,0.0,0.0,22.936154901981354,-19.35560554265976,12.937377393245697,-11.305807530879974,1.632462628185749,10.794106125831604,0.0,2.0399930899752183,False,0
STABILIZE,4.02288031578064,24.554371052061562,8.552291805042948,-6.451994378485974,9.075614884289658,0.0035170382328233753,-9.976509772942727,37.831631087751056,-12.123015671288476,-0.23063355696079252,0.5758008485662364,167.68804261487475,3.3476324090051723,1.8384059626791964,0.6821099915982948,0.4,0.0,0.0,0.0,22.08169996738434,-20.105847716331482,11.220920830965042,21.52489870786667,-2.470976673066616,-5.398884788155556,0.0,3.3103339972903663,False,0
STABILIZE,4.047466278076172,40.67835009552997,8.722463644369634,-6.594893714165109,8.969505203838123,0.09780888318989012,-9.983912972394705,38.026260152397484,-11.917057120560624,0.3653096795503701,0.5295768496670875,167.49371007260956,3.816267572434163,1.9976364829775217,1.5873802488223834,0.4,0.0,0.0,0.0,22.924567759037018,-19.741743803024292,10.465264320373535,-91.29194617271423,16.905248165130615,-39.4648551940918,0.0,5.3931378592095784,False,0
STABILIZE,4.084696531295776,26.86400522638041,8.774008589823893,-6.656285255382974,8.807888098270718,0.16491721936338974,-9.99017363998028,38.210389205334415,-11.708409489763554,0.7640744794291089,0.4499817204220199,167.39672138639537,3.1252753193689613,1.66769960791738,0.8218013440177441,0.4,0.0,0.0,0.0,22.40823209285736,-19.17501986026764,10.4238361120224,-32.060301303863525,34.51630473136902,-10.607162117958069,0.0,4.46265008952134,False,0
STABILIZE,4.114164113998413,33.939441018918615,8.937269534171023,-6.775274576671273,8.706873395645646,0.24049103389367654,-9.995388785479932,38.38410214147438,-11.4972626944024,1.279044489308448,0.3402849870093541,167.260554735102,3.4732120086085785,1.9376926697591255,1.1706415530920282,0.4,0.0,0.0,0.0,20.865148305892944,-16.826821863651276,9.162257611751556,11.342252790927887,51.87684893608093,22.91557788848877,0.0,4.044610922691648,False,0
STABILIZE,4.147444725036621,30.050323837909097,9.046628690357615,-6.830837969303725,8.564535816151938,0.2936808663328251,-9.999652956938657,38.54750126856383,-11.283807127932928,1.454991869875269,0.20118407577637182,167.14019314154802,3.1498055002917607,1.810673719216645,0.8136390948414121,0.4,0.0,0.0,0.0,21.123456954956055,-14.978358149528503,8.036967366933823,2.1361686289310455,44.85012888908386,-47.7118194103241,0.0,3.000035088202102,False,0
STABILIZE,4.183530330657959,27.717924148003252,9.217069779460202,-6.887694745409156,8.481232067273337,0.33319395534312146,-10.00305804413071,38.700707671425285,-11.068233517287396,1.4542537825580846,0.16990106232577296,167.0944855156223,3.0909443011930806,1.9133235168292972,0.6389912429927789,0.4,0.0,0.0,0.0,21.511419117450714,-12.275165319442749,9.993233531713486,37.800607085227966,52.18546986579895,52.09274888038635,0.0,1.555443248555235,False,0
STABILIZE,4.225733518600464,23.695963390864666,9.422161082439068,-6.915777905264414,8.40498159696185,0.3950079093192877,-10.005693082021946,38.84386157619926,-10.850732778398827,1.3159770296979996,0.08016561012332231,167.0572200035107,2.9243557925223165,1.938670337009076,0.8215505298432099,0.4,0.0,0.0,0.0,24.70788210630417,-10.699306428432465,10.632256418466568,81.52544498443604,27.032923698425293,47.52615988254547,0.0,3.3217540735826274,False,0
STABILIZE,4.249989032745361,41.235439852137326,9.593553391690357,-6.898297851283536,8.314599354349205,0.44368663012238596,-10.00764405423412,38.977122714586365,-10.631495871726795,1.0207416759373753,-0.02994365604304168,166.99969615032086,3.004606242912819,2.092035168330689,1.0713913269024498,0.4,0.0,0.0,0.0,25.122076272964478,-9.309130907058716,10.717982798814774,59.01194214820862,23.866763710975647,20.176483690738678,0.0,2.804671187372227,False,0
STABILIZE,4.282166481018066,31.082502723412453,9.58880445820762,-6.79152195805605,8.209397020119333,0.43028442969988623,-10.008993696508238,39.10067068808942,-10.41071365778258,0.5109412654860894,-0.19573145038458603,166.9110402948941,2.586962334807765,1.6527533386917717,0.09168173748112951,0.4,0.0,0.0,0.0,20.45793980360031,-7.751110196113586,13.0028635263443,46.74727022647858,30.457958579063416,145.43163776397705,0.0,-0.5781934424881506,False,0
STABILIZE,4.315417528152466,30.078338568334697,9.698820855305883,-6.7580128504274946,8.107265839547294,0.4417573453258781,-10.00982130016775,39.21470533225504,-10.18857675265395,0.11709708329581595,-0.24572758133543313,166.8760287452086,2.7833320057424094,1.8710479051086464,0.4028813416681176,0.4,0.0,0.0,0.0,19.90111619234085,-7.486964762210846,8.752484619617462,-5.506435036659241,17.027215659618378,12.984998524188995,0.0,0.17088364907090275,False,0
