E-kp,E-ki,E-kd,E-I-Tot,E-P,E-I,E-D,E-PID,N-kp,N-ki,N-kd,N-I-Tot,N-P,N-I,N-D,N-PID,D-kp,D-ki,D-kd,D-I-Tot,D-P,D-I,D-D,D-PID,Y-kp,Y-ki,Y-kd,Y-I-Tot,Y-P,Y-I,Y-D,Y-PID,errorN,desiredN,actualN,errorE,desiredE,actualE,errorD,desiredD,actualD,errorY,desiredY,actualY,roll,pitch,yaw-rate,thrust,dt,Time,Mode
0.17,0.015,0.1,-0.00022401630322394615,-0.00115284092148303,-3.3602445483591922e-06,-0.020528692946814364,-0.021684894112845753,0.17,0.015,0.1,0.0011895616100392901,0.006121765616797927,1.784342415058935e-05,0.10901057058066982,0.11515017962161833,0.002,8e-05,0,-0.02123001940385549,-0.001285349471046216,-1.6984015523084392e-06,-0.0,-0.0012870478725985244,0.2,0.02,0.0,0.00021070114940720713,0.001275668221434598,4.214022988144143e-06,0.0,0.0012798822444227422,0.036010385981164274,0.0,-0.036010385981164274,-0.0067814171851942944,0.0,0.0067814171851942944,-0.6426747355231079,0.0,0.6426747355231079,0.00637834110717299,0,-0.00637834110717299,-0.021697712848015336,-0.11514776487948591,-0.0012798822444227422,0.4,0.03303384780883789,0.03336524963378906,STABILIZE
0.17,0.015,0.1,-0.0004593405924558146,-0.0011978161039940967,-6.890108886837218e-06,-0.010660413317616134,-0.011865119530497067,0.17,0.015,0.1,0.002283955096053114,0.00557053479660982,3.425932644079671e-05,0.0496509580993581,0.055255752222408715,0.002,8e-05,0,-0.04249737215788087,-0.0012735555738472145,-3.3997897726304697e-06,-0.0,-0.001276955363619845,0.2,0.02,0.0,0.00025205181179387305,0.00024762069437553796,5.041036235877461e-06,0.0,0.00025266173061141544,0.03276785174476365,0.0,-0.03276785174476365,-0.007045977082318216,0.0,0.007045977082318216,-0.6367777869236072,0.0,0.6367777869236072,0.0012381034718776896,0,-0.0012381034718776896,-0.01186631354828552,-0.05525549581635282,-0.00025266173061141544,0.4,0.03339838981628418,0.06665515899658203,STABILIZE
0.17,0.015,0.1,-0.0007009746705900618,-0.0012278559911439106,-1.0514620058850927e-05,-0.0072830053542978215,-0.008521375965500583,0.17,0.015,0.1,0.003681791456878667,0.007103061635722137,5.5226871853180006e-05,0.0420827460889154,0.04924103459649072,0.002,8e-05,0,-0.06398206398437119,-0.0012843975038001093,-5.118565118749696e-06,-0.0,-0.001289516068918859,0.2,0.02,0.0,0.00044111157456871314,0.0011302367720147704,8.822231491374263e-06,0.0,0.0011390590035061446,0.041782715504247864,0.0,-0.041782715504247864,-0.007222682300846533,0.0,0.007222682300846533,-0.6421987519000546,0.0,0.6421987519000546,0.005651183860073852,0,-0.005651183860073852,-0.008526232654196154,-0.04924019387862649,-0.0011390590035061446,0.4,0.03345489501953125,0.10011839866638184,STABILIZE
0.17,0.015,0.1,-0.0009234879395464451,-0.0011298970223848751,-1.3852319093196675e-05,-0.005031956022593249,-0.006175705364071321,0.17,0.015,0.1,0.005045888195670099,0.006926727788568327,7.568832293505149e-05,0.030787489340882702,0.03778990545238608,0.002,8e-05,0,-0.08559105796254361,-0.0012909177515667328,-6.8472846370034895e-06,-0.0,-0.0012977650362037364,0.2,0.02,0.0,0.000671304724742846,0.0013751700988441252,1.342609449485692e-05,0.0,0.0013885961933389822,0.04074545757981368,0.0,-0.04074545757981368,-0.006646453072852206,0.0,0.006646453072852206,-0.6454588757833664,0.0,0.6454588757833664,0.0068758504942206256,0,-0.0068758504942206256,-0.0061802403436761,-0.037789164057153955,-0.0013885961933389822,0.4,0.033478498458862305,0.13360142707824707,STABILIZE
0.17,0.015,0.1,-0.0012240281204101491,-0.0012943078636971793,-1.8360421806152236e-05,-0.004515566590493416,-0.005828234875996747,0.17,0.015,0.1,0.006633169361445604,0.006835793100468492,9.949754042168406e-05,0.024358974318438142,0.03129426495932832,0.002,8e-05,0,-0.11088411472176758,-0.0012814965438455745,-8.870729177741408e-06,-0.0,-0.001290367273023316,0.2,0.02,0.0,0.0010838055781376464,0.0020899744265430007,2.167611156275293e-05,0.0,0.0021116505381057536,0.04021054764981465,0.0,-0.04021054764981465,-0.007613575668806936,0.0,0.007613575668806936,-0.6407482719227873,0.0,0.6407482719227873,0.010449872132715003,0,-0.010449872132715003,-0.005833942373377393,-0.031293201458120916,-0.0021116505381057536,0.4,0.0394742488861084,0.1730654239654541,STABILIZE
0.17,0.015,0.1,-0.0014601108319913562,-0.001200707954989468,-2.190166247987034e-05,-8.03846239658107e-05,-0.001302994241435149,0.17,0.015,0.1,0.007958870298489908,0.0067424660212721775,0.00011938305447734861,0.002228377102525032,0.009090226178274558,0.002,8e-05,0,-0.13226951650340268,-0.0012795925166812071,-1.0581561320272216e-05,0.0,-0.0012901740780014792,0.2,0.02,0.0,0.0015010166284759685,0.0024963764690550737,3.0020332569519372e-05,0.0,0.002526396801624593,0.039661564831012804,0.0,-0.039661564831012804,-0.007062987970526282,0.0,0.007062987970526282,-0.6397962583406035,0.0,0.6397962583406035,0.012481882345275367,0,-0.012481882345275367,-0.0013049745157621537,-0.009089942105349878,-0.002526396801624593,0.4,0.033425331115722656,0.20653629302978516,STABILIZE
0.17,0.015,0.1,-0.0016917748783396615,-0.0011414421736746715,-2.537662317509492e-05,0.00028012588781474906,-0.0008866929090350175,0.17,0.015,0.1,0.009395085042318192,0.007076437215441734,0.00014092627563477286,0.005308879085281128,0.012526242576357635,0.002,8e-05,0,-0.15417487250069373,-0.0012697746920618009,-1.23339898000555e-05,0.0,-0.0012821086818618564,0.2,0.02,0.0,0.0018212502722400321,0.0018562792426136715,3.642500544480064e-05,0.0,0.0018927042480584722,0.041626101267304316,0.0,-0.041626101267304316,-0.006714365727498067,0.0,0.006714365727498067,-0.6348873460309005,0.0,0.6348873460309005,0.009281396213068357,0,-0.009281396213068357,-0.0008887220349901835,-0.012526098775804486,-0.0018927042480584722,0.4,0.03450274467468262,0.24102401733398438,STABILIZE
0.17,0.015,0.1,-0.001898079046652107,-0.0010477681379167764,-2.8471185699781604e-05,0.000715000722773696,-0.00036123860084286217,0.17,0.015,0.1,0.010823818121375405,0.007256183964042437,0.00016235727182063107,0.000551372134667505,0.007969913370530574,0.002,8e-05,0,-0.17485718344940065,-0.0012357690735625235,-1.3988574675952054e-05,0.0,-0.0012497576482384757,0.2,0.02,0.0,0.0021246707417222573,0.001812938763960504,4.249341483444515e-05,0.0,0.0018554321787949493,0.04268343508260257,0.0,-0.04268343508260257,-0.006163341987745744,0.0,0.006163341987745744,-0.6178845367812618,0.0,0.6178845367812618,0.00906469381980252,0,-0.00906469381980252,-0.0003624995063712996,-0.007969856119678792,-0.0018554321787949493,0.4,0.03347277641296387,0.2745068073272705,STABILIZE
0.17,0.015,0.1,-0.0020988027945983197,-0.0010191652214538419,-3.1482041918974796e-05,0.00047126747643921,-0.0005793797869336067,0.17,0.015,0.1,0.012239892716495261,0.007190050968544202,0.00018359839074742892,0.0009386496863668031,0.008312299045658434,0.002,8e-05,0,-0.19534791208797841,-0.0012240081618973202,-1.5627832967038275e-05,0.0,-0.0012396359948643584,0.2,0.02,0.0,0.0025352602983536436,0.0024526456690292728,5.0705205967072875e-05,0.0,0.0025033508749963455,0.04229441746202472,0.0,-0.04229441746202472,-0.005995089537963775,0.0,0.005995089537963775,-0.6120040809486601,0.0,0.6120040809486601,0.012263228345146364,0,-0.012263228345146364,-0.0005811588858654329,-0.008312174848458193,-0.0025033508749963455,0.4,0.03348135948181152,0.3080260753631592,STABILIZE
0.17,0.015,0.1,-0.0021968605605345764,-0.0004984053319165102,-3.295290840801865e-05,0.002793036812578335,0.002261678572253806,0.17,0.015,0.1,0.013579507865040403,0.006808959253518524,0.00020369261797560605,-0.00013081935350501918,0.00688183251798911,0.002,8e-05,0,-0.21609062272582624,-0.0012403586182197217,-1.72872498180661e-05,0.0,-0.0012576458680377879,0.2,0.02,0.0,0.002984619381066784,0.0026870471301931164,5.969238762133568e-05,0.0,0.002746739517814452,0.04005270149128543,0.0,-0.04005270149128543,-0.0029317960700971186,0.0,0.0029317960700971186,-0.6201793091098609,0.0,0.6201793091098609,0.01343523565096558,0,-0.01343523565096558,0.0022600647953902636,-0.006882362667753125,-0.002746739517814452,0.4,0.033446311950683594,0.34148192405700684,STABILIZE
0.17,0.015,0.1,-0.0023034346442122114,-0.0005422097604646781,-3.455151966318317e-05,0.0023093644875406983,0.001732603207412837,0.17,0.015,0.1,0.015059803653127476,0.00753120080397181,0.00022589705479691212,0.0027405699803782764,0.010497667839146999,0.002,8e-05,0,-0.23719082286166246,-0.0012629419026833875,-1.8975265828932997e-05,0.0,-0.0012819171685123205,0.2,0.02,0.0,0.0033787189770226145,0.0023588633774041007,6.757437954045229e-05,-0.0,0.002426437756944553,0.04430118119983417,0.0,-0.04430118119983417,-0.0031894691792039884,0.0,0.0031894691792039884,-0.6314709513416937,0.0,0.6314709513416937,0.011794316887020503,0,-0.011794316887020503,0.001730442229335515,-0.010498024272515795,-0.002426437756944553,0.4,0.033414363861083984,0.3748664855957031,STABILIZE
0.17,0.015,0.1,-0.002426666698167242,-0.0006265168269392722,-3.6400000472508626e-05,0.001810657467189971,0.00114774063977819,0.17,0.015,0.1,0.016640307304073666,0.0080353455174746,0.000249604609561105,0.0033755652705216425,0.011660515397557348,0.002,8e-05,0,-0.2580490785898249,-0.0012475791689588467,-2.0643926287185994e-05,0.0,-0.0012682230952460326,0.2,0.02,0.0,0.0036826554509302683,0.0018179123819161182,7.365310901860536e-05,-0.0,0.0018915654909347234,0.04726673833808588,0.0,-0.04726673833808588,-0.0036853930996427775,0.0,0.0036853930996427775,-0.6237895844794233,0.0,0.6237895844794233,0.009089561909580591,0,-0.009089561909580591,0.0011458907687304954,-0.01166069733159251,-0.0018915654909347234,0.4,0.03343796730041504,0.4083065986633301,STABILIZE
0.17,0.015,0.1,-0.0024264728163838458,9.521975819393788e-07,-3.639709224575769e-05,0.003614045599951397,0.0035786007052875787,0.17,0.015,0.1,0.01825657125688425,0.00793784026887241,0.00027384856885326374,0.0024124095540892817,0.010624098391814956,0.002,8e-05,0,-0.27986913614681297,-0.0012607443615206262,-2.238953089174504e-05,-0.0,-0.0012831338924123713,0.2,0.02,0.0,0.003993346305435199,0.0017951453242966821,7.986692610870398e-05,-0.0,0.001875012250405386,0.04669317805219064,0.0,-0.04669317805219064,5.601162246702228e-06,0.0,-5.601162246702228e-06,-0.6303721807603131,0.0,0.6303721807603131,0.00897572662148341,0,-0.00897572662148341,0.003576936332813331,-0.010624658870657909,-0.001875012250405386,0.4,0.03461456298828125,0.44291210174560547,STABILIZE
0.17,0.015,0.1,-0.002415341641800082,5.3426856632074926e-05,-3.623012462700123e-05,0.003687841663883717,0.003705038395888791,0.17,0.015,0.1,0.01998592402624391,0.008300461175914603,0.0002997888603936586,0.0038492793560117506,0.01244952939232001,0.002,8e-05,0,-0.3018363500319589,-0.0012404369135857617,-2.4146908002556714e-05,-0.0,-0.0012645838215883183,0.2,0.02,0.0,0.004267903695114677,0.0015503610190933958,8.535807390229354e-05,-0.0,0.0016357190929956894,0.04882624221126236,0.0,-0.04882624221126236,0.00031427562724749953,0.0,-0.00031427562724749953,-0.6202184567928808,0.0,0.6202184567928808,0.007751805095466979,0,-0.007751805095466979,0.0037033540088574186,-0.012450030549774957,-0.0016357190929956894,0.4,0.03541851043701172,0.47835850715637207,STABILIZE
0.17,0.015,0.1,-0.0023822513780936126,0.00016811119574112432,-3.573377067140419e-05,0.002259285384777455,0.002391662809847175,0.17,0.015,0.1,0.021539238983602757,0.007891434083467812,0.0003230885847540413,0.0037516935285602385,0.011966216196782092,0.002,8e-05,0,-0.3227348339280454,-0.0012490857798260252,-2.5818786714243635e-05,-0.0,-0.0012749045665402688,0.2,0.02,0.0,0.004626489215660399,0.0021432371687452895,9.252978431320799e-05,-0.0,0.0022357669530584977,0.04642020049098712,0.0,-0.04642020049098712,0.000988889386712496,0.0,-0.000988889386712496,-0.6245428899130125,0.0,0.6245428899130125,0.010716185843726448,0,-0.010716185843726448,0.002389424693990632,-0.011966663306698487,-0.0022357669530584977,0.4,0.0334620475769043,0.5118157863616943,STABILIZE
0.17,0.015,0.1,-0.00237152050944001,5.4492456566967846e-05,-3.557280764160015e-05,0.002014228752680078,0.0020331484016054453,0.17,0.015,0.1,0.02298238168068358,0.007328427295045819,0.00034473572521025365,-0.0007697638994425091,0.006903399120813563,0.002,8e-05,0,-0.343522265721497,-0.0012418908266471236,-2.7481781257719766e-05,0.0,-0.0012693726079048434,0.2,0.02,0.0,0.004981706673215715,0.0021221539360231473,9.96341334643143e-05,-0.0,0.0022217880694874615,0.0431083958532107,0.0,-0.0431083958532107,0.00032054386215863437,0.0,-0.00032054386215863437,-0.6209454133235618,0.0,0.6209454133235618,0.010610769680115735,0,-0.010610769680115735,0.002031869906472078,-0.00690377552701226,-0.0022217880694874615,0.4,0.033477067947387695,0.5452923774719238,STABILIZE
0.17,0.015,0.1,-0.002362331677683597,4.670274534544569e-05,-3.543497516525395e-05,0.0022834529415734213,0.002294720711753613,0.17,0.015,0.1,0.024354784405023276,0.0069753127106173774,0.00036532176607534915,-0.0037855540986847036,0.003555080378008023,0.002,8e-05,0,-0.3643689939786752,-0.0012465252792928298,-2.914951951829402e-05,0.0,-0.0012756747988111239,0.2,0.02,0.0,0.005404284343921385,0.0025267933773632863,0.0001080856868784277,0.0,0.002634879064241714,0.041031251238925745,0.0,-0.041031251238925745,0.00027472203144379817,0.0,-0.00027472203144379817,-0.6232626396464149,0.0,0.6232626396464149,0.012633966886816431,0,-0.012633966886816431,0.002293936745392378,-0.0035555862874056795,-0.002634879064241714,0.4,0.0334477424621582,0.5787241458892822,STABILIZE
0.17,0.015,0.1,-0.0023267736632994794,0.0001806869351038431,-3.490160494949219e-05,0.0006219949589898939,0.0007677802891442448,0.17,0.015,0.1,0.025809527654315215,0.007392232205040545,0.0003871429148147282,-0.0019880220475913977,0.005791353072263875,0.002,8e-05,0,-0.3853180089716595,-0.0012523736798907355,-3.0825440717732766e-05,0.0,-0.0012831991206084681,0.2,0.02,0.0,0.005748909768973204,0.002060239165901571,0.00011497819537946408,0.0,0.0021752173612810347,0.04348371885317967,0.0,-0.04348371885317967,0.0010628643241402534,0.0,-0.0010628643241402534,-0.6261868399453677,0.0,0.6261868399453677,0.010301195829507854,0,-0.010301195829507854,0.0007667390506222374,-0.005791491017714657,-0.0021752173612810347,0.4,0.03345489501953125,0.6121799945831299,STABILIZE
0.17,0.015,0.1,-0.002262059887424613,0.0003194700236173774,-3.393089831136919e-05,0.0009218288112149875,0.0012073679365209957,0.17,0.015,0.1,0.027398484949246984,0.00784414473852402,0.00041097727423870475,-0.0016486105705546335,0.006606511442208092,0.002,8e-05,0,-0.407095946189305,-0.0012648271785942456,-3.2567675695144403e-05,-0.0,-0.00129739485428939,0.2,0.02,0.0,0.006026524046198127,0.0016123385768390232,0.00012053048092396255,0.0,0.0017328690577629857,0.04614202787367071,0.0,-0.04614202787367071,0.0018792354330433962,0.0,-0.0018792354330433962,-0.6324135892971228,0.0,0.6324135892971228,0.008061692884195115,0,-0.008061692884195115,0.0012064383680375635,-0.006606681257204125,-0.0017328690577629857,0.4,0.03443622589111328,0.6466085910797119,STABILIZE
0.17,0.015,0.1,-0.0022110287374718803,0.00025725616565891777,-3.31654310620782e-05,0.00030157255760462876,0.0005256632922014683,0.17,0.015,0.1,0.02905216309101828,0.008336455250961276,0.0004357824463652742,0.001506981042569668,0.010279218739896217,0.002,8e-05,0,-0.4285651690761235,-0.0012732914895303296,-3.4285213526089884e-05,-0.0,-0.0013075767030564195,0.2,0.02,0.0,0.006364069179175251,0.002001904528253962,0.00012728138358350502,-0.0,0.002129185911837467,0.04903797206447809,0.0,-0.04903797206447809,0.0015132715626995162,0.0,-0.0015132715626995162,-0.6366457447651648,0.0,0.6366457447651648,0.01000952264126981,0,-0.01000952264126981,0.0005238675136526044,-0.010279310415954033,-0.002129185911837467,0.4,0.0337224006652832,0.6803567409515381,STABILIZE
0.17,0.015,0.1,-0.002182558420055325,0.00014468752321857942,-3.2738376300829876e-05,0.0003049555367836198,0.00041690468370136934,0.17,0.015,0.1,0.030671875583627314,0.008231456834602073,0.0004600781337544097,0.0031162540323928577,0.01180778900074934,0.002,8e-05,0,-0.44984310586899295,-0.001272182338380652,-3.598744846951944e-05,-0.0,-0.0013081697868501715,0.2,0.02,0.0,0.006654494638220477,0.0017364190109693614,0.00013308989276440954,-0.0,0.001869508903733771,0.04842033432118866,0.0,-0.04842033432118866,0.0008511030777563495,0.0,-0.0008511030777563495,-0.636091169190326,0.0,0.636091169190326,0.008682095054846807,0,-0.008682095054846807,0.000415115431138397,-0.01180785203922966,-0.001869508903733771,0.4,0.033451080322265625,0.7138042449951172,STABILIZE
0.17,0.015,0.1,-0.0021878102283970522,-2.666162862266923e-05,-3.2817153425955786e-05,-0.00026963906667393917,-0.0003291178487225642,0.17,0.015,0.1,0.032319279745498836,0.008363305569679827,0.00048478919618248254,0.004821496367875233,0.013669591133737544,0.002,8e-05,0,-0.47111153351740576,-0.0012702648025951521,-3.768892268139246e-05,-0.0,-0.0013079537252765445,0.2,0.02,0.0,0.006933301486926231,0.0016651843403187386,0.00013866602973852462,-0.0,0.0018038503700572631,0.04919591511576368,0.0,-0.04919591511576368,-0.0001568331095451131,0.0,0.0001568331095451131,-0.6351324012975761,0.0,0.6351324012975761,0.008325921701593693,0,-0.008325921701593693,-0.0003311042384172771,-0.013669543163734695,-0.0018038503700572631,0.4,0.03348660469055176,0.7472925186157227,STABILIZE
0.17,0.015,0.1,-0.002192818228502633,-2.5458337043428617e-05,-3.28922734275395e-05,-0.000736572966810843,-0.0007949235772818111,0.17,0.015,0.1,0.03397964024478061,0.008440498465087171,0.0005096946036717092,0.003626928439530959,0.012577121508289841,0.002,8e-05,0,-0.49243777323964205,-0.0012754430259146693,-3.9395021859171365e-05,-0.0,-0.0013148380477738407,0.2,0.02,0.0,0.007241708779257796,0.001844469232592274,0.00014483417558515591,-0.0,0.0019893034081774298,0.049649990971101,0.0,-0.049649990971101,-0.00014975492378487421,0.0,0.00014975492378487421,-0.6377215129573346,0.0,0.6377215129573346,0.00922234616296137,0,-0.00922234616296137,-0.0007969479842933412,-0.012576993394223288,-0.0019893034081774298,0.4,0.03344130516052246,0.7807307243347168,STABILIZE
0.17,0.015,0.1,-0.0021976233679165407,-2.3681997214000878e-05,-3.2964350518748106e-05,-0.001204649455422288,-0.0012612958031550368,0.17,0.015,0.1,0.035718060881997755,0.008567758214918942,0.0005357709132299663,0.0025170715825153533,0.011620600710664262,0.002,8e-05,0,-0.5146432363107215,-0.0012875177995089828,-4.117145890485773e-05,-0.0,-0.0013286892584138405,0.2,0.02,0.0,0.007592184059954648,0.0020321267822277773,0.00015184368119909296,0.0,0.00218397046342687,0.050398577734817304,0.0,-0.050398577734817304,-0.00013930586596471104,0.0,0.00013930586596471104,-0.6437588997544914,0.0,0.6437588997544914,0.010160633911138885,0,-0.010160633911138885,-0.0012633565401534565,-0.011620376854138543,-0.00218397046342687,0.4,0.034493446350097656,0.815223217010498,STABILIZE
0.17,0.015,0.1,-0.002291873169255284,-0.00047922795216662683,-3.437809753882926e-05,-0.002590576889336127,-0.0031041829390415832,0.17,0.015,0.1,0.03749098392873706,0.009014706333270887,0.0005623647589310559,0.0023722703774848035,0.011949341469686747,0.002,8e-05,0,-0.536445033928691,-0.0013041726133299117,-4.2915602714295287e-05,-0.0,-0.001347088216044207,0.2,0.02,0.0,0.007921646011273153,0.0019708248905570933,0.00015843292022546307,-0.0,0.0021292578107825564,0.05302768431335816,0.0,-0.05302768431335816,-0.002818987953921334,0.0,0.002818987953921334,-0.6520863066649558,0.0,0.6520863066649558,0.009854124452785466,0,-0.009854124452785466,-0.0031062380235161633,-0.011948807414109353,-0.0021292578107825564,0.4,0.03343391418457031,0.8486549854278564,STABILIZE
0.17,0.015,0.1,-0.002412847016957959,-0.0006138455167804273,-3.6192705254369385e-05,-0.002667391566916812,-0.0033174297889516087,0.17,0.015,0.1,0.039207540695011374,0.00871015260973053,0.0005881131104251706,0.0016720907606356376,0.010970356480791338,0.002,8e-05,0,-0.5581978225976199,-0.0012985647486887066,-4.465582580780959e-05,-0.0,-0.0013432205744965161,0.2,0.02,0.0,0.008209542286176373,0.001718639203267377,0.00016419084572352746,-0.0,0.0018828300489909045,0.0512361918219443,0.0,-0.0512361918219443,-0.003610855981061337,0.0,0.003610855981061337,-0.6492823743443533,0.0,0.6492823743443533,0.008593196016336884,0,-0.008593196016336884,-0.003319075080913743,-0.010969858810737787,-0.0018828300489909045,0.4,0.033502817153930664,0.8821675777435303,STABILIZE
0.17,0.015,0.1,-0.002561088490509023,-0.0007548606121090287,-3.841632735763534e-05,-0.0025623274296883193,-0.0033556043691549834,0.17,0.015,0.1,0.04086874152654714,0.008459003047464714,0.0006130311228982071,0.00032383483500596027,0.009395869005368882,0.002,8e-05,0,-0.5799005360944898,-0.001300146086551528,-4.6392042887559185e-05,-0.0,-0.001346538129439087,0.2,0.02,0.0,0.008455858504929182,0.0014756084206328556,0.00016911717009858364,-0.0,0.0016447255907314391,0.04975884145567478,0.0,-0.04975884145567478,-0.004440356541817816,0.0,0.004440356541817816,-0.650073043275764,0.0,0.650073043275764,0.007378042103164277,0,-0.007378042103164277,-0.003356814257971763,-0.009395436822512359,-0.0016447255907314391,0.4,0.03338503837585449,0.9155569076538086,STABILIZE
0.17,0.015,0.1,-0.0027135750050431345,-0.0007749824702994503,-4.070362507564702e-05,-0.0026373325003381377,-0.0034530185957132352,0.17,0.015,0.1,0.042557760568252,0.008584104327667775,0.00063836640852378,0.0004922706595495978,0.009714741395741154,0.002,8e-05,0,-0.601766647665947,-0.0013074138324926294,-4.814133181327576e-05,-0.0,-0.001355555164305905,0.2,0.02,0.0,0.008627774966191229,0.0010279192016040936,0.00017255549932382457,-0.0,0.0012004747009279181,0.05049473133922221,0.0,-0.05049473133922221,-0.004558720413526178,0.0,0.004558720413526178,-0.6537069162463147,0.0,0.6537069162463147,0.005139596008020468,0,-0.005139596008020468,-0.0034538900220289254,-0.009714431610969179,-0.0012004747009279181,0.4,0.033449411392211914,0.94901442527771,STABILIZE
0.17,0.015,0.1,-0.0028956656410793627,-0.0009261789216048821,-4.343498461619044e-05,-0.003175598625738,-0.004145212531959073,0.17,0.015,0.1,0.04396951778533181,0.007180708494108089,0.0006595427667799771,-0.004881691721222069,0.002958559539665997,0.002,8e-05,0,-0.6236417840574557,-0.0013089984244740965,-4.9891342724596465e-05,-0.0,-0.0013588897671986929,0.2,0.02,0.0,0.008832066488962668,0.0012224713787157586,0.00017664132977925336,-0.0,0.0013991127084950119,0.04223946173004758,0.0,-0.04223946173004758,-0.005448111303558129,0.0,0.005448111303558129,-0.6544992122370482,0.0,0.6544992122370482,0.006112356893578792,0,-0.006112356893578792,-0.004145528129729635,-0.0029581173084378414,-0.0013991127084950119,0.4,0.03342270851135254,0.9824323654174805,STABILIZE
0.17,0.015,0.1,-0.0031049163809659043,-0.0010633768555523037,-4.657374571448856e-05,-0.0020551291203173626,-0.0031650797215841547,0.17,0.015,0.1,0.04510300040560035,0.005760166894596808,0.0006765450060840052,-0.011450224680495317,-0.005013512779814503,0.002,8e-05,0,-0.6454486161615108,-0.0013037486012595929,-5.1635889292920874e-05,0.0,-0.0013553844905525138,0.2,0.02,0.0,0.00906935714176943,0.0014186717044116749,0.0001813871428353886,-0.0,0.0016000588472470634,0.03388333467409887,0.0,-0.03388333467409887,-0.0062551579738370795,0.0,0.0062551579738370795,-0.6518743006297965,0.0,0.6518743006297965,0.007093358522058374,0,-0.007093358522058374,-0.003164459012108503,0.005013904586051858,-0.0016000588472470634,0.4,0.033452510833740234,1.0158910751342773,STABILIZE
0.17,0.015,0.1,-0.003450716515236145,-0.0017245544692247206,-5.1760747728542175e-05,-0.0038643404441319404,-0.005640655661085204,0.17,0.015,0.1,0.0463015240444762,0.005977207910160999,0.000694522860667143,-0.009631691133136772,-0.0029599603623086303,0.002,8e-05,0,-0.6674519964585397,-0.0012909880956446555,-5.339615971668318e-05,0.0,-0.0013443842553613387,0.2,0.02,0.0,0.009373607355581442,0.0017851048285598423,0.00018747214711162884,0.0,0.0019725769756714713,0.03516004653035881,0.0,-0.03516004653035881,-0.010144438054263061,0.0,0.010144438054263061,-0.6454940478223277,0.0,0.6454940478223277,0.00892552414279921,0,-0.00892552414279921,-0.005640194490660038,0.0029608390265090305,-0.0019725769756714713,0.4,0.0340876579284668,1.0500507354736328,STABILIZE
0.17,0.015,0.1,-0.0038576200522413553,-0.0020695258897582454,-5.786430078362033e-05,-0.004581623334625344,-0.00670901352516721,0.17,0.015,0.1,0.04749999514050417,0.00609546670351273,0.0007124999271075625,-0.00833041260717879,-0.001522445976558498,0.002,8e-05,0,-0.6895889512897796,-0.0013245804841361096,-5.5167116103182375e-05,-0.0,-0.001379747600239292,0.2,0.02,0.0,0.00954519844711035,0.0010267275369332035,0.000190903968942207,-0.0,0.0012176315058754104,0.03585568649125135,0.0,-0.03585568649125135,-0.012173681704460265,0.0,0.012173681704460265,-0.6622902420680548,0.0,0.6622902420680548,0.005133637684666017,0,-0.005133637684666017,-0.0067088770887828815,0.0015230470905457409,-0.0012176315058754104,0.4,0.03342485427856445,1.0834012031555176,STABILIZE
0.17,0.015,0.1,-0.004229956781796034,-0.0018922196913871792,-6.344935172694051e-05,-0.003887272078990823,-0.005842941122104943,0.17,0.015,0.1,0.04877038940184656,0.006456158757188448,0.0007315558410276984,-0.007501873602091744,-0.0003141590038755974,0.002,8e-05,0,-0.7116870892838578,-0.0013212117683776704,-5.693496714270863e-05,-0.0,-0.001378146735520379,0.2,0.02,0.0,0.009856016243565923,0.0018583291072232625,0.00019712032487131847,0.0,0.002055449432094581,0.03797740445404969,0.0,-0.03797740445404969,-0.011130704066983407,0.0,0.011130704066983407,-0.6606058841888351,0.0,0.6606058841888351,0.009291645536116312,0,-0.009291645536116312,-0.005842890098168084,0.0003151065483776041,-0.002055449432094581,0.4,0.03345131874084473,1.1168582439422607,STABILIZE
0.17,0.015,0.1,-0.0046510689541421416,-0.002140386921833928,-6.976603431213212e-05,-0.004227977769009061,-0.006438130725155122,0.17,0.015,0.1,0.049997496770989795,0.006237018868316002,0.0007499624515648469,-0.003332768333765042,0.003654212986115807,0.002,8e-05,0,-0.733773750452409,-0.0013207044364498062,-5.870190003619272e-05,-0.0,-0.001379406336485999,0.2,0.02,0.0,0.010134451477860565,0.0016649444947364,0.0002026890295572113,0.0,0.0018676335242936114,0.036688346284211776,0.0,-0.036688346284211776,-0.012590511304905457,0.0,0.012590511304905457,-0.6603522182249031,0.0,0.6603522182249031,0.008324722473682,0,-0.008324722473682,-0.006438661591748826,-0.003653277526964287,-0.0018676335242936114,0.4,0.0334467887878418,1.150303840637207,STABILIZE
0.17,0.015,0.1,-0.005120469163438829,-0.002386313836936259,-7.680703745158243e-05,-0.004610686794440345,-0.007073807668828187,0.17,0.015,0.1,0.05118185509134923,0.006020982930533729,0.0007677278263702385,0.0009029957619328876,0.007691706518836856,0.002,8e-05,0,-0.7558502319336031,-0.0013203686743976871,-6.0468018554688254e-05,-0.0,-0.0013808366929523755,0.2,0.02,0.0,0.010380226317687645,0.0014699507244359698,0.0002076045263537529,0.0,0.0016775552507897226,0.0354175466501984,0.0,-0.0354175466501984,-0.014037140217272112,0.0,0.014037140217272112,-0.6601843371988435,0.0,0.6601843371988435,0.007349753622179848,0,-0.007349753622179848,-0.007074794282738569,-0.0076907990459002045,-0.0016775552507897226,0.4,0.03343987464904785,1.1837480068206787,STABILIZE
0.17,0.015,0.1,-0.005681810073513107,-0.0028518468401127982,-8.52271511026966e-05,-0.003965507369498391,-0.0069025813607138855,0.17,0.015,0.1,0.052420426758695265,0.006292462623660605,0.000786306401380429,0.0011084048117276143,0.008187173836768648,0.002,8e-05,0,-0.7778678480561971,-0.0013159848003685152,-6.222942784449577e-05,-0.0,-0.001378214228213011,0.2,0.02,0.0,0.010514574739719257,0.0008029955666529553,0.00021029149479438513,-0.0,0.0010132870614473404,0.03701448602153297,0.0,-0.03701448602153297,-0.01677556964772234,0.0,0.01677556964772234,-0.6579924001842576,0.0,0.6579924001842576,0.004014977833264776,0,-0.004014977833264776,-0.006903155056555199,-0.00818669012116009,-0.0010132870614473404,0.4,0.033461809158325195,1.2172200679779053,STABILIZE
0.17,0.015,0.1,-0.0062572844455456005,-0.0029261317712848474,-9.385926668318401e-05,-0.0030126920584560256,-0.006032683096424057,0.17,0.015,0.1,0.05329950429460429,0.004469871869638948,0.0007994925644190643,-0.005721249319286655,-0.0004518848852286426,0.002,8e-05,0,-0.7998431208237134,-0.001314568558366749,-6.398744966589708e-05,0.0,-0.0013785560080326461,0.2,0.02,0.0,0.010650383842122598,0.0008124148348381115,0.00021300767684245196,-0.0,0.0010254225116805636,0.026293363939052634,0.0,-0.026293363939052634,-0.017212539831087337,0.0,0.017212539831087337,-0.6572842791833745,0.0,0.6572842791833745,0.0040620741741905575,0,-0.0040620741741905575,-0.006032651044175121,0.00045231258062481793,-0.0010254225116805636,0.4,0.03343343734741211,1.250664234161377,STABILIZE
0.17,0.015,0.1,-0.006850720326140617,-0.0030172460276165465,-0.00010276080489210926,-0.003956865458032983,-0.007076872290541638,0.17,0.015,0.1,0.05436796674061004,0.005432455596779743,0.0008155195011091506,-0.0036028493307649376,0.002645125767123956,0.002,8e-05,0,-0.8220184141761889,-0.0013264392699580887,-6.576147313409512e-05,-0.0,-0.0013922007430921838,0.2,0.02,0.0,0.01092442377936548,0.0016391996647711967,0.00021848847558730958,-0.0,0.0018576881403585062,0.0319556211575279,0.0,-0.0319556211575279,-0.017748506044803214,0.0,0.017748506044803214,-0.6632196349790443,0.0,0.6632196349790443,0.008195998323855983,0,-0.008195998323855983,-0.00707725059585402,-0.0026441134136082497,-0.0018576881403585062,0.4,0.033435821533203125,1.2840933799743652,STABILIZE
0.17,0.015,0.1,-0.007511482475435997,-0.0033591263627921085,-0.00011267223713153994,-0.004286735708376283,-0.007758534308299932,0.17,0.015,0.1,0.05506844831194598,0.0035610485791805436,0.0008260267246791897,-0.009415913222417686,-0.005028837918557953,0.002,8e-05,0,-0.8436948227860441,-0.0012964315381361509,-6.749558582288353e-05,0.0,-0.0013639271239590345,0.2,0.02,0.0,0.011181482193235346,0.0015374255066064445,0.00022362964386470692,-0.0,0.0017610551504711515,0.020947344583414962,0.0,-0.020947344583414962,-0.019759566839953578,0.0,0.019759566839953578,-0.6482157690680754,0.0,0.6482157690680754,0.007687127533032222,0,-0.007687127533032222,-0.007757859540987002,0.0050298788023679375,-0.0017610551504711515,0.4,0.03344011306762695,1.3175218105316162,STABILIZE
0.17,0.015,0.1,-0.008226426502489769,-0.0036323702693836953,-0.00012339639753734653,-0.004382252362117219,-0.008138019029038261,0.17,0.015,0.1,0.05596651441941867,0.004562746879875083,0.00083949771629128,-0.005133880518274777,0.0002683640778915865,0.002,8e-05,0,-0.8655669895427867,-0.0013073472352233032,-6.924535916342294e-05,0.0,-0.001376592594386726,0.2,0.02,0.0,0.011513751222608873,0.001986044646298714,0.00023027502445217748,0.0,0.0022163196707508915,0.026839687528676957,0.0,-0.026839687528676957,-0.021366883937551148,0.0,0.021366883937551148,-0.6536736176116515,0.0,0.6536736176116515,0.00993022323149357,0,-0.00993022323149357,-0.00813806541835717,-0.0002669536323607342,-0.0022163196707508915,0.4,0.033460378646850586,1.3509931564331055,STABILIZE
0.17,0.015,0.1,-0.00899472263088652,-0.0039007923722086013,-0.0001349208394632978,-0.003688639825087236,-0.0077243530367591354,0.17,0.015,0.1,0.05706593408714876,0.005581972491110861,0.0008559890113072313,-0.0025071810012388947,0.003930780501179197,0.002,8e-05,0,-0.8876373705433469,-0.0013183025578856727,-7.101098964346776e-05,-0.0,-0.0013893135475291404,0.2,0.02,0.0,0.011921743702052566,0.002437010621769887,0.00023843487404105133,0.0,0.0026754454958109386,0.032835132300652124,0.0,-0.032835132300652124,-0.022945837483580006,0.0,0.022945837483580006,-0.6591512789428363,0.0,0.6591512789428363,0.012185053108849434,0,-0.012185053108849434,-0.007725188818396444,-0.003929137679575915,-0.0026754454958109386,0.4,0.033483028411865234,1.384486198425293,STABILIZE
0.17,0.015,0.1,-0.009831561741430368,-0.0042562238976324475,-0.00014747342612145552,-0.00467828099140006,-0.009081978315153963,0.17,0.015,0.1,0.058310435754134596,0.006329624976808469,0.0008746565363120189,0.006537798993096325,0.013742080506216812,0.002,8e-05,0,-0.9095547093638372,-0.0013114489579955852,-7.276437674910698e-05,0.0,-0.0013842133347446923,0.2,0.02,0.0,0.012333010297704032,0.002460860566800522,0.0002466602059540806,0.0,0.0027075207727546026,0.037233088098873345,0.0,-0.037233088098873345,-0.02503661116254381,0.0,0.02503661116254381,-0.6557244789977926,0.0,0.6557244789977926,0.01230430283400261,0,-0.01230430283400261,-0.009084929225698219,-0.013740129829092783,-0.0027075207727546026,0.4,0.03342461585998535,1.4179375171661377,STABILIZE
0.17,0.015,0.1,-0.010689355138983881,-0.004356801015418133,-0.0001603403270847582,-0.004711208910704173,-0.009228350253207064,0.17,0.015,0.1,0.0596664726532603,0.006887419460099931,0.0008949970897989044,0.005111469119388982,0.012893885669287817,0.002,8e-05,0,-0.9315333935904299,-0.001313311628885136,-7.452267148723439e-05,0.0,-0.0013878343003723703,0.2,0.02,0.0,0.012710714759755659,0.0022569306569045207,0.0002542142951951132,0.0,0.002511144952099634,0.040514232118234884,0.0,-0.040514232118234884,-0.025628241267165487,0.0,0.025628241267165487,-0.6566558144425679,0.0,0.6566558144425679,0.011284653284522604,0,-0.011284653284522604,-0.009230889581134452,-0.012892067855446467,-0.002511144952099634,0.4,0.03347063064575195,1.4513826370239258,STABILIZE
0.17,0.015,0.1,-0.011604017219209534,-0.004649317695210061,-0.000174060258288143,-0.0045374158534158575,-0.009360793806914063,0.17,0.015,0.1,0.06099579421258397,0.006757072783495131,0.0009149369131887595,0.011236821817297231,0.018908831513981122,0.002,8e-05,0,-0.9537161197707811,-0.0013265528019839848,-7.629728958166249e-05,-0.0,-0.0014028500915656472,0.2,0.02,0.0,0.01322559884666701,0.0030790666694259596,0.0002645119769333402,0.0,0.0033435786463592997,0.039747486961736064,0.0,-0.039747486961736064,-0.027348927618882714,0.0,0.027348927618882714,-0.6632764009919924,0.0,0.6632764009919924,0.015395333347129798,0,-0.015395333347129798,-0.009365874257897836,-0.018906315593074527,-0.0033435786463592997,0.4,0.03344416618347168,1.4848167896270752,STABILIZE
0.17,0.015,0.1,-0.012561974849802208,-0.004867935736299335,-0.0001884296227470331,-0.0043454931396242095,-0.009401858498670578,0.17,0.015,0.1,0.06238238478860504,0.007046067175698404,0.0009357357718290756,0.008731135326642357,0.016712938274169836,0.002,8e-05,0,-0.9758690864778673,-0.0013243766168233146,-7.806952691822939e-05,-0.0,-0.001402446143741544,0.2,0.02,0.0,0.013638893612402314,0.0024708109339604514,0.0002727778722480463,0.0,0.002743588806208498,0.04144745397469649,0.0,-0.04144745397469649,-0.02863491609587844,0.0,0.02863491609587844,-0.6621883084116573,0.0,0.6621883084116573,0.012354054669802257,0,-0.012354054669802257,-0.009405461905956449,-0.016710910667011455,-0.002743588806208498,0.4,0.033454179763793945,1.5182764530181885,STABILIZE
0.17,0.015,0.1,-0.013576307143776806,-0.005161323206837707,-0.00020364460715665208,-0.004435485419886626,-0.009800453233880985,0.17,0.015,0.1,0.06387634669702892,0.007601868060283631,0.0009581452004554338,0.0071071374355033455,0.01566715069624241,0.002,8e-05,0,-0.9977915025883084,-0.001312351869801221,-7.982332020706468e-05,0.0,-0.0013921751900082859,0.2,0.02,0.0,0.014216644868680196,0.0034586194224055624,0.0002843328973736039,0.0,0.003742952319779166,0.044716870942844884,0.0,-0.044716870942844884,-0.030360724746104156,0.0,0.030360724746104156,-0.6561759349006105,0.0,0.6561759349006105,0.01729309711202781,0,-0.01729309711202781,-0.009805181470066386,-0.015664191995354373,-0.003742952319779166,0.4,0.03340935707092285,1.5516724586486816,STABILIZE
0.17,0.015,0.1,-0.014589829473440936,-0.005114462345632897,-0.00021884744210161404,-0.003020799760670438,-0.008354109548404948,0.17,0.015,0.1,0.06549418535989321,0.00816397890835867,0.000982412780398398,0.006438572627627321,0.01558496431638439,0.002,8e-05,0,-1.0198971875181044,-0.0013123561602800204,-8.159177500144836e-05,-0.0,-0.0013939479352814688,0.2,0.02,0.0,0.01483738828642998,0.0036851898089760708,0.0002967477657285996,0.0,0.003981937574704671,0.048023405343286286,0.0,-0.048023405343286286,-0.030085072621369977,0.0,0.030085072621369977,-0.6561780801400101,0.0,0.6561780801400101,0.018425949044880353,0,-0.018425949044880353,-0.008359121139206628,-0.015582276883363175,-0.003981937574704671,0.4,0.03368854522705078,1.5853767395019531,STABILIZE
0.17,0.015,0.1,-0.015637918152618956,-0.005326968648537212,-0.00023456877228928433,-0.003414734595452427,-0.008976272016278923,0.17,0.015,0.1,0.06707410153803442,0.008030011310565282,0.0010061115230705162,0.004006752318168775,0.013042875151804573,0.002,8e-05,0,-1.0416801702941478,-0.0013025084010191768,-8.333441362353183e-05,0.0,-0.0013858428146427087,0.2,0.02,0.0,0.015382157408741451,0.0032574343271615813,0.00030764314817482904,0.0,0.0035650774753364103,0.04723536065038401,0.0,-0.04723536065038401,-0.031335109697277715,0.0,0.031335109697277715,-0.6512542005095884,0.0,0.6512542005095884,0.016287171635807906,0,-0.016287171635807906,-0.008979979283475284,-0.013040322986956572,-0.0035650774753364103,0.4,0.0334477424621582,1.6188533306121826,STABILIZE
0.17,0.015,0.1,-0.01679557755318299,-0.0058767047596981785,-0.0002519336632977449,-0.004316998574103141,-0.010445636997099064,0.17,0.015,0.1,0.06872892043876895,0.008400469175689325,0.0010309338065815341,0.00576671450711618,0.015198117489387038,0.002,8e-05,0,-1.0636859047666973,-0.0013142258722514026,-8.50948723813358e-05,0.0,-0.0013993207446327384,0.2,0.02,0.0,0.0157504281599301,0.0021993855729256742,0.00031500856319860204,-0.0,0.0025143941361242764,0.04941452456287838,0.0,-0.04941452456287838,-0.03456885152763634,0.0,0.03456885152763634,-0.6571129361257013,0.0,0.6571129361257013,0.01099692786462837,0,-0.01099692786462837,-0.010448553818869574,-0.015196112351208877,-0.0025143941361242764,0.4,0.03348851203918457,1.6523222923278809,STABILIZE
0.17,0.015,0.1,-0.017715867180403695,-0.004682028504650316,-0.0002657380077060554,0.0006580265828210213,-0.00428973992953535,0.17,0.015,0.1,0.07005303483515736,0.006736511163372731,0.0010507955225273603,-0.0011080489659172753,0.006679257719982816,0.002,8e-05,0,-1.0854555766574998,-0.0013029942047245904,-8.683644613259999e-05,0.0,-0.0013898306508571903,0.2,0.02,0.0,0.01634939590994467,0.0035850402844870123,0.00032698791819889343,0.0,0.003912028202685906,0.03962653625513371,0.0,-0.03962653625513371,-0.027541344145001857,0.0,0.027541344145001857,-0.6514971023622952,0.0,0.6514971023622952,0.01792520142243506,0,-0.01792520142243506,-0.004291829350618146,-0.0066779153317612985,-0.003912028202685906,0.4,0.03341484069824219,1.685750961303711,STABILIZE
0.17,0.015,0.1,-0.01839588654321615,-0.0034550046223364244,-0.00027593829814824225,0.0060054771739338104,0.002274534253449144,0.17,0.015,0.1,0.07104496995305543,0.005039768872494348,0.0010656745492958314,-0.009031127426489446,-0.0029256840046992666,0.002,8e-05,0,-1.1069594819808914,-0.001285362920244015,-8.855675855847132e-05,0.0,-0.0013739196788024864,0.2,0.02,0.0,0.01717540216106276,0.004937325528131125,0.0003435080432212552,0.0,0.00528083357135238,0.029645699249966746,0.0,-0.029645699249966746,-0.020323556601978966,0.0,0.020323556601978966,-0.6426814601220076,0.0,0.6426814601220076,0.02468662764065562,0,-0.02468662764065562,0.0022757946110774996,0.002924703720662523,-0.00528083357135238,0.4,0.03345966339111328,1.7192285060882568,STABILIZE
0.17,0.015,0.1,-0.019233441179694062,-0.004119209473993907,-0.0002885016176954109,0.00358117146517392,-0.0008265396265153976,0.17,0.015,0.1,0.07190657456150495,0.004237490560480853,0.0010785986184225743,-0.013724728669803286,-0.008408639490899858,0.002,8e-05,0,-1.1292600025831792,-0.0012903181509761055,-9.034080020665434e-05,0.0,-0.0013806589511827598,0.2,0.02,0.0,0.017898524533679988,0.00418401856802032,0.0003579704906735998,0.0,0.00454198905869392,0.024926415061652073,0.0,-0.024926415061652073,-0.024230643964670038,0.0,0.024230643964670038,-0.6451590754880527,0.0,0.6451590754880527,0.0209200928401016,0,-0.0209200928401016,-0.0008234693711993702,0.00840894072025825,-0.00454198905869392,0.4,0.03456592559814453,1.7537562847137451,STABILIZE
0.17,0.015,0.1,-0.019992248626582457,-0.0038534396092198588,-0.00029988372939873686,0.005262645406944916,0.0011093220683263206,0.17,0.015,0.1,0.07282138854756887,0.004645685098930623,0.001092320828213533,-0.011818967107853226,-0.006080961180709069,0.002,8e-05,0,-1.1508313168419302,-0.0012887677294845946,-9.206650534735443e-05,0.0,-0.001380834234831949,0.2,0.02,0.0,0.01837584707317144,0.0028517404089213622,0.0003675169414634288,-0.0,0.003219257350384791,0.027327559405474253,0.0,-0.027327559405474253,-0.022667291818940345,0.0,0.022667291818940345,-0.6443838647422973,0.0,0.6443838647422973,0.014258702044606811,0,-0.014258702044606811,0.0011108353498503966,0.006080684925079508,-0.003219257350384791,0.4,0.03347587585449219,1.787269115447998,STABILIZE
0.17,0.015,0.1,-0.020920357253344776,-0.004466354768660096,-0.00031380535880017166,0.005152693409649484,0.00037253328218921685,0.17,0.015,0.1,0.0738601505460254,0.004998854090489332,0.001107902258190381,-0.011944239417179073,-0.00583748306849936,0.002,8e-05,0,-1.1733804977089508,-0.001276633544453161,-9.387043981671607e-05,0.0,-0.001370503984269877,0.2,0.02,0.0,0.018870256634765332,0.0027991253196797145,0.00037740513269530666,0.0,0.003176530452375021,0.02940502406170195,0.0,-0.02940502406170195,-0.026272675109765272,0.0,0.026272675109765272,-0.6383167722265806,0.0,0.6383167722265806,0.013995626598398571,0,-0.013995626598398571,0.000373959191678392,0.005837391895728315,-0.003176530452375021,0.4,0.03532600402832031,1.8225955963134766,STABILIZE
0.17,0.015,0.1,-0.02190469505533064,-0.0050007056253695255,-0.0003285704258299596,-0.0009321755041656794,-0.006261451555365164,0.17,0.015,0.1,0.07483377614309414,0.004946284690522657,0.0011225066421464121,-0.0062705930989573055,-0.00020180176628823657,0.002,8e-05,0,-1.1946559656369,-0.0012715906354986276,-9.557247725095201e-05,0.0,-0.0013671631127495797,0.2,0.02,0.0,0.01937587024036857,0.0030219477580615724,0.00038751740480737136,-0.0,0.0034094651628689436,0.0290957922971921,0.0,-0.0290957922971921,-0.02941591544335015,0.0,0.02941591544335015,-0.6357953177493139,0.0,0.6357953177493139,0.01510973879030786,0,-0.01510973879030786,-0.006261398119547644,0.0002034529960140807,-0.0034094651628689436,0.4,0.0334627628326416,1.8560421466827393,STABILIZE
0.17,0.015,0.1,-0.02289900791387323,-0.005054154438194867,-0.00034348511870809845,-0.005434513547086474,-0.01083215310398944,0.17,0.015,0.1,0.07582168660013576,0.005021610630998568,0.0011373252990020362,-3.972770773491896e-05,0.006119208222265685,0.002,8e-05,0,-1.2158769321259233,-0.0012690294081493152,-9.727015457007387e-05,0.0,-0.0013662995627193892,0.2,0.02,0.0,0.020486794839812993,0.006643410834566352,0.00040973589679625986,0.0,0.0070531467313626126,0.029538886064697456,0.0,-0.029538886064697456,-0.029730320224675685,0.0,0.029730320224675685,-0.6345147040746576,0.0,0.6345147040746576,0.03321705417283176,0,-0.03321705417283176,-0.010835698875795618,-0.006112927286398355,-0.0070531467313626126,0.4,0.03344440460205078,1.889491081237793,STABILIZE
0.17,0.015,0.1,-0.02394264319095946,-0.005300555701460648,-0.00035913964786439187,-0.0040399147381434035,-0.009699610087468443,0.17,0.015,0.1,0.07679219620261937,0.0049291551557448625,0.0011518829430392904,0.0023659057095859327,0.008446943808370086,0.002,8e-05,0,-1.237870651364983,-0.001314172584646558,-9.902965210919866e-05,-0.0,-0.0014132022367557566,0.2,0.02,0.0,0.021566808786482698,0.006453318351125486,0.00043133617572965396,0.0,0.00688465452685514,0.028995030327910953,0.0,-0.028995030327910953,-0.031179739420356747,0.0,0.031179739420356747,-0.657086292323279,0.0,0.657086292323279,0.032266591755627426,0,-0.032266591755627426,-0.009704365515330526,-0.008441480053612933,-0.00688465452685514,0.4,0.03347158432006836,1.9229936599731445,STABILIZE
0.17,0.015,0.1,-0.024977079371237686,-0.0052563051757116815,-0.0003746561905685653,-0.004818325509760225,-0.010449286876040471,0.17,0.015,0.1,0.07771882762128819,0.00470851427549251,0.0011657824143193227,0.00015547284427700148,0.006029769534088835,0.002,8e-05,0,-1.2597522739530886,-0.0013080895234996296,-0.0001007801819162471,-0.0,-0.0014088697054158766,0.2,0.02,0.0,0.02251022458888882,0.005639766075219054,0.0004502044917777764,0.0,0.006089970566996831,0.027697142797014764,0.0,-0.027697142797014764,-0.030919442210068714,0.0,0.030919442210068714,-0.6540447617498149,0.0,0.6540447617498149,0.02819883037609527,0,-0.02819883037609527,-0.010452253236445417,-0.00602462605754364,-0.006089970566996831,0.4,0.033455848693847656,1.956434726715088,STABILIZE
0.17,0.015,0.1,-0.026048148502291608,-0.005438728257452769,-0.0003907222275343741,-0.003418168944332596,-0.009247619429319738,0.17,0.015,0.1,0.07868692810213526,0.0049158689094658215,0.0011803039215320288,-0.0002920331359833835,0.005804139695014468,0.002,8e-05,0,-1.2815934242331657,-0.0013047774388880277,-0.00010252747393865326,-0.0,-0.001407304912826681,0.2,0.02,0.0,0.02364831862448953,0.006798906659872119,0.00047296637248979065,0.0,0.00727187303236191,0.028916875938034242,0.0,-0.028916875938034242,-0.03199251916148687,0.0,0.03199251916148687,-0.6523887194440139,0.0,0.6523887194440139,0.03399453329936059,0,-0.03399453329936059,-0.00925106149346866,-0.005798651908231428,-0.00727187303236191,0.4,0.033478736877441406,1.9899728298187256,STABILIZE
0.17,0.015,0.1,-0.02716190462842882,-0.0056307052122825715,-0.00040742856942643227,-0.0022111862091328356,-0.00824931999084184,0.17,0.015,0.1,0.07971789959711308,0.005212179250245592,0.0011957684939566961,0.0009294848152407701,0.007337432559443059,0.002,8e-05,0,-1.3033337538997745,-0.0012930635953711134,-0.00010426670031198197,-0.0,-0.0013973302956830954,0.2,0.02,0.0,0.024736920136752282,0.0064747453555633345,0.0004947384027350456,0.0,0.00696948375829838,0.03065987794262113,0.0,-0.03065987794262113,-0.03312179536636806,0.0,0.03312179536636806,-0.6465317976855567,0.0,0.6465317976855567,0.03237372677781667,0,-0.03237372677781667,-0.008253464529545345,-0.007332770290634691,-0.00696948375829838,0.4,0.03362607955932617,2.023549795150757,STABILIZE
0.17,0.015,0.1,-0.02848925799852907,-0.0067460102741772245,-0.000427338869977936,-0.005945880424617682,-0.013119229568772843,0.17,0.015,0.1,0.0810700050640195,0.006871807897570672,0.0012160500759602925,0.0065016972794781054,0.01458955525300907,0.002,8e-05,0,-1.3260226684567031,-0.0013566106913445704,-0.00010608181347653626,-0.0,-0.0014626925048211066,0.2,0.02,0.0,0.02573504694520047,0.005967978310557561,0.0005147009389040094,-0.0,0.00648267924946157,0.04042239939747454,0.0,-0.04042239939747454,-0.03968241337751308,0.0,0.03968241337751308,-0.6783053456722852,0.0,0.6783053456722852,0.029839891552787805,0,-0.029839891552787805,-0.013126826093146363,-0.014582720722795865,-0.00648267924946157,0.4,0.033449411392211914,2.056973934173584,STABILIZE
0.17,0.015,0.1,-0.02980669020508803,-0.006696494814075214,-0.00044710035307632043,-0.004905643342592376,-0.01204923850974391,0.17,0.015,0.1,0.08231716601227348,0.0063393067064253655,0.0012347574901841022,0.0049535153301607585,0.012527579526770225,0.002,8e-05,0,-1.3485820355230649,-0.0013490475131368999,-0.0001078865628418452,-0.0,-0.001456934075978745,0.2,0.02,0.0,0.02687726629758513,0.006830458373493182,0.0005375453259517026,0.0,0.0073680036994448845,0.03729003944956097,0.0,-0.03729003944956097,-0.03939114596514832,0.0,0.03939114596514832,-0.6745237565684499,0.0,0.6745237565684499,0.034152291867465906,0,-0.034152291867465906,-0.012056703682337579,-0.012520395112797187,-0.0073680036994448845,0.4,0.033444881439208984,2.090428352355957,STABILIZE
0.17,0.015,0.1,-0.031113279208090313,-0.0066469228378810245,-0.0004666991881213547,-0.004886727806755467,-0.012000349832757846,0.17,0.015,0.1,0.08346040118480064,0.005815903822761843,0.0012519060177720095,0.003886716212337361,0.010954526052871214,0.002,8e-05,0,-1.3710095930448216,-0.0013422848613199722,-0.00010968076744358574,-0.0,-0.0014519656287635579,0.2,0.02,0.0,0.02816035083212026,0.007679235444294522,0.0005632070166424051,0.0,0.008242442460936927,0.034211198957422605,0.0,-0.034211198957422605,-0.039099546105182494,0.0,0.039099546105182494,-0.671142430659986,0.0,0.671142430659986,0.03839617722147261,0,-0.03839617722147261,-0.012007688200548292,-0.01094648168271517,-0.008242442460936927,0.4,0.0334169864654541,2.1238672733306885,STABILIZE
0.17,0.015,0.1,-0.03249786815922439,-0.007037500701689911,-0.0004874680223883658,-0.005619521795246343,-0.01314449051932462,0.17,0.015,0.1,0.08456423230630146,0.005610482653170429,0.001268463484594522,0.0024354931223217755,0.009314439260086727,0.002,8e-05,0,-1.3934378824710039,-0.001341142161362854,-0.00011147503059768031,-0.0,-0.0014526171919605345,0.2,0.02,0.0,0.029487288948107798,0.007934678472593645,0.000589745778962156,0.0,0.008524424251555801,0.03300283913629664,0.0,-0.03300283913629664,-0.04139706295111712,0.0,0.04139706295111712,-0.670571080681427,0.0,0.670571080681427,0.03967339236296823,0,-0.03967339236296823,-0.013150936977165307,-0.009305335370908779,-0.008524424251555801,0.4,0.033446550369262695,2.1573009490966797,STABILIZE
0.17,0.015,0.1,-0.033979441717287714,-0.007534153614063091,-0.0005096916257593157,-0.006695673651668237,-0.014739518891490645,0.17,0.015,0.1,0.08568190880372863,0.005683650586644947,0.0012852286320559293,0.0016562888586016133,0.00862516807730249,0.002,8e-05,0,-1.4155338138658653,-0.0013219183749813583,-0.00011324270510926923,-0.0,-0.0014351610800906276,0.2,0.02,0.0,0.030896724711620097,0.008432136219322607,0.000617934494232402,0.0,0.009050070713555009,0.03343323874497028,0.0,-0.03343323874497028,-0.044318550670959356,0.0,0.044318550670959356,-0.6609591874906792,0.0,0.6609591874906792,0.04216068109661303,0,-0.04216068109661303,-0.01474586166742123,-0.008614319775792209,-0.009050070713555009,0.4,0.03343009948730469,2.190728187561035,STABILIZE
0.17,0.015,0.1,-0.03557238051170933,-0.008089107310032663,-0.0005335857076756399,-0.00472321361202504,-0.013345906629733343,0.17,0.015,0.1,0.08687138036460036,0.006040259130996419,0.0013030707054690054,-0.0029276824555832834,0.00441564738088214,0.002,8e-05,0,-1.4376219309289615,-0.0013195968713753375,-0.00011500975447431693,0.0,-0.0014346066258496544,0.2,0.02,0.0,0.03227138473636187,0.008212547328829234,0.0006454276947272374,0.0,0.008857975023556472,0.03553093606468481,0.0,-0.03553093606468481,-0.04758298417666272,0.0,0.04758298417666272,-0.6597984356876687,0.0,0.6597984356876687,0.04106273664414617,0,-0.04106273664414617,-0.013349067807995748,-0.004406081503942398,-0.008857975023556472,0.4,0.033477067947387695,2.224242925643921,STABILIZE
0.17,0.015,0.1,-0.03666701107892039,-0.0055185974342288465,-0.0005500051661838059,0.004070959313272922,-0.00199764328713973,0.17,0.015,0.1,0.087544342954364,0.0033927516117733107,0.00131316514431546,-0.01029152539752772,-0.005585608641438949,0.002,8e-05,0,-1.459551486672385,-0.0013006847583695992,-0.00011676411893379082,0.0,-0.00141744887730339,0.2,0.02,0.0,0.03373790316038118,0.00869820704216572,0.0006747580632076236,0.0,0.009372965105373344,0.019957362422195944,0.0,-0.019957362422195944,-0.03246233784840498,0.0,0.03246233784840498,-0.6503423791847995,0.0,0.6503423791847995,0.043491035210828595,0,-0.043491035210828595,-0.0019934028901276734,0.005587123366778518,-0.009372965105373344,0.4,0.03372001647949219,2.257995128631592,STABILIZE
0.17,0.015,0.1,-0.03808097120886779,-0.0071838165559337756,-0.0005712145681330168,-0.0019584913448154884,-0.00971352246888228,0.17,0.015,0.1,0.08828985464771914,0.0037876734512776833,0.001324347819715787,-0.00706029595544786,-0.0019482746844543897,0.002,8e-05,0,-1.4812838399384367,-0.00129899027715259,-0.00011850270719507495,0.0,-0.001417492984347665,0.2,0.02,0.0,0.03543657532319352,0.010153334968145827,0.0007087315064638704,0.0,0.010862066474609697,0.022280432066339312,0.0,-0.022280432066339312,-0.042257744446669264,0.0,0.042257744446669264,-0.649495138576295,0.0,0.649495138576295,0.05076667484072913,0,-0.05076667484072913,-0.009711792395914671,0.001956880542654751,-0.010862066474609697,0.4,0.033460378646850586,2.291398763656616,STABILIZE
0.17,0.015,0.1,-0.039847039413166335,-0.00896533920009096,-0.000597705591197495,-0.006843327607243173,-0.016406372398531627,0.17,0.015,0.1,0.08931174809187091,0.005187580712268522,0.0013396762213780636,-0.0014197099217885924,0.005107547011857993,0.002,8e-05,0,-1.5027325535894733,-0.0012809777296064714,-0.00012021860428715788,0.0,-0.0014011963338936293,0.2,0.02,0.0,0.03695143354679193,0.009047160960382328,0.0007390286709358387,0.0,0.009786189631318167,0.03051518066040307,0.0,-0.03051518066040307,-0.05273728941229976,0.0,0.05273728941229976,-0.6404888648032356,0.0,0.6404888648032356,0.04523580480191164,0,-0.04523580480191164,-0.016410399763315812,-0.0050945923650282535,-0.009786189631318167,0.4,0.03348803520202637,2.325044870376587,STABILIZE
0.17,0.015,0.1,-0.041070397404696285,-0.006223818113946262,-0.0006160559610704443,0.004556708029357433,-0.0022831660456592738,0.17,0.015,0.1,0.09028873713817887,0.0049704192604603644,0.001354331057072683,-0.002441773889728774,0.003882976427804273,0.002,8e-05,0,-1.5238943147680306,-0.0012665904584709346,-0.00012191154518144246,0.0,-0.001388502003652377,0.2,0.02,0.0,0.038339614271491546,0.00830864900941893,0.0007667922854298309,-0.0,0.009075441294848762,0.0292377603556492,0.0,-0.0292377603556492,-0.03661069478791919,0.0,0.03661069478791919,-0.6332952292354672,0.0,0.6332952292354672,0.041543245047094654,0,-0.041543245047094654,-0.002285980861029098,-0.0038813199602639958,-0.009075441294848762,0.4,0.03341531753540039,2.3582937717437744,STABILIZE
0.17,0.015,0.1,-0.04220961963323741,-0.005788633260242308,-0.0006331442944985612,0.008037247765577907,0.0016154702108370379,0.17,0.015,0.1,0.09084326899705558,0.0028176956889863635,0.0013626490349558336,-0.011264851106388092,-0.007084506382445895,0.002,8e-05,0,-1.5446237069955084,-0.0012391823774081838,-0.00012356989655964068,0.0,-0.0013627522739678246,0.2,0.02,0.0,0.03980161679570836,0.008739705167690712,0.0007960323359141672,0.0,0.009535737503604879,0.016574680523449195,0.0,-0.016574680523449195,-0.03405078388377828,0.0,0.03405078388377828,-0.6195911887040919,0.0,0.6195911887040919,0.04369852583845356,0,-0.04369852583845356,0.0016208729741387072,0.007083272230171959,-0.009535737503604879,0.4,0.03345656394958496,2.3917858600616455,STABILIZE
0.17,0.015,0.1,-0.04326998857255957,-0.005356509314313751,-0.0006490498285883935,0.0005795524780059791,-0.005426006664896166,0.17,0.015,0.1,0.09097688805974595,0.0006749837036233432,0.0013646533208961891,-0.009518533229059704,-0.007478896204540172,0.002,8e-05,0,-1.5650198141492546,-0.0012121412362560077,-0.00012520158513194037,0.0,-0.0013373428213879482,0.2,0.02,0.0,0.041343971564605106,0.009166218838836023,0.0008268794312921022,0.0,0.009993098270128125,0.003970492374254959,0.0,-0.003970492374254959,-0.03150887831949265,0.0,0.03150887831949265,-0.6060706181280039,0.0,0.6060706181280039,0.04583109419418012,0,-0.04583109419418012,-0.005420022534429598,0.007483234093094934,-0.009993098270128125,0.4,0.03365302085876465,2.4254636764526367,STABILIZE
0.17,0.015,0.1,-0.04499710294311991,-0.00824619834734689,-0.0006749565441467987,-0.003113596436406372,-0.012034751327900061,0.17,0.015,0.1,0.0922747808705067,0.006196857448216508,0.0013841217130576005,0.0073382296670220035,0.014919208828296112,0.002,8e-05,0,-1.586637447639978,-0.0012142885579305702,-0.00012693099581119826,0.0,-0.0013412195537417684,0.2,0.02,0.0,0.04242658662436654,0.006081179423620769,0.0008485317324873308,-0.0,0.006929711156108099,0.036452102636567695,0.0,-0.036452102636567695,-0.04850704910204053,0.0,0.04850704910204053,-0.6071442789652851,0.0,0.6071442789652851,0.03040589711810384,0,-0.03040589711810384,-0.012042667003636561,-0.014912820089648511,-0.006929711156108099,0.4,0.035605430603027344,2.461021661758423,STABILIZE
0.17,0.015,0.1,-0.046498907914460826,-0.007596618391818794,-0.0006974836187169124,0.005418984597124657,-0.0028751174134110484,0.17,0.015,0.1,0.09227703658466466,1.141013645982604e-05,0.0013841555487699698,-0.019232393904383006,-0.017836828219153212,0.002,8e-05,0,-1.6070882463981313,-0.001217021140938937,-0.0001285670597118505,0.0,-0.0013455882006507874,0.2,0.02,0.0,0.04396572389714282,0.009159361558086053,0.0008793144779428564,0.0,0.010038676036028909,6.711844976368259e-05,0.0,-6.711844976368259e-05,-0.04468599054011055,0.0,0.04468599054011055,-0.6085105704694684,0.0,0.6085105704694684,0.04579680779043026,0,-0.04579680779043026,-0.0028608594290318984,0.01783912061699789,-0.010038676036028909,0.4,0.03360795974731445,2.4946651458740234,STABILIZE
0.17,0.015,0.1,-0.04776757638834673,-0.006444724131700691,-0.0007165136458252009,-0.00018373651399916202,-0.007344974291525054,0.17,0.015,0.1,0.09225322736420011,-0.0001209487433820279,0.0013837984104630016,-0.0189331311705458,-0.017670281503464825,0.002,8e-05,0,-1.6277946559066123,-0.0012374910229484976,-0.000130223572472529,0.0,-0.0013677145954210266,0.2,0.02,0.0,0.04476392664000615,0.004770352524814437,0.0008952785328001229,-0.0,0.00566563105761456,-0.00071146319636487,0.0,0.00071146319636487,-0.03791014195118053,0.0,0.03791014195118053,-0.6187455114742487,0.0,0.6187455114742487,0.02385176262407218,0,-0.02385176262407218,-0.007337617662179398,0.017673337624753507,-0.00566563105761456,0.4,0.03346514701843262,2.5281479358673096,STABILIZE
0.17,0.015,0.1,-0.04943468646071259,-0.008476079174883073,-0.0007415202969106888,-0.008861436088542616,-0.018079035560336378,0.17,0.015,0.1,0.09258901987469166,0.0017072681357026497,0.001388835298120375,-0.004930608447458837,-0.0018345050136358123,0.002,8e-05,0,-1.647797530487908,-0.0011964766171022449,-0.00013182380243903266,0.0,-0.0013283004195412775,0.2,0.02,0.0,0.046613301440028815,0.01106207858021744,0.0009322660288005764,0.0,0.011994344609018015,0.01004275373942735,0.0,-0.01004275373942735,-0.049859289264018065,0.0,0.049859289264018065,-0.5982383085511225,0.0,0.5982383085511225,0.05531039290108719,0,-0.05531039290108719,-0.018077256200104544,0.0018519567253972513,-0.011994344609018015,0.4,0.03343629837036133,2.561569929122925,STABILIZE
0.17,0.015,0.1,-0.04992348341378055,-0.0019183286968231807,-0.0007488522512067083,0.00743863272040404,0.004771451772374151,0.17,0.015,0.1,0.09194972027629449,-0.0025089902008909215,0.0013792458041444172,-0.008891212247642553,-0.010020956644389057,0.002,8e-05,0,-1.6733795698484066,-0.001181165546780894,-0.00013387036558787255,0.0,-0.0013150359123687667,0.2,0.02,0.0,0.04785385851063307,0.005727859495344864,0.0009570771702126614,-0.0,0.006684936665557526,-0.014758765887593655,0.0,0.014758765887593655,-0.011284286451901063,0.0,0.011284286451901063,-0.5905827733904471,0.0,0.5905827733904471,0.02863929747672432,0,-0.02863929747672432,0.004776460151635559,0.010018570382277865,-0.006684936665557526,0.4,0.04331660270690918,2.6048529148101807,STABILIZE
0.17,0.015,0.1,-0.048815058469463914,0.0056307011121164135,-0.0007322258770419587,0.04352540010112134,0.04842387533619579,0.17,0.015,0.1,0.08982936739012155,-0.010771205949008877,0.0013474405108518232,-0.05618242671130594,-0.06560619214946299,0.002,8e-05,0,-1.6929907220962492,-0.001172034429553872,-0.00013543925776769996,0.0,-0.001307473687321572,0.2,0.02,0.0,0.04840382553149246,0.00328680474976827,0.0009680765106298492,-0.0,0.004254881260398119,-0.06336003499416987,0.0,0.06336003499416987,0.033121771247743605,0.0,-0.033121771247743605,-0.586017214776936,0.0,0.586017214776936,0.01643402374884135,0,-0.01643402374884135,0.04844269102533676,0.06559230013615505,-0.004254881260398119,0.4,0.03346514701843262,2.6383771896362305,STABILIZE
