E-kp,E-ki,E-kd,E-I-Tot,E-P,E-I,E-D,E-PID,N-kp,N-ki,N-kd,N-I-Tot,N-P,N-I,N-D,N-PID,D-kp,D-ki,D-kd,D-I-Tot,D-P,D-I,D-D,D-PID,Y-kp,Y-ki,Y-kd,Y-I-Tot,Y-P,Y-I,Y-D,Y-PID,errorN,desiredN,actualN,errorE,desiredE,actualE,errorD,desiredD,actualD,errorY,desiredY,actualY,roll,pitch,yaw-rate,thrust,dt,Time,Mode
0.03,0.005,0.06,-0.003704761817372372,-0.0029511333060455443,-1.852380908686186e-05,-0.15672060660260126,-0.15969026371773368,0.03,0.005,0.06,-0.0036080333740966084,-0.002874081515764595,-1.804016687048304e-05,-0.15262875372428183,-0.15552087540691692,0.002,8e-05,0,-0.004967791573591184,-0.0002638157033752396,-3.9742332588729476e-07,-0.0,-0.00026421312670112687,0.2,0.02,0.005,-0.0036607934586473517,-0.019440727069521054,-7.321586917294703e-05,-0.012905053004931633,-0.032418995943625635,-0.09580271719215318,0.0,0.09580271719215318,-0.09837111020151815,0.0,0.09837111020151815,-0.1319078516876198,0.0,0.1319078516876198,-0.09720363534760526,0,0.09720363534760526,-0.15995387859863516,0.1552497334452661,0.032418995943625635,0.4,0.037661075592041016,0.037961721420288086,STABILIZE
0.03,0.005,0.06,-0.007271570191979942,-0.003196162674995199,-3.635785095989971e-05,-0.08567920618835465,-0.08891172671430975,0.03,0.005,0.06,-0.007086155929181794,-0.0031166926624829655,-3.5430779645908974e-05,-0.08356104867850347,-0.08671317212063234,0.002,8e-05,0,-0.010034174333327942,-0.0003026605632304986,-8.027339466662354e-07,-0.0,-0.00030346329717716484,0.2,0.02,0.005,-0.007146651238644469,-0.020824160531648442,-0.0001429330247728894,-0.006969057194450523,-0.027936150750871854,-0.10388975541609885,0.0,0.10388975541609885,-0.1065387558331733,0.0,0.1065387558331733,-0.1513302816152493,0.0,0.1513302816152493,-0.10412080265824221,0,0.10412080265824221,-0.08906915940022918,0.08655145411995731,0.027936150750871854,0.4,0.03347897529602051,0.07138657569885254,STABILIZE
0.03,0.005,0.06,-0.011296186353796218,-0.0036081445354151295,-5.648093176898109e-05,-0.06532723818391672,-0.06899186365110084,0.03,0.005,0.06,-0.01099066239903811,-0.0035004639240794754,-5.495331199519055e-05,-0.06335310349748272,-0.06690852073355738,0.002,8e-05,0,-0.01616713491683181,-0.0003665543466435719,-1.2933707933465451e-06,-0.0,-0.00036784771743691844,0.2,0.02,0.005,-0.011045942148268852,-0.023305253837682397,-0.00022091884296537704,-0.005263912321722643,-0.02879008500237042,-0.11668213080264918,0.0,0.11668213080264918,-0.12027148451383765,0.0,0.12027148451383765,-0.18327717332178595,0.0,0.18327717332178595,-0.11652626918841198,0,0.11652626918841198,-0.06912779722064018,0.06676806907667032,0.02879008500237042,0.4,0.0334627628326416,0.10484933853149414,STABILIZE
0.03,0.005,0.06,-0.01593278418475705,-0.004157153111804176,-7.966392092378524e-05,-0.057199406335057004,-0.06143622336778497,0.03,0.005,0.06,-0.015469244958588403,-0.00401547731821464,-7.734622479294202e-05,-0.0552108064855781,-0.059303630028585685,0.002,8e-05,0,-0.024134896280571673,-0.00047625730697343685,-1.930791702445734e-06,-0.0,-0.00047818809867588257,0.2,0.02,0.005,-0.015444889735212635,-0.026293846359522394,-0.0003088977947042527,-0.004506175666139479,-0.031108919820366124,-0.13384924394048803,0.0,0.13384924394048803,-0.13857177039347254,0.0,0.13857177039347254,-0.2381286534867184,0.0,0.2381286534867184,-0.13146923179761197,0,0.13146923179761197,-0.06157213790315519,0.05916250425986529,0.031108919820366124,0.4,0.03345990180969238,0.13831090927124023,STABILIZE
0.03,0.005,0.06,-0.021449889701504753,-0.0043836788398774265,-0.00010724944850752377,-0.04815937292988339,-0.052650301218268344,0.03,0.005,0.06,-0.020749149511741345,-0.004195208120629366,-0.00010374574755870673,-0.04607274052257787,-0.05037169439076594,0.002,8e-05,0,-0.034221114751731556,-0.0005342746282712474,-2.737689180138525e-06,-0.0,-0.0005370123174513859,0.2,0.02,0.005,-0.020681223294424927,-0.027737255284047857,-0.00041362446588849854,-0.0037960866916030966,-0.03194696644153945,-0.1398402706876455,0.0,0.1398402706876455,-0.14612262799591422,0.0,0.14612262799591422,-0.2671373141356237,0.0,0.2671373141356237,-0.13868627642023929,0,0.13868627642023929,-0.05277207316662668,0.05024410520516123,0.03194696644153945,0.4,0.03775668144226074,0.17606234550476074,STABILIZE
0.03,0.005,0.06,-0.02656849875685859,-0.0045836066573145,-0.00013284249378429295,-0.01920233363386593,-0.023918782784964725,0.03,0.005,0.06,-0.02567630145944707,-0.004412160847776035,-0.00012838150729723534,-0.018137344445608966,-0.022677886800682237,0.002,8e-05,0,-0.044211697701348904,-0.000596423781319022,-3.5369358161079127e-06,-0.0,-0.0005999607171351299,0.2,0.02,0.005,-0.025514943567448684,-0.028856631666179834,-0.0005102988713489737,-0.001382139088321006,-0.030749069625849813,-0.14707202825920118,0.0,0.14707202825920118,-0.15278688857715,0.0,0.15278688857715,-0.298211890659511,0.0,0.298211890659511,-0.14428315833089916,0,0.14428315833089916,-0.02397581470641005,0.02261758229393173,0.030749069625849813,0.4,0.033501625061035156,0.20961356163024902,STABILIZE
0.03,0.005,0.06,-0.03302094271469926,-0.004742465464543654,-0.0001651047135734963,-0.017831562251406245,-0.022739132429523395,0.03,0.005,0.06,-0.03192869903297991,-0.004595433878514318,-0.00015964349516489954,-0.017034720803247153,-0.02178979817692637,0.002,8e-05,0,-0.057643775064104466,-0.0006581605711588864,-4.611502005128358e-06,-0.0,-0.0006627720731640148,0.2,0.02,0.005,-0.03157686733867337,-0.029702920135447966,-0.0006315373467734674,-0.0012791953817817743,-0.03161365286400321,-0.1531811292838106,0.0,0.1531811292838106,-0.15808218215145514,0.0,0.15808218215145514,-0.3290802855794432,0.0,0.3290802855794432,-0.14851460067723982,0,0.14851460067723982,-0.02279553663158381,0.021730783647091672,0.03161365286400321,0.4,0.0408170223236084,0.2504293918609619,STABILIZE
0.03,0.005,0.06,-0.03849377238275253,-0.004911219251743959,-0.00019246886191376264,-0.01492605680268909,-0.020029744916346813,0.03,0.005,0.06,-0.037267403839606736,-0.004790858005089391,-0.0001863370191980337,-0.014785546289497672,-0.019762741313785095,0.002,8e-05,0,-0.07026577356393711,-0.0007551170148745821,-5.621261885114969e-06,-0.0,-0.000760738276759697,0.2,0.02,0.005,-0.03676359358752021,-0.031029834475521403,-0.0007352718717504042,-0.0011069290574962968,-0.03287203540476811,-0.15969526683631305,0.0,0.15969526683631305,-0.1637073083914653,0.0,0.1637073083914653,-0.377558507437291,0.0,0.377558507437291,-0.155149172377607,0,0.155149172377607,-0.020083186230236496,0.019708431101717567,0.03287203540476811,0.4,0.03343057632446289,0.2838575839996338,STABILIZE
0.03,0.005,0.06,-0.044022089044159746,-0.004955428424988663,-0.00022011044522079874,-0.008891246196190175,-0.014066785066399638,0.03,0.005,0.06,-0.042630056417839415,-0.004806931774553696,-0.00021315028208919708,-0.008820870897590614,-0.013840952954233508,0.002,8e-05,0,-0.08374269923029302,-0.0008053559473143455,-6.6994159384234425e-06,-0.0,-0.0008120553632527689,0.2,0.02,0.005,-0.04200636399132726,-0.03132981831049399,-0.0008401272798265453,-0.0007051521041088982,-0.03287509769442943,-0.16023105915178987,0.0,0.16023105915178987,-0.1651809474996221,0.0,0.1651809474996221,-0.4026779736571727,0.0,0.4026779736571727,-0.15664909155246992,0,0.15664909155246992,-0.014104574197243905,0.013802442084646854,0.03287509769442943,0.4,0.03346824645996094,0.3173186779022217,STABILIZE
0.03,0.005,0.06,-0.04960959810841112,-0.005011557121297126,-0.0002480479905420556,-0.007162638808916135,-0.012422243920755317,0.03,0.005,0.06,-0.047933183186263294,-0.004756488520345147,-0.00023966591593131649,-0.006313527027157791,-0.011309681463434255,0.002,8e-05,0,-0.0981993346977954,-0.0008644311635595847,-7.855946775823632e-06,-0.0,-0.0008722871103354084,0.2,0.02,0.005,-0.0472705070998253,-0.031476821578937546,-0.000945410141996506,-0.0005359810112398192,-0.03295821273217387,-0.15854961734483825,0.0,0.15854961734483825,-0.16705190404323753,0.0,0.16705190404323753,-0.43221558177979236,0.0,0.43221558177979236,-0.1573841078946877,0,0.1573841078946877,-0.012453263251537134,0.011275516538899915,0.03295821273217387,0.4,0.0334477424621582,0.35085439682006836,STABILIZE
0.03,0.005,0.06,-0.0551333252060038,-0.004958874158546833,-0.000275666626030019,-0.004144948313086147,-0.009379489097663,0.03,0.005,0.06,-0.053174180893769095,-0.004705056502172289,-0.0002658709044688455,-0.003107537537990687,-0.008078464944631821,0.002,8e-05,0,-0.11340388848805276,-0.000909983030788539,-9.072311079044221e-06,-0.0,-0.0009190553418675832,0.2,0.02,0.005,-0.05241965529127414,-0.03081732974128029,-0.0010483931058254828,-0.000270242578943713,-0.03213596542604949,-0.1568352167390763,0.0,0.1568352167390763,-0.16529580528489443,0.0,0.16529580528489443,-0.45499151539426946,0.0,0.45499151539426946,-0.15408664870640146,0,0.15408664870640146,-0.009401180725326362,0.008053211320000015,0.03213596542604949,0.4,0.0334172248840332,0.38419604301452637,STABILIZE
0.03,0.005,0.06,-0.060651482187273106,-0.004945229489804445,-0.00030325741093636553,-0.002425118553587204,-0.0076736054543280145,0.03,0.005,0.06,-0.058407879724806634,-0.0046903054566687,-0.00029203939862403316,-0.0011352323836973431,-0.006117577238990076,0.002,8e-05,0,-0.12959371694755376,-0.0009672603540706498,-1.0367497355804301e-05,-0.0,-0.000977627851426454,0.2,0.02,0.005,-0.05750374099036486,-0.03037484026300539,-0.0011500748198072972,-0.00010048273871369241,-0.03162539782152638,-0.15634351522229,0.0,0.15634351522229,-0.16484098299348152,0.0,0.16484098299348152,-0.4836301770353249,0.0,0.4836301770353249,-0.15187420131502694,0,0.15187420131502694,-0.007689794368801627,0.0060972153077654126,0.03162539782152638,0.4,0.033475637435913086,0.41765403747558594,STABILIZE
0.03,0.005,0.06,-0.06619519536877803,-0.0049735873825241935,-0.0003309759768438902,-0.0007451837561435037,-0.0060497471155115876,0.03,0.005,0.06,-0.06362318556544388,-0.004678954064855982,-0.0003181159278272194,0.0013388223098519014,-0.0036582476828312996,0.002,8e-05,0,-0.14666597058086153,-0.0010211007494056786,-1.1733277646468924e-05,-0.0,-0.0010328340270521475,0.2,0.02,0.005,-0.06261236140549022,-0.030554935782681203,-0.0012522472281098044,7.104642547551571e-05,-0.031736136585315496,-0.1559651354951994,0.0,0.1559651354951994,-0.16578624608413978,0.0,0.16578624608413978,-0.5105503747028393,0.0,0.5105503747028393,-0.15277467891340601,0,0.15277467891340601,-0.006059480026746816,0.0036421035235201333,0.031736136585315496,0.4,0.033438920974731445,0.4511289596557617,STABILIZE
0.03,0.005,0.06,-0.07164236819901616,-0.00487758561742045,-0.0003582118409950808,0.000929364826234355,-0.004306432632181176,0.03,0.005,0.06,-0.06866788921135891,-0.0045172008882978535,-0.00034333944605679454,0.0034621213301936583,-0.0013984190041609898,0.002,8e-05,0,-0.16519164308372616,-0.001105901557488171,-1.3215331446698093e-05,-0.0,-0.001119116888934869,0.2,0.02,0.005,-0.06755037945349833,-0.029477806267774853,-0.0013510075890699666,0.0002766124049853979,-0.030552201451859422,-0.1505733629432618,0.0,0.1505733629432618,-0.16258618724734833,0.0,0.16258618724734833,-0.5529507787440855,0.0,0.5529507787440855,-0.14738903133887427,0,0.14738903133887427,-0.004310015706042136,0.001387336419324319,0.030552201451859422,0.4,0.03350329399108887,0.4845879077911377,STABILIZE
0.03,0.005,0.06,-0.07705607330848199,-0.004849584596013196,-0.00038528036654241,0.0019350486425107818,-0.0032998163200448245,0.03,0.005,0.06,-0.07372368483465237,-0.004528970100799252,-0.00036861842417326186,0.002718301680378392,-0.002179286844594122,0.002,8e-05,0,-0.18457020417085324,-0.001157284699243681,-1.476561633366826e-05,-0.0,-0.0011720503155773492,0.2,0.02,0.005,-0.07240244779185312,-0.028976477780864863,-0.0014480489558370625,0.00037343562188925215,-0.030051091114812672,-0.15096567002664174,0.0,0.15096567002664174,-0.16165281986710653,0.0,0.16165281986710653,-0.5786423496218405,0.0,0.5786423496218405,-0.1448823889043243,0,0.1448823889043243,-0.0033053164718814883,0.0021709357240056837,0.030051091114812672,0.4,0.03348970413208008,0.5181088447570801,STABILIZE
0.03,0.005,0.06,-0.08243021861465633,-0.004821183184406555,-0.00041215109307328164,0.001644161560044019,-0.003589172717435818,0.03,0.005,0.06,-0.07867685016515663,-0.004443519116161008,-0.00039338425082578314,0.0031247825054213293,-0.0017121208615654615,0.002,8e-05,0,-0.20489121566450544,-0.0012153413962808107,-1.6391297253160437e-05,-0.0,-0.001231732693533971,0.2,0.02,0.005,-0.0772191020442095,-0.028807027181148522,-0.0015443820408841899,0.00030009607283194395,-0.030051313149200766,-0.1481173038720336,0.0,0.1481173038720336,-0.16070610614688516,0.0,0.16070610614688516,-0.6076706981404053,0.0,0.6076706981404053,-0.1440351359057426,0,0.1440351359057426,-0.003593465450780124,0.0017030926851592295,0.030051313149200766,0.4,0.03344082832336426,0.55157470703125,STABILIZE
0.03,0.005,0.06,-0.08758263649376687,-0.004620589882552783,-0.0004379131824688343,0.00387963143190261,-0.001178871633119007,0.03,0.005,0.06,-0.08336070766854144,-0.004200393892584432,-0.0004168035383427072,0.00585558982155934,0.0012383923906322007,0.002,8e-05,0,-0.22541962062658946,-0.001227298749160284,-1.8033569650127157e-05,-0.0,-0.0012453323188104113,0.2,0.02,0.005,-0.0819061673435605,-0.02802180388467003,-0.0016381233468712102,0.0003513670104123404,-0.0293085602211289,-0.1400131297528144,0.0,0.1400131297528144,-0.15401966275175943,0.0,0.15401966275175943,-0.613649374580142,0.0,0.613649374580142,-0.14010901942335013,0,0.14010901942335013,-0.0011758397916292063,-0.0012412714549887133,0.0293085602211289,0.4,0.03345298767089844,0.5852155685424805,STABILIZE
0.03,0.005,0.06,-0.09259337994910699,-0.00448309103115926,-0.00046296689974553495,0.005859113517934242,0.0009130555870294479,0.03,0.005,0.06,-0.08784324106594014,-0.004010503720627211,-0.00043921620532970076,0.007985055718402476,0.0035353357924455646,0.002,8e-05,0,-0.2466071968382968,-0.0012637623369772101,-1.9728575747063745e-05,-0.0,-0.001283490912724274,0.2,0.02,0.005,-0.08653571266192456,-0.027613564440867218,-0.001730714253238491,0.0004391710552194555,-0.028905107638886252,-0.13368345735424036,0.0,0.13368345735424036,-0.14943636770530866,0.0,0.14943636770530866,-0.6318811684886051,0.0,0.6318811684886051,-0.13806782220433608,0,0.13806782220433608,0.0009215721611177611,-0.003533125305194416,0.028905107638886252,0.4,0.03353095054626465,0.618600606918335,STABILIZE
0.03,0.005,0.06,-0.09747014742297115,-0.004373485376425959,-0.00048735073711485575,0.006023527927275037,0.0011626918137342228,0.03,0.005,0.06,-0.09219978314432319,-0.003906947209130622,-0.00046099891572161595,0.007292124209527481,0.0029241780846752437,0.002,8e-05,0,-0.2684745576515621,-0.001307376703255269,-2.147796461212497e-05,-0.0,-0.001328854667867394,0.2,0.02,0.005,-0.09106547077624258,-0.02708191574014005,-0.0018213094155248516,0.00035788502689291265,-0.02854534012877199,-0.1302315736376874,0.0,0.1302315736376874,-0.1457828458808653,0.0,0.1457828458808653,-0.6536883516276345,0.0,0.6536883516276345,-0.13540957870070025,0,0.13540957870070025,0.0011695993960281405,-0.002921422081355271,0.02854534012877199,0.4,0.03345227241516113,0.6520323753356934,STABILIZE
0.03,0.005,0.06,-0.10215736530388372,-0.00420772573771113,-0.0005107868265194186,0.007673121785779707,0.002954609221549158,0.03,0.005,0.06,-0.09630886992202123,-0.003688736182590745,-0.00048154434961010615,0.010044542196663548,0.005874261664462697,0.002,8e-05,0,-0.29169371267619093,-0.001389592414765436,-2.3335497014095278e-05,-0.0,-0.0014129279117795312,0.2,0.02,0.005,-0.09541693823398596,-0.026042145659327238,-0.0019083387646797194,0.0004386041882163757,-0.02751188023579058,-0.12295787275302483,0.0,0.12295787275302483,-0.140257524590371,0.0,0.140257524590371,-0.694796207382718,0.0,0.694796207382718,-0.13021072829663619,0,0.13021072829663619,0.002967951462064348,-0.005867531838300452,0.02751188023579058,0.4,0.03341865539550781,0.6854493618011475,STABILIZE
0.03,0.005,0.06,-0.10672337859808534,-0.004086791062408877,-0.0005336168929904267,0.008776628054003843,0.004156220098604539,0.03,0.005,0.06,-0.10029556141441028,-0.003568271511685542,-0.0005014778070720514,0.01046004520121554,0.006390295882457947,0.002,8e-05,0,-0.31523398108410366,-0.0014046412386101116,-2.5218718486728295e-05,-0.0,-0.0014298599570968398,0.2,0.02,0.005,-0.09969171462212614,-0.02550747126825514,-0.0019938342924425228,0.0004930279814920359,-0.027008277579205625,-0.1189423837228514,0.0,0.1189423837228514,-0.13622636874696256,0.0,0.13622636874696256,-0.7023206193050557,0.0,0.7023206193050557,-0.1275373563412757,0,0.1275373563412757,0.004170434248751593,-0.006381028533884099,0.027008277579205625,0.4,0.03351783752441406,0.7189805507659912,STABILIZE
0.03,0.005,0.06,-0.11119703510111642,-0.004016211791858498,-0.0005559851755055821,0.007222949258675119,0.002650752291311039,0.03,0.005,0.06,-0.10417187783434936,-0.0034799515126353662,-0.0005208593891717468,0.008610164693760062,0.004609353791952949,0.002,8e-05,0,-0.3391793384024309,-0.001433124877557797,-2.7134347072194475e-05,-0.0,-0.0014602592246299915,0.2,0.02,0.005,-0.1038350082574552,-0.024797530080172426,-0.002076700165149104,0.00048189037153974283,-0.026392339873781787,-0.11599838375451221,0.0,0.11599838375451221,-0.13387372639528325,0.0,0.13387372639528325,-0.7165624387788985,0.0,0.7165624387788985,-0.12398765040086213,0,0.12398765040086213,0.002660720685073357,-0.004603606795253534,0.026392339873781787,0.4,0.0334169864654541,0.7524251937866211,STABILIZE
0.03,0.005,0.06,-0.11552794390169385,-0.0038859256633502633,-0.0005776397195084693,0.007141350861958873,0.00267778547910014,0.03,0.005,0.06,-0.1078919303739972,-0.003337832380793025,-0.000539459651869986,0.008045138526730425,0.004167846494067415,0.002,8e-05,0,-0.3634468368855596,-0.0014516074952264108,-2.9075746950844773e-05,-0.0,-0.0014806832421772557,0.2,0.02,0.005,-0.10786753655309743,-0.0241213502196628,-0.0021573507310619485,0.0005221328784922432,-0.02575656807223251,-0.1112610793597675,0.0,0.1112610793597675,-0.12953085544500878,0.0,0.12953085544500878,-0.7258037476132054,0.0,0.7258037476132054,-0.120606751098314,0,0.120606751098314,0.0026865527940050813,-0.004162200566432749,0.02575656807223251,0.4,0.03343534469604492,0.7857751846313477,STABILIZE
0.03,0.005,0.06,-0.11974989348741101,-0.0037832786236560185,-0.0005987494674370551,0.007057182880307055,0.0026751547892139814,0.03,0.005,0.06,-0.11143774404415396,-0.0031773948952762408,-0.0005571887202207699,0.008723780520785691,0.00498919690528868,0.002,8e-05,0,-0.3882721881736423,-0.0014830624090615976,-3.106177505389139e-05,-0.0,-0.001514124184115489,0.2,0.02,0.005,-0.11184494044981728,-0.023760945560967788,-0.002236898808996346,0.0004964954016089556,-0.02550134896835518,-0.1059131631758747,0.0,0.1059131631758747,-0.1261092874552006,0.0,0.1261092874552006,-0.7415312045307988,0.0,0.7415312045307988,-0.11880472780483893,0,0.11880472780483893,0.0026854942985877718,-0.004983639160116754,0.02550134896835518,0.4,0.033478498458862305,0.8192675113677979,STABILIZE
0.03,0.005,0.06,-0.12385309378128846,-0.003679173398339224,-0.0006192654689064423,0.006317771494677027,0.00201933262743136,0.03,0.005,0.06,-0.1148005539079233,-0.003015295308131604,-0.0005740027695396165,0.008049908711129324,0.004460610633458103,0.002,8e-05,0,-0.4135786807151553,-0.0015127537449720748,-3.3086294457212426e-05,-0.0,-0.0015458400394292872,0.2,0.02,0.005,-0.11575894652433485,-0.023396870733299657,-0.002315178930486697,0.0003953366128370463,-0.02531671305094931,-0.10050984360438679,0.0,0.10050984360438679,-0.12263911327797414,0.0,0.12263911327797414,-0.7563768724860374,0.0,0.7563768724860374,-0.11698435366649829,0,0.11698435366649829,0.002028435917949503,-0.004456478341729116,0.02531671305094931,0.4,0.03345751762390137,0.8527300357818604,STABILIZE
0.03,0.005,0.06,-0.12785358513948558,-0.003586311775846203,-0.0006392679256974279,0.005984509924095036,0.001758930222551405,0.03,0.005,0.06,-0.11793295447710142,-0.002808096316691822,-0.0005896647723855072,0.009088919775323303,0.005691158686245973,0.002,8e-05,0,-0.4394292434400571,-0.0015449465113429903,-3.5154339475204575e-05,-0.0,-0.0015801008508181948,0.2,0.02,0.005,-0.11957714077548409,-0.022819255235246624,-0.002391542815509682,0.00040187921863386644,-0.02480891883212244,-0.09360321055639408,0.0,0.09360321055639408,-0.11954372586154009,0.0,0.11954372586154009,-0.7724732556714952,0.0,0.7724732556714952,-0.11409627617623312,0,0.11409627617623312,0.0017702598487414358,-0.005687644748731384,0.02480891883212244,0.4,0.033464670181274414,0.8862009048461914,STABILIZE
0.03,0.005,0.06,-0.13164492783615786,-0.0033889416433949032,-0.0006582246391807894,0.00749197078632433,0.0034448045037486375,0.03,0.005,0.06,-0.12085368967260988,-0.0026107376529364078,-0.0006042684483630494,0.010383888136493668,0.007168882035194211,0.002,8e-05,0,-0.4658953630362567,-0.0015771393235322632,-3.727162904290054e-05,-0.0,-0.0016144109525751639,0.2,0.02,0.005,-0.12303416105281718,-0.0206006876142634,-0.0024606832210563438,0.0006261706062175934,-0.022435200229102153,-0.08702458843121359,0.0,0.08702458843121359,-0.11296472144649677,0.0,0.11296472144649677,-0.7885696617661316,0.0,0.7885696617661316,-0.103003438071317,0,0.103003438071317,0.003457686781652145,-0.007162677559653598,0.022435200229102153,0.4,0.03356218338012695,0.9197604656219482,STABILIZE
0.03,0.005,0.06,-0.13537705095699765,-0.003349092626065634,-0.0006768852547849883,0.006410097737375944,0.0023841198565253217,0.03,0.005,0.06,-0.123686402861562,-0.002541989785895303,-0.0006184320143078101,0.009506224809559035,0.006345803009355922,0.002,8e-05,0,-0.49263105849134353,-0.0015994527797753883,-3.941048467930749e-05,-0.0,-0.0016388632644546957,0.2,0.02,0.005,-0.12628586134074643,-0.019453172906094364,-0.0025257172268149286,0.0006966771552108606,-0.02128221297769843,-0.08473299286317677,0.0,0.08473299286317677,-0.11163642086885447,0.0,0.11163642086885447,-0.7997263898876941,0.0,0.7997263898876941,-0.09726586453047181,0,0.09726586453047181,0.0023948891119988675,-0.006341746562663812,0.02128221297769843,0.4,0.033431053161621094,0.9532160758972168,STABILIZE
0.03,0.005,0.06,-0.13898507832052392,-0.003234987480945657,-0.0006949253916026197,0.006547775965413325,0.0026178630928650488,0.03,0.005,0.06,-0.1263783689082992,-0.002413639250178642,-0.0006318918445414961,0.009123725172158266,0.006078194077438127,0.002,8e-05,0,-0.5198439141903541,-0.001626618253084074,-4.158751313522833e-05,-0.0,-0.0016682057662193023,0.2,0.02,0.005,-0.12923461865137365,-0.017625869619981593,-0.002584692373027473,0.0009159134331228368,-0.01929464855988623,-0.08045464167262141,0.0,0.08045464167262141,-0.1078329160315219,0.0,0.1078329160315219,-0.8133091265420369,0.0,0.8133091265420369,-0.08812934809990795,0,0.08812934809990795,0.0026272091501421345,-0.006074160229809412,0.01929464855988623,0.4,0.03345942497253418,0.9867005348205566,STABILIZE
0.03,0.005,0.06,-0.142537666059786,-0.003187414802339722,-0.00071268833029893,0.005872252154227449,0.001972149021588797,0.03,0.005,0.06,-0.12900040888211387,-0.002352518681663662,-0.0006450020444105693,0.007916922684752118,0.004919401958677886,0.002,8e-05,0,-0.5484344643927922,-0.0017101138589794562,-4.387475715142338e-05,-0.0,-0.0017539886161308796,0.2,0.02,0.005,-0.13213016420992055,-0.017319402928297666,-0.002642603284198411,0.0009073323711033496,-0.019054673841392727,-0.07841728938878874,0.0,0.07841728938878874,-0.10624716007799073,0.0,0.10624716007799073,-0.8550569294897281,0.0,0.8550569294897281,-0.08659701464148832,0,0.08659701464148832,0.0019795819652456627,-0.004916415629019946,0.019054673841392727,0.4,0.03343701362609863,1.0200896263122559,STABILIZE
0.03,0.005,0.06,-0.1460082890043188,-0.003056919675218554,-0.0007300414450215941,0.006294818326792823,0.0025078572065526743,0.03,0.005,0.06,-0.13148909308181259,-0.002192029447465285,-0.000657445465409063,0.007325075444463249,0.004475600531588901,0.002,8e-05,0,-0.5776188583691136,-0.0017137048032656334,-4.6209508669529096e-05,-0.0,-0.0017599143119351626,0.2,0.02,0.005,-0.1349789171190321,-0.016727849643279592,-0.002699578342380642,0.0009078699662917836,-0.01851955801936845,-0.07306764824884285,0.0,0.07306764824884285,-0.10189732250728514,0.0,0.10189732250728514,-0.8568524016328167,0.0,0.8568524016328167,-0.08363924821639795,0,0.08363924821639795,0.0025143879254942727,-0.004471934843772396,0.01851955801936845,0.4,0.034060001373291016,1.0541658401489258,STABILIZE
0.03,0.005,0.06,-0.14934698456697126,-0.0029932677206730633,-0.0007467349228348564,0.004703411751970294,0.0009634091084623746,0.03,0.005,0.06,-0.13390513202765536,-0.002166070925836284,-0.0006695256601382769,0.0052832242475429145,0.002447627661568354,0.002,8e-05,0,-0.6065067395136129,-0.0017266057062472076,-4.8520539161089035e-05,-0.0,-0.0017751262454082967,0.2,0.02,0.005,-0.1377607217451399,-0.01662662525187391,-0.002755214434902798,0.0005924792347479902,-0.018789360452028715,-0.0722023641945428,0.0,0.0722023641945428,-0.09977559068910212,0.0,0.09977559068910212,-0.8633028531236038,0.0,0.8633028531236038,-0.08313312625936954,0,0.08313312625936954,0.000966959470561057,-0.0024462272302946666,0.018789360452028715,0.4,0.0334620475769043,1.087630271911621,STABILIZE
0.03,0.005,0.06,-0.15267178024146597,-0.002772461439932377,-0.0007633589012073298,0.006681616871033955,0.003145796529894248,0.03,0.005,0.06,-0.13645214092921418,-0.0021238850919190638,-0.000682260704646071,0.004929696995958714,0.0021235511993935793,0.002,8e-05,0,-0.637815701543293,-0.0017405157780066576,-5.102525612346345e-05,-0.0,-0.001791541034130121,0.2,0.02,0.005,-0.14086698600080103,-0.01726822480576355,-0.0028173397200160206,0.00033168627155540683,-0.01975387825422416,-0.07079616973063546,0.0,0.07079616973063546,-0.09241538133107924,0.0,0.09241538133107924,-0.8702578890033288,0.0,0.8702578890033288,-0.08634112402881775,0,0.08634112402881775,0.0031489930145029437,-0.0021188082731932747,0.01975387825422416,0.4,0.03597664833068848,1.1235997676849365,STABILIZE
0.03,0.005,0.06,-0.15569260057277706,-0.0027099023567149767,-0.0007784630028638853,0.006065784366893634,0.0025774190073147717,0.03,0.005,0.06,-0.13884230060743036,-0.0021441524601073943,-0.0006942115030371518,0.0031528768387594306,0.0003145128756148847,0.002,8e-05,0,-0.6669077587228401,-0.0017398504526599935,-5.3352620697827216e-05,-0.0,-0.0017932030733578206,0.2,0.02,0.005,-0.1436386281765002,-0.016575805774890248,-0.002872772563530004,0.0001621490045830685,-0.019286429333837184,-0.07147174867024648,0.0,0.07147174867024648,-0.09033007855716589,0.0,0.09033007855716589,-0.8699252263299967,0.0,0.8699252263299967,-0.08287902887445124,0,0.08287902887445124,0.002577871257293173,-0.00031078428051740627,0.019286429333837184,0.4,0.033442020416259766,1.1570498943328857,STABILIZE
0.03,0.005,0.06,-0.15864293087800538,-0.002640399049895154,-0.000793214654390027,0.006326042452276921,0.0028924287479917404,0.03,0.005,0.06,-0.14106030049351104,-0.0019849997071503516,-0.0007053015024675552,0.004320821690725125,0.0016305204811072186,0.002,8e-05,0,-0.6962499038848151,-0.0017506508128998421,-5.5699992310785215e-05,-0.0,-0.0018063508052106273,0.2,0.02,0.005,-0.1461449647067012,-0.014953644526587368,-0.0029228992941340245,0.00035828049759947946,-0.017518263323121914,-0.06616665690501172,0.0,0.06616665690501172,-0.0880133016631718,0.0,0.0880133016631718,-0.8753254064499211,0.0,0.8753254064499211,-0.07476822263293684,0,0.07476822263293684,0.0028945540350412274,-0.0016267446141744963,0.017518263323121914,0.4,0.033521413803100586,1.1905510425567627,STABILIZE
0.03,0.005,0.06,-0.16151273645888403,-0.0025692653813149282,-0.0008075636822944201,0.005642632857809582,0.0022658037942002336,0.03,0.005,0.06,-0.14310127383592042,-0.0018272325441758797,-0.0007155063691796021,0.004319305979563513,0.001776567066208031,0.002,8e-05,0,-0.7255809715202546,-0.0017506249012094726,-5.804647772162037e-05,-0.0,-0.001808671378931093,0.2,0.02,0.005,-0.148380311036773,-0.013341665557112671,-0.0029676062207354597,0.0005119680475640704,-0.01579730373028406,-0.060907751472529324,0.0,0.060907751472529324,-0.08564217937716427,0.0,0.08564217937716427,-0.8753124506047363,0.0,0.8753124506047363,-0.06670832778556335,0,0.06670832778556335,0.0022678706794602654,-0.0017739278327461967,0.01579730373028406,0.4,0.033509254455566406,1.2240843772888184,STABILIZE
0.03,0.005,0.06,-0.16368558268911362,-0.001949970608904493,-0.0008184279134455681,0.012292037829464317,0.009523639307114256,0.03,0.005,0.06,-0.14440591957120813,-0.0011708241491966032,-0.0007220295978560406,0.011863382425056405,0.009970528678003762,0.002,8e-05,0,-0.7541909906736664,-0.001711693344676687,-6.0335279253893316e-05,0.0,-0.0017720286239305803,0.2,0.02,0.005,-0.15188354057542297,-0.020959282320043023,-0.0030376708115084595,-0.000642532877718003,-0.024639486009269487,-0.03902747163988678,0.0,0.03902747163988678,-0.06499902029681644,0.0,0.06499902029681644,-0.8558466723383434,0.0,0.8558466723383434,-0.1047964116002151,0,0.1047964116002151,0.009541859886745954,-0.009953092869687073,0.024639486009269487,0.4,0.03342890739440918,1.2575128078460693,STABILIZE
0.03,0.005,0.06,-0.165174439887213,-0.0013348837565287182,-0.0008258721994360651,0.01719005949598471,0.015029303540019925,0.03,0.005,0.06,-0.1449792853606177,-0.0005140699052999529,-0.0007248964268030885,0.019245474151829037,0.018006507819725997,0.002,8e-05,0,-0.782345530543923,-0.001682858413971152,-6.258764244351385e-05,0.0,-0.0017454460564146658,0.2,0.02,0.005,-0.1566773306398229,-0.028653531479693087,-0.0031335466127964577,-0.0017031192319858163,-0.03349019732447536,-0.017135663509998428,0.0,0.017135663509998428,-0.044496125217623944,0.0,0.044496125217623944,-0.841429206985576,0.0,0.841429206985576,-0.14326765739846542,0,0.14326765739846542,0.01507428164280215,-0.017968870908139638,0.03349019732447536,0.4,0.033460378646850586,1.2909646034240723,STABILIZE
0.03,0.005,0.06,-0.16626057175121495,-0.0009740639505888801,-0.0008313028587560747,0.020756325558560322,0.018950958749215367,0.03,0.005,0.06,-0.14483941662526767,0.00012543697264981443,-0.0007241970831263384,0.027134853084940156,0.026536092974463632,0.002,8e-05,0,-0.8124181118269435,-0.0017979779619645342,-6.499344894615549e-05,-0.0,-0.0018629714109106897,0.2,0.02,0.005,-0.1619078892290989,-0.0312724371206289,-0.003238157784581978,-0.0021980920242633257,-0.03670868692947421,0.004181232421660481,0.0,-0.004181232421660481,-0.03246879835296267,0.0,0.03246879835296267,-0.8989889809822671,0.0,0.8989889809822671,-0.1563621856031445,0,0.1563621856031445,0.019023306015032597,-0.026484276394160088,0.03670868692947421,0.4,0.03345155715942383,1.3244199752807617,STABILIZE
0.03,0.005,0.06,-0.1671633303745354,-0.0008087581923250718,-0.000835816651872677,0.02190154106921434,0.02025696622501659,0.03,0.005,0.06,-0.14410235737912117,0.0006603123893265976,-0.0007205117868956058,0.03162481706289225,0.031564617665323244,0.002,8e-05,0,-0.843197433660122,-0.001838293429623762,-6.745579469280976e-05,-0.0,-0.0019057492243165718,0.2,0.02,0.005,-0.16638085267476777,-0.026714751409034482,-0.0033276170534953554,-0.0017595321111186018,-0.03180190057364844,0.022010412977553254,0.0,-0.022010412977553254,-0.026958606410835726,0.0,0.026958606410835726,-0.919146714811881,0.0,0.919146714811881,-0.1335737570451724,0,0.1335737570451724,0.02033049776210564,-0.031517306828860184,0.03180190057364844,0.4,0.03348684310913086,1.357935905456543,STABILIZE
0.03,0.005,0.06,-0.16785272483173339,-0.000619034317046915,-0.000839263624158667,0.023323891837257967,0.021865593896052384,0.03,0.005,0.06,-0.14272404728588706,0.001237638681796065,-0.0007136202364294353,0.03665360252985802,0.037177620975224646,0.002,8e-05,0,-0.8749308042831099,-0.001899642525029874,-6.99944643426488e-05,-0.0,-0.0019696369893725226,0.2,0.02,0.005,-0.17017616792047172,-0.022719749257933096,-0.0034035233584094344,-0.0014021813589498615,-0.02752545397529239,0.0412546227265355,0.0,-0.0412546227265355,-0.020634477234897166,0.0,0.020634477234897166,-0.9498212625149369,0.0,0.9498212625149369,-0.11359874628966547,0,0.11359874628966547,0.021939261904740347,-0.03713419562720802,0.02752545397529239,0.4,0.033409833908081055,1.391322374343872,STABILIZE
0.03,0.005,0.06,-0.16774540171510757,9.629747939674755e-05,-0.0008387270085755379,0.024471515360192143,0.023729085831013352,0.03,0.005,0.06,-0.14113227853038463,0.0014282414055475604,-0.0007056613926519231,0.031079508891038023,0.03180208890393366,0.002,8e-05,0,-0.9058910395135809,-0.0018519729380202723,-7.247128316108647e-05,-0.0,-0.0019244442211813588,0.2,0.02,0.005,-0.1751891603012089,-0.029986613985703438,-0.003503783206024178,-0.0013495252099425465,-0.034839922401670165,0.047608046851585345,0.0,-0.047608046851585345,0.0032099159798915852,0.0,-0.0032099159798915852,-0.9259864690101361,0.0,0.9259864690101361,-0.14993306992851718,0,0.14993306992851718,0.023812225014781696,-0.03173988520575814,0.034839922401670165,0.4,0.03343486785888672,1.4247770309448242,STABILIZE
0.03,0.005,0.06,-0.16673961116520086,0.0008285828191637945,-0.0008336980558260043,0.025162042262740856,0.025156927026078645,0.03,0.005,0.06,-0.13820009136323244,0.0024155724166430113,-0.0006910004568161623,0.034073389706065715,0.035797961665892566,0.002,8e-05,0,-0.9402974077554697,-0.0018896263970463174,-7.522379262043758e-05,-0.0,-0.001964850189666755,0.2,0.02,0.005,-0.181806906431146,-0.0363452128634015,-0.00363613812862292,-0.0010728188307723193,-0.04105416982279674,0.08051908055476704,0.0,-0.08051908055476704,0.02761942730545982,0.0,-0.02761942730545982,-0.9448131985231587,0.0,0.9448131985231587,-0.1817260643170075,0,0.1817260643170075,0.02527034134411196,-0.03571799105745207,0.04105416982279674,0.4,0.036416053771972656,1.4611680507659912,STABILIZE
0.03,0.005,0.06,-0.1678651048649937,-0.0010083438839319776,-0.0008393255243249686,-0.0010955011236973805,-0.0029431705319543267,0.03,0.005,0.06,-0.13475389255207418,0.0030874926218464604,-0.0006737694627603709,0.03445285164790215,0.03686657480698824,0.002,8e-05,0,-0.972092833298681,-0.0018990612972430187,-7.776742666389448e-05,-0.0,-0.001976828723906913,0.2,0.02,0.005,-0.18624746573564704,-0.026522350838895415,-0.003724949314712941,0.0007853661556657155,-0.02946193399794264,0.10291642072821536,0.0,-0.10291642072821536,-0.03361146279773259,0.0,0.03361146279773259,-0.9495306486215093,0.0,0.9495306486215093,-0.13261175419447707,0,0.13261175419447707,-0.002857834604797326,-0.036873288057224396,0.02946193399794264,0.4,0.03348541259765625,1.4948968887329102,STABILIZE
0.03,0.005,0.06,-0.16751643303710906,0.00031254190042040783,-0.0008375821651855453,0.012716770019809118,0.01219172975504398,0.03,0.005,0.06,-0.1311078665688897,0.003268218991709619,-0.0006555393328444485,0.030223759800867302,0.03283643945973247,0.002,8e-05,0,-1.0024702642148375,-0.0018153115583452704,-8.0197621137187e-05,0.0,-0.0018955091794824574,0.2,0.02,0.005,-0.1902224644953362,-0.023754020584519003,-0.003804449289906724,0.0005184258688083524,-0.027040044005617377,0.10894063305698731,0.0,-0.10894063305698731,0.010418063347346927,0.0,-0.010418063347346927,-0.9076557791726352,0.0,0.9076557791726352,-0.11877010292259502,0,0.11877010292259502,0.012259771131224352,-0.03281109633375115,0.027040044005617377,0.4,0.033468008041381836,1.5281729698181152,STABILIZE
0.03,0.005,0.06,-0.16570964747698191,0.001620302307442072,-0.0008285482373849096,0.026082401892415633,0.026874155962472796,0.03,0.005,0.06,-0.12727549354547096,0.0034368233784130937,-0.0006363774677273548,0.025327737827548918,0.028128183738234655,0.002,8e-05,0,-1.0314489006310497,-0.0017325115013799924,-8.251591205048398e-05,0.0,-0.0018150274134304764,0.2,0.02,0.005,-0.19373789856777754,-0.021017310391597228,-0.003874757971355551,0.00032958883507935003,-0.024562479527873427,0.11456077928043647,0.0,-0.11456077928043647,0.054010076914735736,0.0,-0.054010076914735736,-0.8662557506899962,0.0,0.8662557506899962,-0.10508655195798614,0,0.10508655195798614,0.026925700811836345,-0.028078846395439328,0.024562479527873427,0.4,0.033452749252319336,1.561593770980835,STABILIZE
0.03,0.005,0.06,-0.16356665782748067,0.0019214908843605352,-0.0008178332891374034,0.02112525893028355,0.02222891652550668,0.03,0.005,0.06,-0.1231676815294033,0.0036832298025227007,-0.0006158384076470165,0.02599329004824711,0.029060681443122793,0.002,8e-05,0,-1.0594130245220608,-0.001671584030848739,-8.475304196176487e-05,0.0,-0.001756337072810504,0.2,0.02,0.005,-0.19785857349111027,-0.02463175469043025,-0.003957171469822205,0.0008761656203707651,-0.02771276053988169,0.1227743267507567,0.0,-0.1227743267507567,0.06404969614535118,0.0,-0.06404969614535118,-0.8357920154243694,0.0,0.8357920154243694,-0.12315877345215125,0,0.12315877345215125,0.022291331816715238,-0.029012832706816212,0.02771276053988169,0.4,0.03345823287963867,1.5950558185577393,STABILIZE
0.03,0.005,0.06,-0.16282551628853337,0.0006578015788926118,-0.0008141275814426669,-0.0018728164144286952,-0.0020291424169787504,0.03,0.005,0.06,-0.12021978503206479,0.0026164111285889736,-0.000601098925160324,0.0025235226031648248,0.004538834806593475,0.002,8e-05,0,-1.0874102007069086,-0.0016565964557040862,-8.699281605655269e-05,0.0,-0.001743589271760639,0.2,0.02,0.005,-0.20000197868630987,-0.012682555647976549,-0.004000039573726197,0.0035168035311264148,-0.013165791690576334,0.08721370428629913,0.0,-0.08721370428629913,0.021926719296420392,0.0,-0.021926719296420392,-0.8282982278520431,0.0,0.8282982278520431,-0.06341277823988274,0,0.06341277823988274,-0.0020241177663984614,-0.004541077803526041,0.013165791690576334,0.4,0.03380084037780762,1.628873348236084,STABILIZE
0.03,0.005,0.06,-0.16254448655649562,0.0002519736058839453,-0.0008127224327824781,0.015218608373494317,0.014657859546595785,0.03,0.005,0.06,-0.11575724201037511,0.004001153359945227,-0.0005787862100518756,0.011051385779666684,0.014473752929560036,0.002,8e-05,0,-1.1152242380530322,-0.0016625532189483354,-8.921793904424258e-05,0.0,-0.0017517711579925778,0.2,0.02,0.005,-0.2024419268869529,-0.014584519624266802,-0.004048838537739058,0.00176584657272217,-0.01686751158928369,0.1333717786648409,0.0,-0.1333717786648409,0.00839912019613151,0.0,-0.00839912019613151,-0.8312766094741677,0.0,0.8312766094741677,-0.072922598121334,0,0.072922598121334,0.014676268985887374,-0.01445508557593338,0.01686751158928369,0.4,0.03345942497253418,1.6622977256774902,STABILIZE
0.03,0.005,0.06,-0.16333903991805462,-0.0007123270464540414,-0.0008166951995902731,-0.0120950066362729,-0.013624028882317216,0.03,0.005,0.06,-0.11214442534497697,0.0032389354185016713,-0.0005607221267248849,-0.00021977627410912782,0.0024584370176676585,0.002,8e-05,0,-1.1421814381234212,-0.0016111645137870403,-9.13745150498737e-05,0.0,-0.001702539028836914,0.2,0.02,0.005,-0.20504987098083524,-0.015587030429837551,-0.0041009974196167046,0.0012024740749287063,-0.018485553774525546,0.10796451395005571,0.0,-0.10796451395005571,-0.023744234881801378,0.0,0.023744234881801378,-0.8055822568935201,0.0,0.8055822568935201,-0.07793515214918775,0,0.07793515214918775,-0.013620672252166857,-0.0024769664824345447,0.018485553774525546,0.4,0.0334630012512207,1.6957690715789795,STABILIZE
0.03,0.005,0.06,-0.16140097672786685,0.0017380304161877485,-0.0008070048836393343,0.001567213434215418,0.002498238966763832,0.03,0.005,0.06,-0.11053762700949922,0.0014409563082768305,-0.0005526881350474962,-0.02373453713391462,-0.022846268960685284,0.002,8e-05,0,-1.1683483821630907,-0.001564412170868454,-9.346787057304726e-05,0.0,-0.0016578800414415013,0.2,0.02,0.005,-0.2088761226933814,-0.022875559097917022,-0.004177522453867628,-0.0002959437061309743,-0.027349025257915622,0.048031876942561016,0.0,-0.048031876942561016,0.057934347206258285,0.0,-0.057934347206258285,-0.782206085434227,0.0,0.782206085434227,-0.1143777954895851,0,0.1143777954895851,0.002452626717913173,0.022851210592474254,0.027349025257915622,0.4,0.033452749252319336,1.7292335033416748,STABILIZE
0.03,0.005,0.06,-0.1567339655299595,0.004185435595250627,-0.0007836698276497975,0.027231301273811067,0.030633067041411895,0.03,0.005,0.06,-0.11093800039027304,-0.00035905999112087055,-0.0005546900019513652,-0.04820407941123604,-0.049117829404308276,0.002,8e-05,0,-1.1937436140448439,-0.0015183180121100819,-9.549948912358751e-05,0.0,-0.0016138175012336694,0.2,0.02,0.005,-0.21392334776517402,-0.03017610854414971,-0.00427846695530348,-0.0008470053899721458,-0.03530158088942533,-0.011968666370695685,0.0,0.011968666370695685,0.13951451984168756,0.0,-0.13951451984168756,-0.7591590060550409,0.0,0.7591590060550409,-0.15088054272074855,0,0.15088054272074855,0.030503615939341658,0.04919832696728119,0.03530158088942533,0.4,0.03345179557800293,1.7627146244049072,STABILIZE
0.03,0.005,0.06,-0.1507444802653401,0.005374051869309011,-0.0007537224013267005,0.05640560869732131,0.06102593816530362,0.03,0.005,0.06,-0.11546166368913378,-0.004058846484016174,-0.0005773083184456689,-0.07984098578555338,-0.08447714058801521,0.002,8e-05,0,-1.2194102683954935,-0.0015352897697437564,-9.755282147163948e-05,0.0,-0.0016328425912153959,0.2,0.02,0.005,-0.21676943173827853,-0.01702428196539934,-0.004335388634765571,-0.0006478534147787834,-0.022007524014943693,-0.13529488280053914,0.0,0.13529488280053914,0.17913506231030038,0.0,-0.17913506231030038,-0.7676448848718782,0.0,0.7676448848718782,-0.08512140982699669,0,0.08512140982699669,0.0609003674966374,0.08456771044350947,0.022007524014943693,0.4,0.03343558311462402,1.7961254119873047,STABILIZE
0.03,0.005,0.06,-0.14464249437760807,0.0054687144907816275,-0.0007232124718880403,0.06238837100175601,0.0671338730206496,0.03,0.005,0.06,-0.11912467571619229,-0.003282860255799056,-0.0005956233785809615,-0.08712255919756276,-0.09100104283194278,0.002,8e-05,0,-1.2461258387456653,-0.0015961997661254569,-9.969006709965323e-05,0.0,-0.0016958898332251101,0.2,0.02,0.005,-0.220375554754659,-0.02154583503147676,-0.00440751109509318,-0.0010390174290299103,-0.02699236355559985,-0.10942867519330186,0.0,0.10942867519330186,0.18229048302605425,0.0,-0.18229048302605425,-0.7980998830627284,0.0,0.7980998830627284,-0.1077291751573838,0,0.1077291751573838,0.06696265167144427,0.09112710894340174,0.02699236355559985,0.4,0.033473968505859375,1.8296244144439697,STABILIZE
0.03,0.005,0.06,-0.13836798595891905,0.005631073147248214,-0.0006918399297945952,0.07585792832262644,0.08079716154008007,0.03,0.005,0.06,-0.12198986157239751,-0.0025713681551045886,-0.0006099493078619876,-0.06949764869041827,-0.07267896615338484,0.002,8e-05,0,-1.2739463321467854,-0.0016645047216514355,-0.00010191570657174285,-0.0,-0.0017664204282231784,0.2,0.02,0.005,-0.22474262992339428,-0.02612828296522577,-0.004494852598467886,-0.0015746450566670022,-0.03219778062036066,-0.08571227183681962,0.0,0.08571227183681962,0.18770243824160715,0.0,-0.18770243824160715,-0.8322523608257177,0.0,0.8322523608257177,-0.13064141482612884,0,0.13064141482612884,0.08063123468329886,0.07286300451879155,0.03219778062036066,0.4,0.03342795372009277,1.8630259037017822,STABILIZE
0.03,0.005,0.06,-0.13388982154819373,0.004017736219273479,-0.0006694491077409687,0.02725914118857994,0.03060742830011245,0.03,0.005,0.06,-0.12164935468010357,0.0003054972414154855,-0.0006082467734005179,-0.013584560651930071,-0.013887310183915104,0.002,8e-05,0,-1.3028299970603932,-0.0017275969351910516,-0.00010422639976483146,-0.0,-0.0018318233349558831,0.2,0.02,0.005,-0.2267395410245524,-0.011943974244710324,-0.004534790820491048,0.0016357200610909045,-0.014843045004110466,0.010183241380516184,0.0,-0.010183241380516184,0.1339245406424493,0.0,-0.1339245406424493,-0.8637984675955258,0.0,0.8637984675955258,-0.05971987122355162,0,0.05971987122355162,0.03059293681687213,0.013919205013565484,0.014843045004110466,0.4,0.03343796730041504,1.8964638710021973,STABILIZE
0.03,0.005,0.06,-0.1321734222624744,0.001537995454446802,-0.000660867111312372,-0.03163231282420426,-0.030755184481069835,0.03,0.005,0.06,-0.11735564671573719,0.003847416732727174,-0.000586778233578686,0.05025607213329077,0.05351671063243926,0.002,8e-05,0,-1.3313826325668496,-0.001705656874705684,-0.00010651061060534798,-0.0,-0.001812167485311032,0.2,0.02,0.005,-0.22839923323122313,-0.00991455034532015,-0.004567984664624463,0.0030300051580387146,-0.011452529851905898,0.12824722442423914,0.0,-0.12824722442423914,0.051266515148226735,0.0,-0.051266515148226735,-0.852828437352842,0.0,0.852828437352842,-0.04957275172660075,0,0.04957275172660075,-0.03070886990332864,-0.053543300221795376,0.011452529851905898,0.4,0.033479928970336914,1.929976224899292,STABILIZE
0.03,0.005,0.06,-0.13068538928293666,0.001334182802686426,-0.0006534269464146833,-0.04828862406293889,-0.04760786820666715,0.03,0.005,0.06,-0.1133438612328854,0.003597000384326639,-0.000566719306164427,0.09152406580838182,0.09455434688654403,0.002,8e-05,0,-1.3552334052958899,-0.0014256534742374506,-0.00010841867242367119,0.0,-0.0015340721466611217,0.2,0.02,0.005,-0.23050516222058462,-0.012587956852756283,-0.004610103244411692,0.000663764367711113,-0.016534295729456864,0.11990001281088797,0.0,-0.11990001281088797,0.044472760089547536,0.0,-0.044472760089547536,-0.7128267371187252,0.0,0.7128267371187252,-0.06293978426378141,0,0.06293978426378141,-0.04750397094152742,-0.09460658737694118,0.016534295729456864,0.4,0.03345942497253418,1.9634037017822266,STABILIZE
0.03,0.005,0.06,-0.1241209434358009,0.005803444443737721,-0.0006206047171790045,0.0032621998892352067,0.008445039615793922,0.03,0.005,0.06,-0.1091880351850594,0.0036740505060179106,-0.000545940175925297,0.08315959148730465,0.08628770181739726,0.002,8e-05,0,-1.377725916162704,-0.0013256669870331693,-0.00011021807329301633,0.0,-0.0014358850603261855,0.2,0.02,0.005,-0.23398922756005164,-0.020534436677821007,-0.004679784551201033,0.00016827079091223275,-0.025045950438109806,0.12246835020059703,0.0,-0.12246835020059703,0.19344814812459069,0.0,-0.19344814812459069,-0.6628334935165846,0.0,0.6628334935165846,-0.10267218338910503,0,0.10267218338910503,0.008599650744187374,-0.08627243004644293,0.025045950438109806,0.4,0.03393387794494629,1.9973444938659668,STABILIZE
0.03,0.005,0.06,-0.11580405161865619,0.007409949575065639,-0.000579020258093281,0.020403658936437793,0.02723458825341015,0.03,0.005,0.06,-0.1083183348825039,0.0007748610333094393,-0.0005415916744125195,0.04020534649398016,0.04043861585287708,0.002,8e-05,0,-1.3990763822273613,-0.0012681490507237354,-0.00011192611057818891,0.0,-0.0013800751613019244,0.2,0.02,0.005,-0.2439673678956,-0.05926694600573799,-0.004879347357912,-0.004897774024558875,-0.06904406738820887,0.025828701110314642,0.0,-0.025828701110314642,0.24699831916885465,0.0,-0.24699831916885465,-0.6340745253618677,0.0,0.6340745253618677,-0.29633473002868993,0,0.29633473002868993,0.027443372260073973,-0.0402972178744929,0.06904406738820887,0.4,0.03367185592651367,2.031057834625244,STABILIZE
0.03,0.005,0.06,-0.11101188536674246,0.004300281427821617,-0.0005550594268337124,0.002496709293800456,0.00624193129478836,0.03,0.005,0.06,-0.10812366352849187,0.00017468960052305073,-0.0005406183176424594,-0.0013899139136034967,-0.0017558426307229054,0.002,8e-05,0,-1.420670931555009,-0.0012918672479803476,-0.00011365367452440073,0.0,-0.0014055209225047483,0.2,0.02,0.005,-0.25711158184757416,-0.07863363688382848,-0.0051422316369514835,-0.009915233427598797,-0.09369110194837876,0.005822986684101691,0.0,-0.005822986684101691,0.14334271426072057,0.0,-0.14334271426072057,-0.6459336239901737,0.0,0.6459336239901737,-0.39316818441914236,0,0.39316818441914236,0.00622973569805189,0.0017986335827900458,0.09369110194837876,0.4,0.0334315299987793,2.0644493103027344,STABILIZE
0.03,0.005,0.06,-0.10630509271745996,0.0034332628639433655,-0.0005315254635872998,0.02369094491516376,0.026592682315519825,0.03,0.005,0.06,-0.103206601591807,0.0035866390140434595,-0.0005160330079590351,-0.010523258014649385,-0.00745265200856496,0.002,8e-05,0,-1.4472023081220355,-0.001290180620282259,-0.00011577618464976286,0.0,-0.001405956804932022,0.2,0.02,0.005,-0.2748184497389517,-0.08610581415419509,-0.005496368994779034,-0.011126715735032234,-0.10272889888400637,0.11955463380144865,0.0,-0.11955463380144865,0.11444209546477885,0.0,-0.11444209546477885,-0.6450903101411295,0.0,0.6450903101411295,-0.4305290707709754,0,0.4305290707709754,0.026535931758395994,0.007652261130455432,0.10272889888400637,0.4,0.04112815856933594,2.105651378631592,STABILIZE
0.03,0.005,0.06,-0.10524789984307893,0.0009483271957286112,-0.0005262394992153947,-0.0035931400310057703,-0.003171052334492554,0.03,0.005,0.06,-0.10065545101387083,0.0022884428490611247,-0.0005032772550693542,-0.02305642466702216,-0.021271259073030388,0.002,8e-05,0,-1.4688689368236447,-0.0012956988098959787,-0.00011750951494589158,0.0,-0.0014132083248418702,0.2,0.02,0.005,-0.28053781281121853,-0.03420269959003236,-0.0056107562562243704,-0.0029674942421077308,-0.04278095008836446,0.07628142830203749,0.0,-0.07628142830203749,0.03161090652428704,0.0,-0.03161090652428704,-0.6478494049479894,0.0,0.6478494049479894,-0.1710134979501618,0,0.1710134979501618,-0.0032345274760554425,0.021261699543232912,0.04278095008836446,0.4,0.03344392776489258,2.1390626430511475,STABILIZE
0.03,0.005,0.06,-0.10705494106211158,-0.0015165334275616844,-0.0005352747053105579,-0.08385646198150717,-0.08590827011437942,0.03,0.005,0.06,-0.09943212265310472,0.0010266607825244716,-0.0004971606132655236,-0.038083763046403915,-0.037554262877144966,0.002,8e-05,0,-1.4922217984862667,-0.0013065702824992735,-0.00011937774387890134,0.0,-0.0014259480263781748,0.2,0.02,0.005,-0.2775304922576235,0.016825670969334006,-0.00555060984515247,0.005340854176666452,0.016615915300847987,0.03422202608414906,0.0,-0.03422202608414906,-0.05055111425205615,0.0,0.05055111425205615,-0.6532851412496368,0.0,0.6532851412496368,0.08412835484667003,0,-0.08412835484667003,-0.08585303597248069,0.03768036290428773,-0.016615915300847987,0.4,0.03574681282043457,2.174802541732788,STABILIZE
0.03,0.005,0.06,-0.10760213381844541,-0.0004904288889037278,-0.000538010669092227,-0.09067857629856323,-0.09170701585655919,0.03,0.005,0.06,-0.10049605940619015,-0.0009535676663109758,-0.0005024802970309508,-0.027307342178075636,-0.02876339014141756,0.002,8e-05,0,-1.5122924583970274,-0.0011992399784368677,-0.0001209833966717622,0.0,-0.0013202233751086298,0.2,0.02,0.005,-0.27646469938016244,0.006368208285464827,-0.0055292939876032485,0.009530213538267631,0.01036912783612921,-0.031785588877032527,0.0,0.031785588877032527,-0.01634762963012426,0.0,0.01634762963012426,-0.5996199892184338,0.0,0.5996199892184338,0.031841041427324135,0,-0.031841041427324135,-0.09169101698826532,0.028814350129757176,-0.01036912783612921,0.4,0.033472299575805664,2.2082571983337402,STABILIZE
0.03,0.005,0.06,-0.10465106678407714,0.0026459890691376453,-0.0005232553339203857,-0.015976449905607055,-0.013853716170389795,0.03,0.005,0.06,-0.10001242185063604,0.00043363965322278087,-0.0005000621092531802,-0.003542447218155616,-0.0036088696741860154,0.002,8e-05,0,-1.5313362095698402,-0.0011383353174021509,-0.00012250689676558723,0.0,-0.001260842214167738,0.2,0.02,0.005,-0.2855231916456958,-0.05414690401433047,-0.005710463832913916,0.0033834963599174857,-0.0564738714873269,0.01445465510742603,0.0,-0.01445465510742603,0.08819963563792152,0.0,-0.08819963563792152,-0.5691676587010754,0.0,0.5691676587010754,-0.27073452007165233,0,0.27073452007165233,-0.013870614109766583,0.003543367927963924,0.0564738714873269,0.4,0.03345894813537598,2.2417471408843994,STABILIZE
0.03,0.005,0.06,-0.09952020533389562,0.00419076038011025,-0.0004976010266694781,0.009278988354102884,0.012972147707543655,0.03,0.005,0.06,-0.09750922579614872,0.0020445484546113817,-0.0004875461289807436,-0.019182694612389715,-0.017625692286759077,0.002,8e-05,0,-1.5523388809053151,-0.0011436307367849081,-0.00012418711047242523,0.0,-0.0012678178472573334,0.2,0.02,0.005,-0.30482234832675137,-0.1050871502102848,-0.0060964469665350275,-0.0026425569592348304,-0.11382615413605465,0.06815161515371272,0.0,-0.06815161515371272,0.13969201267034165,0.0,-0.13969201267034165,-0.5718153683924541,0.0,0.5718153683924541,-0.5254357510514239,0,0.5254357510514239,0.012809966611431085,0.01774391163604771,0.11382615413605465,0.4,0.03672981262207031,2.2784390449523926,STABILIZE
0.03,0.005,0.06,-0.09472786983773857,0.004279284378712031,-0.00047363934918869286,0.04005356726440628,0.04385921229392962,0.03,0.005,0.06,-0.09443797024366572,0.0027424573924993726,-0.0004721898512183286,0.004653386361596383,0.0069236539028774274,0.002,8e-05,0,-1.5744618903967458,-0.0013169730291586476,-0.00012595695123173968,-0.0,-0.0014429299803903873,0.2,0.02,0.005,-0.32544301499646483,-0.12275392214518797,-0.006508860299929297,-0.013031516599713999,-0.14229429904483126,0.09141524641664575,0.0,-0.09141524641664575,0.14264281262373438,0.0,-0.14264281262373438,-0.6584865145793238,0.0,0.6584865145793238,-0.6137696107259398,0,0.6137696107259398,0.043930862664547286,-0.006453432571856808,0.14229429904483126,0.4,0.03359675407409668,2.3120522499084473,STABILIZE
0.03,0.005,0.06,-0.09034946506594924,0.0039118885180392075,-0.00045174732532974617,0.0632582187842132,0.06671835997692266,0.03,0.005,0.06,-0.09002690081353132,0.003941072777737872,-0.0004501345040676566,0.03305120208346912,0.03654214035713934,0.002,8e-05,0,-1.5984447114577696,-0.0014284977783581736,-0.00012787557691662158,-0.0,-0.0015563733552747953,0.2,0.02,0.005,-0.34334799405622946,-0.10664809925130403,-0.006866959881124589,-0.0177706950167556,-0.13128575414918423,0.1313690925912624,0.0,-0.1313690925912624,0.13039628393464026,0.0,-0.13039628393464026,-0.7142488891790868,0.0,0.7142488891790868,-0.5332404962565201,0,0.5332404962565201,0.06705555610874954,-0.035919632164562176,0.13128575414918423,0.4,0.033577680587768555,2.3456344604492188,STABILIZE
0.03,0.005,0.06,-0.08636140768624656,0.0035779181236586313,-0.0004318070384312328,0.047001094914866294,0.050147206000093696,0.03,0.005,0.06,-0.08426852592965683,0.005166172875218562,-0.0004213426296482842,0.0713700684549227,0.07611489870049298,0.002,8e-05,0,-1.6243192900407015,-0.0015475725788212085,-0.00012994554320325613,-0.0,-0.0016775181220244646,0.2,0.02,0.005,-0.3586855659733947,-0.09173484951117444,-0.007173711319467894,-0.013978664129470728,-0.11288722496011307,0.1722057625072854,0.0,-0.1722057625072854,0.11926393745528771,0.0,-0.11926393745528771,-0.7737862894106042,0.0,0.7737862894106042,-0.45867424755587216,0,0.45867424755587216,0.05075492100162119,-0.07571101682001989,0.11288722496011307,0.4,0.033438920974731445,2.37907338142395,STABILIZE
0.03,0.005,0.06,-0.08265298212615521,0.003326688373768791,-0.0004132649106307761,0.006500463776957146,0.009413887240095162,0.03,0.005,0.06,-0.07964209771740914,0.004150193848135719,-0.00039821048858704574,0.0426341247821209,0.046386108141669574,0.002,8e-05,0,-1.651464332668722,-0.001623386101960195,-0.00013211714661349777,-0.0,-0.0017555032485736927,0.2,0.02,0.005,-0.3731552682211208,-0.08653481908410549,-0.007463105364422415,-0.0041580175812870376,-0.09815594202981494,0.1383397949378573,0.0,-0.1383397949378573,0.1108896124589597,0.0,-0.1108896124589597,-0.8116930509800975,0.0,0.8116930509800975,-0.4326740954205274,0,0.4326740954205274,0.009763904248573683,-0.046313696411802156,0.09815594202981494,0.4,0.03344249725341797,2.4125142097473145,STABILIZE
0.03,0.005,0.06,-0.077275718854739,0.003868169298078676,-0.00038637859427369497,-0.005129043831873736,-0.0016472531280687553,0.03,0.005,0.06,-0.0758865794824415,0.0027015564612759666,-0.0003794328974122075,0.011196297052438874,0.013518420616302634,0.002,8e-05,0,-1.6839924346001591,-0.0015599534418037492,-0.00013471939476801274,-0.0,-0.0016946728365717619,0.2,0.02,0.005,-0.39724252539689187,-0.11551550045605735,-0.007944850507937837,-0.0006981362274215215,-0.12415848719141671,0.09005188204253223,0.0,-0.09005188204253223,0.12893897660262255,0.0,-0.12893897660262255,-0.7799767209018745,0.0,0.7799767209018745,-0.5775775022802867,0,0.5775775022802867,-0.0015108975563452452,-0.013534338823948451,0.12415848719141671,0.4,0.04170393943786621,2.454286813735962,STABILIZE
0.03,0.005,0.06,-0.0725709562252743,0.004223746897983201,-0.00036285478112637156,-0.0019266923009342227,0.001934199815922607,0.03,0.005,0.06,-0.07212222635076211,0.003379485027208115,-0.00036061113175381055,0.011001948389037376,0.01402082228449168,0.002,8e-05,0,-1.7100297745462776,-0.001558351858751333,-0.00013680238196370223,-0.0,-0.0016951542407150353,0.2,0.02,0.005,-0.4146796661736856,-0.10436243025231223,-0.008293593323473713,0.0035998980903377458,-0.1090561254854482,0.11264950090693716,0.0,-0.11264950090693716,0.14079156326610673,0.0,-0.14079156326610673,-0.7791759293756665,0.0,0.7791759293756665,-0.5218121512615611,0,0.5218121512615611,0.002061810233738642,-0.014002625647401425,0.1090561254854482,0.4,0.0334165096282959,2.4876418113708496,STABILIZE
0.03,0.005,0.06,-0.06882933174775403,0.0033554890661100486,-0.00034414665873877016,-0.007932073814740951,-0.004920731407369673,0.03,0.005,0.06,-0.06893584679393845,0.0028575453864050884,-0.0003446792339696923,-0.009517773986106474,-0.007004907833671078,0.002,8e-05,0,-1.7365982810739489,-0.0015884425546905398,-0.00013892786248591592,-0.0,-0.0017273704171764557,0.2,0.02,0.005,-0.43393436319958645,-0.11511742333638451,-0.008678687263991729,-0.00040590793357276293,-0.124202018533949,0.09525151288016961,0.0,-0.09525151288016961,0.11184963553700163,0.0,-0.11184963553700163,-0.7942212773452699,0.0,0.7942212773452699,-0.5755871166819225,0,0.5755871166819225,-0.004990852461727333,0.00695512207275839,0.124202018533949,0.4,0.03345227241516113,2.5211126804351807,STABILIZE
0.03,0.005,0.06,-0.06203657725483799,0.0035317080355336287,-0.00031018288627419,-0.0027154802284354725,0.0005060449208239663,0.03,0.005,0.06,-0.06344074226576187,0.0028570302133689015,-0.00031720371132880934,-0.024176125581591622,-0.02163629907955153,0.002,8e-05,0,-1.783524885546799,-0.0016265474854607652,-0.00014268199084374394,-0.0,-0.001769229476304509,0.2,0.02,0.005,-0.4641519996004918,-0.10473892380791523,-0.009283039992009837,-0.0017364953746043027,-0.11575845917452937,0.09523434044563006,0.0,-0.09523434044563006,0.1177236011844543,0.0,-0.1177236011844543,-0.8132737427303826,0.0,0.8132737427303826,-0.5236946190395761,0,0.5236946190395761,0.00030826653541673766,0.021640020588364426,0.11575845917452937,0.4,0.05770087242126465,2.5788955688476562,STABILIZE
0.03,0.005,0.06,-0.05792574549298671,0.003554725614454947,-0.00028962872746493356,0.0005548199309317518,0.0038199168179217655,0.03,0.005,0.06,-0.0612679210136742,0.0018788857846495125,-0.000306339605068371,-0.023301810660424804,-0.02172926448084366,0.002,8e-05,0,-1.8124000701546774,-0.0016646000013959068,-0.0001449920056123742,-0.0,-0.0018095920070082812,0.2,0.02,0.005,-0.4826157892079367,-0.10644026912278473,-0.009652315784158734,-0.002759152207879117,-0.11885173711482258,0.06262952615498375,0.0,-0.06262952615498375,0.1184908538151649,0.0,-0.1184908538151649,-0.8323000006979534,0.0,0.8323000006979534,-0.5322013456139236,0,0.5322013456139236,0.003617919056502793,0.02176380851493804,0.11885173711482258,0.4,0.034693241119384766,2.613508701324463,STABILIZE
0.03,0.005,0.06,-0.053935307720760176,0.003578038318373751,-0.0002696765386038009,-0.0043600389480768515,-0.0010516771683069014,0.03,0.005,0.06,-0.0602674340334235,0.0008970897321808424,-0.00030133717016711753,-0.021145060403376527,-0.0205493078413628,0.002,8e-05,0,-1.840871202370084,-0.0017019152258302926,-0.00014726969618960673,-0.0,-0.0018491849220198995,0.2,0.02,0.005,-0.5006944979073474,-0.10806886556562063,-0.010013889958146949,0.00047204038636041324,-0.11761071513740717,0.02990299107269475,0.0,-0.02990299107269475,0.1192679439457917,0.0,-0.1192679439457917,-0.8509576129151463,0.0,0.8509576129151463,-0.5403443278281032,0,0.5403443278281032,-0.001245423685903011,0.020538476025937866,0.11761071513740717,0.4,0.03345775604248047,2.646946668624878,STABILIZE
