Mode,Time,Freq,North-Vision,East-Vision,Down-Vision,Yaw-Vision,North-Desired,East-Desired,Down-Desired,Roll-UAV,Pitch-UAV,Yaw-UAV,Roll-Control,Pitch-Control,Yaw-Control,Thrust-Control,northVraw,eastVraw,downVraw,N-Velocity,E-Velocity,D-Velocity,N-Acceleration,E-Acceleration,D-Acceleration,yawVraw,yawRate,Landing-State,Q-Size
GUIDED_NOGPS,0.059027910232543945,16.946203541718013,-3.722765566397115,48.86965565570246,68.07548299366857,-6.112564305481184,-3.939583507631049,48.496226532303815,67.699757502454,-0.6439819312954193,-0.15559309667506563,-7.033835102098089,-0.3192585052822164,0.27637260447558043,-10.0,0.49924679894807505,-3.1937585203696575,50.367831380504825,70.35947983626748,7.2802044451236725,14.726456999778748,13.958029448986053,18.451981246471405,12.877680361270905,-13.402719795703888,-6.099670939626689,-3.9612275464173092,False,4
GUIDED_NOGPS,0.06637811660766602,136.13892044532443,-3.049423107100794,49.7698187267717,68.84331594391487,-6.235164988175175,-3.8492661654359606,48.978390687534244,67.89738893986839,-0.6439819312954193,-0.15559309667506563,-7.033835102098089,-2.3623024137225674,4.281898060447687,-10.0,0.4981058224534433,-3.1937585203696575,50.367831380504825,70.35947983626748,7.091248780488968,15.800724923610687,13.01567554473877,25.118425488471985,13.320040702819824,-28.500723838806152,-6.099670939626689,-4.933849472434887,False,3
GUIDED_NOGPS,0.09036803245544434,41.69578400087481,-3.0224287189527783,50.00928723104056,69.12719241622644,-6.293773611798703,-3.812802558438626,49.48862039094092,68.00658658893835,-0.7562627707310242,-0.2338529772982486,-6.876934130918672,0.5304271386400241,-0.018701678623818857,-4.756055848770223,0.49775431979049956,-3.109360512056238,51.368621409990226,71.52624272730304,6.668379157781601,16.02443903684616,14.511255919933319,15.301835536956787,13.193617761135101,-16.309107840061188,-6.307138777818661,-4.095004912161649,False,2
GUIDED_NOGPS,0.09742331504821777,141.8096493897285,-2.912351808845272,50.38081015949502,69.55157816391981,-6.406047118932565,-3.827175248423382,50.02426783000372,68.03056827305812,-0.7562627707310242,-0.2338529772982486,-6.876934130918672,1.251883813557241,0.9937018105579677,-10.0,0.49695264954461366,-2.909732405622634,51.85100410362342,72.00665831466293,5.3126271814107895,16.756069660186768,17.490357160568237,40.480837225914,4.93825376033783,-0.3735143691301346,-6.4092053508999705,-6.673888401706648,False,2
GUIDED_NOGPS,0.11299014091491699,64.26968633640305,-2.8215358504306436,50.580284950239395,69.81090264165479,-6.429935922023734,-3.8894460703168807,50.582766476007926,67.97249498887969,-0.8429276260147309,-0.23338265474086975,-6.756161445354037,1.2274451044891468,0.5443841353816911,-4.47472867248113,0.496315575437144,-2.693787295115804,52.395509085084434,72.52222621639885,11.668021231889725,16.380882263183594,16.589659452438354,-121.44702672958374,30.878612399101257,-9.263646602630615,-6.487924100316285,-2.860988231513098,False,1
GUIDED_NOGPS,0.11784720420837402,206.09817699375952,-2.738438800458532,50.92349933082767,70.19688671077358,-6.516706302556604,-3.9967552451198443,51.161630101037595,67.83547134094346,-0.8429276260147309,-0.23338265474086975,-6.756161445354037,2.6680987577699202,2.1314240106052194,-10.0,0.4952686296030001,-3.574206777317438,54.047008446665714,73.95152685149773,9.667780250310898,16.62350296974182,17.59684681892395,16.10020399093628,2.7872104197740555,42.704299092292786,-6.46919730143635,-6.718555704444416,False,0
GUIDED_NOGPS,0.13337349891662598,64.43259186432346,-2.7181186448757506,51.11230590145986,70.46368643874506,-6.574685490839138,-4.146320492838815,51.75845179496887,67.62254597630891,-0.6789042616348713,-0.1782799968900861,-6.697455115664131,1.4410614584912258,0.6112041878939323,-5.441341033916,0.4943056570924837,-2.7830638859148236,53.14641804855442,73.26212562397353,8.110500872135162,17.749764025211334,20.632116496562958,-107.62887001037598,14.661586284637451,-183.9922547340393,-6.647702799974107,-6.210010981583355,False,0
GUIDED_NOGPS,0.1678323745727539,29.02451750410009,-2.6143531686964456,51.42466941430373,70.80373686732007,-6.64860254365775,-4.335436145417913,52.37090298246331,67.33671201918533,-0.6369333361545247,-0.14460961888115623,-6.412991823998263,0.5728068162829637,0.5850394623398445,-4.846309964970755,0.49304432088572603,-2.453285441153165,54.241492456384265,74.351702090204,8.503450453281403,17.364591360092163,17.22363829612732,17.02924370765686,25.51218271255493,-18.62504780292511,-6.942498025687396,-5.340114246909123,False,0
GUIDED_NOGPS,0.1978440284729004,33.32806776374862,-2.413764312600132,51.96411763167777,71.27761049228079,-6.797674614076823,-4.561472259670581,52.996732439961235,66.98090750556237,-0.6525016317896581,-0.1035186672258306,-6.247686731931968,0.3367711272594804,0.9947036250090726,-6.0710797132673555,0.49137467760887527,-3.013238284320299,55.269498811609246,75.50706409348794,7.86314457654953,16.68187379837036,9.384346008300781,-63.262736797332764,5.568518117070198,-226.89411640167236,-6.96155581694889,-8.00176212683493,False,0
GUIDED_NOGPS,0.23557114601135254,26.50948369032796,-2.2438180638193344,52.43949700153409,71.73486505542672,-6.939480540007832,-4.821873730211344,53.63376531267504,66.55801581784078,-0.4948382407441382,0.0949668434981515,-5.793433048349223,0.4034428903539524,0.8486267941515474,-5.666913032519132,0.4895987577344312,-3.013238284320299,55.269498811609246,75.50706409348794,8.413603901863098,16.532082855701447,13.205903768539429,-1.5694864094257355,1.3137854635715485,-28.88510823249817,-6.96155581694889,-8.268301721458215,False,0
GUIDED_NOGPS,0.2685883045196533,30.292969709225904,-1.9795397746063959,52.99051687766055,72.25036075892773,-7.112920931172553,-5.114159402387559,54.27990213158252,66.07086611946309,-0.013134667217346083,0.24419692527026268,-5.3509072264582125,0.3888213654303587,1.2231270279494868,-6.366588332893722,0.4875771260776253,-1.9786335901663121,54.982740891588335,75.21882716275428,8.844524621963501,16.895152628421783,12.984488904476166,11.508668214082718,20.541884005069733,-82.60140419006348,-7.225290502721496,-7.9977178010726355,False,0
GUIDED_NOGPS,0.3026695251464844,29.344546046049548,-1.7189069994346957,53.509727200839556,72.74635351381033,-7.267241308487585,-5.435921185211167,54.93311783042023,65.52223378954423,0.42886992586262784,0.27098850237219635,-4.978597883669049,0.4617073599916166,1.2758062793301053,-6.1719321423809,0.48546818349624427,-1.6741547534092251,55.89974442062542,75.9633304503869,10.594220459461212,16.699542105197906,13.982261717319489,18.11496913433075,3.820936009287834,27.449417114257812,-7.604199368439875,-6.453838062782232,False,0
GUIDED_NOGPS,0.3355231285095215,30.4438057079813,-1.5528991434995343,54.0783407757367,73.2465071312922,-7.451290550205881,-5.784823164290447,55.59146076267678,64.91484085750224,0.5418228986012443,0.2536756803735065,-4.757915325359583,0.40650794138227275,1.2365988351970454,-6.708254046759928,0.48323115948128553,-1.6473355692444382,56.606031334829524,76.68418982463002,3.4581325948238373,18.526732921600342,12.489667534828186,-50.01634955406189,26.464945077896118,-22.976478934288025,-7.98922688736407,-7.487374604025745,False,0
GUIDED_NOGPS,0.3754308223724365,25.060369963194876,-1.3729309369840208,54.67215298630846,73.76460598286333,-7.635265069568066,-6.158600714761769,56.25305171858621,64.25135643768888,0.5783601417925813,0.21484738896330632,-4.546979873882549,0.3568640437687858,1.1833848143108114,-6.432192780974997,0.48083773619320846,-1.4239445587638992,57.45392621980863,77.35884774159572,4.989160597324371,19.55331414937973,13.558906316757202,-18.519842624664307,30.538740754127502,43.24820339679718,-8.40158283106659,-6.645166175586276,False,0
GUIDED_NOGPS,0.4080066680908203,30.701635984335542,-1.1563265011106207,55.34800791800602,74.25627155913214,-7.807790179733846,-6.555059614221341,56.91608294212126,63.53439716402039,0.7289469232494391,0.2888558503541266,-4.236476486006007,0.30187667611078317,1.533120941202646,-6.797024986627032,0.4783924639888566,-1.5619707838474488,57.751380704327985,77.52223998539249,5.73682077229023,19.67330425977707,7.267342507839203,-58.56184363365173,18.947817385196686,-117.10991859436035,-8.549365986260518,-3.9562291286053295,False,0
GUIDED_NOGPS,0.4491732120513916,24.294806593992192,-0.9906450406382346,55.963877423919314,74.66089979587082,-7.992041044431986,-6.972075155656976,57.578817147986754,62.76652762460804,0.7528356165932645,0.2090768396099976,-4.014155109182561,0.35397196087269617,1.2932211859699314,-6.584464791289855,0.476008273280516,-1.3960007705082123,58.217950865858924,77.9607294699221,5.929159000515938,22.340229153633118,7.363022863864899,-80.76514005661011,43.65094602108002,-43.82648169994354,-8.819973107975848,-6.441382359057068,False,0
GUIDED_NOGPS,0.48671770095825195,26.640650406504065,-0.7544909570685568,56.69061931823751,75.13600028235749,-8.190922032794852,-7.407591260379824,58.23958653861291,61.950260796388896,0.7969914021952218,0.17771639956185428,-3.829650782246184,0.2522323694484558,1.6181705268532292,-7.090447955183502,0.4733869721839536,-1.2841815073323657,59.14067438433302,78.47275666795406,8.29906091094017,22.57496565580368,7.431501150131226,11.236238479614258,15.625724196434021,-8.770778775215149,-9.167761569041065,-5.122538144011544,False,0
GUIDED_NOGPS,0.5208098888397217,29.33592586116454,-0.554606190722247,57.41545852837268,75.5570925894121,-8.364313988565845,-7.859619590956143,58.89679182114866,61.08805847975644,0.7467395660373224,0.12263033693631964,-3.6991442233406344,0.2559646698596805,1.6839227140736546,-6.996124214485225,0.4707797859213194,-1.276226643422747,59.84881095143419,78.7477408874443,7.19718337059021,23.31344485282898,5.761995911598206,26.370757818222046,17.59849339723587,4.276248812675476,-9.404502595906283,-3.6351026621353024,False,0
GUIDED_NOGPS,0.5546233654022217,29.57901269393512,-0.3775513517627294,58.155608472901484,75.89863960174888,-8.53867575823154,-8.32623866413904,59.548901224455,60.18233173319123,0.7347558924168291,0.11613338629260946,-3.5216011398289693,0.23381483702686534,1.7783823628611206,-7.2060884851810805,0.46824313793853056,-1.1419373258880403,60.772157471159844,79.17845788768433,6.5189458429813385,24.449697136878967,1.7090864479541779,-2.589106559753418,38.908082246780396,123.8716721534729,-9.745695066263462,-3.6072094502254397,False,0
GUIDED_NOGPS,0.5870997905731201,30.795409657927003,-0.2192057187979912,58.88289516801822,76.15168094329854,-8.738420103053473,-8.80559296380023,60.1944495160983,59.23544130789162,0.666704796725288,0.10228613824576065,-3.367024140514649,0.2510447987691239,1.8410245496660047,-7.678289083477201,0.4657988739865033,-0.9144254795346489,61.40281779699811,79.42939360351242,5.817623808979988,24.656249582767487,-2.499222755432129,-68.28187704086304,13.290616869926453,-281.404972076416,-9.930205313571326,-5.598786317382199,False,0
GUIDED_NOGPS,0.6207411289215088,29.729968812021546,-0.05955828287486856,59.597900836672636,76.39229553315522,-8.923010741551588,-9.295892053861788,60.83203701934367,58.249698082404336,0.6503886487368912,0.19917973542009043,-3.2426485301628323,0.2681190886061316,1.883807410176627,-7.5470904489400095,0.4632972971428934,-0.9144254795346489,61.40281779699811,79.42939360351242,6.386825442314148,25.158339738845825,-2.114647813141346,-53.28261852264404,19.319668412208557,-164.90254402160645,-9.930205313571326,-4.9953450806270965,False,0
GUIDED_NOGPS,0.655853271484375,28.48462457894165,0.11620997846821693,60.36488363096721,76.63793831407057,-9.117185157526905,-9.795409691227896,61.46032863014825,57.22736349725525,0.7343318870797595,0.3806085562392582,-3.1432039640552087,0.19148009574850816,1.9476844286122263,-7.683426664143682,0.4607068449472896,-0.4500162026964811,62.88825080902983,79.82715350875492,6.386825442314148,25.158339738845825,-2.114647813141346,-53.28261852264404,19.319668412208557,-164.90254402160645,-10.24238136274893,-4.9953450806270965,False,0
GUIDED_NOGPS,0.7067041397094727,19.668114079923473,0.3245728168297871,61.141526383274936,76.929039937228,-9.291864556095218,-10.302482938716603,62.07805283415453,56.17064998957994,0.7234671905443848,0.49514778705175727,-3.087613908174121,0.1866112731391214,1.6944605560792427,-6.950731993263542,0.4579268639297185,-0.4176029412379937,63.2011223117348,79.93061201242503,8.823711425065994,26.148226857185364,1.5511034056544304,64.6179735660553,9.489196538925171,18.252980709075928,-10.303503951894289,-3.929171334208324,False,0
GUIDED_NOGPS,0.7240016460418701,57.830134568718286,0.5404183535364513,62.231622489989206,77.28502111123268,-9.48175538310876,-10.815511277991568,62.68400072368377,55.08172142775446,0.690715793143939,0.4892990640489636,-3.0619516068019137,-0.780036183258591,3.621472132263528,-10.0,0.45500631105082145,-0.6025400150513153,64.07972583313244,79.95358816353291,4.041169583797455,27.185043692588806,-1.5717053785920143,-48.66196811199188,22.38139659166336,-60.05944609642029,-10.443828793968446,-0.690636178751426,False,0
GUIDED_NOGPS,0.7575654983520508,29.80052008582837,0.5455067574323841,62.68118740710439,77.35751415753681,-9.474845292964819,-11.332955722493834,63.27702501472922,53.96269354602593,0.601338925872914,0.5700484952637633,-3.060707231712502,0.5650200055917236,1.8246371597038458,-5.602545656224771,0.45256045915620335,-0.7517768467921128,64.52427765437156,79.94803225045646,5.451129004359245,27.78702974319458,-0.49099395982921124,17.527635395526886,13.496814668178558,12.299039959907532,-10.517467370952499,2.2131471366149156,False,0
GUIDED_NOGPS,0.7977540493011475,24.88625184675357,0.6484363562320373,63.42460407987332,77.59464026535808,-9.575882995343475,-11.853337930373547,63.856039063949495,52.81563437914323,0.5453923127728106,0.7327615839008912,-3.11391013647867,0.1523866315431687,1.940638660481953,-6.7500342249498475,0.44971233222136764,-1.9327205523328475,64.9160439198991,80.46823774134589,8.610816299915314,27.531105279922485,0.9151473641395569,24.95667040348053,-0.9074910543859005,77.3360550403595,-10.516740573934626,-0.6696031448109007,False,0
GUIDED_NOGPS,0.8232026100158691,39.304527096042655,0.8390949531683217,64.3645687107396,77.84692198655567,-9.703214103586127,-12.37523931742174,64.42001588566194,51.64256469698768,0.5475401938233682,0.8504586032657576,-3.133916400887872,-0.261179787434648,2.8369059942661603,-7.829523220589735,0.4468084452972521,-0.6967476725691273,67.08952718724761,79.9883660158963,8.610816299915314,27.531105279922485,0.9151473641395569,24.95667040348053,-0.9074910543859005,77.3360550403595,-10.704900489840533,-0.6696031448109007,False,0
GUIDED_NOGPS,0.8589506149291992,27.98366736943236,0.857310742874384,65.07930558656699,77.83862931566658,-9.773055971569516,-12.897300170002065,64.96798716883592,50.44545843920368,0.45265531259525676,1.0715756790003126,-3.3274000787052893,0.10576386885151237,2.0388748503478764,-6.653205862164293,0.44435326018435106,-1.1242747861927926,68.39484664112229,80.61282325463318,4.321343079209328,28.853249549865723,-10.76023131608963,-30.45162558555603,25.323903560638428,-176.1488914489746,-10.73661221856407,-0.4497137955796556,False,0
GUIDED_NOGPS,0.8905494213104248,31.64628745180591,0.9157575048594193,65.97319229866942,77.87931390455928,-9.872182627892666,-13.418218757982551,65.49904229408614,49.2262431498294,0.48279608362887677,1.250353105761046,-3.444703668501792,-0.20500175499135875,2.314686695839267,-7.16285203431957,0.4417601357437309,-1.4580107202132742,68.69499045539752,80.49032771717737,4.321343079209328,28.853249549865723,-10.76023131608963,-30.45162558555603,25.323903560638428,-176.1488914489746,-10.743419999473112,-0.4497137955796556,False,0
GUIDED_NOGPS,0.9237570762634277,30.11916097574987,0.9166363604492656,66.88954936598665,78.00522352646479,-9.914661381058924,-13.936750447667382,66.012327350666,47.98680041192743,0.5521143928548669,1.396267077330263,-3.6011997375294746,-0.28826545574680434,2.221874374564929,-6.460192014652033,0.43894964019489957,-2.181250930064696,70.91641573522293,81.25489005032327,3.8311541080474854,29.71203625202179,-5.477969720959663,31.210923194885254,3.050832822918892,-93.65843534469604,-10.69305563134817,2.1937547354573685,False,0
GUIDED_NOGPS,0.956840991973877,30.234447760333317,0.8586399427369279,67.78655961237853,78.00931420467187,-9.861850241966964,-14.451706814728599,66.50704415346097,46.72896628221547,0.5709361530516005,1.509300838400156,-3.82497551775931,-0.33375101682404185,2.159968058566733,-5.275900210492201,0.4363433488967051,-1.5982401276326672,70.1660337278895,80.30046934098644,-1.8410395830869675,30.995571613311768,-10.545144230127335,-28.676673769950867,13.002969324588776,-49.858397245407104,-10.69711816558043,8.379501470014253,False,0
GUIDED_NOGPS,0.9916667938232422,28.718864475134716,0.7517455172324904,68.8217312872817,77.99304276881574,-9.74005456466317,-14.961954757137885,66.98244925998178,45.45453172569698,0.5829922907103193,1.5418581090177854,-4.077747158563142,-0.5875319058481594,2.0992069852370676,-4.43986131160629,0.43373670775703205,-2.5418149508864127,74.08016366015991,80.16981506947334,-2.262713946402073,30.868780612945557,-10.961855202913284,-5.540294945240021,23.756492137908936,46.206486225128174,-10.3163457038182,11.566489934857005,False,0
GUIDED_NOGPS,1.0248234272003174,30.16530019274474,0.7311317876134141,69.9290846222417,77.98880347237035,-9.691450606960801,-15.466415608098334,67.43785298735791,44.16524305029181,0.610808342826902,1.6138559868325362,-4.438739304784418,-0.7663466458384434,2.3441041803339075,-5.232351453702139,0.43107630002569164,-1.9322423923902012,75.9662527706468,79.9021790798109,1.7057213932275772,31.394585967063904,-9.021295607089996,-53.280842304229736,32.56080448627472,57.86728262901306,-10.28462149132311,6.438223396565936,False,0
GUIDED_NOGPS,1.0611376762390137,27.541920571548644,0.6184785249327452,71.03536268210416,77.9491219043533,-9.592131722443686,-15.96406424897615,67.87261842933084,42.86280234146695,0.5624367296814602,1.641660726448306,-4.675736196813282,-0.8013045684047306,2.1450807902953457,-4.658441016626398,0.4284491154176418,-2.985708616531781,76.98184826383329,79.54012478264596,-0.9411416947841644,32.53481984138489,-9.614945948123932,-28.552711009979248,57.74108171463013,165.04182815551758,-10.066243542605257,8.827207563503896,False,0
GUIDED_NOGPS,1.091799259185791,32.63008689834372,0.44658596392819383,72.19587749370254,77.89627948600301,-9.448691035050885,-16.453928222232467,68.28616047324738,41.548867896867186,0.5859654507116847,1.6635443323839094,-5.11704624503203,-1.1629617338226415,2.2243981370430066,-3.7654004068496456,0.4258392976426595,-2.985708616531781,76.98184826383329,79.54012478264596,-5.375175550580025,33.728209137916565,-10.479647666215897,-67.0497477054596,1.84123944491148,-66.7289137840271,-10.066243542605257,11.64276692618677,False,0
GUIDED_NOGPS,1.1266510486602783,28.69352014010508,0.24139040714460475,73.21908242239216,77.73889360973823,-9.271739087956533,-16.935086844355027,68.67794481705303,40.22505466094562,0.38280755698688496,1.5923638361137389,-5.494736069339871,-0.8935886038334235,2.0317124596748046,-3.56398546396354,0.423400182524584,-3.589573215610768,77.5701844013106,79.0875505246126,-4.6694315969944,34.45788323879242,-15.019156038761139,-77.77913212776184,14.87446129322052,-21.659107506275177,-9.752917832007252,12.696431181140664,False,0
GUIDED_NOGPS,1.1598145961761475,30.158359458137998,0.16081917884029706,74.3789224726956,77.55727342081433,-9.034449505924465,-17.40667031879002,69.04748698628526,38.89293465959456,0.32073554486174954,1.5626595568567652,-5.9565627251648685,-1.2130633975562288,2.3549140794551247,-2.551376261316853,0.42099686201864717,-1.718008849034974,79.45535040074051,78.99999313834195,-2.378779463469982,34.84540581703186,-16.438372433185577,50.708210468292236,11.797617375850677,-71.60991430282593,-9.32205618494385,15.391095341740666,False,0
GUIDED_NOGPS,1.1930034160614014,30.13430852019226,0.0924613820045587,75.46054308804295,77.4070584505836,-8.787521444734798,-17.867858848873745,69.39435135106689,37.55403743477602,0.1986010903313434,1.5016582836057348,-6.444039302644202,-1.1770792535096835,2.3723966134415084,-2.3135426588939456,0.41851307314131203,-1.8654449844574361,79.48715350993893,78.8590731115035,-0.851895660161972,34.81195867061615,-13.709339499473572,29.57727313041687,-9.569462388753891,-1.299452781677246,-9.201135454241012,15.777827482735958,False,0
GUIDED_NOGPS,1.2318992614746094,25.71867258590665,-0.06793325338181605,76.61509109415313,77.23451951998561,-8.541367627474532,-18.31788175076443,69.71815014309945,36.209850479152465,0.03389129193989749,1.4149000468294695,-6.894982905800431,-1.2547684554136558,2.143234840288408,-2.575717896139791,0.416043007727731,-2.1578268806886998,81.61696545133928,78.10923100485013,-6.105199456214905,36.18746101856232,-12.99150288105011,21.925804018974304,5.353650450706482,23.092862963676453,-8.448996120015453,13.731273996062942,False,0
GUIDED_NOGPS,1.2666316032409668,28.791608890841445,-0.27439501955723217,77.98855629799661,76.9714004717475,-8.257875882729582,-18.756016566373958,70.01854247265638,34.861819670717466,-0.04837022576326671,1.3995956206118807,-7.526724177607835,-1.798864591664469,2.181457639362773,-1.7124867104531218,0.41375536222866127,-2.7836749508573533,84.48852987448859,77.25376675695854,-7.741156220436096,36.37353181838989,-16.0712867975235,-54.33496832847595,14.586961269378662,-63.403838872909546,-8.011426165099559,14.23157083861439,False,0
GUIDED_NOGPS,1.2999987602233887,29.97708641551777,-0.49836311126178023,79.19439971698921,76.6895297477663,-7.953073580314856,-19.18158817629962,70.2952333455765,33.511349707426334,-0.26024498833373655,1.3081458976494627,-8.01762353363499,-1.7398853926358144,2.1449411545026065,-1.1113330065216331,0.4115031126378352,-2.202247280970103,84.68923780166317,77.05682607593779,-10.11916995048523,37.152522802352905,-17.238962650299072,-58.49705934524536,10.55181622505188,-60.6178343296051,-7.320927956583895,14.836140764129837,False,0
GUIDED_NOGPS,1.3338091373443604,29.579221292110663,-0.6915568933693473,80.3654732643011,76.49345124294713,-7.643047303843508,-19.593967912755865,70.54797268025729,32.159804541826844,-0.3143996372720636,1.3154915526583997,-8.611370170636908,-1.771218464847795,2.182474415635517,-0.9243817858205006,0.40907205546863606,-2.202247280970103,84.68923780166317,77.05682607593779,-8.228224515914917,37.23438084125519,-11.743978410959244,-13.243108987808228,21.90103530883789,83.53122472763062,-7.320927956583895,15.480470074577575,False,0
GUIDED_NOGPS,1.3648474216461182,32.224463924891865,-0.9410815197275887,81.47072556041714,76.32367353107381,-7.282126529669713,-19.99257267250608,70.77655432464819,30.808507815689815,-0.37231841413415523,1.3203159073682502,-9.061411335049048,-1.9164353807667882,2.1009824115157807,0.2917964988534001,0.4065962374281067,-2.202247280970103,84.68923780166317,77.05682607593779,-12.1598519384861,38.7592613697052,-10.53682565689087,-30.311107635498047,23.049473762512207,55.717915296554565,-7.320927956583895,19.71651583177905,False,0
GUIDED_NOGPS,1.3985521793365479,29.673809843859438,-1.2413469721642878,82.66754780972803,75.97473978426542,-6.932091566411017,-20.37686402979429,70.98081507324396,29.458743294639895,-0.5728341985889236,1.309457827578634,-9.329002778804515,-2.0717338124038776,1.9744049225399398,-0.004829872893763465,0.4044691599206129,-5.42353421635733,88.67095384778256,75.30136801262299,-6.835179775953293,37.25919425487518,-17.909176647663116,-35.14752388000488,21.099306643009186,0.23168474435806274,-5.703025928394616,15.125124360365785,False,0
GUIDED_NOGPS,1.4396471977233887,24.33695595411476,-1.624693255044996,83.9578243458717,75.61753151091325,-6.556261284660045,-20.74634734927697,71.16063368407802,28.111755302786136,-0.5728341985889236,1.309457827578634,-9.329002778804515,-2.0660067608140404,1.7880761292316254,-0.2635671222064322,0.4023339323708061,-5.6979330902319685,89.55263649963896,75.16412161873288,-11.865527927875519,38.74945640563965,-17.797154188156128,39.96745944023132,-7.40833580493927,-29.068025946617126,-5.3573858242418595,15.492028462200528,False,0
GUIDED_NOGPS,1.468395709991455,34.79739494752562,-2.026297526484353,85.26496356041429,75.26625505077514,-6.2205624998692715,-21.100570898954754,71.31592989571575,26.7687491573527,-0.6720524613194379,1.4371426645833216,-10.049864358902246,-2.809557451897264,1.7741241427158918,0.9370631843703054,0.40023890028315257,-5.898075870549711,89.88490113721917,74.99074804814916,-12.7230703830719,39.40601050853729,-16.841024160385132,-57.372283935546875,14.921562373638153,-41.902488470077515,-5.0938915727406435,12.105810209457674,False,0
GUIDED_NOGPS,1.50602388381958,26.57852580350806,-2.4651680823217337,86.3844388851493,74.95285361309753,-5.869413955927521,-21.43912496310419,71.44666344424789,25.43089160330947,-0.8665018104916185,1.5302338741023642,-10.90210035881694,-2.2057793890901656,1.6263987884668771,0.1935693003053549,0.39804020784260014,-6.664752206572862,90.76734259148772,74.66267666211343,-14.858146011829376,40.57253301143646,-16.122792661190033,-8.074864000082016,19.87663507461548,-111.44814491271973,-4.914332950706927,16.017756660352873,False,0
GUIDED_NOGPS,1.5431694984436035,26.925744512848826,-2.8704264566079103,87.72306419050035,74.61332940321194,-5.544783295698663,-21.761640955209543,71.5528330802837,24.099311248002856,-0.9262917923820291,1.498387049880122,-11.156422452562365,-2.649475214198424,1.6765118691373777,0.16835457520566388,0.39590596248815535,-6.955380308866335,91.95731349303078,74.20828509451748,-10.78161895275116,39.43673372268677,-14.287880063056946,23.380398750305176,-9.0009905397892,30.781301856040955,-4.383952727021388,10.069454195215489,False,0
GUIDED_NOGPS,1.5690598487854004,38.63367905237367,-3.3480802515563353,88.9478595791679,74.24070391681093,-5.213070732994841,-22.06779053089447,71.63447558594457,22.77509899578626,-1.19048863212,1.458650930279692,-11.63913155800103,-3.3122218132986645,1.4428878017288689,1.9985515491452124,0.3938962233652799,-7.978417696870739,93.62852850673295,73.28013690708902,-14.637762308120728,40.20163416862488,-16.36224389076233,-80.4263710975647,24.916817247867584,-60.61156988143921,-3.9629442995631,12.254621248452034,False,0
GUIDED_NOGPS,1.6049816608428955,27.84563192521925,-3.8020469207782033,90.0108968425878,73.88975402357316,-4.903687513484947,-22.357284700853825,71.69166479185705,21.45930848265089,-1.3092730923059261,1.391773133021512,-11.866424031879776,-2.586217635650356,1.4715905224289556,0.5262038286967403,0.39181688442844537,-8.493478724299546,95.55864971800489,72.52635525045875,-14.637762308120728,40.20163416862488,-16.36224389076233,-80.4263710975647,24.916817247867584,-60.61156988143921,-3.151838185984671,12.254621248452034,False,0
GUIDED_NOGPS,1.6366784572601318,31.551065542324558,-4.376165745946193,91.40715183601603,73.3874169924943,-4.551944683707658,-22.62987294378542,71.72451059414638,20.15295651085647,-1.5582814055987868,1.2896314959653794,-12.178309252402775,-3.4365610781801386,1.2094901584625841,1.6690847941246059,0.39007268168087744,-9.907120833174016,96.88729182669542,71.79180711789488,-16.301974654197693,40.296950936317444,-20.623528957366943,-62.1037483215332,12.157264351844788,-100.9001612663269,-2.8734959899270445,10.08663212097807,False,0
GUIDED_NOGPS,1.6688776016235352,31.06316608035549,-4.9398297508176885,92.69565469582179,72.90853049339871,-4.207915523035126,-22.88534231932172,71.73315797142976,18.85702348356172,-1.7335264506198602,1.2279987503812404,-12.378783842279113,-3.395772320745619,1.1523341634801287,1.7557377330725075,0.3882995742038417,-9.907120833174016,96.88729182669542,71.79180711789488,-17.157737910747528,40.535688400268555,-20.67999839782715,-56.16154670715332,8.759181946516037,73.82407188415527,-2.8734959899270445,11.344827244401642,False,0
GUIDED_NOGPS,1.7028229236602783,29.467004826505736,-5.498910144211811,93.9911070375539,72.39526633086659,-3.890218448911051,-23.123516580961674,71.71778600180969,17.572453839455164,-1.9735016252919673,1.1920168869467902,-12.588083890336751,-3.4389014970110314,1.1188071057374716,1.413740080979367,0.3866082533503029,-11.665675473237926,99.169662624032,70.62750399193465,-13.091491162776947,39.338526129722595,-20.886239409446716,18.510626256465912,-23.631522059440613,-7.787711918354034,-2.178296151648008,8.711657838220205,False,0
GUIDED_NOGPS,1.7396442890167236,27.159904163698762,-6.136160798845109,95.34007610179854,71.92700482928282,-3.550041588101682,-23.344255289002383,71.67860687986726,16.30015648738575,-2.301540456645459,1.1663190472465577,-13.047438017682204,-3.5008539134100016,0.9601573782096969,1.5571435714245996,0.3848359540235334,-12.23934358112852,100.45975201157034,70.15964277690291,-17.024661600589752,38.72971534729004,-16.25962108373642,33.78508985042572,-31.93025290966034,67.49719977378845,-1.7962563807411178,9.064277453179514,False,0
GUIDED_NOGPS,1.7696712017059326,33.31112752456061,-6.803718170415255,96.79735894904724,71.42757047219334,-3.2134690185788677,-23.547452923470935,71.6158649336555,15.041005240993556,-2.5585214149687228,1.168379096333257,-13.334181311870386,-3.9686702439313915,0.6702207168050631,2.5941307814730434,0.38318222723725426,-12.79096338637427,101.70294304940936,69.6643059859799,-16.542455554008484,37.99314796924591,-15.600302815437317,-13.204534351825714,-26.040920615196228,12.439318001270294,-1.3927922552255643,6.64270858814554,False,0
GUIDED_NOGPS,1.803633451461792,29.450038968972272,-7.463506389748429,98.05251510082425,70.96031663490595,-2.924606391914137,-23.733037997056066,71.52983564169281,13.795839253340446,-2.7446844106563555,1.02094444717836,-13.617188492582573,-3.807517273242017,0.7083752625283743,1.626296659965513,0.38147011889617777,-14.548652663487385,104.30596272717136,68.33086095453731,-16.542455554008484,37.99314796924591,-15.600302815437317,-13.204534351825714,-26.040920615196228,12.439318001270294,-0.7696700225333614,6.64270858814554,False,0
GUIDED_NOGPS,1.8376946449279785,29.363857209865653,-8.181416964435249,99.39853322986636,70.4569116028259,-2.614932762189632,-23.900972168040038,71.4208246499561,12.565463451540644,-2.8356804596474965,1.0081920571111231,-13.80620373257892,-3.981006538276992,0.5071708821181768,2.1014734615299018,0.3798598801194495,-15.021709661688588,104.93308936872187,68.02588283932747,-18.112705647945404,36.668357253074646,-15.594151616096497,19.25511360168457,-48.840534687042236,52.72074341773987,-0.6279676421011369,6.393893761305262,False,0
GUIDED_NOGPS,1.8759548664093018,26.140227105587893,-8.949108230732262,100.7265639542916,69.95493541733973,-2.2882226756972512,-24.05124935323028,71.28916678887427,11.350648971391522,-2.848157294270406,0.8970273132745805,-13.975251768310383,-3.9596528254368253,0.45373313893713973,2.0112445596891724,0.37825315763422135,-16.232871599361157,105.99649139859139,67.42260876167276,-19.296903908252716,35.83683967590332,-14.80497121810913,15.267641842365265,-45.42281925678253,20.10199725627899,-0.46342743184764756,7.936499669315458,False,0
GUIDED_NOGPS,1.9142954349517822,26.089171974522294,-9.771444075261964,102.19626529895167,69.40840700503128,-1.9282502642863921,-24.18389484089115,71.13522509032148,10.152133592004276,-2.802171551579414,0.8926429721576671,-14.050497401075473,-3.9937180923838067,0.2539043012410326,2.6049143497349823,0.376767736453703,-16.674504232699807,106.45579987194579,67.27409099577508,-19.296903908252716,35.83683967590332,-14.80497121810913,15.267641842365265,-45.42281925678253,20.10199725627899,-0.32629791723832335,7.936499669315458,False,0
GUIDED_NOGPS,1.9410295486450195,37.411397429379285,-10.531516372789362,103.36544268057506,68.92555570462248,-1.7085944017242964,-24.298964403675768,70.95938980461054,8.970622170434396,-2.8068303809235973,0.8095080973752403,-14.221884776597665,-4.00701602296785,-0.17555902892188804,2.2545829991232966,0.37524192354710656,-17.703591104283564,107.48292423171644,66.6725559160721,-19.1233292222023,33.78135561943054,-15.370193123817444,35.55871248245239,-44.03020441532135,49.10690188407898,-0.1565771417396839,2.9267659414280827,False,0
GUIDED_NOGPS,1.9744043350219727,29.967876536153188,-11.241857705065335,104.29411347720556,68.45651614766354,-1.5462447571085371,-24.39654341155768,70.7620774174861,7.806787076312638,-2.88941398473481,0.6816784390158072,-14.35556182393857,-3.9985334921920237,0.10830535060794988,1.0172093772079474,0.3736903304813499,-17.703591104283564,107.48292423171644,66.6725559160721,-22.036094963550568,33.56466591358185,-19.81041580438614,-46.320897340774536,-18.54076087474823,-62.35465407371521,-0.1565771417396839,2.6292725698165342,False,0
GUIDED_NOGPS,2.0085244178771973,29.31316830437639,-12.071086256735622,105.5176610267329,67.87755041938043,-1.32140965942696,-24.476745944762627,70.54372966711814,6.6612686264754615,-3.0872220260704917,0.5167209395452426,-14.420177121034182,-4.005277405581797,-0.18265762056154128,1.8434611018682818,0.3723901601951064,-18.92351844024267,109.34594167767946,65.70607847652204,-22.036094963550568,33.56466591358185,-19.81041580438614,-46.320897340774536,-18.54076087474823,-62.35465407371521,0.20966030264444974,2.6292725698165342,False,0
GUIDED_NOGPS,2.0451834201812744,27.28197789760568,-12.996062674261955,106.77799183371268,67.27381570473551,-1.128732032543925,-24.539713906700445,70.30481256109526,5.53467551959578,-3.2886560440818036,0.23984796239881573,-14.447528613565499,-4.007873263366795,-0.3602030485249127,1.4289322954292003,0.371163705977892,-21.01847417248768,111.39953660916026,64.48059597166599,-24.046175181865692,33.319053053855896,-19.046765565872192,-62.6927375793457,-11.784390360116959,9.065094590187073,0.48816302688353475,0.41850393985836987,False,0
GUIDED_NOGPS,2.0764074325561523,32.031035931116115,-13.918732718350272,108.00217983040676,66.59960316246632,-0.9353419165280298,-24.585616136896515,70.04581539341793,4.427585270813452,-3.3398135206349644,0.09802890268043285,-14.426670923387572,-4.012206807711089,-0.7150296701826542,1.9169487298807266,0.3701426936523581,-21.857320006453605,112.5007399865393,63.93668526887363,-23.028050363063812,30.776581168174744,-23.341616988182068,-70.15770077705383,-16.53538942337036,-82.60052800178528,0.6648551442625814,0.7151154700150459,False,0
GUIDED_NOGPS,2.1094398498535156,30.27809941815977,-14.768589533088798,109.07037144482808,65.9843268510295,-0.77401259251278,-24.61464752392385,69.76724976149188,3.340544646366368,-3.4444182946605326,-0.12307552653198695,-14.386521363898945,-4.00837912217328,-0.59320279831688,1.4841734185015998,0.36903319762057285,-21.857320006453605,112.5007399865393,63.93668526887363,-23.028050363063812,30.776581168174744,-23.341616988182068,-70.15770077705383,-16.53538942337036,-82.60052800178528,0.6648551442625814,0.7151154700150459,False,0
GUIDED_NOGPS,2.1431925296783447,29.632300681761983,-15.67217379586392,110.16038562655568,65.32263894772869,-0.6509561969733101,-24.62702811833453,69.46964858312147,2.274070098220747,-3.5081456671640443,-0.36950085437981917,-14.330310614577032,-4.0090727498342025,-0.7758068755768384,1.073465176521704,0.3680540434891807,-23.004720506630054,113.27108655467464,63.49272767147961,-23.092402517795563,28.28224003314972,-24.57212507724762,3.7472903728485107,-50.43361783027649,-49.34999942779541,0.7109048768740469,-2.2813881969427476,False,0
GUIDED_NOGPS,2.1774208545684814,29.219436413668188,-16.563335311586922,111.24498269872393,64.70132798102657,-0.5543117266379067,-24.623002245591763,69.1535651135029,1.228648198701876,-3.371147867226044,-0.6645956556539293,-14.196502086094606,-4.008320808868248,-0.8406945058755009,0.8027931949709455,0.36703293058032227,-23.93315783379784,114.39861073012088,62.66465567346316,-20.712730288505554,26.36018991470337,-20.071296393871307,44.792211055755615,-49.323296546936035,21.663229167461395,0.7707262891619517,-3.803848035109168,False,0
GUIDED_NOGPS,2.2140936851501465,27.274704122772793,-17.45820199939284,112.2763668767966,64.1049610617281,-0.5156237690842018,-24.602837619001395,68.81957196221772,0.20473607512487035,-3.3576413815857555,-0.8742472450104128,-14.057254165711909,-4.00760409093014,-0.8269400657285778,0.11015056159887804,0.36598927108169915,-24.46625621594532,114.70923099569274,62.482222298673435,-21.612250804901123,25.675848126411438,-19.423578679561615,70.11822462081909,-62.34408617019653,1.2628048658370972,0.7530513325853039,-6.862518589788537,False,0
GUIDED_NOGPS,2.243699073791504,33.78062707892045,-18.333674019186635,113.25881602124387,63.5200612387471,-0.4914094392389042,-24.56682445264383,68.46826011022603,-0.7972381555747887,-3.2591617931418075,-1.107480275919777,-13.849521646068787,-4.010952246305429,-1.259789996756712,0.032265399165348985,0.3650027678663199,-24.976620551337025,115.22253508249716,62.03125901223398,-21.612250804901123,25.675848126411438,-19.423578679561615,70.11822462081909,-62.34408617019653,1.2628048658370972,0.7305856694349501,-6.862518589788537,False,0
GUIDED_NOGPS,2.277620792388916,29.48357573158816,-19.13316116688514,114.07473306774703,63.019262797874624,-0.46755390592264673,-24.51527457430561,68.10023792685975,-1.7768749522104343,-3.1432524157096333,-1.193444823370146,-13.633338474875067,-4.008175645721928,-0.985530730977507,0.00040139075265605006,0.3638690215715029,-25.38846197219237,115.65840479412381,61.74199015127648,-21.538634598255157,24.00985360145569,-17.879608273506165,13.68812471628189,-32.82557725906372,19.12936270236969,0.7145437579608566,-5.242887784734461,False,0
GUIDED_NOGPS,2.313237190246582,28.08127849601307,-20.006267303387084,114.99677581887447,62.46789827260846,-0.43677543373386424,-24.44852053841135,67.71613018681612,-2.733802914713678,-3.0995065481795825,-1.3836645245379433,-13.405749741541072,-4.0088185537693874,-1.141540544386763,0.08338599114696443,0.36287199906158063,-26.03071194742756,115.83054826707301,61.60909328938129,-21.538634598255157,24.00985360145569,-17.879608273506165,13.68812471628189,-32.82557725906372,19.12936270236969,0.6021398870726709,-5.242887784734461,False,0
GUIDED_NOGPS,2.34735369682312,29.316856320071576,-20.869009689911884,115.9112046080074,61.86604171390156,-0.44553537153879097,-24.366914738955344,67.31657708715088,-3.667678349503632,-3.0014871437309645,-1.4246911230046826,-13.133100542705211,-4.010260923992993,-1.3039744369204889,-0.37059972125767726,0.3620300899976076,-26.03071194742756,115.83054826707301,61.60909328938129,-20.236417651176453,22.10143953561783,-20.51815837621689,80.82290887832642,-32.439833879470825,55.365175008773804,0.6021398870726709,-7.854330786052912,False,0
GUIDED_NOGPS,2.3803064823150635,30.355452946668308,-21.609293602852496,116.63054015218587,61.34819361823772,-0.4701357960757371,-24.270828522433497,66.90223326427183,-4.578184834856344,-3.060175117287476,-1.4864953703700123,-12.926651244852406,-4.010105998413502,-1.2151865526194543,-0.5794028306318233,0.36107022086866314,-26.03071194742756,115.83054826707301,61.60909328938129,-19.210433959960938,20.895874500274658,-20.57991623878479,144.86768245697021,-64.31921720504761,203.91335487365723,0.6021398870726709,-7.466905380856863,False,0
GUIDED_NOGPS,2.4146878719329834,29.090344148368036,-22.298477136469582,117.31447946770028,60.774729585894086,-0.48423600351233925,-24.160651300774845,66.47376681093178,-5.465032786274094,-3.181928148441419,-1.6293372509166046,-12.561658742211618,-4.009918829161543,-1.1566847805783658,-0.45457828798778954,0.36026125098028716,-26.03071194742756,115.83054826707301,61.60909328938129,-16.48329496383667,19.059593975543976,-24.59256649017334,38.24279010295868,-33.5274875164032,-100.83791017532349,0.6021398870726709,-6.583569395216985,False,0
GUIDED_NOGPS,2.4538612365722656,25.53127872365033,-22.9771457519154,117.97260965334812,60.21479433570375,-0.5423288489634959,-24.03678966427339,66.03185829322229,-6.32795902185471,-3.1451605998090058,-1.7452844078326255,-12.15141538254585,-4.010132866958376,-1.0515508289274118,-0.9188409423582795,0.3594468228395594,-26.03071194742756,115.83054826707301,61.60909328938129,-16.09075367450714,17.35626608133316,-23.54869246482849,-29.202905297279358,-51.523417234420776,-46.03701829910278,0.6021398870726709,-9.368354059933896,False,0
GUIDED_NOGPS,2.4810569286346436,36.78020291659725,-23.611639882388655,118.58681605745728,59.742286312814755,-0.632316288557369,-23.899666494520044,65.5771997675667,-7.166726327660868,-3.246248039855429,-1.8842028783095743,-11.888916698590274,-4.0176924313120965,-1.5810186753185032,-1.7040705762873227,0.3585688571116571,-26.03071194742756,115.83054826707301,61.60909328938129,-14.652475714683533,16.481944918632507,-18.60874742269516,91.38027429580688,-52.57004499435425,149.89852905273438,0.6021398870726709,-11.129199879851633,False,0
GUIDED_NOGPS,2.522167444229126,24.32735730318831,-24.07502167778582,118.92223095569398,59.39711724725397,-0.7151701848826093,-23.749720077334118,65.11049379771362,-7.981123023089651,-3.214536752199529,-2.0804299442958096,-11.53249437581056,-4.010502860865199,-0.8164273529488262,-1.2359289261217525,0.35740898929085807,-26.03071194742756,115.83054826707301,61.60909328938129,-14.683066308498383,14.973752200603485,-19.89302784204483,49.02393817901611,-36.82146966457367,36.64617836475372,0.6021398870726709,-9.81327172869488,False,0
GUIDED_NOGPS,2.5490219593048096,37.24793748057369,-24.647993884159057,119.41123762030567,58.95191474466969,-0.8248708283449633,-23.587403215695154,64.6324524717301,-8.770962526241263,-3.2550128801078477,-2.2231821786095454,-11.206694352400952,-4.023724126321295,-1.6189772831918905,-2.133387533379509,0.3565746186428239,-26.03071194742756,115.83054826707301,61.60909328938129,-14.633995294570923,13.320188224315643,-19.67621147632599,15.872563421726227,-56.50790333747864,17.099449038505554,0.6021398870726709,-11.945412608310034,False,0
GUIDED_NOGPS,2.5816922187805176,30.613570010510337,-25.052026458258126,119.65099995466443,58.58901952700885,-0.9717184905621122,-23.413182342674844,64.14379641899535,-9.536082919289427,-3.1238992881398135,-2.288043789402102,-10.78615192124045,-4.018662619410164,-1.066384906364294,-2.3752393684046047,0.3555915459803049,-26.03071194742756,115.83054826707301,61.60909328938129,-14.66711312532425,12.82765418291092,-24.203678965568542,0.5316436290740967,-34.473615884780884,-44.64606046676636,0.6021398870726709,-14.329193878647736,False,0
GUIDED_NOGPS,2.614816188812256,30.19766010295547,-25.5064213351372,120.02657649381618,58.10101832447257,-1.0618840207181774,-23.2275366343684,63.645253827193436,-10.276346513849518,-3.189793751600923,-2.365449042605387,-10.497766820330526,-4.023159567345168,-1.2124034224495976,-1.7261985798183406,0.35490586724359374,-26.03071194742756,115.83054826707301,61.60909328938129,-10.960597544908524,11.1171193420887,-25.97149908542633,13.020522892475128,-10.24169772863388,-62.25476264953613,0.6021398870726709,-10.287934871291272,False,0
GUIDED_NOGPS,2.6542656421661377,25.350272583316208,-25.91272711420125,120.35952893914629,57.556452618548974,-1.1891633455413604,-23.030957122826845,63.13755945930724,-10.991639416348775,-3.2584309629006163,-2.3669721747903,-10.269493360532236,-4.021779542762637,-1.0077111742746037,-2.0018194099750137,0.3543477028312395,-26.03071194742756,115.83054826707301,61.60909328938129,-8.613328635692596,9.245456755161285,-30.331161618232727,16.468343138694763,-46.517083048820496,-82.1761429309845,0.6021398870726709,-12.659005159583579,False,0
GUIDED_NOGPS,2.685828924179077,31.69914447232383,-26.372266965511386,120.78290841514823,57.05804807418345,-1.2764634820539857,-22.823945808988256,62.621453670611395,-11.681871093395188,-3.2331560613203956,-2.2449581023440155,-9.854986255277089,-4.032399086008559,-1.4094771009634652,-1.87461553035835,0.35379084963586294,-26.03071194742756,115.83054826707301,61.60909328938129,-7.392342388629913,8.440329879522324,-21.548183262348175,60.98279356956482,-54.4083297252655,68.48880648612976,0.6021398870726709,-9.169706545660539,False,0
GUIDED_NOGPS,2.7208824157714844,28.526664444912978,-26.617470241479698,120.91270892174305,56.77419549350119,-1.3472436699045922,-22.607014775609763,62.09768142566571,-12.346973937147155,-3.2363805509388763,-2.1161573831836766,-9.447449358069937,-4.023815189799956,-0.965599428217065,-1.6186018687028096,0.3528351297274487,-26.03071194742756,115.83054826707301,61.60909328938129,-7.392342388629913,8.440329879522324,-21.548183262348175,60.98279356956482,-54.4083297252655,68.48880648612976,0.6021398870726709,-9.169706545660539,False,0
GUIDED_NOGPS,2.7534632682800293,30.698490071653893,-26.928455832181236,121.12321824549237,56.36262228250384,-1.4327807714307657,-22.380685300199417,61.56699131530869,-12.986902830682467,-3.1762823567621687,-1.9507652062054643,-9.14670161476229,-4.0311632409771985,-1.1959177047407914,-1.906801166961067,0.3521971398719683,-26.03071194742756,115.83054826707301,61.60909328938129,-6.132711842656136,5.640432611107826,-23.81002902984619,61.54295206069946,-33.31543207168579,22.44199365377426,0.6021398870726709,-9.37917905599472,False,0
GUIDED_NOGPS,2.8010644912719727,21.008915870249044,-27.17521946257827,121.26150487779815,56.035206110622134,-1.4933212761423487,-22.145486967947598,61.03013457365051,-13.601634713367787,-3.1835889516267897,-1.8466624510838918,-8.96268863455933,-4.023532923294072,-0.850577499140341,-1.403825553685452,0.3513568556865618,-26.03071194742756,115.83054826707301,61.60909328938129,-4.305236041545868,3.91889289021492,-20.370489358901978,51.6953706741333,-47.24584221839905,50.03078579902649,0.6021398870726709,-7.773899332160488,False,0
GUIDED_NOGPS,2.828791856765747,36.07506923778233,-27.350682146451586,121.30958560883508,55.784174791771996,-1.5452415281420633,-21.90195678465902,60.48786409506663,-14.191168146228065,-3.181457932605746,-1.7527150133193647,-8.737128467408828,-4.033353048290368,-1.1824504612914277,-1.6774591272936483,0.35052490250990276,-26.03071194742756,115.83054826707301,61.60909328938129,-4.305236041545868,3.91889289021492,-20.370489358901978,51.6953706741333,-47.24584221839905,50.03078579902649,0.6021398870726709,-7.773899332160488,False,0
GUIDED_NOGPS,2.850349187850952,46.39614167828145,-27.443326867347245,121.28014028611372,55.58263599280735,-1.6465433274598,-21.650638289684583,59.94093345119101,-14.755522877315997,-3.104200595686674,-1.6779893287048402,-8.485420628568226,-4.037614050454506,-1.251039724261989,-2.865418090576078,0.3496778255400006,-26.03071194742756,115.83054826707301,61.60909328938129,-1.5829246491193771,2.0841140300035477,-20.355308055877686,43.565633893013,-32.9508900642395,81.93811178207397,0.6021398870726709,-11.671326508427532,False,0
GUIDED_NOGPS,2.8840136528015137,29.709331482242277,-27.51196245843155,121.12395118147478,55.39608215846712,-1.6695604757999563,-21.392080668852792,59.39009590790956,-15.294739407080542,-3.060544160946068,-1.589975511060056,-8.280546543092754,-4.028012895881472,-0.9027883707315174,-1.2750916592424977,0.3487820256202495,-26.03071194742756,115.83054826707301,61.60909328938129,-5.548377335071564,-0.11113034561276436,-26.481112837791443,-24.54742044210434,-31.30883276462555,-23.954540491104126,0.6021398870726709,-7.406786055782411,False,0
GUIDED_NOGPS,2.9179322719573975,29.49705332151849,-27.68152645349711,121.14849162819885,55.027812743286205,-1.6945823943097937,-21.12683786740166,58.83610344235329,-15.808878553737785,-2.937070135564693,-1.3956229051141662,-8.04032110602059,-4.0350659534403235,-1.12611809055695,-1.3132442641999522,0.34829898758455297,-26.03071194742756,115.83054826707301,61.60909328938129,-2.023947983980179,-1.4526616781949997,-25.54052174091339,66.08169078826904,-48.83854389190674,-6.201641261577606,0.6021398870726709,-5.070510458669441,False,0
GUIDED_NOGPS,2.9777886867523193,16.70697985668251,-27.788736849844106,121.13287590961659,54.73821121805133,-1.6891088772817446,-20.855467702910722,58.27970575989178,-16.298021018638536,-2.9266167444834,-1.2276241571939477,-7.92621767329365,-4.024249846494085,-0.7633685064175828,-0.9769908312190829,0.3475587857855339,-26.03071194742756,115.83054826707301,61.60909328938129,1.1493202298879623,-2.863885462284088,-20.977017283439636,62.579768896102905,-35.491377115249634,88.37699890136719,0.6021398870726709,-2.9883176852375333,False,0
GUIDED_NOGPS,3.006660223007202,34.64191086590241,-27.89863792451524,121.08963987062735,54.404820392512796,-1.6855078110104669,-20.578530978232223,57.721649311126285,-16.762266951638978,-2.821725102512691,-1.0076630376155644,-7.838591468884264,-4.037674458112882,-1.2214658215796552,-0.9613407713708401,0.34713293957980795,-26.03071194742756,115.83054826707301,61.60909328938129,-0.3793498268350959,-3.3535953611135483,-25.336581468582153,23.90441745519638,-19.828331470489502,11.35927215218544,0.6021398870726709,-3.2640165635378056,False,0
GUIDED_NOGPS,3.019458293914795,78.17755493839816,-27.72343374807443,120.71165070789493,54.515793404368836,-1.6131050398873357,-20.296590594423513,57.16267630888341,-17.201735516469356,-2.8982599334836228,-0.9585844998910262,-7.867035791682782,-4.02841607635969,-0.9527304854971469,1.3946640690568137,0.34596172430998395,-26.03071194742756,115.83054826707301,61.60909328938129,-0.3793498268350959,-3.3535953611135483,-25.336581468582153,23.90441745519638,-19.828331470489502,11.35927215218544,0.6021398870726709,-3.2640165635378056,False,0
GUIDED_NOGPS,3.051196575164795,31.515741700855084,-27.51603852018467,120.38558729582174,54.61900034735661,-1.4762263985687303,-20.010210663678347,56.60352374520844,-17.616564456103475,-2.878945012284473,-0.7719806368368103,-7.8393009547842984,-4.016641674121536,-0.5942262693331193,0.8169344738115157,0.34473982667552827,-26.03071194742756,115.83054826707301,61.60909328938129,7.415210455656052,-6.620926409959793,-19.788268208503723,91.80132746696472,-48.00456762313843,84.56148505210876,0.6021398870726709,3.305629064169285,False,0
GUIDED_NOGPS,3.0849270820617676,29.65073485228727,-27.52514899825505,120.31990953225183,54.35762925310275,-1.3958049778259698,-19.719955622258823,56.04492240835803,-18.006909658128038,-2.827430658347179,-0.62210504882728,-7.933296310594722,-4.025759708540313,-1.0084644677449437,0.11461565409825714,0.3442862799358412,-26.03071194742756,115.83054826707301,61.60909328938129,7.415210455656052,-6.620926409959793,-19.788268208503723,91.80132746696472,-48.00456762313843,84.56148505210876,0.6021398870726709,3.305629064169285,False,0
GUIDED_NOGPS,3.1197214126586914,28.911878239770598,-27.65255359451077,120.2502555566373,54.008140547537344,-1.319250801919037,-19.42638934342697,55.48759589979431,-18.372944720111946,-2.762705864781434,-0.5524110791969392,-8.070299660061423,-4.029769705472231,-1.2466334242111508,0.09373680707954712,0.3440528970109539,-26.03071194742756,115.83054826707301,61.60909328938129,-2.2754983976483345,-6.638069450855255,-26.065218448638916,-57.67875909805298,-27.602434158325195,-32.734277844429016,0.6021398870726709,2.9266882480262737,False,0
GUIDED_NOGPS,3.1525068283081055,30.323411823393748,-27.757452674287368,120.15756131513548,53.66761032646655,-1.2175689482079914,-19.130074250376808,54.93225965117792,-18.714860514975797,-2.6410002180648577,-0.5640617810953943,-8.26646696189242,-4.02824658661562,-1.2865115511804963,0.5033479986953711,0.34385925017536567,-26.03071194742756,115.83054826707301,61.60909328938129,-1.6080815345048904,-6.962548941373825,-26.432624459266663,-11.685477197170258,-31.141352653503418,-11.763793230056763,0.6021398870726709,4.581719923548526,False,0
GUIDED_NOGPS,3.185720682144165,30.1118090903217,-27.819138447155254,120.03115959565454,53.36800802419825,-1.0923836179035655,-18.831570429165787,54.37961994136145,-19.032864756360752,-2.6995780548210027,-0.6148113672890584,-8.498367252139985,-4.024433847549536,-1.2432732683916514,0.8479457958073975,0.34362952524744095,-26.03071194742756,115.83054826707301,61.60909328938129,0.19542148802429438,-7.754188030958176,-25.37636160850525,20.55744230747223,-44.048359990119934,127.98501253128052,0.6021398870726709,6.0209624444148035,False,0
GUIDED_NOGPS,3.218579053878784,30.43960781183096,-27.841483135204303,119.88131987416152,53.107162342975585,-0.9837611743573884,-18.531434741646592,53.83037291338212,-19.327181563998465,-2.6858604736466787,-0.6091863863424355,-8.812580713396313,-4.021492153408,-1.2172728172778833,0.7319197114732822,0.3433721576846783,-26.03071194742756,115.83054826707301,61.60909328938129,2.523708902299404,-8.760469406843185,-22.83206582069397,84.55173373222351,-43.6244934797287,48.22540879249573,0.6021398870726709,4.576881588295218,False,0
GUIDED_NOGPS,3.2542455196380615,28.042414922778633,-27.89661427941991,119.70911173685685,52.70997997371855,-0.7917591753341167,-18.230219938399305,53.28520359145631,-19.59805102908031,-2.756792841950907,-0.5897903566468918,-9.232350479406957,-4.0179740588001325,-1.2729748001982866,1.686776239860279,0.3434192794481602,-26.03071194742756,115.83054826707301,61.60909328938129,-0.6350130774080753,-9.644212573766708,-33.54998826980591,16.890935599803925,-43.215835094451904,-107.24451541900635,0.6021398870726709,10.64564297718224,False,0
GUIDED_NOGPS,3.286663293838501,30.851132376630158,-27.927841092073226,119.51835049815412,52.37805274334273,-0.6310592087796894,-17.928473771662492,52.74478489797168,-19.84572877962583,-2.765798446371569,-0.4543556028117668,-9.523506929572614,-4.01481718572725,-1.3232144872259837,1.5953709545069725,0.343399631357337,-26.03071194742756,115.83054826707301,61.60909328938129,0.7192871533334255,-10.415074974298477,-28.533777594566345,21.360839903354645,-4.132530093193054,54.15717363357544,0.6021398870726709,8.047585865976545,False,0
GUIDED_NOGPS,3.320685625076294,29.4523137420125,-27.903830788413536,119.2716015095755,52.08291941909912,-0.36294525713384085,-17.626738108265315,52.209776670481496,-20.070485545853487,-2.818590259127067,-0.22380470181210202,-10.074686973893364,-4.007948945263821,-1.242161677297531,2.940885514705473,0.3433443987890188,-26.03071194742756,115.83054826707301,61.60909328938129,3.1820133328437805,-13.072516024112701,-29.046931862831116,91.37550592422485,-36.05804443359375,21.00016623735428,0.6021398870726709,15.79314247440242,False,0
GUIDED_NOGPS,3.357797145843506,26.903637564864884,-27.931597394445497,119.01554231544311,51.739034399897754,-0.12250422422592847,-17.32554804255934,51.680824678696965,-20.272606725549068,-2.87479289759934,-0.0038251193786187033,-10.613658908846363,-4.002844497681169,-1.3261061924546051,2.513047141889605,0.34341371611939286,-26.03071194742756,115.83054826707301,61.60909328938129,-0.6739214528352022,-13.525673747062683,-31.795015931129456,-49.18014407157898,-37.6397579908371,-40.772756934165955,0.6021398870726709,13.501774517308636,False,0
GUIDED_NOGPS,3.400071859359741,23.65733752975284,-27.935835373827622,118.7490725932561,51.345144878038745,0.16808026705920465,-17.025431009350427,51.15855964148172,-20.452391949435224,-2.885879148395917,0.00897444168257363,-11.088544032590779,-3.9962771879581807,-1.2749084446555021,2.863689195134192,0.34360028069223625,-26.03071194742756,115.83054826707301,61.60909328938129,0.5740423686802387,-13.749346137046814,-35.79116463661194,31.877940893173218,-9.356281161308289,-110.68179607391357,0.6021398870726709,16.926043753917632,False,0
GUIDED_NOGPS,3.4217450618743896,46.15465199449794,-27.873482257705724,118.44447784313519,51.13610111105771,0.48661301259347767,-16.726905896829837,50.64359624384422,-20.61015464654075,-2.790066321936036,0.042171295482951225,-11.495547321269022,-3.9871068993434062,-1.5350352930970919,6.16008318572841,0.3435782179786272,-26.03071194742756,115.83054826707301,61.60909328938129,3.3972397446632385,-15.576127171516418,-28.65845263004303,30.831745266914368,-28.21124792098999,-14.374405145645142,0.6021398870726709,19.68317426334563,False,0
GUIDED_NOGPS,3.4548168182373047,30.242731887401938,-27.82923350509804,118.13929061857483,51.1101399530155,0.6743245283460991,-16.430482159506724,50.136532153931334,-20.74622160957024,-2.7150021160707727,-0.10611659370966842,-12.074324744931209,-3.984115949720411,-1.3731069603096597,2.670962474996917,0.3431675586675103,-26.03071194742756,115.83054826707301,61.60909328938129,-0.806097686290741,-15.472082793712616,-27.091804146766663,45.54338455200195,-41.37065410614014,47.53437340259552,0.6021398870726709,12.759650558324655,False,0
GUIDED_NOGPS,3.488114833831787,30.038702284609325,-27.881325527246283,117.85027535682806,50.79928536195207,0.9727042529489927,-16.136658931139255,49.63794704002174,-20.860932560272843,-2.670054989020446,-0.24309038126386773,-12.70922156413516,-3.9736039985859573,-1.5886246574110245,4.166565994359244,0.34336887932936144,-26.03071194742756,115.83054826707301,61.60909328938129,-4.011808708310127,-15.220494568347931,-32.2034627199173,-24.201039969921112,11.91215068101883,-13.349205255508423,0.6021398870726709,18.089274488442285,False,0
GUIDED_NOGPS,3.533165693283081,22.20242229186076,-27.905290034660855,117.54935957967838,50.503032310972344,1.255887863023196,-15.845924137667135,49.148401587519544,-20.954639714812103,-2.7159863036414893,-0.5700325403687491,-13.470458953737774,-3.9695959092447297,-1.4307056386740993,3.268437618893602,0.3435164900028814,-26.03071194742756,115.83054826707301,61.60909328938129,-2.0972425118088722,-15.853017568588257,-31.183946132659912,-30.308905243873596,17.82400906085968,82.90314078330994,0.6021398870726709,16.853114409054818,False,0
GUIDED_NOGPS,3.55560302734375,44.58041749925599,-27.927229274494593,117.24493512715694,50.20617889370556,1.540911950021897,-15.55875361014239,48.6684365159469,-21.027707349135085,-2.835016223750713,-0.7408834258759769,-13.765950012705451,-3.950835354663331,-1.8814410686007654,5.996578006648692,0.3438359653545704,-26.03071194742756,115.83054826707301,61.60909328938129,-2.0972425118088722,-15.853017568588257,-31.183946132659912,-30.308905243873596,17.82400906085968,82.90314078330994,0.6021398870726709,16.853114409054818,False,0
GUIDED_NOGPS,3.590315818786621,28.81198007899708,-27.830081312130794,116.95083992230548,50.142502926415915,1.6762746957013372,-15.275610197662195,48.198571595938155,-21.080511364341888,-2.8828802684634582,-1.069414137571415,-14.329805180578452,-3.960646600438743,-1.403249271429486,2.566188914644232,0.3436600000787845,-26.03071194742756,115.83054826707301,61.60909328938129,3.1211107969284058,-17.089219391345978,-30.702361464500427,46.03416621685028,-8.979570865631104,54.3484091758728,0.6021398870726709,10.87258369631873,False,0
GUIDED_NOGPS,3.63478684425354,22.489083344056965,-27.792314886835435,116.61588511016073,49.85696873357234,1.946831562883324,-14.996942880299526,47.73930466623251,-21.11343885205426,-2.854090594225031,-1.1566924292199536,-14.678284847127086,-3.9531797491993634,-1.445366089838825,3.598853463271122,0.3439124323093796,-26.03071194742756,115.83054826707301,61.60909328938129,1.894143968820572,-18.28742027282715,-30.950424075126648,35.29657423496246,-35.67793071269989,59.76467728614807,0.6021398870726709,16.2704839049271,False,0
GUIDED_NOGPS,3.656996011734009,45.04434301669978,-27.772726396394425,116.26422285710598,49.506656428486025,2.1495325527036426,-14.723185882035853,47.29111065066754,-21.126887659786505,-2.854090594225031,-1.1566924292199536,-14.678284847127086,-3.933507738705377,-1.8465609419192248,4.9647846842430985,0.3444614922196656,-26.03071194742756,115.83054826707301,61.60909328938129,1.0025760158896446,-18.351319432258606,-31.541019678115845,-8.624845743179321,-3.7685655057430267,43.19760799407959,0.6021398870726709,9.957760965491916,False,0
GUIDED_NOGPS,3.6897242069244385,30.556697726262723,-27.702024599007643,115.98494528268462,49.479922989787255,2.245442751885198,-14.454757783692425,46.85444057517317,-21.121265956312882,-3.031458440695803,-1.5226712538655733,-15.390963860599143,-3.942706462152442,-1.539571259299132,2.513774856646462,0.3443404483153659,-26.03071194742756,115.83054826707301,61.60909328938129,1.0025760158896446,-18.351319432258606,-31.541019678115845,-8.624845743179321,-3.7685655057430267,43.19760799407959,0.6021398870726709,9.957760965491916,False,0
