Mode,Time,Freq,North-Vision,East-Vision,Down-Vision,Yaw-Vision,North-Desired,East-Desired,Down-Desired,Roll-UAV,Pitch-UAV,Yaw-UAV,Roll-Control,Pitch-Control,Yaw-Control,Thrust-Control,northVraw,eastVraw,downVraw,yawVraw,zGyro
GUIDED_NOGPS,0.013919830322265625,71.98050454779475,323.3531936280131,-7.550402778610154,-2.7913406680830186,9.063383836692948,321.2593509095888,-7.014177391086868,-2.7715428854781874,-0.9417702817017474,0.9903507492254036,-74.65595521328784,-0.057591389580168864,-0.22488176524677678,-0.6344368685685065,0.5000197977826049,323.3531936280131,-7.550402778610154,-2.7913406680830186,9.700319396629713,3.0366763141933633
GUIDED_NOGPS,0.02328324317932129,106.85035919906251,323.66473395532097,-7.052544975848354,-1.4400462516930546,10.17154316917086,321.25913765388043,-7.014231216715262,-2.77153068710166,-0.9417702817017474,0.9903507492254036,-74.65595521328784,0.05286137843743903,-0.10603904018963153,-0.7120080218419603,0.4986685155645914,323.9762742826288,-6.554687173086555,-0.08875183530309066,9.917180872976196,2.6929016371148693
GUIDED_NOGPS,0.03144121170043945,122.69787034870114,323.84466913405316,-5.842014212724796,1.2625232657959604,10.180527573558798,321.25766207334027,-7.01460365246582,-2.771445788523292,-0.9659741242427453,0.9844460506879275,-74.60920256841911,0.1777618740667138,-0.09904217911520054,-0.712636930149116,0.49596603094568076,324.2045394915176,-3.42095268647768,6.667662300773991,10.473054551195784,2.7501974166279517
GUIDED_NOGPS,0.07564282417297363,22.627514660423063,323.960813882794,-4.106698986602216,4.438988982696048,10.203020574750035,321.25370885465753,-7.015601442777613,-2.7712168327557927,-0.8917727633687251,0.45105758193800266,-74.43512836723215,0.12653376976223313,-0.08411136029787442,-0.7142114402325025,0.49278979418454816,324.30924812901645,-2.3444571002424124,6.738056482617246,10.695091577092109,1.776169164905552
GUIDED_NOGPS,0.13220787048339844,17.69270745452705,324.44524585927473,-3.6157890742235756,7.210029381298177,10.288874904549708,321.2461133347048,-7.017518548010096,-2.7707739191608765,-0.8461031837311109,0.4246732015044781,-74.34576900232088,0.11112366459659158,-0.10507972148333591,-0.7202212433184796,0.49001919669954097,326.3829737651978,-5.081957435950638,8.224369360503294,10.220522880818518,0.5156620156177409
GUIDED_NOGPS,0.17782068252563477,21.918738274533986,324.99385700739845,-2.0932837810390463,9.787310027617998,10.355180446774808,321.233760801915,-7.020636320775242,-2.770048593575711,-0.5707600622370611,0.027356828616605135,-74.33428745432609,0.18183157868427205,-0.12565000718614033,-0.7248626312742367,0.4874426413788063,326.0962493686315,1.1465631930759081,14.399504239733457,11.197772730334977,-0.40107045659157625
GUIDED_NOGPS,0.22277426719665527,22.247526905674988,325.5834755912164,-1.200876468413404,11.916865474061053,10.349789564960492,321.21558579765815,-7.025223682269668,-2.7689738384393627,-0.3298960024775002,-0.35272847109920663,-74.39733010036531,0.1954029895618865,-0.14523485563045013,-0.7244852695472345,0.4853141606874996,326.92436720171867,0.33276483763451437,13.126722821946409,10.989651494171948,-1.3750987083139758
GUIDED_NOGPS,0.260347843170166,26.625261059727926,326.34189683187327,0.2913050800928927,14.15703428823611,10.32292213682427,321.19057141761795,-7.031537298606779,-2.7674840629192485,-0.2717856601535309,-0.37604737725586485,-74.41661855458142,0.260849848671667,-0.17642686204219676,-0.7226045495776989,0.4830754816488446,327.99664569480177,-0.6054127904317481,14.944875803028465,10.72433163085385,-0.8594366926962349
GUIDED_NOGPS,0.3029820919036865,23.45873206745155,327.0460056474996,0.7647713436657225,15.422650540851484,10.296281637176655,321.15774861316885,-7.039821757148889,-2.7655150930375783,-0.11914862132647919,-0.6099704707148118,-74.51250075015007,0.24682429455038454,-0.19506885183138317,-0.720739714602366,0.4818118343661109,327.8297922071481,2.5669619837943976,18.19635299757958,11.15210038420875,-1.432394487827058
GUIDED_NOGPS,0.34558701515197754,23.479217863960276,327.33195835062395,2.358565120767694,16.706809276280545,10.244788047785429,321.1161954927527,-7.050309742839362,-2.7630041617978054,-0.024487188669847747,-0.6336523373928328,-74.58581600070099,0.32176091263440165,-0.19561338308794543,-0.7171351633449801,0.48053018656192165,327.8127372808193,5.1141461689404295,16.979199028233595,11.464930212706058,-2.46371851906254
GUIDED_NOGPS,0.3867805004119873,24.275823749688904,328.02343500545817,3.7523918870677515,17.829270117292427,10.156798427451271,321.06503662325537,-7.063222214534739,-2.7598898993110734,0.05992877346877946,-0.6946590534508578,-74.75084703142683,0.3608219214457446,-0.22848383615678786,-0.710975889921589,0.4794108399833965,329.5536326428025,3.576067508468424,18.312258326064114,10.873706776377798,-3.0939720937064457
GUIDED_NOGPS,0.43611598014831543,20.273307296701596,328.53445147655253,5.093152907519438,17.87318879059819,10.052912966539278,321.0034423313839,-7.078768581336875,-2.7561123229226636,0.09905469837619092,-0.5678334328994165,-74.93274179921343,0.3956040992036593,-0.23968184109753748,-0.7037039076577495,0.47937069888647915,329.47944955719055,6.589245045149459,18.328109017496853,11.228628148304253,-3.666929888837269
GUIDED_NOGPS,0.477344274520874,24.26009751921753,328.96523329921945,5.731078234523911,18.122827517558804,9.901843888634149,320.9306280050428,-7.097146878925068,-2.7516128273384406,0.08193058703374914,-0.5378085616382751,-75.10417271719159,0.40414802734900773,-0.2556829133055149,-0.6931290722043905,0.47912555965510273,330.1505548081364,7.027922149953846,17.728115209115447,11.099581004376253,-4.239887683968092
GUIDED_NOGPS,0.5197794437408447,23.56986153569502,329.6727383459762,7.095087593550917,17.68805980864491,9.73958056542419,320.84585339471136,-7.118543945888197,-2.7463341747513037,0.0542260324192816,-0.3877818556933583,-75.25756510557173,0.4630648609649643,-0.286296454951586,-0.6817706395796933,0.4795656060166038,331.36731744093197,7.668095585549442,17.00795519932242,10.736366920977012,-5.156620156177409
GUIDED_NOGPS,0.5597720146179199,25.009862497465804,330.56576460131555,7.154096058872827,17.13210724998534,9.567731056572368,320.7484219148199,-7.143135600056845,-2.7402204849676304,0.0960457599229623,-0.3603580058455224,-75.4715617624574,0.43557073029450677,-0.32241769373055934,-0.6697411739600658,0.48012767226504705,332.2778685575161,6.7662704411151875,16.66025134151815,10.342159390349169,-4.354479242994256
GUIDED_NOGPS,0.601588249206543,23.922477171489028,331.1182281913185,7.992320088913099,17.289619225423365,9.417792912525153,320.63767994512705,-7.171086814835443,-2.7332172255337253,0.04032671752022466,-0.37051556435838917,-75.62076724487633,0.4808641524746661,-0.333955164132236,-0.6592455038767607,0.4799771635490429,332.31595059281744,9.542594240074664,18.200651135429524,10.568825724759872,-4.18259190445501
GUIDED_NOGPS,0.6399953365325928,26.05708037722252,331.97273477016154,8.44786759270591,17.39469629127449,9.244193113287695,320.51301613209614,-7.202551895534396,-2.725271201862268,0.09058322275275203,-0.3551228792901192,-75.87323152716752,0.4880172407597546,-0.37341326335147745,-0.6470935179301387,0.47988003250686323,333.7519824514055,9.034738096927873,17.3231863968758,9.922297389495053,-4.870141258611998
GUIDED_NOGPS,0.6830060482025146,23.248089127844136,332.6930202988154,9.204023477976804,17.615674643060373,9.088122198786182,320.3738606902721,-7.237674655702214,-2.7163305473587602,0.1072978429101104,-0.26510909687899054,-76.0608499934786,0.5181195603313595,-0.39412770650875156,-0.6361685539150328,0.4796679948095809,333.7519824514055,9.034738096927873,17.3231863968758,9.922297389495053,-4.469070802020421
GUIDED_NOGPS,0.715815544128418,30.485405279683683,333.14982367815617,10.3801352053492,18.32465434140037,8.923091993480394,320.2196847036584,-7.27658859345765,-2.7063447135479737,0.09440812868795917,-0.28856161861128715,-76.22984936411223,0.5737860267314201,-0.41154512322680625,-0.6246164395436277,0.4789690009450517,333.6513343376362,13.070929422191853,20.327590230449516,10.073347292776008,-4.1252961249419275
GUIDED_NOGPS,0.7608809471130371,22.193963510138424,333.5200414182026,11.9235065964855,19.393425265161913,8.803440879218158,320.04999942709355,-7.319417067821832,-2.695264460200395,0.20302023606455488,-0.24817641759629425,-76.41193537719559,0.6204549795184796,-0.4217312535788847,-0.6162408615452711,0.4779113102746377,334.12895725774825,13.664852270336775,20.529499168160427,9.890161739700252,-4.297183463481175
GUIDED_NOGPS,0.8015081882476807,24.62009497478883,334.1020302517955,13.517262014433882,20.085415810517734,8.631591762285378,319.8643555876281,-7.366273475050391,-2.683041845458677,0.29017167562555896,-0.25094477864426507,-76.58140603088195,0.6757868834833584,-0.4522916140020139,-0.6042114233599766,0.4772315423440236,335.2258947607818,13.81600435077302,19.399158032943266,9.365661058738889,-3.9534087864026803
GUIDED_NOGPS,0.8396754264831543,26.206538038588423,334.3968127136707,13.765620323960938,19.775938411348985,8.499861573294584,319.6623426859014,-7.417261424965597,-2.6696302159640832,0.3262038049834323,-0.17100637903255142,-76.71904800303604,0.6529135025472411,-0.4617842706754731,-0.594990310130621,0.47755443137268694,335.2258947607818,13.81600435077302,19.399158032943266,9.365661058738889,-3.0939720937064457
GUIDED_NOGPS,0.8856520652770996,21.75209388921446,334.65408485627734,14.997160446514611,19.155719889050534,8.39611357493351,319.44358829751826,-7.472474917288491,-2.654984196982937,0.40114736196030965,-0.19427107056267268,-76.87927741077537,0.7127859251628152,-0.47417693094912633,-0.5877279502453457,0.47818929591396653,335.0383431644386,17.359472637997793,18.668843601265085,9.452533317154627,-2.7501974166279517
GUIDED_NOGPS,0.932366132736206,21.41130827190493,334.922690692476,16.62634922500671,18.787318779146844,8.273308345701494,319.20775737442574,-7.531998517971019,-2.6390596825330666,0.35779887270173616,-0.12107598865246572,-77.01586070360811,0.7726529546593195,-0.49045905813371,-0.5791315841991046,0.4785736215383201,334.9943635186297,18.703570686249318,18.29395470323219,9.436894461941632,-3.0366763141933633
GUIDED_NOGPS,0.966627836227417,29.194420469415597,335.0998864500565,18.6701288846367,17.842398143899853,8.153031943496384,318.95455154629,-7.595907535528162,-2.6218138255102565,0.3987546613166896,-0.1497279918904345,-77.1048785590609,0.8624377834372323,-0.5057472945772137,-0.5707122360447469,0.4795357880305899,335.01493604565076,19.947343329662996,16.56439612720229,9.42602175195747,-2.864788975654116
GUIDED_NOGPS,1.0078952312469482,24.237806851278258,335.2122844600892,19.312485517138484,16.963750794130146,8.08926834094353,318.68370842187323,-7.664268197370071,-2.6032050278146914,0.4103340197548297,-0.16670570773297058,-77.19168343322258,0.8402627962574112,-0.5145712284782475,-0.5662487838660472,0.48043304417805516,335.78788481094523,19.28654253550315,16.03290155195596,9.093787268038067,-1.8334649444186344
GUIDED_NOGPS,1.044701337814331,27.17644619531412,335.45919078978716,19.618874318781234,16.28846598947065,8.02449442808414,318.39500089041,-7.737137826134199,-2.583192930477404,0.41042227860551095,-0.18147214983171503,-77.25965747584256,0.8458180760874258,-0.5366171693398425,-0.5617146099658898,0.4811283410800519,336.46042640927163,19.622737091177576,16.268100289253702,8.924505464074723,-1.432394487827058
GUIDED_NOGPS,1.0900092124938965,22.08876998588612,335.86403684616397,19.877467915528275,16.2859660362456,7.969701274673352,318.08823642298455,-7.814565016017432,-2.5617384037867246,0.48594042524631564,-0.2147112654275821,-77.31716083846489,0.8542111950799691,-0.5598352691683165,-0.5578790892271347,0.4811522955599677,337.06257344632263,20.723124119904128,16.556896267527144,8.705847799933823,-1.7188733853924698
GUIDED_NOGPS,1.1351797580718994,22.133763944738202,336.24310993048766,20.96684618168723,16.314569650704325,7.928265653091279,317.76325637390704,-7.896589809108224,-2.538803537414726,0.5371935244478566,-0.2201788318581773,-77.34732295383967,0.9091988662271024,-0.5817102111270297,-0.5549785957163896,0.481146626811881,336.8897289402479,22.554677333980003,16.118712395332125,8.85631303860499,-0.2864788975654116
GUIDED_NOGPS,1.1733810901641846,26.182816977021467,336.6020326880913,22.32368158401199,15.810703322511275,7.924908220060021,317.41993528209093,-7.983243871718727,-2.5143516305436733,0.553339931563208,-0.29028282628213037,-77.32735831089572,0.9655590524805814,-0.6063265193270725,-0.5547435754042015,0.4816749450469451,336.8095498336687,23.693243298151845,14.75650130467456,8.901668392143481,0.5156620156177409
GUIDED_NOGPS,1.2114818096160889,26.254766703807103,337.1073336011229,22.943546992881966,14.131152765070354,7.937814365591043,317.05818017242916,-8.074550670716928,-2.4883471819924683,0.5392574688768169,-0.1808010837457613,-77.30416298847436,0.9688203882745392,-0.6373503951052669,-0.555647005591373,0.4833805000529372,338.31438937610346,22.582720346514073,11.51824459520438,8.402199017300495,0.5156620156177409
GUIDED_NOGPS,1.2587082386016846,21.176615521324024,337.6358929968785,22.791332243623913,12.528820882418641,7.967714046631772,316.6779298571714,-8.170525649858776,-2.4607558803431004,0.5986102652994939,-0.16915603809771265,-77.26103717405489,0.9488049994641556,-0.6623135997927739,-0.5577399832642241,0.48501042323723825,339.10322338804957,22.09803308620583,11.311716747376982,8.210539064377473,1.260507149287811
GUIDED_NOGPS,1.3036377429962158,22.26193294304352,338.02858440557515,22.835840992570088,12.046960981291077,8.031877240804663,316.27915423730053,-8.271176406120322,-2.4315445940670917,0.6137208848993836,-0.17417323892991016,-77.17481286597265,0.9589768419161298,-0.685187593733163,-0.5622314068563264,0.4855214944246418,339.026030489806,23.82676954499037,13.310921601291867,8.428738928649752,2.177239621497128
GUIDED_NOGPS,1.3503532409667969,21.410980372138134,338.4583679971038,24.167614305028717,12.074465894436592,8.122531461733026,315.8618536039096,-8.37650286602984,-2.4006813616519445,0.5720660691115617,-0.13563773851952135,-77.0405313468902,1.0311183036241838,-0.71224604776604,-0.5685772023213118,0.48552485274391144,339.0386468978909,26.57804028388994,11.600759334640927,8.759498765324802,2.3491269600363753
GUIDED_NOGPS,1.4041483402252197,18.631083314084684,338.86552108245525,26.16284187971473,11.591028214041645,8.23449449101032,315.4260579395784,-8.486497461999972,-2.36813538172759,0.6009852501399543,-0.03989107951722479,-76.9072880165616,1.1052721724693597,-0.73663590138809,-0.5764146143707225,0.4860408364042308,338.84531526042616,28.08371581026387,9.861403706192142,8.99061571566342,2.635605857601787
GUIDED_NOGPS,1.4504292011260986,21.577635789322056,339.2365129747339,27.425356118546194,9.681026077227997,8.373053189818732,314.97182621975054,-8.601145308659857,-2.3338770031928346,0.7331286532079265,-0.13081327708796514,-76.76823219524931,1.1375304957259507,-0.7640223917203114,-0.5861137232873113,0.48798509691957914,340.1693488374967,27.61431226148477,7.580915190850927,8.878298233008657,3.0939720937064457
GUIDED_NOGPS,1.4956927299499512,22.096450283956212,339.64958006528724,27.447245608545746,7.823381057805565,8.51250548436606,314.49924571411,-8.720424379187257,-2.2978777153418073,0.8081361898474199,-0.07620036514501256,-76.60617229681242,1.1173934272980122,-0.7938359340001085,-0.5958753839056242,0.4898787412268526,341.1685588408164,26.643708753888607,6.027824276373631,8.699290102262625,3.20856365273261
GUIDED_NOGPS,1.5393929481506348,22.891798518744917,340.39162394598645,26.192837240825583,7.120336669951214,8.633335603977496,314.0084312879579,-8.844305681640698,-2.260110137990408,0.9082947775275744,-0.1314969363352011,-76.50362383661384,1.0558305552932434,-0.8408155498232232,-0.6043334922784248,0.49061955319205836,342.7362498933019,24.32049070710338,7.7522705426290885,8.30511166414553,2.521014298575622
GUIDED_NOGPS,1.5844461917877197,22.198897016015497,341.0087455031015,26.142343436991947,7.481660288842039,8.754062857765758,313.4995247035895,-8.972753435291594,-2.2205480116027543,1.07622276895686,-0.2758280115642677,-76.42087609481914,1.0875306667272486,-0.872284180201724,-0.6127844000436031,0.49029779169955523,342.1242546834665,27.46283084998386,8.664886047523403,8.866984717663918,2.979380534680281
GUIDED_NOGPS,1.634624719619751,19.932820712663126,341.6171048648838,27.467703481527277,8.70193026531051,8.891059839866493,312.9726939216707,-9.105725246956398,-2.1791661874176294,1.1310196691205798,-0.3872533698063286,-76.22728804317346,1.1604762700730944,-0.9055649942313801,-0.6223741887906545,0.48911890354727183,341.8871120693373,30.619788887494593,9.688634205779042,9.449944723603316,3.0939720937064457
GUIDED_NOGPS,1.6735291481018066,25.705747520929606,341.952228875046,29.977871613045664,9.138880042344464,9.037312653900207,312.4281324026151,-9.243172287328708,-2.135940617574929,1.1583129983222449,-0.4345729203761769,-76.14925996209524,1.2806514249515013,-0.9331579117144476,-0.6326118857730145,0.4887251793400806,341.84496888830773,31.85099510165854,9.063119873730951,9.663723428324605,2.635605857601787
GUIDED_NOGPS,1.7104218006134033,27.110048218002248,342.38578485601147,30.880137047257673,7.912038050818687,9.134066596562871,311.86605840796045,-9.385039467311417,-2.090848345242108,1.2057592275568558,-0.5541195869847945,-76.04156153926247,1.2733031136991524,-0.9682982299650555,-0.639384661759401,0.4899971136039392,343.33633874564384,30.169627152619878,4.984360072946069,9.412598000075807,2.2345354010102105
GUIDED_NOGPS,1.75461745262146,22.632032202713056,342.8397990718926,29.732048693119225,5.5731618214049705,9.22769804137775,311.28671430174575,-9.531265614348847,-2.0438674947406303,1.2298315889563312,-0.6224309769167365,-75.93147938040939,1.1941224228098724,-0.9972842016623492,-0.6459388628964425,0.4923829706838544,345.0063209727079,27.175523825079257,2.6720055175378925,8.926727407499321,2.864788975654116
GUIDED_NOGPS,1.7937653064727783,25.563957067367177,343.6188318795278,28.232126700732604,4.861738525090138,9.338488285232442,310.6903658518878,-9.68178364875887,-1.9949772616724135,1.3406531157870805,-0.7256702467168313,-75.86065031871635,1.142864426514642,-1.052015213224618,-0.653694179966271,0.49314328421323744,346.0194187216423,27.351229124498676,6.928849984786452,8.977610071758482,2.6929016371148693
GUIDED_NOGPS,1.8319382667541504,26.194099572831057,344.3933521208914,27.876050807411435,5.936339732201245,9.418285330521345,310.07730153155813,-9.836520760065053,-1.944157903046278,1.3823410686645474,-0.6303792893982215,-75.79792869156812,1.16802424579616,-1.0952552230707095,-0.6592799731364942,0.4921195023647525,345.75971327615525,29.101399472656386,8.208163694279392,9.304483356627314,1.7188733853924698
GUIDED_NOGPS,1.8754336833953857,22.997105009211335,345.0543153434318,29.350308838582723,8.22517893949077,9.478749773401065,309.4478318205597,-9.995398583328779,-1.8913907274043935,1.506104416590296,-0.6560635754418198,-75.74294566874953,1.2615315014625248,-1.1293058549270076,-0.6635124841380746,0.48988343033310483,345.1497850010099,31.598297918593126,9.538523139406463,9.769656924364098,0.9167324722093172
GUIDED_NOGPS,1.920504093170166,22.188327902154132,345.52416860530866,31.220769213169206,9.258937992292324,9.532567121683991,308.8022885067037,-10.15833337548139,-1.8366580849487282,1.6372613375708773,-0.8604198472008394,-75.71156777970248,1.3317095300336101,-1.1593533235693543,-0.6672796985178795,0.48890440392275897,345.6856050550279,32.962610248258116,10.03012714319112,10.050501336769809,0.6302535746439055
GUIDED_NOGPS,1.9619710445404053,24.121553697334974,345.90816858542587,31.681488953797313,8.76315979224195,9.552169794055423,308.1410239871863,-10.325236191656314,-1.7799433576674935,1.6495444722977932,-0.7000184040717906,-75.70346034515768,1.3225873196564062,-1.192975448734614,-0.6686518855838797,0.48945689685009053,346.926320873294,30.483558694540708,6.720829094128268,9.619255794617759,-0.4583662361046586
GUIDED_NOGPS,2.009058713912964,21.257216996432046,346.1745158634702,31.2242993106116,8.062483032663744,9.520770561752563,307.4644105699656,-10.496013061521197,-1.7212309494615934,1.7603748570301225,-0.8874035767340326,-75.8076822017029,1.2946695864383442,-1.2177726011006809,-0.6664539393226795,0.49021628601787465,347.35115511186376,30.226728989035973,7.436492860671844,9.575712611455707,-1.948056503444799
GUIDED_NOGPS,2.046555995941162,26.674535741541593,346.48737080662823,31.227234138982762,7.357443625752932,9.455638898698068,306.772839775138,-10.67056516561004,-1.660506276271071,1.721813316523523,-0.8478905054986857,-75.87584748961963,1.312381362325587,-1.256186339637379,-0.6618947229088648,0.490982050097976,347.32398799194533,32.97141473337161,7.915008922458682,10.012281692826548,-2.4064227395494577
GUIDED_NOGPS,2.090724468231201,22.644006305742113,347.20953748371255,31.174463819115314,7.508545890706756,9.382459082058766,306.0667216363155,-10.848789011655327,-1.5977557562015576,1.7825812961257148,-0.8024255647319074,-75.95894357106201,1.3161027428327976,-1.3063431090457012,-0.6567721357441136,0.4908936983530917,348.76061838643125,30.32524773493836,7.174135888989742,9.508258409935847,-2.291831180523293
GUIDED_NOGPS,2.1279420852661133,26.878466103161227,348.1911267432646,30.142857755939072,7.898816397855501,9.27631315310665,305.34648400200206,-11.03057661092016,-1.5329667996507166,1.8215196709754287,-0.9708533339093675,-76.08618999529934,1.2664933429833014,-1.3723770305106644,-0.6493419207174655,0.4905682168024938,350.5935513527879,27.131910799507246,8.607304382118077,8.885639366150537,-2.9220847551671985
GUIDED_NOGPS,2.17497181892395,21.263359610656256,348.65518851594527,29.565716869929833,9.182154824117626,9.155130177454327,304.6125718369707,-11.215815654530394,-1.466127799434695,1.7328231545787605,-0.894314020626793,-76.315814125006,1.2710788524255332,-1.3903015539438988,-0.6408591124218029,0.48935171737644767,349.2466297366973,31.23999207534391,11.76502420124506,9.50123601575563,-4.354479242994256
GUIDED_NOGPS,2.2158050537109375,24.49571910807938,349.2692696854068,29.515398766828195,11.6756040931109,8.987532213399986,303.8654465236399,-11.404389689806761,-1.3972281209145676,1.7704899403040881,-1.0904981844873038,-76.48064708024592,1.288651699494644,-1.4405617301079228,-0.629127254937999,0.48692716778597456,350.4215609591713,30.174293425633437,14.654483695969557,9.130834001050982,-4.18259190445501
GUIDED_NOGPS,2.2528648376464844,26.98759458485613,349.7477992382254,31.320194469494158,14.065232416998947,8.83280223307629,303.1055851634508,-11.596178296597015,-1.326258092122787,1.713531071824648,-1.1589202448281413,-76.68524539683365,1.4004843181397324,-1.479592651348741,-0.6182961563153403,0.48460850949087825,349.7166357560382,32.546297907505135,15.776189353782224,9.40837239769014,-4.239887683968092
GUIDED_NOGPS,2.298776388168335,21.784405075388108,349.53721581579293,33.48805298077113,15.18268746116272,8.672385940417755,302.3334798782438,-11.791057263608057,-1.2532089938896283,1.6231341584897638,-1.3156107608037577,-76.95789288812222,1.4711901109865413,-1.4775211381607505,-0.6070670158292428,0.48356410354494767,347.7077012742692,37.743567609174825,15.117389333736375,10.146462659934382,-5.557690612768986
GUIDED_NOGPS,2.3335821628570557,28.736573100296663,349.4751227630157,34.26353677850327,14.161535245029148,8.438237549975128,301.54963711163515,-11.988898764738064,-1.1780730499696395,1.576249392149269,-1.1468657079950093,-77.11114184252979,1.4785463456832686,-1.5093754186122676,-0.590676628498259,0.4846603917050012,350.28308608890165,32.50074481882989,11.591027047568843,8.971993670291589,-6.359831525952138
GUIDED_NOGPS,2.3747293949127197,24.31184609409869,349.68241403345655,34.24835241561153,12.766481142958021,8.243672902212921,300.754576930394,-12.189571535408632,-1.1008434171680856,1.6008394605434901,-1.3821629501375983,-77.43964662085072,1.462532473229475,-1.5450935082999984,-0.5770571031549045,0.4861326754398739,350.28308608890165,32.50074481882989,11.591027047568843,8.971993670291589,-6.245239966925974
GUIDED_NOGPS,2.4146463871002197,25.06081916768739,349.8961613402819,32.13608375399826,12.650084340619614,8.003213932205476,299.9488323258191,-12.392941048896898,-1.0215141754674,1.545237024944532,-1.4007204673908171,-77.71124226300712,1.3546468830702514,-1.5788383652861449,-0.5602249752543834,0.486328401483913,351.49029749329793,31.40676162433498,14.768198926721155,8.450872291205469,-6.41712730546522
GUIDED_NOGPS,2.4576473236083984,23.26730498263677,350.29713243246397,31.728105811679907,14.06302795355272,7.75495826860875,299.1329485151156,-12.598869692667684,-0.9400803181536272,1.555166839337261,-1.4129207860740467,-78.00925024668395,1.3936734704113325,-1.6202626584907456,-0.5428470788026125,0.48499689172829363,351.7214912169487,31.276810991874836,15.82985788636816,8.245928865438895,-6.932789321082962
GUIDED_NOGPS,2.500201463699341,23.49776468083676,351.3324187198617,30.28420346887111,15.378876304591593,7.476109287867477,298.3074822427716,-12.807216944705623,-0.8565377419428764,1.5634759779059932,-1.4066822620408863,-78.29328366331892,1.3341973650369543,-1.6936529338454345,-0.5233276501507235,0.48376458595346555,352.884132711258,28.169037790403497,15.538572100685462,7.546724582173837,-6.760901982543714
GUIDED_NOGPS,2.5431346893310547,23.296900081649884,351.4633155701534,30.79461465246745,15.894414017439054,7.214022165761962,297.4730010819353,-13.017839549847283,-0.770883237107761,1.499342636033689,-1.3070163551154717,-78.53559828450346,1.4034916810023421,-1.7038821577592402,-0.5049815516033375,0.4833347027454532,350.93757034035985,32.937995175124,16.31481206526354,8.174352459540943,-6.302535746439056
GUIDED_NOGPS,2.580684185028076,26.63777412245883,351.4611649506995,31.955128272510052,16.530877809335777,6.941270017801013,296.6300827357916,-13.23059169611332,-0.683114477603854,1.4345651219452882,-1.3057791303803474,-78.81976830492185,1.4660752005767241,-1.7309816940907938,-0.485888901246071,0.48278600771306035,350.27233299163265,34.75835185200265,17.73924926205833,8.29571947126338,-7.333859777674538
GUIDED_NOGPS,2.6274824142456055,21.374101196027173,351.11467590422274,34.285736417282884,15.471838100832613,6.698708237199945,295.77931433893866,-13.445325191040594,-0.5932300111961286,1.3836443541355505,-1.2787408660555,-79.17500644365421,1.562571286840716,-1.7371174850041244,-0.4689095766039962,0.48393493188797126,349.7578522609136,35.16086222472199,12.361452975175972,7.999963988591986,-7.104676659622208
GUIDED_NOGPS,2.669600248336792,23.744255427552435,351.01079921681975,33.88971814395378,14.360310096065438,6.3970999797555885,294.9212917587653,-13.661889638014303,-0.5012292495854114,1.3231468073358088,-1.2450741165845665,-79.48240593743981,1.5005051806255147,-1.7692061885635113,-0.44779699858289124,0.4851384606543491,351.202107779934,31.749940355136687,12.980228050962014,7.263564448151704,-6.589014644004467
GUIDED_NOGPS,2.7090001106262207,25.389249394673122,350.7371277128669,32.5877353418823,13.750610571119688,6.135578016486963,294.05661889682693,-13.88013261260013,-0.4071124585348258,1.2762747408783022,-1.18092540678663,-79.75266286251886,1.4464691737400128,-1.786331703394686,-0.4294904611540874,0.4858422769703455,351.5157751914935,30.852403445788216,15.910150687221085,6.7527124167748225,-6.187944187412891
GUIDED_NOGPS,2.7518937587738037,23.337602866633652,350.8653861934361,30.968194243818527,14.877879797836213,5.888662278111341,293.18590699022315,-14.099899838876363,-0.3108807479962401,1.2512243817670456,-1.044042759569168,-80.01015416403918,1.4012549101377831,-1.827085986811265,-0.41220635946779394,0.48481123945416754,351.5788627432058,30.302238930530674,15.743260655325544,6.47928098787569,-6.760901982543714
GUIDED_NOGPS,2.7961833477020264,22.566521757844445,351.0912381133747,30.346076479981054,15.97139108135888,5.613314736381207,292.30977391297387,-14.321035365766013,-0.2125360622367185,1.2531416372114095,-1.0060518600233819,-80.30330588321613,1.4149824299130487,-1.8640929084555797,-0.3929320315466845,0.4838160728564044,351.40159259132554,29.883587063624276,16.260761901530007,6.25269632585079,-6.875493541569879
GUIDED_NOGPS,2.8380253314971924,23.90339034245365,351.14506090024264,30.580209463808174,14.750135663420407,5.327584609843955,291.4288434773965,-14.543381743368988,-0.11208116996496065,1.2556629375104962,-1.027229074988418,-80.57890401622613,1.4504633653026995,-1.8922810044099456,-0.37293092268907685,0.48513778316661466,350.02696619525324,31.554802397269572,12.246384433405666,6.240895041616928,-6.760901982543714
GUIDED_NOGPS,2.8850457668304443,21.288397801271934,351.0462433187984,30.275054529366102,13.854678982259268,5.061399298667505,290.54374473548273,-14.766780199294184,-0.009519654457759597,1.1159709481100433,-0.9715705037722188,-80.91940260672962,1.437468955942483,-1.9131228468531831,-0.3542979509067254,0.486135801363283,350.7080198727127,29.38677412720446,13.056890611842126,5.7275726114677115,-6.531718864491385
GUIDED_NOGPS,2.9381802082061768,18.8103938505144,351.05708600128116,29.12798897394249,12.83603631150388,4.757824835973949,289.6551112802749,-14.991070814991645,0.09514409631355969,0.9099145995779252,-0.8990012379447142,-81.27209991509073,1.3961632613472255,-1.9437767897016323,-0.3330477385181765,0.4872591077848097,351.5699886039073,26.442390397353442,13.204833889263838,5.086987765073377,-6.875493541569879
GUIDED_NOGPS,2.978708028793335,24.678037902813,350.5753367982741,28.654128931879796,14.058462410047275,4.422942289341984,288.76358054724335,-15.216092702084683,0.201904899556689,0.7752697464481416,-0.9194339622902189,-81.56064125657792,1.4021800397686053,-1.9512976329298324,-0.30960596025393894,0.4861434424895094,349.1701167281704,30.133222271081493,15.913662729035853,5.462063119959552,-6.64631042351755
GUIDED_NOGPS,3.0188984870910645,24.896296692012275,350.01159025546514,29.047764532402525,15.058829835299674,4.181401307334008,287.8697931156627,-15.441684178702005,0.31075678753189084,0.6905804166601552,-1.028013799691029,-81.78258142346832,1.4440219882465257,-1.9620461909583613,-0.2926980915133806,0.48525192695223224,348.5828598772806,30.567680928772646,16.057992887599323,5.4110329393132215,-6.016056848873644
GUIDED_NOGPS,3.0620267391204834,23.20512976558653,349.74989028645,30.03842044335742,14.987303869244668,3.9834608421971076,286.9743920099889,-15.667682945809867,0.42169301742554754,0.5123886786207504,-0.9879209094281715,-82.02007393109884,1.49540786025649,-1.99029187792381,-0.27884225895379755,0.4854343891481809,348.7184663501776,29.414358130218133,12.990255991098818,5.069669487493739,-4.297183463481175
GUIDED_NOGPS,3.096541166305542,28.97339117460142,349.5217379304685,28.733219025926036,13.616960814321587,3.801457561333106,286.078022001236,-15.893926263544186,0.5347060812237183,0.46316142419920575,-1.1695434301433325,-82.13284718448492,1.4054241028540246,-2.0168228116694618,-0.26610202929331744,0.4869177452669021,349.5672580928052,26.217618018787345,11.802633564266605,4.393853675159301,-3.7815214478634336
GUIDED_NOGPS,3.146050214767456,20.200370843065958,349.2536987078553,26.195608882176142,12.368405938271607,3.6734616076792643,285.1813289083529,-16.120251127542673,0.6497877155856924,0.31997365860417576,-0.8926599409088863,-82.32900338725851,1.322139059957415,-2.0325205523332155,-0.25714231253754855,0.48828138177731406,350.2297924908411,22.95485049752296,12.312328259449378,3.736495718486265,-3.2658594322456924
GUIDED_NOGPS,3.1958417892456055,20.086604632897693,349.06382889754866,25.18340283522818,12.211900777732572,3.50849442800065,284.28495889960004,-16.346494445276985,0.7669289117175326,0.34771740676509155,-1.042815673396093,-82.48946502142961,1.3316712002728959,-2.0583858340032255,-0.2455946099600455,0.48855502813398494,348.2207676766377,26.37773998937425,12.520740509481712,4.237872127174817,-3.0366763141933633
GUIDED_NOGPS,3.2371044158935547,24.24018817437338,349.1866506015784,23.23234697629501,10.498606913349839,3.3648105877180994,283.3895577939262,-16.57249321238485,0.88611992524564,0.3975609256766712,-1.004238231355332,-82.59374834967737,1.255526974985996,-2.1021491460321102,-0.235536741140267,0.4903875130118958,349.196968397429,20.364450441987845,6.66275197111841,3.1526548362854703,-2.177239621497128
GUIDED_NOGPS,3.2808539867401123,22.862101482058858,348.91853638911164,23.104613863064387,9.546797903889852,3.293852928161038,282.4957703623455,-16.798084689002174,1.0073502860903005,0.4829956532186881,-1.027265680533501,-82.64706480633849,1.304250121787108,-2.113536418940863,-0.2305697049712727,0.49146055238220043,347.37789528784396,22.571651157831088,9.456901231069418,3.501085976424168,-0.8594366926962349
GUIDED_NOGPS,3.321944236755371,24.340769284338077,348.15429189820964,22.928749139679155,9.040366707606962,3.2588404925146057,281.60423962931395,-17.023106576095213,1.130608808339237,0.5793391533605674,-1.1237220388792442,-82.66373729810249,1.3063133551631858,-2.108779071791426,-0.22811883447602244,0.49209024210073227,345.7460356382955,25.850145819218547,11.001446920633043,4.061002995887848,-0.11459155902616465
GUIDED_NOGPS,3.356295347213745,29.125493028165103,347.05984813083904,24.853420052972066,9.622537578961477,3.2496604097039983,280.71560617410614,-17.247397191792675,1.255883600121161,0.6076181108759772,-1.1578353119671672,-82.6635528829949,1.4337815876443112,-2.0957948540506512,-0.2274762286792799,0.4916333460211597,344.7575736539884,26.138463181866566,8.409264585181957,4.146070958939456,0.057295779513082325
GUIDED_NOGPS,3.4055118560791016,20.318976083091517,346.2216502345834,25.952391604486063,8.063693828107752,3.2590653993818357,279.83050743219235,-17.470795647717868,1.3831620734793328,0.7229160796557295,-1.1310315152299215,-82.65795895806465,1.4397000031261715,-2.107432821511462,-0.22813457795672853,0.4933194682453716,344.0297781953595,25.868565812373074,4.780369978508238,4.166212005352862,0.40107045659157625
GUIDED_NOGPS,3.4510719776153564,21.952351044676128,345.0980902312108,25.871705680958105,6.040183549016613,3.292881468706583,278.949576996615,-17.693142025320842,1.5124309542451022,0.7132644353891197,-1.1535534236878038,-82.60059219922573,1.4221888257396522,-2.096904032559483,-0.2305017028094608,0.4954722474052285,343.57916838056593,25.608088048634666,4.930916083359625,4.2140798280743725,1.4896902673401404
GUIDED_NOGPS,3.4967854022979736,21.88009076919064,344.173614848816,25.3313584835544,5.819961565295013,3.3821975621597584,278.07344391936573,-17.9142775522105,1.6436762919114698,0.7348895613533204,-1.0995410347832835,-82.48641192687062,1.404505628485896,-2.1027357297334968,-0.2367538293511831,0.49582371472661646,342.7555183758699,24.517421589655452,7.748598634017155,4.255224855321304,3.2658594322456924
GUIDED_NOGPS,3.537215232849121,24.737275440272715,343.51456504976045,23.634866423680236,4.971661123302149,3.52544195743835,277.20273201276194,-18.13404477848672,1.7768834695066373,0.7455968433726675,-1.0234317032533025,-82.31317100876241,1.3322943876175486,-2.1180625529004353,-0.24678093702068454,0.4968052223462045,342.4507866430179,20.779089632750583,2.2354686525296477,3.8877080071885484,4.5263665815335035
GUIDED_NOGPS,3.583054780960083,21.81851474229593,343.0708378431874,21.47985767091065,3.5727638212172366,3.6927150402499946,276.3380591508236,-18.352287753072552,1.9120372134675612,0.7255601099164648,-0.9348462841523527,-82.11394805105148,1.270364175615683,-2.13768739408559,-0.25849005281749965,0.4983392733922503,342.53893762112295,19.143061790325916,0.734224177104888,3.7913328630561356,5.042028597151244
GUIDED_NOGPS,3.6288084983825684,21.86309709972686,342.6540566553648,19.62982766285825,1.2806336022613483,3.9205152853044507,275.4800365706502,-18.568852200046265,2.0491216035134996,0.7262818154518119,-0.6883056968622765,-81.82427289816208,1.2296172887407186,-2.154466858444727,-0.2744360699713116,0.5007684880012522,341.9458722562469,18.967331565498263,0.87220797714949,3.9984005553197446,6.130648407899809
GUIDED_NOGPS,3.6636359691619873,28.71296644920145,341.9146521267442,19.516940488610974,0.9012682348248734,4.187684360586437,274.6292681737973,-18.78358569497354,2.1881200825195743,0.7708984787401864,-0.6713350246523221,-81.68719783170908,1.2726463710144293,-2.1536973734744405,-0.2931379052410506,0.5012868518476947,339.882145737463,20.440428110008753,1.097372550220223,4.810609756989475,6.703606203030632
GUIDED_NOGPS,3.7156989574432373,19.21295795809552,341.2961729832515,19.325019799258623,0.6691004273969289,4.433505135577399,273.78634982765357,-18.99633784123958,2.3290154663903144,0.7656363515932204,-0.6642014256727726,-81.17860145554243,1.2727446197345171,-2.165071004325354,-0.31034535949041797,0.5016599150389934,339.66312265840656,18.567299722268864,0.03772075482105419,4.796949391457526,8.078704911344607
GUIDED_NOGPS,3.7497010231018066,29.416784727384943,340.6483298671445,18.871956628471782,-0.07419441371861217,4.801364103552429,272.9518686668173,-19.20696044638123,2.4717899539332175,0.8187141251593597,-0.6750522483863957,-80.95242657136663,1.2592113629023698,-2.1741422337462883,-0.33609548724867006,0.5025459843676519,339.2115710624833,17.608142053137737,-1.3576765461971332,4.958358851647273,7.7349302342661135
GUIDED_NOGPS,3.790740489959717,24.38605548966255,339.7695955252184,18.32742143408994,-0.9403975442184637,5.049901024529512,272.1264023944733,-19.415307698419177,2.6164251367322886,0.9080834685501271,-0.6097425131512627,-80.63288983142591,1.2496446790483693,-2.168523375699958,-0.35349307171706584,0.5035568226809507,338.1452659114921,18.806822526863222,-1.5012368412793318,5.525869387697774,7.39115555718762
GUIDED_NOGPS,3.82682204246521,27.736070148523364,338.5749620923469,19.70661761697046,-0.9485350467643245,5.355482480283847,271.3105185837697,-19.621236342189967,2.762902009021612,0.9853637506359422,-0.5715759496777604,-80.4189273254861,1.351270020220099,-2.1502236961500363,-0.3748837736198693,0.5037114370557859,335.97270509188934,22.704888270910434,0.01330824718347183,6.598031533570867,7.448451336700702
GUIDED_NOGPS,3.875566005706787,20.51425720685911,337.71298779002234,20.918430306397905,-0.36382610472279925,5.6258882709548,270.50477397919485,-19.82460585567823,2.9112009775588894,1.040841855447665,-0.5529504506979587,-80.0200784289032,1.3799635215836479,-2.1613376443718915,-0.393812178966836,0.5032750270822817,335.5722742258404,21.24358012142007,0.3964502799274428,6.747798692165614,7.792226013779196
GUIDED_NOGPS,3.9143972396850586,25.753097638549484,336.7689134784723,20.21612251151431,-0.4747131729526284,5.990191514734466,269.7097137979537,-20.025278626348793,3.061301871498992,1.0429551586655492,-0.5327331974764267,-79.78721678952996,1.3248839314593523,-2.1567945732347287,-0.41931340603141265,0.5035360150444517,334.94275110065627,16.69989914221244,-1.833898045968819,6.739952014355232,7.276563998161455
GUIDED_NOGPS,3.955095052719116,24.577104049595977,335.8168899708581,18.074348237583127,-1.076720842891596,6.255871360112701,268.9258710313451,-20.2231201274788,3.2131839522675256,0.9860760113003276,-0.47164270487936333,-79.46932612517922,1.2331219064350816,-2.154148612588226,-0.4379109952078891,0.5042899047951591,334.45145352441216,16.279565449116873,-1.7927147626334312,7.049196554793435,6.302535746439056
GUIDED_NOGPS,3.986802101135254,31.545370446973173,335.02935827037857,15.9379621112107,-1.6205634566939573,6.52357210825965,268.153765746138,-20.417999094489844,3.366825923434367,1.0324840517810965,-0.5450202809064565,-79.30423362275084,1.162740634681496,-2.159464663623571,-0.4566500475781755,0.5049873893801283,334.20760740909435,14.834421742302776,-1.2350775614796417,7.192395735842851,6.474423084978302
GUIDED_NOGPS,4.035704612731934,20.469805077549267,334.51243479195864,15.253154505674814,-0.721521018519029,6.7263144949190705,267.393904385949,-20.609787701280098,3.5222059405872366,0.9395696801285339,-0.7265419496096541,-78.92626461446068,1.2007292609415916,-2.175497621144789,-0.470842014644335,0.5042437269591062,333.3880876997898,14.64547632560479,0.8632292685559666,7.553719172537743,6.41712730546522
GUIDED_NOGPS,4.073590517044067,26.38192522517989,333.7047472232568,14.135151695952777,-0.48517784496842004,7.029241991432809,266.6467790726182,-20.798361736556473,3.679301621205226,0.8711651755082975,-0.9966434878851009,-78.71208354246743,1.1599213470744114,-2.169653593403671,-0.49204693940029665,0.5041644794661736,331.5338363823311,12.925557019950762,-1.0836852419816045,7.99160478844729,6.245239966925974
GUIDED_NOGPS,4.114311456680298,24.564869043714566,332.92757655024326,13.002277796818666,-0.6224638668371018,7.248645338457177,265.9128669075868,-20.983600780166697,3.8380900545323695,0.7869804259452459,-1.2348936129049568,-78.51960198146729,1.1339860017339007,-2.1716103663204507,-0.5074051736920024,0.5044605539213695,331.0568977355885,11.435800044900448,-1.6469356270856867,8.095500424646339,5.156620156177409
GUIDED_NOGPS,4.157458782196045,23.178584849355644,331.98563606251975,12.5418774164331,-1.1557750333689063,7.468349040601982,265.1926292732734,-21.165388379431533,3.9985478114511923,0.662212773407241,-1.6334743178412225,-78.29152830470223,1.1438312925738845,-2.1636918043095967,-0.5227844328421388,0.5051543228448201,329.7417510857946,13.264275184448092,-0.7367042310394474,8.787540698825662,4.870141258611998
GUIDED_NOGPS,4.195675849914551,26.173177245837806,330.84561086453806,12.910792875172712,-0.2511955376689498,7.687646317661064,264.4865111344509,-21.343612225476818,4.160650954356257,0.5932939768868439,-2.004480375159383,-78.10299459304237,1.182228136169635,-2.147214008409538,-0.5381352422362745,0.5044118464920252,328.50748141918604,14.032303396169596,1.6300532451182652,9.30604156705249,4.870141258611998
GUIDED_NOGPS,4.23459267616272,25.700392156862744,329.7289520235324,13.300641495299464,0.7902904698301431,7.896228515702171,263.7949403396233,-21.518164329565664,4.324375047027729,0.6666834523841317,-2.431596863396022,-77.92608586334987,1.2009184672444293,-2.137276373872539,-0.552735996099152,0.5035340845771976,327.80479349476155,12.605345905280698,1.477522395411592,9.402942918612919,5.614986392282068
GUIDED_NOGPS,4.273389577865601,25.780957649517486,328.99707666736487,11.841195093513315,1.8408788648853367,8.105942265373299,263.1183269224025,-21.688941199430545,4.489695164504916,0.77096112438148,-2.7076329822865635,-77.69524595997095,1.1158115233376347,-2.1477088051726847,-0.567415958576131,0.5026488162996195,327.8744596014936,8.885935979089648,2.415060954126133,9.066835164597265,5.557690612768986
GUIDED_NOGPS,4.311842203140259,26.01199417036187,328.21198265566943,9.895179896733076,1.7904994982141103,8.315081145437222,262.4570624028852,-21.855844015605463,4.656585902959826,0.8681374807152777,-2.9297170100363514,-77.52352817404766,1.050239273213216,-2.1446832337236783,-0.5820556801806056,0.5028660864047457,327.13142767711156,8.194257805828876,1.4789151451045857,9.250280982269347,5.328507494716656
GUIDED_NOGPS,4.341904640197754,33.314831730196424,327.35915867338144,7.646201022337,0.36055266554101034,8.51340604007731,261.81151908902916,-22.018778807758075,4.825021389570715,0.8899918449034971,-2.8679396565408783,-77.45300647086728,0.9649405876742569,-2.1366801121947288,-0.5959384228054118,0.5044644687240297,325.47763117435454,5.858409282092474,-2.8123181026077075,9.507099208512928,4.92743703812508
GUIDED_NOGPS,4.379027843475342,26.93456287486675,326.64716430314223,6.070311669416444,-0.962826683755076,8.642285178476383,261.1820493780307,-22.17765663102181,4.994975292395651,0.9637551665361375,-3.0308529017371995,-77.37985514485644,0.9560446809912183,-2.1414509635259207,-0.6049599624933469,0.5059578019761507,324.94750956798987,4.158267920327978,-1.5550770937621259,9.555142266089902,3.9534087864026803
GUIDED_NOGPS,4.415179014205933,27.666730430538056,326.10466292693945,3.673939905965515,-0.7898095946345679,8.801071154028987,260.56898505770107,-22.332393742327987,5.166420830246059,1.0042441010491499,-3.0135968556859853,-77.24453543702015,0.8657507076081548,-2.1500845942560494,-0.6160749807820292,0.5059562304248806,325.0922866137476,1.0051425154760867,1.9979664124661098,9.32838528492271,3.896113006889598
GUIDED_NOGPS,4.46408486366272,20.450741858571476,325.3042786908615,2.1591947249336862,1.6853852448819564,8.923835193278435,259.9726366078431,-22.482911776738007,5.339330782560271,0.9396266695194212,-3.2596388391666506,-76.99475541907277,0.8597589851234471,-2.141039889738087,-0.6246684635294906,0.5036539455376783,323.87253842110385,1.3141737389969887,4.613266415941865,9.69379234276509,2.4064227395494577
GUIDED_NOGPS,4.501216888427734,26.934735841665542,324.29850232796156,-0.17591017845350265,2.928212717173041,9.059070219645939,259.3932925016284,-22.62913792377544,5.513677499277083,0.872462377842071,-3.159057900335866,-76.91506760202624,0.7639166404472773,-2.123353054659778,-0.6341349153752158,0.5025854647821041,322.1025458626117,-2.8470467898335894,2.1734053231111288,9.531088278950941,1.776169164905552
GUIDED_NOGPS,4.54625940322876,22.20641895826936,323.42747099185465,-2.2258722125306494,2.8046149847997643,9.132604746038261,258.8312185069737,-22.771005103758156,5.689432910709302,0.7615172139151738,-3.1154268653612363,-76.84264027606743,0.7240634874897197,-2.1215919664977685,-0.6392823322226784,0.5028848179259096,321.1224744938198,-5.144743586755353,1.6271732153462792,9.398151718102163,1.5469860468532228
GUIDED_NOGPS,4.578563451766968,30.96067083973072,322.52266909398713,-5.704592558732827,0.8426508016800804,9.217681226352372,258.28665698791804,-22.90845214413048,5.866568537417313,0.65346468846263,-3.0625180856162015,-76.79784789549048,0.5639079172367745,-2.1086469369401866,-0.6452376858446661,0.5050239177357372,320.42350007865235,-9.121987299609545,-1.2726261334171862,8.925470162518751,2.0626480624709638
GUIDED_NOGPS,4.615843772888184,26.834958413307742,321.3250064447942,-7.972911100947319,-0.053302006959524174,9.28838983625532,257.75982620599933,-23.04142395579526,6.045055500082615,0.6675118796252603,-3.03969714293872,-76.71908215398189,0.5458752447314007,-2.0839276287545063,-0.6501872885378724,0.5060983575070421,319.1039733677829,-9.652002416477064,-0.5144531028076851,9.059941271029787,2.521014298575622
GUIDED_NOGPS,4.656792163848877,24.422690377202482,320.37129343413,-9.475330710854555,-0.7671774463441791,9.3670128747066,257.250919621631,-23.16987170944617,6.224864529381378,0.6081056156279868,-3.105709854049835,-76.62652626053905,0.5290417085127834,-2.0803240632621467,-0.655690901229462,0.5069920419757256,319.1039733677829,-9.652002416477064,-0.5144531028076851,9.059941271029787,2.2345354010102105
GUIDED_NOGPS,4.6942243576049805,26.728761606158514,319.5188687542256,-9.802766044042462,0.15524320427945604,9.441489747625608,256.7601051954789,-23.293753011899604,6.405965975858004,0.5837468131701942,-3.03930526083509,-76.56140040680297,0.5515690422658495,-2.072902031573836,-0.6609042823337926,0.5062507227715786,317.84042246308985,-10.104293299173262,1.494635818453719,9.207225730546668,1.4896902673401404
GUIDED_NOGPS,4.731419563293457,26.887425879034584,318.6087434491098,-10.004077422519083,0.9630043062728331,9.490565220389923,256.2875246898383,-23.413032082427016,6.58832981979867,0.4832550936854428,-2.8664096941667956,-76.51726372438635,0.5529476743136297,-2.0603149142110313,-0.6643395654272947,0.5056253255135258,316.5718479682408,-10.25593655190693,1.9088302031724458,9.41773658168998,0.9167324722093172
GUIDED_NOGPS,4.77349591255188,23.77076532462822,317.3231333245857,-10.726962902581784,3.2105730711571137,9.52892685085291,255.83329297001046,-23.527679929086894,6.771925681104879,0.4336007389973608,-2.8276662998735445,-76.48483398620714,0.5229444398955725,-2.029778943999686,-0.6670248795597038,0.5035613526099477,313.9954494560317,-11.820658856665174,6.228253191845155,9.651748304558431,0.6875493541569879
GUIDED_NOGPS,4.814396142959595,24.454871962311675,315.9403253516338,-11.436519999591473,4.61259028159569,9.557074559882938,255.39749730567922,-23.63767452505703,6.956722829167019,0.32042525150219,-2.848894100927121,-76.47795598571294,0.5052874199660147,-2.0005033930294083,-0.6689952191918057,0.5023441325475714,312.1899335030238,-12.232964590202332,5.700687449769448,9.82684480000779,0.17188733853924698
GUIDED_NOGPS,4.857380390167236,23.27156514067901,313.97608569028085,-13.05636151980041,6.41971343355122,9.547771502116714,254.98019667228834,-23.743000984966535,7.1426901927379305,0.19884362874794498,-2.6964199461035183,-76.4940205906408,0.43967622105775545,-1.943721571595866,-0.66834400514817,0.5007229767591868,309.28277506101784,-15.11546111253374,7.330199659039035,9.745923881220104,-1.260507149287811
GUIDED_NOGPS,4.890138626098633,30.530451809202145,311.89283334447026,-14.057906138114378,7.0521202923988495,9.511068319706013,254.58142105241745,-23.843651741228093,7.329796369806422,0.1438992925476881,-2.6083467911903195,-76.52591757406476,0.4208384629564947,-1.8798568702398553,-0.6657747823794209,0.5002776760774076,307.42416073403695,-14.825292711607085,8.125473768388042,10.018104783199515,-1.6615776058793874
GUIDED_NOGPS,4.938249826431274,20.79033225440288,309.7765449800216,-15.768460188787136,7.609552743015904,9.461690028933717,254.20117073715966,-23.939626720369937,7.518009637470842,0.030603196184771038,-2.555516131733917,-76.67689207547872,0.3657210278565013,-1.8445601626654982,-0.6623183020253602,0.49990845689445496,305.99040614599727,-17.364626742220604,7.3729848016206105,9.73990786560528,-2.0053522829578814
GUIDED_NOGPS,4.972278356552124,29.39328362392779,307.53299229981667,-17.853050945935266,7.14596217479858,9.38094824009791,253.83941562749789,-24.03093351936814,7.707297961812651,-0.10220106103593299,-2.4805057136083675,-76.73248298513346,0.28401385743224355,-1.7736294303644318,-0.6566663768068537,0.5005613357870141,302.77768605500705,-21.369233383978123,5.939427954387063,9.267685112923221,-2.119943841984046
GUIDED_NOGPS,5.010457515716553,26.197862599234234,305.6505428102133,-20.03436450339228,6.417280236798253,9.308674893871308,253.49609453568172,-24.117587581978633,7.897629007769943,-0.21731893026707247,-2.254952590090448,-76.81749151954344,0.22314399179478045,-1.742626798416885,-0.6516072425709916,0.5014803487709717,302.77768605500705,-21.369233383978123,5.939427954387063,9.267685112923221,-2.3491269600363753
GUIDED_NOGPS,5.052553176879883,23.762146482958666,303.6194125415527,-22.027135733834072,5.745282855190825,9.20507587024712,253.17111448660427,-24.199612375069442,8.08897014901102,-0.20939346957083793,-2.254748538188994,-76.98650455055541,0.17515546955811429,-1.6931492564163848,-0.6443553109172985,0.5023436872938202,299.127123717715,-23.342940433545984,5.356992656798326,9.123119412557736,-3.552338329811104
GUIDED_NOGPS,5.087948799133301,28.261790053163892,301.5345798601752,-23.040111030264242,4.47364581977547,9.067043115512751,252.8643500191788,-24.277039564952666,8.281288477807914,-0.2505245619277506,-2.10999719288256,-77.08865685978212,0.16631388975987538,-1.6321033798508089,-0.6346930180858926,0.5038076426580325,296.99999732714934,-24.40815927326864,2.124516848140998,9.032549435246283,-4.068000345428845
GUIDED_NOGPS,5.131251573562622,23.098677181658974,299.42547132774905,-24.248495688951323,4.623261968544932,8.940211906099066,252.57564248771553,-24.349909193716805,8.474550814909989,-0.33253592395256304,-1.79476325867555,-77.2575537775782,0.1323781927512349,-1.5875593103058356,-0.6258148334269347,0.5038512888463651,295.44486348386647,-24.99438736003937,6.388276400695449,9.007850810778685,-3.896113006889598
GUIDED_NOGPS,5.172454118728638,24.270485779590892,297.14420805386635,-25.69925918065029,3.484687553573961,8.77901856403567,252.30479936329874,-24.418269855558712,8.668723719417443,-0.36258363365874163,-1.8989244972918906,-77.44584160242793,0.08361107469463136,-1.5224710523317888,-0.614531299482497,0.5051840361658435,291.3713696855938,-27.6952309086429,1.9412694118854132,8.603142191743979,-4.010704565915763
GUIDED_NOGPS,5.221964597702026,20.20153836521002,294.8629447799837,-26.794949725775044,3.423605074822099,8.610922781395576,252.05159353516302,-24.48217887311585,8.863773498654911,-0.4379142702624883,-1.5667817894642793,-77.65137565493195,0.06516919118631381,-1.471450649754234,-0.6027645946976904,0.5054401684238328,291.3713696855938,-27.6952309086429,1.9412694118854132,8.603142191743979,-4.5263665815335035
GUIDED_NOGPS,5.266705751419067,22.35674384887638,292.5583130818469,-28.060861101431854,3.5781857077592143,8.407862612552684,251.8157626120706,-24.541702473798388,9.05966621804495,-0.38423576021450523,-1.5180029262895756,-77.84358400836528,0.02250090002474833,-1.4055840035689873,-0.5885503828786879,0.5054814805102857,287.6039652270311,-28.792121487009787,6.852018299506794,8.456922876497641,-4.18259190445501
GUIDED_NOGPS,5.303117275238037,27.470488066857037,289.921700732635,-28.94607463315595,6.717431544646987,8.245174865764993,251.59700822368734,-24.59691596612125,9.25636771098167,-0.3912010057031844,-1.3999864354984524,-77.94767609131628,0.0017086122414088772,-1.3143090914254567,-0.5771622406035495,0.5025389361663347,283.8169355810896,-30.350871503815185,11.359006922548732,8.189893503835513,-3.495042550298022
GUIDED_NOGPS,5.340486526489258,26.76919149370708,287.1582533230594,-30.33937849260135,9.851189797365251,8.135723609647991,251.39499532196066,-24.647903916036476,9.45384358870422,-0.3118430120883632,-1.3990127066549023,-78.07339255317953,-0.05142744446597329,-1.2376883034317776,-0.5695006526753594,0.49960265379133895,281.6276264359887,-31.875142486979104,11.342544170040208,7.89416483963658,-2.6929016371148693
GUIDED_NOGPS,5.379567384719849,25.58906717100848,284.77006491984065,-31.533576003959542,10.55138728649211,8.030608977666125,251.2093514824952,-24.694760323265022,9.65205925017038,-0.2837985221605553,-1.2137598336741737,-78.17556535297375,-0.0798707541862316,-1.1845055157034352,-0.5621426284366288,0.49910067196367824,279.43042766950003,-32.37471402108436,8.952610766887377,7.821352749710012,-2.46371851906254
GUIDED_NOGPS,5.424398899078369,22.31036500388302,281.9578851276548,-32.30605162285466,9.791223244814239,7.930613146002933,251.03966620593042,-24.737588797629222,9.850979891930114,-0.2553550798161099,-1.086108720728513,-78.27249939767458,-0.08910673594007938,-1.103781417464253,-0.5551429202202054,0.5000597566471159,277.3104707246641,-32.668298360500536,9.07851479751511,7.8001809211263495,-2.3491269600363753
GUIDED_NOGPS,5.468409061431885,22.726826440101217,279.51576765069547,-32.87597075102121,9.888875355093887,7.843812607622865,250.8854902193167,-24.77650273538466,10.050570517999084,-0.14685643095297307,-1.1347980443920662,-78.34219464796539,-0.10111346515551785,-1.043638335861958,-0.5490668825336006,0.5001616951629052,275.3933778422347,-33.584899871478754,11.635500500879152,7.652245725930506,-1.0313240312354819
GUIDED_NOGPS,5.508603572845459,24.883003779047346,277.3509945890567,-33.107337277763214,10.760533551043451,7.802845979014592,250.74633477749262,-24.811625495552484,10.250795949732252,-0.13383052649403152,-0.8308513179536196,-78.33298755296421,-0.10018355707732336,-0.9853592159917293,-0.5461992185310215,0.4994902623986888,272.99307027289564,-33.068813601310374,11.567585354736066,7.8154662899764515,0.057295779513082325
GUIDED_NOGPS,5.545879364013672,26.833756645575694,274.783004130622,-34.126017949123025,11.51653398296695,7.78615620578683,250.6216709644617,-24.843090576251434,10.45162083569739,-0.15914089970121123,-0.7103169419579947,-78.32852743943619,-0.15199982599932768,-0.897204823346929,-0.5450309344050782,0.4989350868527304,268.7876741438151,-35.72434037457997,11.346516093285606,7.411810412119532,0.0
GUIDED_NOGPS,5.582735061645508,27.138815917178906,272.1968468145477,-34.89933672105804,11.245826520661153,7.7871465653358625,250.5109289947688,-24.87104179103003,10.653009661548687,-0.07648032952981036,-0.873727617024963,-78.3324889491548,-0.16800550896939395,-0.8234684023414406,-0.5451002595735104,0.49940718314088756,266.4996410891288,-35.9048561872838,10.823378113961763,7.485700864141387,0.4583662361046586
GUIDED_NOGPS,5.628453969955444,21.878835299886283,269.57404714339174,-35.787751859379085,11.304590843633312,7.800115081137906,250.41349751487735,-24.89563344519869,10.854926759900223,0.0001589086199085779,-0.6391234256397188,-78.31136317405195,-0.19331124146117631,-0.7597756268960711,-0.5460080556796535,0.4995503359162669,264.19647236888403,-35.73405901627353,11.743878323652543,7.659324409236558,0.6875493541569879
GUIDED_NOGPS,5.669963598251343,24.093148827884907,266.4552779032788,-36.08245185232921,10.46737147043851,7.837246334109582,250.328722904546,-24.91703051216178,11.0573363201996,0.04099909094707423,-0.6779145245354542,-78.24525377307539,-0.18969997182613216,-0.650999396148717,-0.5486072433876708,0.500589964849761,259.7995316416699,-36.60844035343032,8.834857973701208,7.763069782710748,1.5469860468532228
GUIDED_NOGPS,5.704609394073486,28.86810010186383,263.37181870090234,-36.40993392813235,10.460991670594593,7.892075882640042,250.25590857820487,-24.935408809750008,11.260202398601436,0.063742740429144,-0.7734825314022725,-78.19201244849515,-0.2015496427790572,-0.5490020192491161,-0.552445311784803,0.5007992107280068,257.57577426101363,-36.88730241469323,10.804238714430012,7.84684328402525,1.776169164905552
GUIDED_NOGPS,5.745340347290039,24.555952367012868,260.70169369029315,-37.25646842798071,10.770170180295095,7.937825101767304,250.19431428633345,-24.950955176552107,11.463488927840967,0.08228323557029071,-0.7678413287563709,-78.11390923533605,-0.2386159508597408,-0.4928183094498603,-0.5556477571237113,0.5006933187475459,255.4370490907693,-38.27366251581862,12.671413852754043,7.718993353999647,1.3178029288008934
GUIDED_NOGPS,5.789422512054443,22.688838160357456,258.0295654651631,-37.75104605341386,11.494501375247125,7.997789735824117,250.143155416836,-24.963867648247522,11.667159727107531,0.1408689563924503,-0.8271824391522649,-78.0409218338653,-0.24409584193242634,-0.41933469748523583,-0.5598452815076883,0.5001726583518604,253.13899996347854,-38.092173229729774,11.007851558557302,7.956253141313996,1.7188733853924698
GUIDED_NOGPS,5.838834762573242,20.240923853507642,255.38818818974954,-38.34086173654979,11.528160610215872,8.075696537835274,250.1016022964199,-24.974355633937968,11.871178511918231,0.21143743036039067,-0.9152319018467802,-77.94763511018125,-0.26294215925964,-0.3483961837867868,-0.5652987576484693,0.5003430179017023,250.9895859918163,-38.65674946410104,10.905216419336258,8.0136257136933,2.177239621497128
GUIDED_NOGPS,5.879413366317749,24.649322104619795,252.74786456380735,-38.7357136351583,11.41883721391977,8.158589668114818,250.06877949197082,-24.982640092480132,12.075508903991349,0.2598148998594373,-0.6854281595092914,-77.85327604679753,-0.2728959698624536,-0.25866921613898475,-0.5711012767680373,0.5006566716900716,246.597913511959,-39.458218211644116,12.343443663865736,8.203273120832014,1.3750987083139758
GUIDED_NOGPS,5.923267841339111,22.80541766122762,250.14931583587548,-39.57591445483589,12.354807868829914,8.203192996487463,250.04376511193044,-24.98895370881724,12.28011444112003,0.29831166029062745,-0.6589435673940379,-77.81152310040125,-0.3082901301208991,-0.18622164045912465,-0.5742235097541224,0.4999253065722901,244.5830306213542,-40.612775688762554,13.815763523287732,8.142634103069621,0.6302535746439055
GUIDED_NOGPS,5.961565256118774,26.11939071626957,247.52866938854572,-40.35578601249648,12.989191842291318,8.24103457114374,250.02559010767385,-24.993541070311615,12.484958587045725,0.36061109637078315,-0.7428357927615427,-77.79336845758735,-0.33291404289514015,-0.10024949130922071,-0.5768724199800618,0.49949576674475443,242.33381685412047,-40.996364137082836,12.808368339720465,8.252972981777068,0.6875493541569879
