E-kp,E-ki,E-kd,E-I-Tot,E-P,E-I,E-D,E-PID,N-kp,N-ki,N-kd,N-I-Tot,N-P,N-I,N-D,N-PID,D-kp,D-ki,D-kd,D-I-Tot,D-P,D-I,D-D,D-PID,Y-kp,Y-ki,Y-kd,Y-I-Tot,Y-P,Y-I,Y-D,Y-PID,errorN,desiredN,actualN,errorE,desiredE,actualE,errorD,desiredD,actualD,errorY,desiredY,actualY,roll,pitch,yaw-rate,thrust,dt,Time,Mode
0.035,0.005,0.05,-0.00353329108389368,-0.0037472954364123332,-1.76664554194684e-05,-0.16221475931554644,-0.16597972120737825,0.035,0.005,0.05,-0.003288978321676581,-0.003488185140324151,-1.6444891608382906e-05,-0.1509982659727196,-0.1545028960046521,0.002,8e-05,0,-0.005023207749412909,-0.0003044259065894155,-4.0185661995303276e-07,-0.0,-0.00030482776320936856,0.1,0.02,0,-0.0034732100660089344,-0.010524501233736853,-6.946420132017869e-05,-0.0,-0.010593965435057032,-0.09966243258069002,0.0,0.09966243258069002,-0.10706558389749522,0.0,0.10706558389749522,-0.15221295329470774,0.0,0.15221295329470774,-0.10524501233736852,0,0.10524501233736852,-0.16626324307339846,0.15419775202193894,0.010593965435057032,0.4,0.03300118446350098,0.03333282470703125,STABILIZE
0.035,0.005,0.05,-0.0076138776704700005,-0.004268378122620594,-3.8069388352350004e-05,-0.09223112020939533,-0.09653756772036828,0.035,0.005,0.05,-0.0070662769373204355,-0.003951132620652634,-3.533138468660218e-05,-0.08538184027351585,-0.08936830427885509,0.002,8e-05,0,-0.01119011004840206,-0.0003686118621689785,-8.952088038721648e-07,-0.0,-0.00036950707097285063,0.1,0.02,0,-0.00747536683249184,-0.011960968301924097,-0.0001495073366498368,-0.0,-0.012110475638573934,-0.1128895034472181,0.0,0.1128895034472181,-0.12195366064630267,0.0,0.12195366064630267,-0.18430593108448923,0.0,0.18430593108448923,-0.11960968301924096,0,0.11960968301924096,-0.09672392096310829,0.08916657952711375,0.012110475638573934,0.4,0.033460140228271484,0.06670475006103516,STABILIZE
0.035,0.005,0.05,-0.012106600790120096,-0.004702161877824577,-6.0533003950600485e-05,-0.06766436035528538,-0.07242705523706056,0.035,0.005,0.05,-0.011217916973192923,-0.004345178411228304,-5.608958486596462e-05,-0.06253231737142304,-0.0669335853675173,0.002,8e-05,0,-0.018444037359998798,-0.00043383348788323913,-1.4755229887999039e-06,-0.0,-0.00043530901087203904,0.1,0.02,0,-0.011889231520211962,-0.013198935075190186,-0.00023778463040423925,-0.0,-0.013436719705594425,-0.12414795460652296,0.0,0.12414795460652296,-0.13434748222355933,0.0,0.13434748222355933,-0.21691674394161956,0.0,0.21691674394161956,-0.13198935075190185,0,0.13198935075190185,-0.07258105439305237,0.06676656141854034,0.013436719705594425,0.4,0.03344106674194336,0.10014057159423828,STABILIZE
0.035,0.005,0.05,-0.016971643858361442,-0.005081802460849966,-8.485821929180721e-05,-0.0547947525747448,-0.059961413254886575,0.035,0.005,0.05,-0.015601116312951975,-0.004578490442682859,-7.800558156475987e-05,-0.04938604541903735,-0.05404254144328497,0.002,8e-05,0,-0.026785979053746904,-0.0004979207111741858,-2.1428783242997527e-06,-0.0,-0.0005000635894984856,0.1,0.02,0,-0.01664301088695973,-0.014187375613223113,-0.0003328602177391946,-0.0,-0.014520235830962307,-0.13081401264808168,0.0,0.13081401264808168,-0.1451943560242847,0.0,0.1451943560242847,-0.24896035558709292,0.0,0.24896035558709292,-0.14187375613223113,0,0.14187375613223113,-0.06009504749945585,0.053893901614288475,0.014520235830962307,0.4,0.03350710868835449,0.13366365432739258,STABILIZE
0.035,0.005,0.05,-0.022033091725866132,-0.005296115258284797,-0.00011016545862933067,-0.0456664071957372,-0.05107268791265133,0.035,0.005,0.05,-0.020038237992297786,-0.004642843005401722,-0.00010019118996148894,-0.040058519477040214,-0.044801553672403426,0.002,8e-05,0,-0.03597813741817921,-0.0005496194702140028,-2.8782509934543367e-06,-0.0,-0.0005524977212074571,0.1,0.02,0,-0.02156000899605227,-0.014699909360893597,-0.0004312001799210454,-0.0,-0.015131109540814642,-0.13265265729719206,0.0,0.13265265729719206,-0.15131757880813704,0.0,0.15131757880813704,-0.2748097351070014,0.0,0.2748097351070014,-0.14699909360893595,0,0.14699909360893595,-0.05118746337693337,0.044670373348780414,0.015131109540814642,0.4,0.03344917297363281,0.1671004295349121,STABILIZE
0.035,0.005,0.05,-0.027225306945234812,-0.005434494903755012,-0.00013612653472617407,-0.014405795992389461,-0.019976417430870648,0.035,0.005,0.05,-0.02456006392109975,-0.00473282383867159,-0.00012280031960549875,-0.010627678757862032,-0.01548330291613912,0.002,8e-05,0,-0.046123082443088534,-0.0006067616857426033,-3.689846595447083e-06,-0.0,-0.0006104515323380503,0.1,0.02,0,-0.026578860197705962,-0.015008689589394315,-0.0005315772039541192,-0.0,-0.015540266793348434,-0.1352235382477597,0.0,0.1352235382477597,-0.15527128296442888,0.0,0.15527128296442888,-0.3033808428713016,0.0,0.3033808428713016,-0.15008689589394314,0,0.15008689589394314,-0.020016907521606737,0.015430921418915933,0.015540266793348434,0.4,0.03343963623046875,0.20055913925170898,STABILIZE
0.035,0.005,0.05,-0.03301137481191961,-0.006012333771573112,-0.00016505687405959807,-0.014857813474694765,-0.021035204120327475,0.035,0.005,0.05,-0.02936641839122928,-0.00499430839124746,-0.0001468320919561464,-0.008892636526903423,-0.014033777010107029,0.002,8e-05,0,-0.058568180360120445,-0.0007389581241512871,-4.685454428809636e-06,-0.0,-0.0007436435785800967,0.1,0.02,0,-0.032059917761402025,-0.016272559857046252,-0.0006411983552280405,-0.0,-0.016913758212274293,-0.14269452546421313,0.0,0.14269452546421313,-0.17178096490208888,0.0,0.17178096490208888,-0.3694790620756435,0.0,0.3694790620756435,-0.1627255985704625,0,0.1627255985704625,-0.02107497652482143,0.013973978461106776,0.016913758212274293,0.4,0.033682823181152344,0.23423361778259277,STABILIZE
0.035,0.005,0.05,-0.03898868734566825,-0.00618282921790519,-0.00019494343672834126,-0.012591298859827335,-0.018969071514460867,0.035,0.005,0.05,-0.034263026489201674,-0.0050649671480015685,-0.00017131513244600838,-0.006122620596960618,-0.011358902877408195,0.002,8e-05,0,-0.07212750929318101,-0.0008014592284616321,-5.7702007434544815e-06,-0.0,-0.0008072294292050866,0.1,0.02,0,-0.03768207553136583,-0.01661560926373846,-0.0007536415106273166,-0.0,-0.01736925077436578,-0.1447133470857591,0.0,0.1447133470857591,-0.1766522633687197,0.0,0.1766522633687197,-0.40072961423081604,0.0,0.40072961423081604,-0.16615609263738462,0,0.16615609263738462,-0.019001932192674684,0.01130384543613882,0.01736925077436578,0.4,0.03383660316467285,0.2680799961090088,STABILIZE
0.035,0.005,0.05,-0.04493770874785035,-0.006214342177382033,-0.00022468854373925177,-0.00962283471046663,-0.016061865431587913,0.035,0.005,0.05,-0.03915323111797737,-0.005108303168901501,-0.00019576615558988684,-0.004502715637964437,-0.009806784962455826,0.002,8e-05,0,-0.08643943656475594,-0.0008542986174475154,-6.915154925180476e-06,-0.0,-0.0008612137723726959,0.1,0.02,0,-0.04333067484636846,-0.01685863299105036,-0.0008666134969273693,-0.0,-0.01772524648797773,-0.14595151911147144,0.0,0.14595151911147144,-0.17755263363948665,0.0,0.17755263363948665,-0.42714930872375767,0.0,0.42714930872375767,-0.16858632991050362,0,0.16858632991050362,-0.016090651213073216,0.009759482362375267,0.01772524648797773,0.4,0.03350567817687988,0.3016047477722168,STABILIZE
0.035,0.005,0.05,-0.05093622501518996,-0.006279270285986338,-0.0002546811250759498,-0.008347062211177035,-0.014881013622239323,0.035,0.005,0.05,-0.044043417570150664,-0.005119066301321119,-0.00022021708785075332,-0.004045007101103757,-0.009384290490275629,0.002,8e-05,0,-0.10172178259595563,-0.0009141496907099401,-8.13774260767645e-06,-0.0,-0.0009222874333176166,0.1,0.02,0,-0.049026248389870186,-0.01703471045145251,-0.0009805249677974038,-0.0,-0.018015235419249914,-0.1462590371806034,0.0,0.1462590371806034,-0.1794077224567525,0.0,0.1794077224567525,-0.45707484535497006,0.0,0.45707484535497006,-0.1703471045145251,0,0.1703471045145251,-0.014908848412865978,0.009340006072446286,0.018015235419249914,0.4,0.03343510627746582,0.33502864837646484,STABILIZE
0.035,0.005,0.05,-0.056950925738098346,-0.006296571433379784,-0.0002847546286904917,-0.007312574138901309,-0.013893900200971586,0.035,0.005,0.05,-0.04873652861326887,-0.004913047263553329,-0.00024368264306634434,-0.0015155918684408272,-0.0066723217750605,0.002,8e-05,0,-0.11779834025201877,-0.0009617122005156748,-9.423867220161503e-06,-0.0,-0.0009711360677358363,0.1,0.02,0,-0.05470956340653084,-0.016999016542683636,-0.0010941912681306169,-0.0,-0.018093207810814253,-0.1403727789586665,0.0,0.1403727789586665,-0.1799020409537081,0.0,0.1799020409537081,-0.48085610025783737,0.0,0.48085610025783737,-0.16999016542683637,0,0.16999016542683637,-0.013913635053926184,0.00663107082232284,0.018093207810814253,0.4,0.03343319892883301,0.36847662925720215,STABILIZE
0.035,0.005,0.05,-0.06301375478954642,-0.006344105044928941,-0.00031506877394773213,-0.0028170919723244964,-0.00947626579120117,0.035,0.005,0.05,-0.053474512353327994,-0.004957795493330147,-0.00026737256176664,0.00032020997658034877,-0.004904958078516438,0.002,8e-05,0,-0.13493091005891816,-0.0010244234321466286,-1.0794472804713455e-05,-0.0,-0.0010352179049513421,0.1,0.02,0,-0.0604919386960372,-0.017287542986255584,-0.001209838773920744,-0.0,-0.01849738176017633,-0.14165129980943275,0.0,0.14165129980943275,-0.18126014414082686,0.0,0.18126014414082686,-0.5122117160733143,0.0,0.5122117160733143,-0.17287542986255583,0,0.17287542986255583,-0.009491022096335882,0.004876343575298737,0.01849738176017633,0.4,0.033448219299316406,0.40195155143737793,STABILIZE
0.035,0.005,0.05,-0.06913730855383592,-0.006369735144034153,-0.0003456865427691796,-0.001595075109664601,-0.008310496796467934,0.035,0.005,0.05,-0.05823715018902737,-0.004954107168499888,-0.00029118575094513687,0.0009481675783147123,-0.004297125341130312,0.002,8e-05,0,-0.15399522118217207,-0.0011331852360144882,-1.2319617694573767e-05,-0.0,-0.0011455048537090619,0.1,0.02,0,-0.06636490991413721,-0.017454510243937522,-0.0013272981982827441,-0.0,-0.018781808442220268,-0.14154591909999678,0.0,0.14154591909999678,-0.18199243268669008,0.0,0.18199243268669008,-0.5665926180072441,0.0,0.5665926180072441,-0.1745451024393752,0,0.1745451024393752,-0.008323548919202688,0.0042717884534616,0.018781808442220268,0.4,0.03364729881286621,0.43556714057922363,STABILIZE
0.035,0.005,0.05,-0.07519818200106339,-0.0063401154452702385,-0.00037599091000531696,-0.0010734198279588032,-0.007789526183234359,0.035,0.005,0.05,-0.06276718725805122,-0.004738749000295189,-0.0003138359362902561,0.0031567317390884166,-0.0018958531974970286,0.002,8e-05,0,-0.1735957717748583,-0.0011716345566409835,-1.3887661741988665e-05,-0.0,-0.0011855222183829721,0.1,0.02,0,-0.07216932321873042,-0.017348112688287665,-0.0014433864643746083,-0.0,-0.018791499152662275,-0.1353928285798625,0.0,0.1353928285798625,-0.18114615557914965,0.0,0.18114615557914965,-0.5858172783204917,0.0,0.5858172783204917,-0.17348112688287665,0,0.17348112688287665,-0.007795230764833359,0.0018722592845941157,0.018791499152662275,0.4,0.03345847129821777,0.4690263271331787,STABILIZE
0.035,0.005,0.05,-0.08115403157354945,-0.0062297201150340285,-0.00040577015786774726,0.0004240388410903281,-0.0062114514318114475,0.035,0.005,0.05,-0.06704168029047466,-0.004471048991679928,-0.00033520840145237333,0.005534500466432705,0.0007282430733004039,0.002,8e-05,0,-0.19417076519471396,-0.0012297772977103085,-1.553366121557712e-05,-0.0,-0.0012453109589258857,0.1,0.02,0,-0.07793033657297976,-0.01721692758361877,-0.0015586067314595953,-0.0,-0.018775534315078366,-0.1277442569051408,0.0,0.1277442569051408,-0.17799200328668652,0.0,0.17799200328668652,-0.6148886488551543,0.0,0.6148886488551543,-0.1721692758361877,0,0.1721692758361877,-0.00620923507911401,-0.0007469046765568766,0.018775534315078366,0.4,0.03346133232116699,0.5025219917297363,STABILIZE
0.035,0.005,0.05,-0.0870621889528652,-0.006180671601564025,-0.000435310944764326,0.0009907557550954298,-0.005625226791232921,0.035,0.005,0.05,-0.0711770193658434,-0.004326081914380163,-0.000355885096829217,0.00501188705692216,0.0003299200457127808,0.002,8e-05,0,-0.21558195819525763,-0.0012799306260611184,-1.7246556655620613e-05,-0.0,-0.001297177182716739,0.1,0.02,0,-0.08368266903668814,-0.01719331214145566,-0.0016736533807337629,-0.0,-0.018866965522189423,-0.12360234041086178,0.0,0.12360234041086178,-0.17659061718754354,0.0,0.17659061718754354,-0.6399653130305591,0.0,0.6399653130305591,-0.17193312141455658,0,0.17193312141455658,-0.005624211441967,-0.00034679871022715513,0.018866965522189423,0.4,0.03345680236816406,0.5359609127044678,STABILIZE
0.035,0.005,0.05,-0.09394179961050501,-0.006074299438193371,-0.00046970899805252506,0.0021634851313223425,-0.004380523304923554,0.035,0.005,0.05,-0.07587467625020922,-0.004147760097708494,-0.0003793733812510461,0.006679414709230758,0.0021522812302712177,0.002,8e-05,0,-0.24163636320312448,-0.0013145449696218153,-1.933090905624996e-05,-0.0,-0.0013338758786780652,0.1,0.02,0,-0.09042551058747408,-0.017010114870913962,-0.0018085102117494818,0.0,-0.018818625082663444,-0.11850743136309984,0.0,0.11850743136309984,-0.1735514125198106,0.0,0.1735514125198106,-0.6572724848109076,0.0,0.6572724848109076,-0.17010114870913962,0,0.17010114870913962,-0.004374114262975237,-0.0021652767337208335,0.018818625082663444,0.4,0.039640188217163086,0.5756146907806396,STABILIZE
0.035,0.005,0.05,-0.09972987091663882,-0.005981981189409324,-0.0004986493545831941,0.0031599875918078297,-0.0033206429521846883,0.035,0.005,0.05,-0.07959680806795044,-0.0038468293392713137,-0.0003979840403397522,0.009186972490834324,0.004942159111223259,0.002,8e-05,0,-0.2644446909454993,-0.0013469968077491701,-2.1155575275639947e-05,-0.0,-0.00136815238302481,0.1,0.02,0,-0.09614975803819736,-0.016902911800424136,-0.0019229951607639473,0.0,-0.018825906961188084,-0.10990940969346609,0.0,0.10990940969346609,-0.17091374826883782,0.0,0.17091374826883782,-0.673498403874585,0.0,0.673498403874585,-0.16902911800424136,0,0.16902911800424136,-0.0033060485873213506,-0.004951933868178312,0.018825906961188084,0.4,0.03386545181274414,0.6094973087310791,STABILIZE
0.035,0.005,0.05,-0.10538312270520618,-0.005916074256608857,-0.000526915613526031,0.003470082404596218,-0.0029729074655386696,0.035,0.005,0.05,-0.08279644394356189,-0.003348388527910242,-0.00041398221971780945,0.011606019249833977,0.007843648502205926,0.002,8e-05,0,-0.2883211854506385,-0.0014278014016193918,-2.3065694836051082e-05,-0.0,-0.001450867096455443,0.1,0.02,0,-0.10179410693796699,-0.01687644990889538,-0.0020358821387593397,0.0,-0.01891233204765472,-0.09566824365457834,0.0,0.09566824365457834,-0.16903069304596732,0.0,0.16903069304596732,-0.7139007008096959,0.0,0.7139007008096959,-0.1687644990889538,0,0.1687644990889538,-0.0029497911659417363,-0.007852371151578668,0.01891233204765472,0.4,0.033445119857788086,0.6429011821746826,STABILIZE
0.035,0.005,0.05,-0.11083996940036316,-0.005716814181844276,-0.0005541998470018158,0.004231562050548039,-0.002039451978298053,0.035,0.005,0.05,-0.08578071148084611,-0.00312643985302085,-0.00042890355740423053,0.011218367530667635,0.007663024120242555,0.002,8e-05,0,-0.3126697353744445,-0.0014576302635449633,-2.501357882995556e-05,-0.0,-0.0014826438423749188,0.1,0.02,0,-0.10722500941527786,-0.01625609704492052,-0.0021445001883055575,0.0,-0.018400597233226075,-0.08932685294345286,0.0,0.08932685294345286,-0.1633375480526936,0.0,0.1633375480526936,-0.7288151317724817,0.0,0.7288151317724817,-0.1625609704492052,0,0.1625609704492052,-0.00201770208159505,-0.0076687796518826925,0.018400597233226075,0.4,0.033408403396606445,0.6763086318969727,STABILIZE
0.035,0.005,0.05,-0.11681822572905892,-0.005599014030116547,-0.0005840911286452946,0.004713328502499607,-0.0014697766562622346,0.035,0.005,0.05,-0.0889003904228194,-0.002921776050606096,-0.000444501952114097,0.011545117421244934,0.00817883941852474,0.002,8e-05,0,-0.34056357105865487,-0.0014928192031034846,-2.724508568469239e-05,-0.0,-0.001520064288788177,0.1,0.02,0,-0.11330386215551312,-0.016266368322729867,-0.0022660772431102624,0.0,-0.01853244556584013,-0.08347931573160274,0.0,0.08347931573160274,-0.15997182943190133,0.0,0.15997182943190133,-0.7464096015517423,0.0,0.7464096015517423,-0.16266368322729866,0,0.16266368322729866,-0.0014465509013583467,-0.008182979172837166,0.01853244556584013,0.4,0.03737068176269531,0.7136983871459961,STABILIZE
0.035,0.005,0.05,-0.1223198707133794,-0.005574155777453641,-0.000611599353566897,0.004152229686501536,-0.0020335254445190028,0.035,0.005,0.05,-0.09159536853392773,-0.0027304974877438554,-0.0004579768426696387,0.011841866023782592,0.008653391693369098,0.002,8e-05,0,-0.3669248164848016,-0.0015262104221224057,-2.935398531878413e-05,-0.0,-0.00155556440744119,0.1,0.02,0,-0.11886501893448609,-0.016098434079876208,-0.0023773003786897217,0.0,-0.01847573445856593,-0.07801421393553871,0.0,0.07801421393553871,-0.15926159364153258,0.0,0.15926159364153258,-0.7631052110612028,0.0,0.7631052110612028,-0.16098434079876206,0,0.16098434079876206,-0.002009203956322964,-0.008659071139231487,0.01847573445856593,0.4,0.03454470634460449,0.7482566833496094,STABILIZE
0.035,0.005,0.05,-0.12866485690461368,-0.005518383989954132,-0.0006433242845230684,0.0037693315323775235,-0.0023923767420996763,0.035,0.005,0.05,-0.09451518092454061,-0.002539429632216966,-0.00047257590462270306,0.010659529561570647,0.007647524024730978,0.002,8e-05,0,-0.3980100304986316,-0.0015448881744068161,-3.184080243989053e-05,-0.0,-0.0015767289768467067,0.1,0.02,0,-0.12523552868293375,-0.015830235511554595,-0.002504710573658675,0.0,-0.018334946085213272,-0.07255513234905617,0.0,0.07255513234905617,-0.15766811399868946,0.0,0.15766811399868946,-0.7724440872034081,0.0,0.7724440872034081,-0.15830235511554594,0,0.15830235511554594,-0.002371238314202854,-0.007654104718530664,0.018334946085213272,0.4,0.040242671966552734,0.7884848117828369,STABILIZE
0.035,0.005,0.05,-0.13371723624980447,-0.005282221171805942,-0.0006685861812490224,0.005221864683294957,-0.0007289426697600077,0.035,0.005,0.05,-0.09655577044410342,-0.0021334196082208345,-0.0004827788522205171,0.009866603680710705,0.007250405220269353,0.002,8e-05,0,-0.42472453725124126,-0.001595988441675596,-3.3977962980099304e-05,-0.0,-0.0016299664046556953,0.1,0.02,0,-0.130313736859039,-0.015169214293456365,-0.00260627473718078,0.0,-0.017775489030637144,-0.06095484594916669,0.0,0.06095484594916669,-0.15092060490874118,0.0,0.15092060490874118,-0.797994220837798,0.0,0.797994220837798,-0.15169214293456365,0,0.15169214293456365,-0.0007097444913877922,-0.007252309703180816,0.017775489030637144,0.4,0.033477067947387695,0.8219609260559082,STABILIZE
0.035,0.005,0.05,-0.13870384666650712,-0.005215168811776376,-0.0006935192333325356,0.004090213421646167,-0.0018184746234627446,0.035,0.005,0.05,-0.09851212917287341,-0.0020460272959671477,-0.000492560645864367,0.008714566487101052,0.006175978545269537,0.002,8e-05,0,-0.45176203664283593,-0.0016158141421867415,-3.614096293142688e-05,-0.0,-0.0016519551051181684,0.1,0.02,0,-0.13522359427289868,-0.014671136798806975,-0.002704471885457974,0.0,-0.017375608684264948,-0.058457922741918494,0.0,0.058457922741918494,-0.14900482319361075,0.0,0.14900482319361075,-0.8079070710933707,0.0,0.8079070710933707,-0.14671136798806975,0,0.14671136798806975,-0.0018026544906306107,-0.006180614672928324,0.017375608684264948,0.4,0.03346610069274902,0.8554258346557617,STABILIZE
0.035,0.005,0.05,-0.1436290313293149,-0.00515507764925325,-0.0007181451566465745,0.003703019699893639,-0.0021702031060061864,0.035,0.005,0.05,-0.10032778986605391,-0.0019004103396818618,-0.0005016389493302696,0.008394022539760534,0.005991973250748402,0.002,8e-05,0,-0.47896241726335237,-0.001626857918321825,-3.831699338106819e-05,-0.0,-0.0016651749117028933,0.1,0.02,0,-0.13997025103529534,-0.014194904562541822,-0.0027994050207059066,0.0,-0.016994309583247727,-0.054297438276624616,0.0,0.054297438276624616,-0.14728793283580713,0.0,0.14728793283580713,-0.8134289591609125,0.0,0.8134289591609125,-0.1419490456254182,0,0.1419490456254182,-0.002155351477751819,-0.005997331487116276,0.016994309583247727,0.4,0.03343915939331055,0.8889350891113281,STABILIZE
0.035,0.005,0.05,-0.14841322565557702,-0.005006471126078356,-0.0007420661282778852,0.004766897243467675,-0.0009816400108885667,0.035,0.005,0.05,-0.10203604294632188,-0.0017876196364870183,-0.0005101802147316094,0.007775503761271456,0.005477703910052829,0.002,8e-05,0,-0.5065987048226187,-0.0016525878610377757,-4.05278963858095e-05,-0.0,-0.0016931157574235853,0.1,0.02,0,-0.14465090787269924,-0.013994637764911298,-0.002893018157453985,0.0,-0.016887655922365283,-0.051074846756771944,0.0,0.051074846756771944,-0.14304203217366732,0.0,0.14304203217366732,-0.8262939305188878,0.0,0.8262939305188878,-0.13994637764911297,0,0.13994637764911297,-0.0009682576668906997,-0.005480085248214003,0.016887655922365283,0.4,0.03344607353210449,0.9223229885101318,STABILIZE
0.035,0.005,0.05,-0.15306244607151787,-0.004870051750779086,-0.0007653122303575893,0.005537452861983077,-9.791111915359845e-05,0.035,0.005,0.05,-0.1035061516659968,-0.001539936785862117,-0.0005175307583299841,0.008536901448633892,0.00647943390444179,0.002,8e-05,0,-0.5347075818933258,-0.0016825147781307055,-4.277660655146607e-05,-0.0,-0.0017252913846821714,0.1,0.02,0,-0.14902459356736208,-0.013089798638448395,-0.002980491871347242,0.0,-0.016070290509795637,-0.04399819388177476,0.0,0.04399819388177476,-0.1391443357365453,0.0,0.1391443357365453,-0.8412573890653527,0.0,0.8412573890653527,-0.13089798638448394,0,0.13089798638448394,-8.310795632823569e-05,-0.006479640682698281,0.016070290509795637,0.4,0.033412933349609375,0.9557290077209473,STABILIZE
0.035,0.005,0.05,-0.15769709900004752,-0.0048455951576527835,-0.0007884854950002376,0.00373062367188073,-0.0019034569807722915,0.035,0.005,0.05,-0.10485181628638332,-0.0014069113845032232,-0.0005242590814319167,0.0062071037934954484,0.004275933327560309,0.002,8e-05,0,-0.5631916056075286,-0.0017017399700957987,-4.505532844860229e-05,-0.0,-0.001746795298544401,0.1,0.02,0,-0.15322991267958846,-0.012562058808979093,-0.0030645982535917695,0.0,-0.015626657062570864,-0.04019746812866352,0.0,0.04019746812866352,-0.13844557593293666,0.0,0.13844557593293666,-0.8508699850478993,0.0,0.8508699850478993,-0.12562058808979093,0,0.12562058808979093,-0.0018940774599671957,-0.0042800963628212806,0.015626657062570864,0.4,0.03347635269165039,0.9892163276672363,STABILIZE
0.035,0.005,0.05,-0.16224591868629828,-0.004667824527018489,-0.0008112295934314915,0.004647323638421385,-0.0008317304820285951,0.035,0.005,0.05,-0.10595322469044938,-0.001130223116625959,-0.0005297661234522469,0.0077787692157897026,0.006118779975711497,0.002,8e-05,0,-0.5925387044000544,-0.0017208496393614668,-4.740309635200436e-05,-0.0,-0.0017682527357134712,0.1,0.02,0,-0.157391267225234,-0.012200636116973038,-0.00314782534450468,0.0,-0.015348461461477718,-0.03229208904645597,0.0,0.03229208904645597,-0.1333664150576711,0.0,0.1333664150576711,-0.8604248196807334,0.0,0.8604248196807334,-0.12200636116973038,0,0.12200636116973038,-0.0008186991983225357,-0.006120537199345295,0.015348461461477718,0.4,0.03410768508911133,1.0233170986175537,STABILIZE
0.035,0.005,0.05,-0.1668498568571231,-0.004604020967571185,-0.0008342492842856156,0.004654741331775694,-0.0007835289200811063,0.035,0.005,0.05,-0.10703808190426443,-0.0010848767237746294,-0.0005351904095213222,0.006904755217469566,0.005284688084173614,0.002,8e-05,0,-0.6230233664481668,-0.0017420120160635184,-4.984186931585335e-05,-0.0,-0.0017918538853793717,0.1,0.02,0,-0.16154643006568162,-0.011872107332757155,-0.0032309286013136322,0.0,-0.015103035934070787,-0.03099647782213227,0.0,0.03099647782213227,-0.13154345621631955,0.0,0.13154345621631955,-0.8710060080317592,0.0,0.8710060080317592,-0.11872107332757155,0,0.11872107332757155,-0.0007725769831062894,-0.00528630026774723,0.015103035934070787,0.4,0.03499937057495117,1.0583109855651855,STABILIZE
0.035,0.005,0.05,-0.17110538834474465,-0.004448838115986062,-0.0008555269417237232,0.004709607622988271,-0.0005947574347215136,0.035,0.005,0.05,-0.10788287327367131,-0.0008831658407899423,-0.0005394143663683565,0.007662653377416276,0.0062400731702579775,0.002,8e-05,0,-0.6525194043341129,-0.001762050813820847,-5.220155234672904e-05,-0.0,-0.001814252366167576,0.1,0.02,0,-0.16540881426732115,-0.011536663419174743,-0.003308176285346423,0.0,-0.014844839704521166,-0.025233309736855492,0.0,0.025233309736855492,-0.12710966045674463,0.0,0.12710966045674463,-0.8810254069104234,0.0,0.8810254069104234,-0.11536663419174742,0,0.11536663419174742,-0.0005821916779122661,-0.0062412580804273475,0.014844839704521166,0.4,0.03347921371459961,1.091811180114746,STABILIZE
0.035,0.005,0.05,-0.17522540403566755,-0.00431309458270062,-0.0008761270201783378,0.004703124905360714,-0.00048609669751824465,0.035,0.005,0.05,-0.10858417681137493,-0.0007341691673559313,-0.0005429208840568747,0.00681801473153114,0.005540924680118334,0.002,8e-05,0,-0.6821181393654702,-0.0017706193831085093,-5.4569451149237616e-05,-0.0,-0.0018251888342577468,0.1,0.02,0,-0.16908053284070598,-0.010982253242355173,-0.0033816106568141198,0.0,-0.014363863899169292,-0.02097626192445518,0.0,0.02097626192445518,-0.12323127379144627,0.0,0.12323127379144627,-0.8853096915542547,0.0,0.8853096915542547,-0.10982253242355172,0,0.10982253242355172,-0.00047547516176952643,-0.005541846233938907,0.014363863899169292,0.4,0.03343319892883301,1.1252281665802002,STABILIZE
0.035,0.005,0.05,-0.17912480919315726,-0.0040823783366171415,-0.0008956240459657863,0.006466165827276308,0.00148816344469338,0.035,0.005,0.05,-0.10900576748293228,-0.0004413731210207344,-0.0005450288374146614,0.00818499499222247,0.007198593033787074,0.002,8e-05,0,-0.7122153385830091,-0.0018005406189789026,-5.697722708664073e-05,-0.0,-0.0018575178460655433,0.1,0.02,0,-0.17257390819308183,-0.010449417857504495,-0.0034514781638616365,0.0,-0.013900896021366132,-0.01261066060059241,0.0,0.01261066060059241,-0.11663938104620403,0.0,0.11663938104620403,-0.9002703094894513,0.0,0.9002703094894513,-0.10449417857504495,0,0.10449417857504495,0.001501289522276278,-0.007195866999501375,0.013900896021366132,0.4,0.033431291580200195,1.1586596965789795,STABILIZE
0.035,0.005,0.05,-0.182937959997513,-0.003990312286563128,-0.000914689799987565,0.005763488986891484,0.0008584869003407918,0.035,0.005,0.05,-0.10939194535198458,-0.00040411994561503363,-0.0005469597267599229,0.006185460950664853,0.005234381278289896,0.002,8e-05,0,-0.7424038961378905,-0.0018052078684754234,-5.9392311691031244e-05,-0.0,-0.0018646001801664546,0.1,0.02,0,-0.17599560451305227,-0.010230487344608607,-0.003519912090261045,0.0,-0.013750399434869652,-0.011546284160429531,0.0,0.011546284160429531,-0.1140089224732322,0.0,0.1140089224732322,-0.9026039342377117,0.0,0.9026039342377117,-0.10230487344608606,0,0.10230487344608606,0.0008678318123720438,-0.005232840057751007,0.013750399434869652,0.4,0.03344607353210449,1.1921143531799316,STABILIZE
0.035,0.005,0.05,-0.1867229857841949,-0.003955354237298172,-0.0009336149289209746,0.005540847972606917,0.0006518788063877706,0.035,0.005,0.05,-0.10968685350855988,-0.0003081792020620437,-0.0005484342675427994,0.0066337134135860025,0.00577709994398116,0.002,8e-05,0,-0.773721325187048,-0.0018700989888965262,-6.189770601496384e-05,-0.0,-0.0019319966949114902,0.1,0.02,0,-0.17938852482123405,-0.01013029650003779,-0.003587770496424681,0.0,-0.01371806699646247,-0.008805120058915534,0.0,0.008805120058915534,-0.11301012106566205,0.0,0.11301012106566205,-0.9350494944482631,0.0,0.9350494944482631,-0.10130296500037789,0,0.10130296500037789,0.0006620921008790324,-0.005775938347222748,0.01371806699646247,0.4,0.0334928035736084,1.2256348133087158,STABILIZE
0.035,0.005,0.05,-0.19041995638614095,-0.003871908355879128,-0.0009520997819307048,0.004929929401190303,0.00010592126338046948,0.035,0.005,0.05,-0.10973968553734699,-5.533199901864794e-05,-0.000548698427686735,0.007074025062669203,0.0064699946359638195,0.002,8e-05,0,-0.8058820303527705,-0.0019247156885938402,-6.447056242822164e-05,-0.0,-0.0019891862510220616,0.1,0.02,0,-0.18277516940019276,-0.010133994138537205,-0.0036555033880038552,0.0,-0.01378949752654106,-0.0015809142576756552,0.0,0.0015809142576756552,-0.11062595302511793,0.0,0.11062595302511793,-0.9623578442969201,0.0,0.9623578442969201,-0.10133994138537204,0,0.10133994138537204,0.00011736467244376844,-0.006469797171248792,0.01378949752654106,0.4,0.03341865539550781,1.2590360641479492,STABILIZE
0.035,0.005,0.05,-0.19395460650221963,-0.003697923297746015,-0.0009697730325110981,0.005255781144839204,0.000588084814582091,0.035,0.005,0.05,-0.10958454645016699,0.00016230529926124769,-0.000547922732250835,0.00765942294277744,0.007273805509787853,0.002,8e-05,0,-0.8380599942536435,-0.0019236762334578694,-6.704479954029148e-05,-0.0,-0.001990721032998161,0.1,0.02,0,-0.1860785420456098,-0.009874178906750575,-0.003721570840912196,0.0,-0.013595749747662771,0.004637294264607076,0.0,-0.004637294264607076,-0.10565495136417184,0.0,0.10565495136417184,-0.9618381167289347,0.0,0.9618381167289347,-0.09874178906750573,0,0.09874178906750573,0.0006006193883880804,-0.00727278122135229,0.013595749747662771,0.4,0.03345465660095215,1.2924957275390625,STABILIZE
0.035,0.005,0.05,-0.19738591196292762,-0.0035924931723467597,-0.0009869295598146381,0.0041850917115750265,-0.0003943310205863715,0.035,0.005,0.05,-0.10935922333462811,0.00023590780926228895,-0.0005467961166731406,0.0057861577517804895,0.005475269444369638,0.002,8e-05,0,-0.8701251311202096,-0.0019183666655253518,-6.961001048961678e-05,-0.0,-0.0019879766760149686,0.1,0.02,0,-0.18925358037094422,-0.00949767922468761,-0.0037850716074188844,0.0,-0.013282750832106494,0.006740223121779684,0.0,-0.006740223121779684,-0.10264266206705026,0.0,0.10264266206705026,-0.9591833327626759,0.0,0.9591833327626759,-0.09497679224687611,0,0.09497679224687611,-0.00038525436020555903,-0.005475915587386926,0.013282750832106494,0.4,0.033429622650146484,1.325913429260254,STABILIZE
0.035,0.005,0.05,-0.20066467011032077,-0.0034241836179625894,-0.0010033233505516038,0.004833509900854272,0.00040600293234007833,0.035,0.005,0.05,-0.10891010221254602,0.00046904136248572363,-0.0005445505110627301,0.0074554633527278555,0.007379954204150849,0.002,8e-05,0,-0.9022269424229606,-0.0019157513986934826,-7.217815539383686e-05,-0.0,-0.0019879295540873193,0.1,0.02,0,-0.19228841348534212,-0.009055541646665275,-0.0038457682697068426,0.0,-0.012901309916372119,0.013401181785306387,0.0,-0.013401181785306387,-0.09783381765607398,0.0,0.09783381765607398,-0.9578756993467412,0.0,0.9578756993467412,-0.09055541646665274,0,0.09055541646665274,0.0004176663654926477,-0.007379303303399901,0.012901309916372119,0.4,0.033513545989990234,1.3594615459442139,STABILIZE
0.035,0.005,0.05,-0.2038795612286947,-0.0033668971464376556,-0.0010193978061434734,0.00502505193964052,0.0006387569870593907,0.035,0.005,0.05,-0.10812689959793916,0.0008202338900784014,-0.0005406344979896958,0.009639458683715936,0.009919058075804642,0.002,8e-05,0,-0.933871611240913,-0.0018937650046986618,-7.470972889927304e-05,-0.0,-0.001968474733597935,0.1,0.02,0,-0.19552304126185766,-0.009678762829896078,-0.003910460825237153,0.0,-0.01358922365513323,0.023435254002240037,0.0,-0.023435254002240037,-0.09619706132679015,0.0,0.09619706132679015,-0.9468825023493309,0.0,0.9468825023493309,-0.09678762829896077,0,0.09678762829896077,0.0006555119634187285,-0.009917964895356172,0.01358922365513323,0.4,0.03341984748840332,1.3928420543670654,STABILIZE
0.035,0.005,0.05,-0.20719015883995553,-0.0034626576236912727,-0.0010359507941997777,0.0034940041477975296,-0.0010046042700935206,0.035,0.005,0.05,-0.10719100011256494,0.000978886554202979,-0.0005359550005628247,0.00883234072975864,0.009275272283398795,0.002,8e-05,0,-0.9652800867161134,-0.0018772061262170667,-7.722240693728908e-05,0.0,-0.001954428533154356,0.1,0.02,0,-0.19811418254740665,-0.007743302120739897,-0.003962283650948133,0.0,-0.01170558577168803,0.027968187262942257,0.0,-0.027968187262942257,-0.09893307496260778,0.0,0.09893307496260778,-0.9386030631085334,0.0,0.9386030631085334,-0.07743302120739896,0,0.07743302120739896,-0.0009920681861504224,-0.009276621496250897,0.01170558577168803,0.4,0.0334630012512207,1.4263367652893066,STABILIZE
0.035,0.005,0.05,-0.21047854642372776,-0.0034432791134319488,-0.0010523927321186388,0.0021737550163986575,-0.00232191682915193,0.035,0.005,0.05,-0.10647194401244922,0.0007529254955019889,-0.0005323597200622461,0.005042178724532777,0.00526274449997252,0.002,8e-05,0,-0.9964296205166004,-0.0018638146924330457,-7.971436964132805e-05,0.0,-0.0019435290620743737,0.1,0.02,0,-0.20054323618475656,-0.00726705235301129,-0.004010864723695131,0.0,-0.011277917076706421,0.021512157014342538,0.0,-0.021512157014342538,-0.09837940324091281,0.0,0.09837940324091281,-0.9319073462165228,0.0,0.9319073462165228,-0.0726705235301129,0,0.0726705235301129,-0.002315240014466339,-0.005265685245901417,0.011277917076706421,0.4,0.03342556953430176,1.4597442150115967,STABILIZE
0.035,0.005,0.05,-0.2136173242767185,-0.0032850056153085313,-0.0010680866213835926,0.0026248920852135105,-0.0017282001514786131,0.035,0.005,0.05,-0.10530083374349455,0.0012256693496151456,-0.0005265041687174727,0.008452038046885216,0.00915120322778289,0.002,8e-05,0,-1.0275151631550263,-0.0018590708486806544,-8.220121305240212e-05,0.0,-0.0019412720617330566,0.1,0.02,0,-0.2027690092851764,-0.006655617910386942,-0.004055380185703528,0.0,-0.01071099809609047,0.03501912427471844,0.0,-0.03501912427471844,-0.09385730329452946,0.0,0.09385730329452946,-0.9295354243403272,0.0,0.9295354243403272,-0.06655617910386942,0,0.06655617910386942,-0.001717568726343067,-0.009153204572718942,0.01071099809609047,0.4,0.033442020416259766,1.493192195892334,STABILIZE
0.035,0.005,0.05,-0.21660159441979832,-0.0031227877234637482,-0.0010830079720989916,0.0025756892597332596,-0.0016301064358294798,0.035,0.005,0.05,-0.10370785957619871,0.0016669134947322754,-0.0005185392978809936,0.010233678619817952,0.011382052816669234,0.002,8e-05,0,-1.0583768791519423,-0.0018453823015735873,-8.467015033215539e-05,0.0,-0.0019300524519057427,0.1,0.02,0,-0.2047993179248391,-0.006070134970362487,-0.004095986358496782,0.0,-0.01016612132885927,0.04762609984949358,0.0,-0.04762609984949358,-0.08922250638467852,0.0,0.08922250638467852,-0.9226911507867936,0.0,0.9226911507867936,-0.06070134970362487,0,0.06070134970362487,-0.0016180469392919328,-0.011383773426058195,0.01016612132885927,0.4,0.0334475040435791,1.5266332626342773,STABILIZE
0.035,0.005,0.05,-0.21950851736310747,-0.003040961651168441,-0.0010975425868155373,0.0027847015366549094,-0.001353802701329069,0.035,0.005,0.05,-0.10230518955741784,0.0014673473702404706,-0.0005115259477870892,0.005527019719357514,0.006482841141810895,0.002,8e-05,0,-1.0889494867669705,-0.0018275608980281165,-8.711595894135764e-05,0.0,-0.001914676856969474,0.1,0.02,0,-0.20706833245299056,-0.006781826203579948,-0.004141366649059812,0.0,-0.010923192852639759,0.041924210578299155,0.0,-0.041924210578299155,-0.08688461860481259,0.0,0.08688461860481259,-0.9137804490140582,0.0,0.9137804490140582,-0.06781826203579948,0,0.06781826203579948,-0.0013461283271009683,-0.006484439031331717,0.010923192852639759,0.4,0.033457279205322266,1.560119390487671,STABILIZE
0.035,0.005,0.05,-0.2227992955761845,-0.0034062764698093036,-0.0011139964778809225,0.000515496680604202,-0.004004776267086024,0.035,0.005,0.05,-0.10075390345281543,0.0016057324480425652,-0.0005037695172640771,0.005341732126008928,0.006443695056787416,0.002,8e-05,0,-1.121108823261971,-0.0019021743116183854,-8.96887058609577e-05,-0.0,-0.001991863017479343,0.1,0.02,0,-0.20879531488996364,-0.00510741511837006,-0.004175906297799273,0.0,-0.009283321416169332,0.045878069944073285,0.0,-0.045878069944073285,-0.09732218485169437,0.0,0.09732218485169437,-0.9510871558091927,0.0,0.9510871558091927,-0.051074151183700595,0,0.051074151183700595,-0.00399903068897053,-0.006447262402210254,0.009283321416169332,0.4,0.0338132381439209,1.5938968658447266,STABILIZE
0.035,0.005,0.05,-0.22525377984895795,-0.0025677707456534765,-0.0011262688992447897,0.007510725928359299,0.003816686283461033,0.035,0.005,0.05,-0.09988914816544785,0.0009046679800244125,-0.0004994457408272392,0.00128607808022528,0.001691300319422453,0.002,8e-05,0,-1.1522185825580977,-0.0018597501190784414,-9.217748660464782e-05,0.0,-0.0019519276056830892,0.1,0.02,0,-0.2107186677492831,-0.005748928616099191,-0.004214373354985662,0.0,-0.009963301971084852,0.02584765657212607,0.0,-0.02584765657212607,-0.07336487844724218,0.0,0.07336487844724218,-0.9298750595392207,0.0,0.9298750595392207,-0.05748928616099191,0,0.05748928616099191,0.0038183813743169026,-0.0016874698922078124,0.009963301971084852,0.4,0.033455848693847656,1.6273784637451172,STABILIZE
0.035,0.005,0.05,-0.22774094440610715,-0.0026027569576408623,-0.0011387047220305358,0.005859629777970038,0.00211816809829864,0.035,0.005,0.05,-0.09888856447788132,0.0010470863888076489,-0.0004944428223894066,-0.0015362110190871078,-0.0009835674526688654,0.002,8e-05,0,-1.1828114677721346,-0.0018294118351704928,-9.462491742177078e-05,0.0,-0.0019240367525922635,0.1,0.02,0,-0.21229224944260736,-0.004704899445139899,-0.004245844988852147,0.0,-0.008950744433992047,0.029916753965932824,0.0,-0.029916753965932824,-0.07436448450402464,0.0,0.07436448450402464,-0.9147059175852464,0.0,0.9147059175852464,-0.04704899445139899,0,0.04704899445139899,0.0021173597181307307,0.000985306475487171,0.008950744433992047,0.4,0.03344559669494629,1.6608178615570068,STABILIZE
0.035,0.005,0.05,-0.2311740061607818,-0.002939679202198805,-0.001155870030803909,0.0021188229440147984,-0.0019767262889879155,0.035,0.005,0.05,-0.09790483233504599,0.0008423550543155149,-0.0004895241616752299,-0.0067364824840693465,-0.006383651591429062,0.002,8e-05,0,-1.2199300330964569,-0.0018162325610166369,-9.759440264771656e-05,0.0,-0.0019138269636643534,0.1,0.02,0,-0.21410381599436687,-0.004432049203688303,-0.004282076319887337,0.0,-0.00871412552357564,0.024067287266157568,0.0,-0.024067287266157568,-0.08399083434853728,0.0,0.08399083434853728,-0.9081162805083184,0.0,0.9081162805083184,-0.04432049203688303,0,0.04432049203688303,-0.0019816636974508157,0.006382120607802418,0.00871412552357564,0.4,0.04087424278259277,1.7017018795013428,STABILIZE
0.035,0.005,0.05,-0.23430935657664756,-0.0032828461729136733,-0.001171546782883238,-0.001513092178733469,-0.00596748513453038,0.035,0.005,0.05,-0.09728777978423107,0.0006460804491513315,-0.0004864388989211554,-0.006709868327984917,-0.006550226777754741,0.002,8e-05,0,-1.2502292380093998,-0.001812832300747848,-0.00010001833904075199,0.0,-0.0019128506397886,0.1,0.02,0,-0.21549450329986344,-0.004160311920540292,-0.004309890065997269,0.0,-0.00847020198653756,0.018459441404323755,0.0,-0.018459441404323755,-0.09379560494039066,0.0,0.09379560494039066,-0.906416150373924,0.0,0.906416150373924,-0.041603119205402925,0,0.041603119205402925,-0.005972239755367102,0.006545891992331451,0.00847020198653756,0.4,0.03342747688293457,1.735123634338379,STABILIZE
0.035,0.005,0.05,-0.23711102119742541,-0.0029325216356188674,-0.001185555105987127,0.004567100293115205,0.0004490235515092105,0.035,0.005,0.05,-0.09625442822641252,0.0010816161856168332,-0.0004812721411320626,-0.0041577361080590665,-0.003557392063574296,0.002,8e-05,0,-1.2805062622485928,-0.001810923976820597,-0.00010244050097988743,0.0,-0.0019133644778004844,0.1,0.02,0,-0.21702044992693,-0.00456348238266794,-0.0043404089985386,0.0,-0.00890389138120654,0.030903319589052375,0.0,-0.030903319589052375,-0.08378633244625334,0.0,0.08378633244625334,-0.9054619884102985,0.0,0.9054619884102985,-0.045634823826679397,0,0.045634823826679397,0.0004461900251190057,0.003557748572521059,0.00890389138120654,0.4,0.03343820571899414,1.7685587406158447,STABILIZE
0.035,0.005,0.05,-0.2399882113982824,-0.0030072006698814617,-0.001199941056991412,-0.003230943767924423,-0.0074380854947972965,0.035,0.005,0.05,-0.09480012146358209,0.0015200219540905584,-0.00047400060731791045,0.005569919941523203,0.006615941288295851,0.002,8e-05,0,-1.3105551535388404,-0.0017946685026307687,-0.00010484441228310725,0.0,-0.001899512914913876,0.1,0.02,0,-0.21769293596620676,-0.0020082097230998295,-0.004353858719324135,0.0,-0.006362068442423965,0.04342919868830166,0.0,-0.04342919868830166,-0.08592001913947032,0.0,0.08592001913947032,-0.8973342513153844,0.0,0.8973342513153844,-0.020082097230998294,0,0.020082097230998294,-0.00743576615902694,-0.006618547921286169,0.006362068442423965,0.4,0.03348684310913086,1.8020434379577637,STABILIZE
0.035,0.005,0.05,-0.24363575637017781,-0.003815543558028402,-0.001218178781850889,-0.009834709643122162,-0.014868431983001452,0.035,0.005,0.05,-0.09407115707027318,0.0007625390273054147,-0.0004703557853513659,-0.002115047023094685,-0.0018228637811406364,0.002,8e-05,0,-1.3405597435938381,-0.0017935166361834232,-0.00010724477948750706,0.0,-0.0019007614156709303,0.1,0.02,0,-0.21750683610498842,0.0005562035616462635,-0.004350136722099768,0.0,-0.003793933160453505,0.021786829351583274,0.0,-0.021786829351583274,-0.1090155302293829,0.0,0.1090155302293829,-0.8967583180917116,0.0,0.8967583180917116,0.005562035616462634,0,-0.005562035616462634,-0.014868254956920825,0.0018243071379935403,0.003793933160453505,0.4,0.03345894813537598,1.835531234741211,STABILIZE
0.035,0.005,0.05,-0.24757181247005342,-0.004116081739119831,-0.001237859062350267,-0.010045179936416258,-0.015399120737886357,0.035,0.005,0.05,-0.09281402817167554,0.001314626918910296,-0.0004640701408583777,0.004029013513505721,0.00487957029155764,0.002,8e-05,0,-1.3703806352451056,-0.0017819901002489994,-0.00010963045081960846,0.0,-0.001891620551068608,0.1,0.02,0,-0.2146914671287439,0.0084118203152431,-0.004293829342574878,0.0,0.004117990972668221,0.03756076911172274,0.0,-0.03756076911172274,-0.11760233540342373,0.0,0.11760233540342373,-0.8909950501244996,0.0,0.8909950501244996,0.08411820315243099,0,-0.08411820315243099,-0.015406268029827006,-0.004856956981833776,-0.004117990972668221,0.4,0.033469200134277344,1.869009256362915,STABILIZE
0.035,0.005,0.05,-0.2513812491790206,-0.003989440114397359,-0.001256906245895103,-0.006029374158895727,-0.011275720519188188,0.035,0.005,0.05,-0.0932374818965862,-0.00044346274943299336,-0.00046618740948293103,-0.009323271858532767,-0.01023292201744869,0.002,8e-05,0,-1.401267567061687,-0.0018483657328379787,-0.00011210140536493497,-0.0,-0.0019604671382029135,0.1,0.02,0,-0.2124287234670441,0.006770465048647107,-0.004248574469340883,0.0,0.0025218905793062242,-0.012670364269514095,0.0,0.012670364269514095,-0.11398400326849596,0.0,0.11398400326849596,-0.9241828664189893,0.0,0.9241828664189893,0.06770465048647106,0,-0.06770465048647106,-0.011263620722180564,0.010246239040198717,-0.0025218905793062242,0.4,0.03342080116271973,1.9023983478546143,STABILIZE
0.035,0.005,0.05,-0.2548373666832439,-0.0036167167671916625,-0.0012741868334162196,-0.005838712978000845,-0.010729616578608728,0.035,0.005,0.05,-0.09536828596669024,-0.0022298185170291107,-0.0004768414298334512,-0.028304844132391357,-0.031011504079253918,0.002,8e-05,0,-1.4320723422756927,-0.001842069430136516,-0.00011456578738205543,-0.0,-0.0019566352175185713,0.1,0.02,0,-0.21123447592844793,0.0035706913418143828,-0.004224689518568959,0.0,-0.0006539981767545761,-0.06370910048654602,0.0,0.06370910048654602,-0.10333476477690463,0.0,0.10333476477690463,-0.921034715068258,0.0,0.921034715068258,0.035706913418143825,0,-0.035706913418143825,-0.010710288027533509,0.03101818478810148,0.0006539981767545761,0.4,0.03344583511352539,1.9358527660369873,STABILIZE
0.035,0.005,0.05,-0.257726251401919,-0.002895781698914502,-0.0012886312570095952,0.0006976933031750416,-0.0034867196527490554,0.035,0.005,0.05,-0.09839741435783957,-0.0030363601918927943,-0.0004919870717891978,-0.03864511406636231,-0.04217346133004431,0.002,8e-05,0,-1.4643875163416085,-0.0018509899399166518,-0.00011715100130732869,-0.0,-0.0019681409412239804,0.1,0.02,0,-0.20958586637248544,0.004721558511045789,-0.004191717327449709,0.0,0.0005298411835960798,-0.08675314833979411,0.0,0.08675314833979411,-0.08273661996898576,0.0,0.08273661996898576,-0.9254949699583259,0.0,0.9254949699583259,0.04721558511045788,0,-0.04721558511045788,-0.0034519646973847715,0.04217632030205597,-0.0005298411835960798,0.4,0.03491663932800293,1.9707646369934082,STABILIZE
0.035,0.005,0.05,-0.26119743826354996,-0.003630778157487224,-0.0013059871913177498,0.0013245086369608574,-0.003612256711844116,0.035,0.005,0.05,-0.10089094010888772,-0.002608168097232236,-0.0005044547005444386,-0.028520626535252724,-0.0316332493330294,0.002,8e-05,0,-1.4946437696975516,-0.0018084179963497272,-0.00011957150157580414,-0.0,-0.0019279894979255313,0.1,0.02,0,-0.20800476924393277,0.004725113297429948,-0.004160095384878656,0.0,0.0005650179125512925,-0.07451908849234959,0.0,0.07451908849234959,-0.10373651878534924,0.0,0.10373651878534924,-0.9042089981748636,0.0,0.9042089981748636,0.04725113297429948,0,-0.04725113297429948,-0.003586167930190299,0.03163621755985286,-0.0005650179125512925,0.4,0.033461570739746094,2.0042364597320557,STABILIZE
0.035,0.005,0.05,-0.263714020354263,-0.002633335197510986,-0.001318570101771315,0.012410238587889198,0.008458333288606897,0.035,0.005,0.05,-0.10290732019856269,-0.0021099270638920576,-0.0005145366009928135,-0.028977629475409446,-0.031602093140294316,0.002,8e-05,0,-1.5251305152138244,-0.001822921886720336,-0.00012201044121710596,-0.0,-0.0019449323279374419,0.1,0.02,0,-0.2074755491124755,0.0015822071923215263,-0.00414951098224951,-0.0,-0.002567303789927984,-0.06028363039691592,0.0,0.06028363039691592,-0.07523814850031388,0.0,0.07523814850031388,-0.9114609433601679,0.0,0.9114609433601679,0.01582207192321526,0,-0.01582207192321526,0.008467059797091775,0.031599756189905404,0.002567303789927984,0.4,0.033448219299316406,2.037680149078369,STABILIZE
0.035,0.005,0.05,-0.2675331123892924,-0.003997612427974027,-0.001337665561946462,-0.00032996522024678873,-0.005665243210167277,0.035,0.005,0.05,-0.10427070432116341,-0.0014271144195060342,-0.000521353521605817,-0.008113196416252974,-0.010061664357364827,0.002,8e-05,0,-1.5554168931299397,-0.0018115480200944674,-0.00012443335145039517,0.0,-0.0019359813715448626,0.1,0.02,0,-0.2051158389788671,0.007057179687143428,-0.004102316779577342,0.0,0.0029548629075660865,-0.040774697700172405,0.0,0.040774697700172405,-0.11421749794211505,0.0,0.11421749794211505,-0.9057740100472337,0.0,0.9057740100472337,0.07057179687143428,0,-0.07057179687143428,-0.0056528458611393275,0.010068634661204674,-0.0029548629075660865,0.4,0.03343701362609863,2.0711171627044678,STABILIZE
0.035,0.005,0.05,-0.27112090625844565,-0.0037549669281700484,-0.0013556045312922284,-0.0014409166054585275,-0.006551488064920804,0.035,0.005,0.05,-0.10598289709896494,-0.0017919723065956772,-0.0005299144854948247,0.0040297091435885935,0.0017078223514980914,0.002,8e-05,0,-1.5851504090289255,-0.0017782255683054195,-0.00012681203272231405,0.0,-0.0019050376010277335,0.1,0.02,0,-0.20300862005795278,0.006301156203519487,-0.0040601724011590555,0.0,0.0022409838023604318,-0.051199208759876484,0.0,0.051199208759876484,-0.10728476937628709,0.0,0.10728476937628709,-0.8891127841527097,0.0,0.8891127841527097,0.06301156203519487,0,-0.06301156203519487,-0.006553362296011907,-0.0017006162607377875,-0.0022409838023604318,0.4,0.033441781997680664,2.10457181930542,STABILIZE
0.035,0.005,0.05,-0.2734649337625336,-0.0024519188104525093,-0.001367324668812668,0.003786583808126447,-3.2659671138730514e-05,0.035,0.005,0.05,-0.10744800645063532,-0.0015325456601791186,-0.0005372400322531766,0.012844687181399868,0.010774901488967573,0.002,8e-05,0,-1.614148246284358,-0.0017332888434856409,-0.00012913185970274865,0.0,-0.0018624207031883895,0.1,0.02,0,-0.20238814365587057,0.0018543879943559135,-0.004047762873117412,-0.0,-0.002193374878761498,-0.043787018862260524,0.0,0.043787018862260524,-0.07005482315578597,0.0,0.07005482315578597,-0.8666444217428204,0.0,0.8666444217428204,0.018543879943559133,0,-0.018543879943559133,-3.6146985209977025e-05,-0.010774890354269723,0.002193374878761498,0.4,0.03345990180969238,2.138025999069214,STABILIZE
0.035,0.005,0.05,-0.27458403414356375,-0.001168504005572544,-0.0013729201707178187,0.021001774706209973,0.01846035052991961,0.035,0.005,0.05,-0.10868571816389185,-0.0012923515345004352,-0.0005434285908194592,0.011235863028339245,0.00940008290301935,0.002,8e-05,0,-1.6426031903101976,-0.0016977777934670802,-0.00013140825522481582,0.0,-0.001829186048691896,0.1,0.02,0,-0.2032383957875805,-0.0025365349282611476,-0.0040647679157516095,-0.0,-0.006601302844012757,-0.036924329557155286,0.0,0.036924329557155286,-0.033385828730644114,0.0,0.033385828730644114,-0.8488888967335401,0.0,0.8488888967335401,-0.025365349282611475,0,0.025365349282611475,0.018464510220745533,-0.009391909421364949,0.006601302844012757,0.4,0.03352022171020508,2.171546220779419,STABILIZE
0.035,0.005,0.05,-0.2768721528208466,-0.002394750514893859,-0.001384360764104233,0.002004955113867717,-0.001774156165130375,0.035,0.005,0.05,-0.10875643146732822,-7.4008713575639e-05,-0.0005437821573366411,0.017389041306494497,0.016771250435582218,0.002,8e-05,0,-1.6713604758330056,-0.001719853956788001,-0.00013370883806664046,0.0,-0.0018535627948546413,0.1,0.02,0,-0.20405986215529157,-0.0024564247932156538,-0.004081197243105831,-0.0,-0.006537622036321486,-0.0021145346735896853,0.0,0.0021145346735896853,-0.06842144328268168,0.0,0.06842144328268168,-0.8599269783940005,0.0,0.8599269783940005,-0.024564247932156537,0,0.024564247932156537,-0.0017669657143354325,-0.01677200952288216,0.006537622036321486,0.4,0.03344154357910156,2.2050163745880127,STABILIZE
0.035,0.005,0.05,-0.2794435542157649,-0.0026919257956392554,-0.0013972177710788246,0.011122873997349222,0.007033730430631142,0.035,0.005,0.05,-0.10800122299329193,0.0007906059226541815,-0.0005400061149664596,0.018943407820323308,0.01919400762801103,0.002,8e-05,0,-1.7000051150081301,-0.0017135568455769394,-0.00013600040920065041,0.0,-0.0018495572547775898,0.1,0.02,0,-0.20603060584378347,-0.005894613155444252,-0.00412061211687567,-0.0,-0.010015225272319923,0.022588740647262327,0.0,-0.022588740647262327,-0.07691216558969301,0.0,0.07691216558969301,-0.8567784227884697,0.0,0.8567784227884697,-0.05894613155444252,0,0.05894613155444252,0.007053473578065306,-0.01918676114091346,0.010015225272319923,0.4,0.033432960510253906,2.238424062728882,STABILIZE
0.035,0.005,0.05,-0.2819930088669801,-0.00266849367174351,-0.0014099650443349006,0.00925001409504552,0.005171555378967109,0.035,0.005,0.05,-0.10824453335390798,-0.0002546709968989205,-0.0005412226667695399,0.013129330093567827,0.012333436429899366,0.002,8e-05,0,-1.7290429422583267,-0.0017367805804809637,-0.00013832343538066615,0.0,-0.0018751040158616298,0.1,0.02,0,-0.20729383214562314,-0.003777739448073017,-0.004145876642912463,-0.0,-0.00792361609098548,-0.007276314197112013,0.0,0.007276314197112013,-0.07624267633552885,0.0,0.07624267633552885,-0.8683902902404819,0.0,0.8683902902404819,-0.03777739448073017,0,0.03777739448073017,0.005179686181211092,-0.01233002393640269,0.00792361609098548,0.4,0.033438682556152344,2.271865129470825,STABILIZE
0.035,0.005,0.05,-0.28498613456999117,-0.00273011419448176,-0.001424930672849956,-0.0023355439179919345,-0.00649058878532365,0.035,0.005,0.05,-0.10974351819956651,-0.0013672662662742344,-0.0005487175909978326,0.0026297624184011227,0.0007137785611290555,0.002,8e-05,0,-1.7641572805315415,-0.001830215784180708,-0.00014113258244252333,-0.0,-0.0019713483666232313,0.1,0.02,0,-0.20806300515704898,-0.002004526719717807,-0.00416126010314098,-0.0,-0.0061657868228587875,-0.03906475046497812,0.0,0.03906475046497812,-0.07800326269947885,0.0,0.07800326269947885,-0.915107892090354,0.0,0.915107892090354,-0.020045267197178068,0,0.020045267197178068,-0.0064903386684579505,-0.0007160492882589038,0.0061657868228587875,0.4,0.03837180137634277,2.3102645874023438,STABILIZE
0.035,0.005,0.05,-0.28815376214453714,-0.002848783351354799,-0.0014407688107226856,-0.014146127513428808,-0.018435679675506293,0.035,0.005,0.05,-0.11019955298157103,-0.0004101316408067268,-0.0005509977649078552,0.007609309583252751,0.006648180177538168,0.002,8e-05,0,-1.7999985711921416,-0.0018419205761518028,-0.00014399988569537133,-0.0,-0.001985920461847174,0.1,0.02,0,-0.20984783128740556,-0.004586201994632834,-0.004196956625748111,-0.0,-0.008783158620380946,-0.011718046880192193,0.0,0.011718046880192193,-0.08139381003870853,0.0,0.08139381003870853,-0.9209602880759014,0.0,0.9209602880759014,-0.04586201994632834,0,0.04586201994632834,-0.01843035227917251,-0.006662934761536233,0.008783158620380946,0.4,0.03891730308532715,2.3492183685302734,STABILIZE
0.035,0.005,0.05,-0.2905840344760574,-0.0025455070004028837,-0.001452920172380287,-0.0010763384536488817,-0.005074765626432052,0.035,0.005,0.05,-0.11084585869350368,-0.0006769511765357565,-0.0005542292934675183,-0.005081234709067982,-0.006312415179071256,0.002,8e-05,0,-1.8305071669241555,-0.0018260115602464256,-0.00014644057335393246,-0.0,-0.001972452133600358,0.1,0.02,0,-0.21120921199082535,-0.004074092633067991,-0.004224184239816507,-0.0,-0.008298276872884498,-0.019341462186735898,0.0,0.019341462186735898,-0.07272877144008238,0.0,0.07272877144008238,-0.9130057801232128,0.0,0.9130057801232128,-0.040740926330679904,0,0.040740926330679904,-0.005079252869923535,0.006308805103944726,0.008298276872884498,0.4,0.03341555595397949,2.3825740814208984,STABILIZE
0.035,0.005,0.05,-0.2925282575411189,-0.00203292987822776,-0.0014626412877055944,0.00583850314959054,0.002342931983657185,0.035,0.005,0.05,-0.11211187232513715,-0.0013237765687703859,-0.0005605593616256857,-0.017991254435751464,-0.019875590366147534,0.002,8e-05,0,-1.8610571517444578,-0.001825363061814643,-0.00014888457213955663,-0.0,-0.0019742476339541996,0.1,0.02,0,-0.21169231475453168,-0.0014432706679187635,-0.004233846295090634,0.0,-0.005677116963009397,-0.03782218767915388,0.0,0.03782218767915388,-0.05808371080650743,0.0,0.05808371080650743,-0.9126815309073215,0.0,0.9126815309073215,-0.014432706679187633,0,0.014432706679187633,0.002337925282916131,0.0198761799160312,0.005677116963009397,0.4,0.03347277641296387,2.416065216064453,STABILIZE
0.035,0.005,0.05,-0.2950626905697246,-0.002583509642505178,-0.0014753134528486232,0.001056728664701963,-0.003002094430651838,0.035,0.005,0.05,-0.11209683126139787,1.5332318023553833e-05,-0.0005604841563069894,0.002083212955016587,0.0015380611167331516,0.002,8e-05,0,-1.8921331685465093,-0.001810158342039712,-0.00015137065348372076,-0.0,-0.0019615289955234325,0.1,0.02,0,-0.21290811878157814,-0.0035409908159438827,-0.0042581623756315625,0.0,-0.007799153191575445,0.00043806622924439514,0.0,-0.00043806622924439514,-0.07381456121443365,0.0,0.07381456121443365,-0.9050791710198559,0.0,0.9050791710198559,-0.03540990815943883,0,0.03540990815943883,-0.0030011433056506723,-0.001539916175739891,0.007799153191575445,0.4,0.03433513641357422,2.4503939151763916,STABILIZE
0.035,0.005,0.05,-0.29741235660011034,-0.0024517199306765573,-0.0014870617830005518,0.002638113117397071,-0.0013006685962800384,0.035,0.005,0.05,-0.11107430905936864,0.001066933781164971,-0.0005553715452968432,0.019324890598471874,0.01983645283434,0.002,8e-05,0,-1.9221130678831047,-0.0017875444126388468,-0.0001537690454306484,0.0,-0.0019413134580694952,0.1,0.02,0,-0.21426198411774272,-0.004036195035138539,-0.004285239682354855,-0.0,-0.008321434717493394,0.030483822318999168,0.0,-0.030483822318999168,-0.07004914087647306,0.0,0.07004914087647306,-0.8937722063194233,0.0,0.8937722063194233,-0.04036195035138539,0,0.04036195035138539,-0.0012866945068105739,-0.019837364166957465,0.008321434717493394,0.4,0.03354310989379883,2.4839508533477783,STABILIZE
0.035,0.005,0.05,-0.2997112527192861,-0.0024099992258147583,-0.0014985562635964306,0.0038663684921064786,-4.2186997304710216e-05,0.035,0.005,0.05,-0.11111521129823099,-4.2878998824738656e-05,-0.000555576056491155,0.0028004740392092824,0.0022020189838933887,0.002,8e-05,0,-1.951651245927974,-0.0017694700295831352,-0.00015613209967423793,0.0,-0.001925602129257373,0.1,0.02,0,-0.21510115073243746,-0.002513493168524986,-0.0043020230146487495,0.0,-0.0068155161831737355,-0.00122511425213539,0.0,0.00122511425213539,-0.06885712073756452,0.0,0.06885712073756452,-0.8847350147915676,0.0,0.8847350147915676,-0.025134931685249856,0,0.025134931685249856,-4.122099548032207e-05,-0.0022020372789078916,0.0068155161831737355,0.4,0.0333864688873291,2.517364740371704,STABILIZE
0.035,0.005,0.05,-0.3021894156296342,-0.0025966317727911534,-0.001510947078148171,-0.0003231102755559046,-0.004430689126495229,0.035,0.005,0.05,-0.1114905781029777,-0.00039331125794289017,-0.0005574528905148886,0.002084444925042361,0.001133680776584582,0.002,8e-05,0,-1.9809768871886437,-0.001755860394740902,-0.00015847815097509151,0.0,-0.0019143385457159935,0.1,0.02,0,-0.21618805407235128,-0.0032538939396114792,-0.004323761081447026,0.0,-0.007577655021058505,-0.011237464512654003,0.0,0.011237464512654003,-0.07418947922260438,0.0,0.07418947922260438,-0.877930197370451,0.0,0.877930197370451,-0.03253893939611479,0,0.03253893939611479,-0.004430044581533942,-0.0011361968335029976,0.007577655021058505,0.4,0.03340315818786621,2.550748109817505,STABILIZE
0.035,0.005,0.05,-0.304753193442726,-0.002681592748036561,-0.00152376596721363,-0.005423756205085756,-0.009629114920335947,0.035,0.005,0.05,-0.11068769711001823,0.0008397763009190192,-0.0005534384855500912,0.01813415734558343,0.018420495160952358,0.002,8e-05,0,-2.009922948110385,-0.0017300707384814218,-0.0001607938358488308,0.0,-0.0018908645743302525,0.1,0.02,0,-0.21768031438759822,-0.004459528902025231,-0.004353606287751964,-0.0,-0.008813135189777195,0.02399360859768626,0.0,-0.02399360859768626,-0.07661693565818745,0.0,0.07661693565818745,-0.8650353692407109,0.0,0.8650353692407109,-0.04459528902025231,0,0.04459528902025231,-0.009614774695921553,-0.01842798425412753,0.008813135189777195,0.4,0.0334622859954834,2.5842342376708984,STABILIZE
0.035,0.005,0.05,-0.307467859746289,-0.00278076875291837,-0.001537339298731445,-0.0016715096224596705,-0.005989617674109485,0.035,0.005,0.05,-0.1086687297344198,0.002068129472803707,-0.000543343648672099,0.017262519836601164,0.01878730566073277,0.002,8e-05,0,-2.039202292960146,-0.0017138457371832262,-0.00016313618343681167,0.0,-0.0018769819206200379,0.1,0.02,0,-0.21962421961605888,-0.005689255866858429,-0.004392484392321178,-0.0,-0.010081740259179607,0.05908941350867733,0.0,-0.05908941350867733,-0.0794505357976677,0.0,0.0794505357976677,-0.856922868591613,0.0,0.856922868591613,-0.05689255866858428,0,0.05689255866858428,-0.005970959634962084,-0.018793243863406334,0.010081740259179607,0.4,0.03416800498962402,2.618361234664917,STABILIZE
0.035,0.005,0.05,-0.31009267094002146,-0.0027445704128999486,-0.0015504633547001074,-0.0024850921745690267,-0.006780125942169082,0.035,0.005,0.05,-0.10739994483852755,0.0013266742742926308,-0.0005369997241926377,0.0019763094839511087,0.0027659840340511018,0.002,8e-05,0,-2.068047238279588,-0.0017234868696622834,-0.00016544377906236706,0.0,-0.0018889306487246504,0.1,0.02,0,-0.22137343657993666,-0.005225789884583081,-0.004427468731598733,-0.0,-0.009653258616181815,0.037904979265503735,0.0,-0.037904979265503735,-0.07841629751142709,0.0,0.07841629751142709,-0.8617434348311417,0.0,0.8617434348311417,-0.052257898845830805,0,0.052257898845830805,-0.006777600344724281,-0.0027721668484225635,0.009653258616181815,0.4,0.03347277641296387,2.6518561840057373,STABILIZE
