Mode,Time,Freq,time2delay,actualDelay,North-Desired,East-Desired,Down-Desired,Roll-UAV,Pitch-UAV,Yaw-UAV,Roll-Control,Pitch-Control,Yaw-Control,Thrust-Control,North-Pos,East-Pos,Down-Pos,Yaw-Ang,North-Vel,East-Vel,Down-Vel,Yaw-Vel,North-Acc,East-Acc,Down-Acc,North-Avg,East-Avg,Down-Avg,Yaw-Avg,North-Dif,East-Dif,Down-Dif,Yaw-Dif,North-One,East-One,Down-One,Yaw-One,North-Two,East-Two,Down-Two,Yaw-Two,Landing-State,Q-Size,Kalman-Time,Kalman-Dt
STABILIZE,0.03514695167541504,28.462202437501695,0.03276494344075521,0.033330440521240234,-10.0,40.0,10.0,2.377109242735657,-1.1071633124536062,173.6725860637482,3.9995218320429045,4.000478110802779,0.0013743498959189054,0.5187768143494049,-0.005847389878217166,0.014000401740216446,0.6241366156055914,0.0068488421386601024,-0.03935690619982779,0.09433755185455084,1.0199337266385555,-0.08613931091369266,1.024801004678011,0.5035532638430595,14.260214567184448,0.0,0.0,0.0,0.0,0.0,0.0,0.0,0.0,0.0,0.0,0.0,0.0,0.0,0.0,0.0,0.0,False,1,3.474938154220581,0.029933837890625
STABILIZE,0.0683145523071289,30.147304261573957,0.03195908864339193,0.032224178314208984,-10.0,40.0,10.0,2.377073597685926,-1.107219554792553,173.66893874273143,3.999477920141309,4.000522011725739,0.001505154537160281,0.5188217146383798,-0.003624773643318551,0.013755019473876995,0.6142932871835863,0.007477755172844064,0.12411032803356647,0.042794019100256264,1.1289195157587528,0.09807671400462294,1.0455938056111336,0.5022909492254257,13.972382247447968,0.0,0.0,0.0,0.0,0.0,0.0,0.0,0.0,0.0,0.0,0.0,0.0,0.0,0.0,0.0,0.0,False,0,3.533116340637207,0.034922119140625
STABILIZE,0.10175514221191406,29.90335229784261,0.032413752873738606,0.03255033493041992,-10.0,40.0,10.0,2.3767197085095546,-1.10719660962581,173.6623407799932,3.9994733105561333,4.000526620102554,0.0015234070055985208,0.5188416111215258,-0.005712779685647652,0.013879859277238416,0.6169044176948006,0.007543773963136115,-0.12727280845865607,0.03194641612935811,1.3043581508100033,0.019292563001788596,-8.143407106399536,0.4063064232468605,13.541966676712036,0.0,0.0,0.0,0.0,0.0,0.0,0.0,0.0,0.0,0.0,0.0,0.0,0.0,0.0,0.0,0.0,False,0,3.560912609100342,0.034922119140625
STABILIZE,0.13516497611999512,29.931093540376217,0.0324132760365804,0.03253984451293945,-10.0,40.0,10.0,2.37740059299244,-1.1063363259555057,173.65857051557134,3.9995305461140926,4.000469398795635,0.0013639561922205317,0.5188647154635483,-0.003559073296227179,0.013165710447082857,0.6179004433629188,0.00672403704504349,0.12661650544032454,-0.017989854677580297,1.207118108868599,-0.033717975889708415,2.0666275173425674,-1.357157900929451,17.458416521549225,0.0,0.0,0.0,0.0,0.0,0.0,0.0,0.0,0.0,0.0,0.0,0.0,0.0,0.0,0.0,0.0,False,0,3.5895919799804688,0.02993310546875
STABILIZE,0.16861820220947266,29.892696276868694,0.03246620496114095,0.03259396553039551,-10.0,40.0,10.0,2.378462260521554,-1.1071874315591128,173.65201353396813,3.999616866829056,3.7274191479466534,0.0012010165672595744,0.5188935761914709,-0.0013625074759148524,0.012391985238370871,0.6160301742073955,0.005889631288838454,0.12661650544032454,-0.017989854677580297,1.207118108868599,-0.033717975889708415,2.0666275173425674,-1.357157900929451,17.458416521549225,0.0,0.0,0.0,0.0,0.0,0.0,0.0,0.0,0.0,0.0,0.0,0.0,0.0,0.0,0.0,0.0,False,0,3.6183581352233887,0.02993310546875
STABILIZE,0.20205950736999512,29.903139102970847,0.03246286710103353,0.03257012367248535,-10.0,40.0,10.0,2.378195029370277,-1.1071289480643445,173.64846183559973,3.99984938511057,1.7334909661917268,0.0010221482214292643,0.5189198405114518,0.00037095579113465005,0.013308093437768006,0.6154361715368339,0.004978660330134401,0.10040663182735443,0.08370086434297264,1.2696629390120506,-0.03945369394629274,1.0905109345912933,0.32041065860539675,8.469675481319427,0.0,0.0,0.0,0.0,0.0,0.0,0.0,0.0,0.0,0.0,0.0,0.0,0.0,0.0,0.0,0.0,False,0,3.6470143795013428,0.0349208984375
STABILIZE,0.23598217964172363,29.47860250346141,0.03244736989339193,0.03302884101867676,-10.0,40.0,10.0,2.3785294951961964,-1.1075414274571898,173.64395391074754,3.99974291268804,1.7387945816773893,0.0017267290690606333,0.5189418193285055,0.001978592446183098,0.014553146581788978,0.6171717656569423,0.008472837388303437,0.09113107225857675,0.09936513379216194,1.221277005970478,0.22682476600315837,1.5067254193127155,0.6668515503406525,18.611572682857513,0.0,0.0,0.0,0.0,0.0,0.0,0.0,0.0,0.0,0.0,0.0,0.0,0.0,0.0,0.0,0.0,False,1,3.6756372451782227,0.02993310546875
STABILIZE,0.2694084644317627,29.917003095621904,0.0324282964070638,0.03254842758178711,-10.0,40.0,10.0,2.3791798572712284,-1.10748273051901,173.63656364606558,3.9996627159320255,1.7432877029446834,0.002257141321627329,0.5189723137367748,-0.0006508948557577414,0.014718006592785377,0.6144819846367359,0.011087811104338137,-0.08767553954385221,-0.0017090509572881274,1.158446166664362,0.08503093262797957,4.671082645654678,0.675266096368432,19.966943562030792,0.0,0.0,0.0,0.0,0.0,0.0,0.0,0.0,0.0,0.0,0.0,0.0,0.0,0.0,0.0,0.0,False,0,3.733757495880127,0.034922119140625
STABILIZE,0.3029158115386963,29.844413294530344,0.03242328961690267,0.03255033493041992,-10.0,40.0,10.0,2.3795693914973306,-1.1072955406470693,173.6331212307239,3.9998052906557193,1.7483385304354717,0.001320196150247946,0.5189960466672708,0.001496722949307951,0.01450165002606125,0.6151703210248786,0.006381741891652193,0.12660683132708073,0.010840429604286328,1.153651811182499,-0.2721804237432165,-3.3951465040445328,-1.4310987666249275,19.000743329524994,0.0,0.0,0.0,0.0,0.0,0.0,0.0,0.0,0.0,0.0,0.0,0.0,0.0,0.0,0.0,0.0,False,0,3.7624850273132324,0.029932861328125
STABILIZE,0.3363478183746338,29.91166926966332,0.03237632115681966,0.03251028060913086,-10.0,40.0,10.0,2.380033204030657,-1.1078815495335153,173.62997934370568,3.999758303970713,1.7536771550353918,0.0016287085328020828,0.5190284191385541,0.003445948934083144,0.014556927376479775,0.6115462422134162,0.007897884527452497,0.11681643081828952,0.03247598942834884,1.071504596620798,0.10886763916087618,5.4070379585027695,0.5610211752355099,17.07064062356949,0.0,0.0,0.0,0.0,0.0,0.0,0.0,0.0,0.0,0.0,0.0,0.0,0.0,0.0,0.0,0.0,False,0,3.791917324066162,0.034921142578125
STABILIZE,0.3697502613067627,29.93793004996431,0.03240183194478353,0.032523155212402344,-10.0,40.0,10.0,2.379761277124326,-1.107184870238174,173.62302621113062,3.999709617631854,1.759276761807229,0.0019472357715809765,0.519054603474246,0.0054543378882909764,0.014692681234998693,0.6110124683919073,0.009458890985013783,0.11681643081828952,0.03247598942834884,1.071504596620798,0.10886763916087618,5.4070379585027695,0.5610211752355099,17.07064062356949,0.0,0.0,0.0,0.0,0.0,0.0,0.0,0.0,0.0,0.0,0.0,0.0,0.0,0.0,0.0,0.0,False,0,3.825329542160034,0.034921142578125
STABILIZE,0.40326571464538574,29.836133676677715,0.03243711789449056,0.032566070556640625,-10.0,40.0,10.0,2.380253904518213,-1.107035886736903,173.6209771543796,3.999708748789544,1.7646752999483832,0.001953418498666144,0.5190729612751217,0.00720602536164774,0.016921446519540372,0.6143929004218893,0.009458163561039368,0.10088406270369887,0.15879180282354355,1.3132013380527496,0.013392320095528947,0.59400275349617,0.5266852676868439,17.470304667949677,0.0,0.0,0.0,0.0,0.0,0.0,0.0,0.0,0.0,0.0,0.0,0.0,0.0,0.0,0.0,0.0,False,0,3.85383939743042,0.034921875
STABILIZE,0.4367556571960449,29.860135976933755,0.03236893018086751,0.0325009822845459,-10.0,40.0,10.0,2.3802590271600903,-1.1074394015064628,173.61217987072862,3.9996672347982325,1.772531976208256,0.0022207213873839836,0.5191014373507772,0.00949396239257478,0.016518821519230894,0.6127230543429775,0.010758667297174288,0.13331203954294324,-0.0005244297881290549,1.0121149942278862,0.09191169454631952,2.0304884761571884,-1.5506316907703876,14.018292725086212,0.0,0.0,0.0,0.0,0.0,0.0,0.0,0.0,0.0,0.0,0.0,0.0,0.0,0.0,0.0,0.0,False,0,3.8825716972351074,0.034922119140625
STABILIZE,0.4710423946380615,29.167824532854887,0.03233340581258138,0.033406734466552734,-10.0,40.0,10.0,2.3805680932200337,-1.107817196344929,173.60868281387357,3.9996263196910595,1.7782697884308059,0.0024858268255186153,0.5191255445750956,0.011877383146631582,0.01821775244080637,0.6135715561408602,0.012042810877660418,0.13922229409217834,0.12618715409189463,1.1688976548612118,0.0902941736827496,3.307964652776718,0.575617840513587,17.595364153385162,0.0,0.0,0.0,0.0,0.0,0.0,0.0,0.0,0.0,0.0,0.0,0.0,0.0,0.0,0.0,0.0,False,1,3.9111177921295166,0.029932861328125
STABILIZE,0.5045866966247559,29.80899179850184,0.032434733708699544,0.03257918357849121,-10.0,40.0,10.0,2.3817061734904867,-1.1075172016299775,173.60205753037866,3.999680737922263,1.7837883347656922,0.002135497697618319,0.5191378612592441,0.01426772291028923,0.016318501257740956,0.6199675021755426,0.010256845688654724,-0.0414785579778254,-0.043829408241435885,1.447637751698494,0.08023719370747522,0.6069032475352287,0.6656008772552013,22.249647974967957,0.0,0.0,0.0,0.0,0.0,0.0,0.0,0.0,0.0,0.0,0.0,0.0,0.0,0.0,0.0,0.0,False,0,3.9688189029693604,0.0349208984375
STABILIZE,0.5379652976989746,29.960384299439266,0.03235629399617513,0.0324864387512207,-10.0,40.0,10.0,2.381710015471895,-1.1068467758742584,173.5985194923886,3.9997979840313884,1.7871745668339682,0.0013839292710917748,0.5191574471103553,0.013629226030229322,0.016785089092803882,0.6227229411168611,0.006477334165864503,-0.035756384022533894,0.05480690742842853,1.2729603797197342,-0.20995035677181875,-0.9852678515017033,0.5765239708125591,17.824551463127136,0.0,0.0,0.0,0.0,0.0,0.0,0.0,0.0,0.0,0.0,0.0,0.0,0.0,0.0,0.0,0.0,False,0,3.997300863265991,0.02993310546875
STABILIZE,0.5714318752288818,29.88077054599339,0.03242233594258626,0.032566070556640625,-10.0,40.0,10.0,2.381715351557184,-1.1068345028780935,173.59446236002162,3.9997609299959316,1.7938099804982675,0.001621019265160449,0.519195118501031,0.017277072288317787,0.0162293478542156,0.616446514862742,0.007637229313571908,0.23424634709954262,-0.0006533647137985099,0.9168882854282856,0.0880151049753603,3.9381854236125946,0.2965680556371808,8.583144098520279,0.0,0.0,0.0,0.0,0.0,0.0,0.0,0.0,0.0,0.0,0.0,0.0,0.0,0.0,0.0,0.0,False,0,4.026010036468506,0.034921875
STABILIZE,0.6049113273620605,29.868641623642514,0.03242662747701009,0.03255963325500488,-10.0,40.0,10.0,2.382238928245748,-1.1060468966894264,173.58656666134107,3.9997226408784177,1.8003104246127895,0.0018652011393193249,0.5192264903207331,0.021106221252620884,0.01576144930635221,0.6133212819454068,0.008828603945491668,0.23424634709954262,-0.0006533647137985099,0.9168882854282856,0.0880151049753603,3.9381854236125946,0.2965680556371808,8.583144098520279,0.0,0.0,0.0,0.0,0.0,0.0,0.0,0.0,0.0,0.0,0.0,0.0,0.0,0.0,0.0,0.0,False,0,4.054744720458984,0.034921875
STABILIZE,0.6383776664733887,29.881196301098555,0.03239944775899251,0.03254294395446777,-10.0,40.0,10.0,2.382078845687076,-1.1062977994197185,173.58327451016115,3.999814081906635,1.8034709277736307,0.001284882305359605,0.5192507814747556,0.0202493118487608,0.016095130202924357,0.6137393135436215,0.005907242510181758,-0.04498084308579564,0.0479374808492139,1.137699093669653,-0.1585450190569805,1.1442873626947403,0.6155171431601048,15.988129377365112,0.0,0.0,0.0,0.0,0.0,0.0,0.0,0.0,0.0,0.0,0.0,0.0,0.0,0.0,0.0,0.0,False,0,4.0832884311676025,0.034922119140625
STABILIZE,0.6722691059112549,29.504523136228702,0.03236988385518392,0.03297781944274902,-10.0,40.0,10.0,2.381915988364053,-1.1059188306424887,173.57990039671114,3.999810422190634,1.8077766309745715,0.0013093475499289027,0.5192810238511119,0.020784603811218803,0.01660309575463243,0.6113554034870966,0.006009187544812932,0.04257237305864692,0.05821885424666107,0.9760680608451366,0.023442209747475462,-7.282564789056778,0.4470835439860821,10.319560021162033,0.0,0.0,0.0,0.0,0.0,0.0,0.0,0.0,0.0,0.0,0.0,0.0,0.0,0.0,0.0,0.0,False,1,4.111916542053223,0.029932861328125
STABILIZE,0.7057638168334961,29.856947608200457,0.032434972127278645,0.03257179260253906,-10.0,40.0,10.0,2.3821435190407794,-1.1068622505215966,173.5718271131122,3.999772276400002,1.8106741360259577,0.0015537212753512686,0.5193256515624386,0.016896251212752744,0.017383995630571414,0.6016228980911015,0.00720693684901692,-0.2247558906674385,0.05540481652133167,1.0097203776240349,0.0821043099604415,-2.3371394723653793,-1.3352060690522194,15.757973492145538,0.0,0.0,0.0,0.0,0.0,0.0,0.0,0.0,0.0,0.0,0.0,0.0,0.0,0.0,0.0,0.0,False,0,4.169359445571899,0.034922119140625
STABILIZE,0.7392237186431885,29.88737111381888,0.03238943417867025,0.03253006935119629,-10.0,40.0,10.0,2.3823742513686788,-1.1068816738720488,173.5679339052853,3.999855736547561,1.8119551830349936,0.0010278162743582403,0.5193449123643247,0.014097171694766954,0.01785678907897155,0.604563817560371,0.004562151173058867,-0.1493914402090013,0.05571479559876025,1.2750444933772087,-0.14457995024694897,2.518777549266815,0.5233129486441612,11.526364833116531,0.0,0.0,0.0,0.0,0.0,0.0,0.0,0.0,0.0,0.0,0.0,0.0,0.0,0.0,0.0,0.0,False,0,4.198023080825806,0.06478759765625
STABILIZE,0.772697925567627,29.87183249056335,0.03238681157430013,0.03252363204956055,-10.0,40.0,10.0,2.38227606739936,-1.1071717434683628,173.56069390476506,3.999949437202019,1.8132487092517258,0.0004360065067022503,0.5193307135248053,0.011479994525013807,0.018974580285041027,0.6242188097795951,0.0015977532586846596,-0.1493914402090013,0.05571479559876025,1.2750444933772087,-0.14457995024694897,2.518777549266815,0.5233129486441612,11.526364833116531,0.0,0.0,0.0,0.0,0.0,0.0,0.0,0.0,0.0,0.0,0.0,0.0,0.0,0.0,0.0,0.0,False,0,4.2349019050598145,0.06478759765625
STABILIZE,0.8061134815216064,29.926181727373265,0.03237751324971517,0.032499074935913086,-10.0,40.0,10.0,2.382633371670316,-1.107360214000773,173.55666409315475,4.000136940398229,1.818953596795547,-0.0007490626261473067,0.5193316867148313,0.01253792901956907,0.019479005406080125,0.6362557726006259,-0.004313170759120698,0.07336102426052094,0.02511231868993491,0.9603177197277546,-0.27045489384328913,0.16031460836529732,0.4235789645463228,9.185933321714401,0.0,0.0,0.0,0.0,0.0,0.0,0.0,0.0,0.0,0.0,0.0,0.0,0.0,0.0,0.0,0.0,False,0,4.2639853954315186,0.034922119140625
STABILIZE,0.8408505916595459,28.78726149622512,0.032406123479207356,0.03388500213623047,-10.0,40.0,10.0,2.3820190815318383,-1.1079703419927254,173.54960167755297,4.000276952673014,1.822857379401202,-0.0016332170563018247,0.5193623291910004,0.011335347874013413,0.01916376282585109,0.6339591315058867,-0.008703684132533477,-0.03476776764728129,0.020556645176839083,1.1822066269814968,-0.21447410311690926,1.3445187360048294,-1.2381335720419884,19.804835319519043,0.0,0.0,0.0,0.0,0.0,0.0,0.0,0.0,0.0,0.0,0.0,0.0,0.0,0.0,0.0,0.0,False,0,4.292545318603516,0.034921875
STABILIZE,0.8743464946746826,29.854822407288776,0.0324738343556722,0.03259563446044922,-10.0,40.0,10.0,2.3815574034326277,-1.1086656339058916,173.5462002433463,4.000261606812302,1.8300163108152894,-0.0015358281743034989,0.5193886374830066,0.011704745813967268,0.020816642532634936,0.633340660282507,-0.008189339639263753,0.04570441378746182,0.12212658766657114,1.2550648301839828,0.03550748211719845,0.059338915161788464,0.8025282062590122,20.967857539653778,0.0,0.0,0.0,0.0,0.0,0.0,0.0,0.0,0.0,0.0,0.0,0.0,0.0,0.0,0.0,0.0,False,0,4.321383714675903,0.034922119140625
STABILIZE,0.9078266620635986,29.86779084092317,0.0324132760365804,0.03255939483642578,-10.0,40.0,10.0,2.3810504753301656,-1.1087072553711463,173.54170597887244,4.000244402269774,1.8366689893539407,-0.0014276942328937477,0.5194145385297262,0.012083370941978524,0.022460316196144425,0.6329368931662155,-0.007623142797030505,0.04570441378746182,0.12212658766657114,1.2550648301839828,0.03550748211719845,0.059338915161788464,0.8025282062590122,20.967857539653778,0.0,0.0,0.0,0.0,0.0,0.0,0.0,0.0,0.0,0.0,0.0,0.0,0.0,0.0,0.0,0.0,False,0,4.350040435791016,0.034922119140625
STABILIZE,0.9412252902984619,29.942204454597373,0.032372506459554036,0.032485008239746094,-10.0,40.0,10.0,2.381197324397321,-1.1094736239403629,173.53603692186132,4.000235196060726,1.8411105869903903,-0.0013716218862929181,0.5194391265011502,0.009241176587358913,0.022709536394753538,0.6331562287806124,-0.007318339337990166,-0.12299619847908616,0.05012411857023835,1.2785742059350014,0.01967494687360353,1.143913622945547,0.6154324859380722,16.713349521160126,0.0,0.0,0.0,0.0,0.0,0.0,0.0,0.0,0.0,0.0,0.0,0.0,0.0,0.0,0.0,0.0,False,1,4.379143238067627,0.06485400390625
STABILIZE,0.9748718738555908,29.721120732415923,0.03243687947591146,0.03277301788330078,-10.0,40.0,10.0,2.381910225391941,-1.1097822631134828,173.53236228008785,4.000210676107923,1.8460845747381887,-0.0012199177117522375,0.5194482543459341,0.009818287773531099,0.022553231733371547,0.6411912863084314,-0.006537815183476131,0.04210050101391971,-0.03753018972929567,1.10679529607296,0.0313931369107521,2.407987415790558,-1.5009460039436817,12.178659439086914,0.0,0.0,0.0,0.0,0.0,0.0,0.0,0.0,0.0,0.0,0.0,0.0,0.0,0.0,0.0,0.0,False,0,4.436797618865967,0.034921875
STABILIZE,1.008655309677124,29.598007183735685,0.032444270451863606,0.03290128707885742,-10.0,40.0,10.0,2.3822914353249924,-1.1101791611372842,173.52928869496137,4.000184612384759,1.8514360762316493,-0.0010587243526609588,0.5194854738889615,0.009291432180261959,0.02125349754427357,0.6352537729015195,-0.005712523100017065,-0.003033080429304391,-0.02277241146657616,1.0245074518024921,0.03670546328007497,1.3563042506575584,0.6138072349131107,15.734314918518066,0.0,0.0,0.0,0.0,0.0,0.0,0.0,0.0,0.0,0.0,0.0,0.0,0.0,0.0,0.0,0.0,False,0,4.465571165084839,0.034921875
STABILIZE,1.0421502590179443,29.85673507449406,0.03242996533711751,0.03259110450744629,-10.0,40.0,10.0,2.3827127726194175,-1.1100927165556012,173.52122907174075,4.000194114949349,1.8566343951978477,-0.00111816608082696,0.5195132103450631,0.00987270428572674,0.021505847989984422,0.6339042088037515,-0.005989717196253038,0.052620633505284786,0.055422866716980934,1.2428062967956066,-0.019669370664476448,2.0333079621195793,0.5634336266666651,15.574555099010468,0.0,0.0,0.0,0.0,0.0,0.0,0.0,0.0,0.0,0.0,0.0,0.0,0.0,0.0,0.0,0.0,False,0,4.494307279586792,0.02993310546875
STABILIZE,1.07562255859375,29.87715211739146,0.03240660031636556,0.03253769874572754,-10.0,40.0,10.0,2.381750569720092,-1.1099337012139867,173.5177729960207,4.000170279614199,1.860427901360539,-0.0009724516464330276,0.5195502477751525,0.00817550385355529,0.021392774676418896,0.6279276085732035,-0.005243601983808059,-0.0645119056571275,0.04220874689053744,1.141180470585823,0.029503188882855195,-3.1070739030838013,-1.588473841547966,12.202681601047516,0.0,0.0,0.0,0.0,0.0,0.0,0.0,0.0,0.0,0.0,0.0,0.0,0.0,0.0,0.0,0.0,False,0,4.525428056716919,0.034922119140625
STABILIZE,1.1090044975280762,29.95460713316479,0.03237965901692708,0.03256368637084961,-10.0,40.0,10.0,2.3810848397194273,-1.1093747996408094,173.51199465598287,4.000148788796091,1.8658011893563247,-0.0008405256634731765,0.5195803976225954,0.0065383320470560405,0.021404697682751852,0.6254071130109903,-0.004568676173630641,-0.0645119056571275,0.04220874689053744,1.141180470585823,0.029503188882855195,-3.1070739030838013,-1.588473841547966,12.202681601047516,0.0,0.0,0.0,0.0,0.0,0.0,0.0,0.0,0.0,0.0,0.0,0.0,0.0,0.0,0.0,0.0,False,0,4.5523998737335205,0.034922119140625
STABILIZE,1.1425480842590332,29.811534251638307,0.032517226537068684,0.03265690803527832,-10.0,40.0,10.0,2.3818353067544824,-1.1085987193963667,173.5086888444246,4.000238276172217,1.8739090821384474,-0.0013885536596018012,0.5196104602809879,0.012008981165286349,0.01658055382232007,0.622930488155077,-0.00728443382649458,0.1664294977672398,-0.08727333624847233,1.1953731067478657,-0.0789428728597578,0.193727551959455,0.49722567200660706,15.66666066646576,0.0,0.0,0.0,0.0,0.0,0.0,0.0,0.0,0.0,0.0,0.0,0.0,0.0,0.0,0.0,0.0,False,0,4.609787225723267,0.034921875
STABILIZE,1.1761693954467773,29.74282898049199,0.03242972691853841,0.032694101333618164,-10.0,40.0,10.0,2.3812131192097765,-1.1097508869319832,173.5034979006554,4.000219772472248,1.8806018771575927,-0.0012751486513573797,0.5196427480454273,0.01410684967536037,0.017166403892696008,0.6193932812569471,-0.0066949154041575495,0.133392377756536,0.07187692681327462,1.059491652995348,0.024370355082443503,1.8215807154774666,0.5237496457993984,15.188471972942352,0.0,0.0,0.0,0.0,0.0,0.0,0.0,0.0,0.0,0.0,0.0,0.0,0.0,0.0,0.0,0.0,False,0,4.638427019119263,0.0349208984375
STABILIZE,1.2095615863800049,29.947335351573656,0.03239110310872396,0.03251528739929199,-10.0,40.0,10.0,2.3817450201913912,-1.1090137601101506,173.49960469282848,4.000130537947792,1.8842507118011973,-0.0007326331909688393,0.5196704812134985,0.012128224712074588,0.016543611884271864,0.6180714441641499,-0.003969070312343567,-0.08643653709441423,0.005704455907107331,1.1713527143001556,0.13977107018443688,-4.899913817644119,0.5346385296434164,15.383845567703247,0.0,0.0,0.0,0.0,0.0,0.0,0.0,0.0,0.0,0.0,0.0,0.0,0.0,0.0,0.0,0.0,False,0,4.667100667953491,0.02993310546875
STABILIZE,1.2430224418640137,29.88609335698966,0.03245237668355306,0.03258490562438965,-10.0,40.0,10.0,2.3811589045832395,-1.1091014853523031,173.49618959824346,4.000077690398418,1.891028783391476,-0.00041115789847310824,0.5197081572718241,0.01340595554310702,0.018451813357446303,0.6117977422340772,-0.0023538185013462793,0.09597709286026657,0.14687181683257222,1.0494796559214592,0.08007521683852542,1.2424294836819172,2.561425231397152,15.44918566942215,0.0,0.0,0.0,0.0,0.0,0.0,0.0,0.0,0.0,0.0,0.0,0.0,0.0,0.0,0.0,0.0,False,0,4.697149753570557,0.034826904296875
STABILIZE,1.2766480445861816,29.74093087897439,0.03244164784749349,0.032569169998168945,-10.0,40.0,10.0,2.3822483197558566,-1.1094024405626066,173.4878021259427,4.000202252346478,1.895033218255968,-0.001167354544111012,0.5197312307020905,0.011034436677014252,0.018071057691219167,0.6128191531197613,-0.006114352350591489,-0.11064304271712899,0.016638469242025167,1.272477675229311,-0.217092093281434,1.0061046108603477,-1.2211703695356846,18.514230847358704,0.0,0.0,0.0,0.0,0.0,0.0,0.0,0.0,0.0,0.0,0.0,0.0,0.0,0.0,0.0,0.0,False,0,4.726089239120483,0.06984375
STABILIZE,1.309959888458252,30.016345341863826,0.03225377400716146,0.0324406623840332,-10.0,40.0,10.0,2.3829849129691603,-1.1100695579454465,173.48483782384292,4.000349328325583,1.8957042739309475,-0.0020627672959927837,0.5197138013607889,0.008820428967350604,0.018189903182045084,0.634085383406346,-0.010556049865796512,-0.11064304271712899,0.016638469242025167,1.272477675229311,-0.217092093281434,1.0061046108603477,-1.2211703695356846,18.514230847358704,0.0,0.0,0.0,0.0,0.0,0.0,0.0,0.0,0.0,0.0,0.0,0.0,0.0,0.0,0.0,0.0,False,0,4.754701614379883,0.06984375
STABILIZE,1.3435227870941162,29.796497708947538,0.03245142300923665,0.0327150821685791,-10.0,40.0,10.0,2.3835349566407578,-1.1102599494685608,173.47702408743243,4.000389447753309,1.8997250700633819,-0.002308085968332585,0.5197136327249978,0.008918168799853915,0.01854637701922813,0.6467281343193201,-0.011743224801463498,0.024410021433141083,0.0335443124640733,0.9589042514562607,-0.029314111370743523,0.1033795764669776,0.6196675356477499,14.248234033584595,0.0,0.0,0.0,0.0,0.0,0.0,0.0,0.0,0.0,0.0,0.0,0.0,0.0,0.0,0.0,0.0,False,0,4.79058837890625,0.02993212890625
STABILIZE,1.3769960403442383,29.873321795118336,0.03248027165730794,0.03259563446044922,-10.0,40.0,10.0,2.3841351595140727,-1.1096237813803975,173.4735406909557,4.000477035036635,1.9052937728415233,-0.002837351300275715,0.5197506470224941,0.00858018412846798,0.018868515535026324,0.6407446092653728,-0.014341575290899973,0.007080516661517322,0.06115009309723973,1.2677562423050404,-0.1491159962686308,1.659892126917839,0.692044710740447,15.949022769927979,0.0,0.0,0.0,0.0,0.0,0.0,0.0,0.0,0.0,0.0,0.0,0.0,0.0,0.0,0.0,0.0,False,0,4.818662643432617,0.034922119140625
STABILIZE,1.4104301929473877,29.909962847016708,0.032428773244222005,0.032544851303100586,-10.0,40.0,10.0,2.3843921453815944,-1.1099276180767572,173.47060370961262,4.000319981708135,1.913095868084426,-0.0018917506006723107,0.5197869105665817,0.01329670017880741,0.01964870732433334,0.6351374442146299,-0.009581535826018525,-6.737973308190703e-05,0.053590378956869245,1.1401775293052197,-0.015495538112216857,2.3062918335199356,0.8180872537195683,18.96422952413559,0.0,0.0,0.0,0.0,0.0,0.0,0.0,0.0,0.0,0.0,0.0,0.0,0.0,0.0,0.0,0.0,False,0,4.876007318496704,0.024944091796875
STABILIZE,1.4440069198608398,29.783802591869343,0.03245285352071126,0.032637834548950195,-10.0,40.0,10.0,2.384323843489894,-1.108987186405411,173.463910124226,4.000274669881854,1.919202859739002,-0.0016206890740383196,0.5198347799447036,0.013054904498594524,0.021598118653123374,0.6237692128417368,-0.00819875730951506,0.020893773762509227,0.15087320934981108,1.0770111344754696,0.046766905556672324,4.765128344297409,-1.216195896267891,17.06487238407135,0.0,0.0,0.0,0.0,0.0,0.0,0.0,0.0,0.0,0.0,0.0,0.0,0.0,0.0,0.0,0.0,False,0,4.904484748840332,0.034921875
STABILIZE,1.4775621891021729,29.803696413725476,0.032369407018025716,0.032502174377441406,-10.0,40.0,10.0,2.384515942560301,-1.1091413992702652,173.4595797842922,4.000085820734307,1.9243048079231193,-0.0004936824543638501,0.5198728766715597,0.01093712495087904,0.01977469281850766,0.6172762340734124,-0.0025551762613057714,-0.08678043959662318,-0.054584763711318374,0.9714687243103981,0.2755758281735062,1.0769055224955082,-1.3507447205483913,14.534464478492737,0.0,0.0,0.0,0.0,0.0,0.0,0.0,0.0,0.0,0.0,0.0,0.0,0.0,0.0,0.0,0.0,False,0,4.933182001113892,0.02993310546875
STABILIZE,1.5108542442321777,30.066264282949348,0.032257827123006184,0.03237295150756836,-10.0,40.0,10.0,2.384125341117141,-1.1105217378128425,173.4546893688465,4.000170459880873,1.928496713314046,-0.0009988150423357377,0.5199018055735815,0.010003472425125136,0.018839948805229143,0.6153602446982069,-0.005063911460637269,-0.024168190429918468,-0.004635304503608495,1.3423982076346874,-0.1456837061487804,-3.344082087278366,0.48369551077485085,10.22409200668335,0.0,0.0,0.0,0.0,0.0,0.0,0.0,0.0,0.0,0.0,0.0,0.0,0.0,0.0,0.0,0.0,False,0,4.961888074874878,0.034921875
STABILIZE,1.5443565845489502,29.818316247458448,0.032418044408162434,0.03256487846374512,-10.0,40.0,10.0,2.385032475616283,-1.1114735887067073,173.4481460476216,4.000176591791212,1.9316779370098471,-0.001037022102146532,0.5199463986242231,0.006930226462685518,0.017579262808619465,0.6056395135283762,-0.005237419035540089,-0.14224391197785735,-0.028855158598162234,0.743352621793747,-0.024090837594788667,-4.720000550150871,0.6521363742649555,16.25960022211075,0.0,0.0,0.0,0.0,0.0,0.0,0.0,0.0,0.0,0.0,0.0,0.0,0.0,0.0,0.0,0.0,False,0,4.990861415863037,0.034921142578125
STABILIZE,1.5778536796569824,29.853122464376717,0.032373936971028645,0.03250265121459961,-10.0,40.0,10.0,2.38508669024282,-1.11128479800918,173.44359714163437,4.0001117885863975,1.9354162868950624,-0.0006535877558093677,0.519971727390848,0.008222871425790881,0.019068965826697506,0.605548000726672,-0.0033091753877778837,0.0907046371139586,0.11811568401753902,1.2452714145183563,0.08941035787632053,-2.5685451924800873,0.6500815972685814,17.111539840698242,0.0,0.0,0.0,0.0,0.0,0.0,0.0,0.0,0.0,0.0,0.0,0.0,0.0,0.0,0.0,0.0,False,0,5.0196213722229,0.02993310546875
STABILIZE,1.611248254776001,29.944128334915863,0.032326491673787434,0.032512664794921875,-10.0,40.0,10.0,2.3853991713973484,-1.1115226806913667,173.438078348785,4.000128665893876,1.9401399262314145,-0.0007541916379761136,0.5200106337436243,0.0076301551981114366,0.020908576682496013,0.5986864712319382,-0.0037994727414768477,-0.08150442154146731,0.06987276719883084,1.1408657766878605,-0.1417970083459258,-3.092062287032604,0.6191091146320105,16.31668359041214,0.0,0.0,0.0,0.0,0.0,0.0,0.0,0.0,0.0,0.0,0.0,0.0,0.0,0.0,0.0,0.0,False,0,5.077545404434204,0.034921875
STABILIZE,1.646721601486206,28.191695008670635,0.032442839940389,0.034589529037475586,-10.0,40.0,10.0,2.385959246909289,-1.1125076153140239,173.43358408431112,4.0001290861650505,1.9464775857257528,-0.0007568870933152184,0.5200373119934447,0.0076301551981114366,0.020908576682496013,0.5986864712319382,-0.0037994727414768477,-0.08150442154146731,0.06987276719883084,1.1408657766878605,-0.1417970083459258,-3.092062287032604,0.6191091146320105,16.31668359041214,0.0,0.0,0.0,0.0,0.0,0.0,0.0,0.0,0.0,0.0,0.0,0.0,0.0,0.0,0.0,0.0,False,1,5.077545404434204,0.034921875
STABILIZE,1.6810920238494873,29.092563691727186,0.032431634267171223,0.0335385799407959,-10.0,40.0,10.0,2.3863267964640005,-1.1135164555987758,173.42404914022978,4.000144953149108,1.9540775737351865,-0.0008498907890637398,0.5200625278575681,0.010807895430260147,0.019612359534184106,0.5990168867580175,-0.004249868739174768,-0.04216019297018647,-0.07108762511052191,1.161053217947483,-0.02387880824582737,2.72503774613142,0.6540846545249224,19.390542805194855,0.0,0.0,0.0,0.0,0.0,0.0,0.0,0.0,0.0,0.0,0.0,0.0,0.0,0.0,0.0,0.0,False,0,5.135014772415161,0.02993310546875
STABILIZE,1.714616060256958,29.830828645192494,0.03250268300374349,0.032614707946777344,-10.0,40.0,10.0,2.386456996945054,-1.1131358859959593,173.42242355520733,4.000152752699198,1.9598208934441632,-0.0008959853981208559,0.5200939550001864,0.009675354749194646,0.017620892880688455,0.5958882170852301,-0.0044654024017493415,-0.04216019297018647,-0.07108762511052191,1.161053217947483,-0.02387880824582737,2.72503774613142,0.6540846545249224,19.390542805194855,0.0,0.0,0.0,0.0,0.0,0.0,0.0,0.0,0.0,0.0,0.0,0.0,0.0,0.0,0.0,0.0,False,0,5.1636881828308105,0.02993310546875
STABILIZE,1.748051643371582,29.90655058575228,0.03239920934041341,0.032534122467041016,-10.0,40.0,10.0,2.386698614886943,-1.1141537976257025,173.41966415878264,4.000151875094937,1.964340060769016,-0.0008917758855554075,0.5201336493915358,0.009848168828410001,0.01938082887793695,0.5886342841994694,-0.004429537030978765,0.03176445025019348,0.14345800736919045,0.8984619751572609,-0.009341217504918025,-0.012381281703710556,2.350151725113392,12.915797531604767,0.0,0.0,0.0,0.0,0.0,0.0,0.0,0.0,0.0,0.0,0.0,0.0,0.0,0.0,0.0,0.0,False,0,5.192260026931763,0.06984228515625
STABILIZE,1.7815208435058594,29.878854798150694,0.03240779240926107,0.032535552978515625,-10.0,40.0,10.0,2.3860450511607376,-1.1143464303046382,173.41116740345515,4.000154543453201,1.9700189785523958,-0.0009077479484113114,0.5201283138486477,0.010430594636595491,0.022098826419924576,0.6038737617166274,-0.004494364069142761,0.03176445025019348,0.14345800736919045,0.8984619751572609,-0.009341217504918025,-0.012381281703710556,2.350151725113392,12.915797531604767,0.0,0.0,0.0,0.0,0.0,0.0,0.0,0.0,0.0,0.0,0.0,0.0,0.0,0.0,0.0,0.0,False,0,5.225689888000488,0.06984228515625
STABILIZE,1.8151788711547852,29.711856962724735,0.03240373929341634,0.0327756404876709,-10.0,40.0,10.0,2.3860450511607376,-1.1143464303046382,173.41116740345515,4.0000983225385225,1.975901747752132,-0.0005809835341856186,0.5201278230170829,0.011533586433161503,0.021346476615825668,0.6167566892608016,-0.0028509427524832935,0.11078035458922386,-0.044177789823152125,1.2675615027546883,0.036943372642688266,2.066092938184738,2.4263886734843254,13.019631803035736,0.0,0.0,0.0,0.0,0.0,0.0,0.0,0.0,0.0,0.0,0.0,0.0,0.0,0.0,0.0,0.0,False,0,5.283101320266724,0.04489892578125
STABILIZE,1.8486676216125488,29.862474546826718,0.0324285348256429,0.03255271911621094,-10.0,40.0,10.0,2.3872253932266805,-1.112721912499233,173.40116800651026,3.9999871726456004,1.982045574973281,6.361491340249885e-05,0.5201423022847017,0.015186268291267414,0.023605036103142883,0.6220776416910995,0.0003708078554169776,0.1946177100762725,0.14477927470579743,1.2835643254220486,0.14692777441328797,3.119766339659691,0.6107520777732134,16.754093766212463,0.0,0.0,0.0,0.0,0.0,0.0,0.0,0.0,0.0,0.0,0.0,0.0,0.0,0.0,0.0,0.0,False,0,5.311701059341431,0.024944091796875
STABILIZE,1.8823175430297852,29.719014823002578,0.03237894376118978,0.032576560974121094,-10.0,40.0,10.0,2.387123580719365,-1.1124409142479104,173.39836762895055,3.999964505909097,1.9863129242582611,0.0001949105186446206,0.5201849978333236,0.013099256465968004,0.022683356063903544,0.6133082863604371,0.0010238558956368778,-0.06998006720095873,0.01282873417949304,1.170287188142538,0.03151355901551325,-3.770751878619194,-3.19010466337204,18.823307752609253,0.0,0.0,0.0,0.0,0.0,0.0,0.0,0.0,0.0,0.0,0.0,0.0,0.0,0.0,0.0,0.0,False,0,5.340511322021484,0.029932861328125
STABILIZE,1.9157450199127197,29.916149555641148,0.0322447141011556,0.0323796272277832,-10.0,40.0,10.0,2.3868849509852375,-1.1131274549812025,173.39433781734024,3.9999750608774227,1.9897631296896146,0.0001342473506797019,0.5202209516263279,0.010834201356755186,0.02226015294124825,0.6078975331182367,0.0007181379779115617,-0.09148066747002304,0.028229938470758498,1.1403746902942657,-0.0206588676400556,0.27689971029758453,2.588900178670883,15.3268501162529,0.0,0.0,0.0,0.0,0.0,0.0,0.0,0.0,0.0,0.0,0.0,0.0,0.0,0.0,0.0,0.0,False,0,5.369099378585815,0.03492236328125
STABILIZE,1.949207067489624,29.882686539516527,0.03225401242574056,0.032387733459472656,-10.0,40.0,10.0,2.3875222930121645,-1.113780591820585,173.38854581692408,4.000148450315653,1.9941237563401106,-0.0008652348951130617,0.5202498765073319,0.010776302934929217,0.020166453499846783,0.6060086009253806,-0.004265001884824834,0.018836163508240134,-0.06777714588679373,1.1392096988856792,-0.2705402712079143,1.1046678759157658,-3.1889598816633224,18.867497146129608,0.0,0.0,0.0,0.0,0.0,0.0,0.0,0.0,0.0,0.0,0.0,0.0,0.0,0.0,0.0,0.0,False,0,5.397974491119385,0.034921875
STABILIZE,1.9826982021331787,29.85737268469084,0.032260926564534505,0.03239560127258301,-10.0,40.0,10.0,2.387618982877602,-1.114089124271999,173.38545857141924,4.000243114339488,2.000345411977173,-0.001409424393090033,0.5202820682202829,0.013723133512304798,0.020262886519623716,0.6024839798409606,-0.006962664155015933,0.17824077513068914,0.04749940417241305,1.0401870124042034,-0.15040335352504597,-0.2934055868536234,2.8943905606865883,24.08396452665329,0.0,0.0,0.0,0.0,0.0,0.0,0.0,0.0,0.0,0.0,0.0,0.0,0.0,0.0,0.0,0.0,False,0,5.426503658294678,0.034921875
STABILIZE,2.0183534622192383,28.04654024126033,0.03222659428914388,0.0347902774810791,-10.0,40.0,10.0,2.3888196020676435,-1.1144155859699845,173.37679789155166,4.000190562612418,2.005980749926052,-0.0011092782605615376,0.5203226562397752,0.016787446741072715,0.02300525197372255,0.5956740874879778,-0.005442424838560973,0.029879386420361698,0.18338666995987296,1.0192912071943283,0.21743036106812152,1.373848132789135,-1.3813065364956856,12.274441123008728,0.0,0.0,0.0,0.0,0.0,0.0,0.0,0.0,0.0,0.0,0.0,0.0,0.0,0.0,0.0,0.0,False,0,5.484237194061279,0.029932861328125
STABILIZE,2.051859140396118,29.84589986622264,0.03245404561360677,0.032570838928222656,-10.0,40.0,10.0,2.3888612235328983,-1.114882173267661,173.37485811782736,4.000191134831126,2.0120048509102864,-0.0011129202686726274,0.5203478293067583,0.016787446741072715,0.02300525197372255,0.5956740874879778,-0.005442424838560973,0.029879386420361698,0.18338666995987296,1.0192912071943283,0.21743036106812152,1.373848132789135,-1.3813065364956856,12.274441123008728,0.0,0.0,0.0,0.0,0.0,0.0,0.0,0.0,0.0,0.0,0.0,0.0,0.0,0.0,0.0,0.0,False,0,5.484237194061279,0.029932861328125
STABILIZE,2.085257053375244,29.939853381016626,0.03234914143880208,0.03246021270751953,-10.0,40.0,10.0,2.3888245112661095,-1.1138762144689651,173.37000868351666,4.000288193425557,2.0145689144308263,-0.0016689665636755921,0.5203919583794546,0.011627882543657892,0.02043203121559179,0.5861960215184084,-0.008195263179649468,-0.1368258148431778,0.057963881408795714,1.0901015251874924,-0.14422499385351986,-2.473616413772106,0.4420353099703789,10.6778584420681,0.0,0.0,0.0,0.0,0.0,0.0,0.0,0.0,0.0,0.0,0.0,0.0,0.0,0.0,0.0,0.0,False,0,5.541412115097046,0.034921142578125
STABILIZE,2.1187872886657715,29.826161777777777,0.032437833150227864,0.03256487846374512,-10.0,40.0,10.0,2.388303922785308,-1.113678992756681,173.36069230548875,4.000327238236776,2.0157596825213044,-0.0018961148891316066,0.5204203603197274,0.005796009204485186,0.020921455572650217,0.5845940795013173,-0.009299893662399906,-0.2990338020026684,0.06749033345840871,1.0779999196529388,-0.07019716247310026,-7.083206623792648,-1.1195837520062923,21.349436044692993,0.0,0.0,0.0,0.0,0.0,0.0,0.0,0.0,0.0,0.0,0.0,0.0,0.0,0.0,0.0,0.0,False,0,5.57003116607666,0.029932861328125
STABILIZE,2.152285099029541,29.851422715044198,0.03231647809346517,0.032454490661621094,-10.0,40.0,10.0,2.3890383815644958,-1.1135518872050953,173.35888913554788,4.000371638765776,2.01925825812526,-0.002151830849784724,0.520455239812398,0.005756722230998148,0.020914911362564022,0.5797593815429504,-0.010543204302788512,0.019772315863519907,0.04579183005262166,1.044417917728424,-0.08476066657819467,6.10431507229805,0.5980200599879026,14.195731282234192,0.0,0.0,0.0,0.0,0.0,0.0,0.0,0.0,0.0,0.0,0.0,0.0,0.0,0.0,0.0,0.0,False,0,5.599050760269165,0.0399111328125
STABILIZE,2.185685873031616,29.938784833257195,0.0323062260945638,0.03242945671081543,-10.0,40.0,10.0,2.389637303777341,-1.1142782351346439,173.3484935876311,4.000423481490284,2.0227543348675248,-0.00244979371759663,0.5204782641041469,0.005670115725205433,0.02113676810993763,0.5808522589345556,-0.011992895392482838,0.019772315863519907,0.04579183005262166,1.044417917728424,-0.08476066657819467,6.10431507229805,0.5980200599879026,14.195731282234192,0.0,0.0,0.0,0.0,0.0,0.0,0.0,0.0,0.0,0.0,0.0,0.0,0.0,0.0,0.0,0.0,False,0,5.627450227737427,0.0399111328125
STABILIZE,2.219141721725464,29.889500951349348,0.03235009511311849,0.03249001502990723,-10.0,40.0,10.0,2.3900494630050693,-1.1145313790207574,173.34658113466352,4.0002914919016,2.0285131796128035,-0.0017031400971744834,0.5205129510822938,0.006401700954430991,0.01737105823875686,0.5761212926172773,-0.008232083604535083,-0.06383224972523749,-0.13587391003966331,0.9794511832296848,0.15195740832420898,-1.30072683095932,-1.5049281530082226,12.446461617946625,0.0,0.0,0.0,0.0,0.0,0.0,0.0,0.0,0.0,0.0,0.0,0.0,0.0,0.0,0.0,0.0,False,0,5.684817790985107,0.029897705078125
STABILIZE,2.2536139488220215,29.00865908650787,0.0323520024617513,0.0335230827331543,-10.0,40.0,10.0,2.3887860914520282,-1.1140531590571507,173.3459254365032,4.000149432580602,2.0383052563242443,-0.0008996540603017135,0.520545603918364,0.009343474357841892,0.017976370757776392,0.5727927789474467,-0.004200175780655536,0.18719142535701394,0.07791611715219915,1.102619245648384,0.21331751997071602,2.302166633307934,0.5581647623330355,13.98690938949585,0.0,0.0,0.0,0.0,0.0,0.0,0.0,0.0,0.0,0.0,0.0,0.0,0.0,0.0,0.0,0.0,False,0,5.7134010791778564,0.034921875
STABILIZE,2.2869720458984375,29.97794343627826,0.032366069157918294,0.03247976303100586,-10.0,40.0,10.0,2.387782907417683,-1.1156297588166602,173.33615826599006,4.0000917139249,2.0458066183291055,-0.0005750292803816374,0.5205672243944847,0.00869808006407711,0.01751082513656948,0.5745813044463474,-0.002568468832234783,-0.0188995007192716,0.01250543718924746,1.2168019078671932,0.07851323795270813,-1.1744685471057892,0.7485076785087585,21.873754262924194,0.0,0.0,0.0,0.0,0.0,0.0,0.0,0.0,0.0,0.0,0.0,0.0,0.0,0.0,0.0,0.0,False,0,5.74227499961853,0.034922119140625
STABILIZE,2.32051157951355,29.816196542311193,0.03244784673055013,0.0325620174407959,-10.0,40.0,10.0,2.389265058467575,-1.1149330795213188,173.32880898244315,4.0000320759028325,2.0492211349495113,-0.00024129979744506316,0.5205902503660054,0.006012108793267523,0.01674352841099959,0.5756778398471087,-0.00089682160208057,-0.13566158013418317,-0.005301476994645782,1.1726992204785347,0.08132911684017811,-3.8634024560451508,0.4372923169285059,12.67324984073639,0.0,0.0,0.0,0.0,0.0,0.0,0.0,0.0,0.0,0.0,0.0,0.0,0.0,0.0,0.0,0.0,False,0,5.770992994308472,0.029932861328125
STABILIZE,2.3541154861450195,29.756755798031968,0.03233960469563802,0.03276419639587402,-10.0,40.0,10.0,2.3888864098554627,-1.1144995759524345,173.33003841649375,3.9997148631311794,2.0513839100420603,0.0015364463383279205,0.5206257160679768,0.000490177580427846,0.01378693941238173,0.5706687624818944,0.007965039366931527,-0.3025160636752844,-0.13056870084255934,0.97670778632164,0.5042151299792137,-1.8372047692537308,-3.5134829580783844,9.71154272556305,0.0,0.0,0.0,0.0,0.0,0.0,0.0,0.0,0.0,0.0,0.0,0.0,0.0,0.0,0.0,0.0,False,0,5.7997400760650635,0.034921142578125
STABILIZE,2.387688159942627,29.788244652140563,0.03235057195027669,0.03247809410095215,-10.0,40.0,10.0,2.3904466811939877,-1.113980268132102,173.32719705779903,3.9998216847287087,2.0559496533338653,0.00094071952970672,0.5206502819285357,0.0006447551630598016,0.015938570890041984,0.5710187621583783,0.004969759140759943,0.028423871845006943,0.16297157853841782,1.1078056879341602,-0.1893689690901605,-7.148049026727676,0.7839594036340714,22.480787336826324,0.0,0.0,0.0,0.0,0.0,0.0,0.0,0.0,0.0,0.0,0.0,0.0,0.0,0.0,0.0,0.0,False,1,5.828293561935425,0.034921875
STABILIZE,2.422119379043579,29.04401296291167,0.03235915501912435,0.0334475040435791,-10.0,40.0,10.0,2.391452426549272,-1.1147800405952282,173.31778505712273,3.9999923667172186,2.0588697213464835,-1.0601155999494229e-05,0.5206856143197938,-0.0002023785613033536,0.016036119517470523,0.5663235837087441,0.0002124255157253457,-0.008225238707382232,0.03840510034933686,0.949026457965374,-0.14744115917894962,-2.0657366141676903,-1.3695158064365387,18.350401520729065,0.0,0.0,0.0,0.0,0.0,0.0,0.0,0.0,0.0,0.0,0.0,0.0,0.0,0.0,0.0,0.0,False,0,5.8856658935546875,0.034922119140625
STABILIZE,2.455500602722168,29.955034995000712,0.03231933911641439,0.032462358474731445,-10.0,40.0,10.0,2.3906887260227,-1.1160396768885665,173.3158999249118,4.00000721630453,2.0642486364442245,-9.327964366108447e-05,0.5207191579595645,-7.85500349944683e-05,0.013526859581719144,0.5621820422253719,-0.00020029679831842177,0.02102239814121276,-0.11093701468780637,0.8436065167188644,-0.029496848946521118,4.0796007961034775,-5.623962357640266,8.034990727901459,0.0,0.0,0.0,0.0,0.0,0.0,0.0,0.0,0.0,0.0,0.0,0.0,0.0,0.0,0.0,0.0,False,0,5.914420127868652,0.029932861328125
STABILIZE,2.488994836807251,29.856522543813444,0.03241899808247884,0.032529592514038086,-10.0,40.0,10.0,2.3911523251126146,-1.1156154581080853,173.3127853586503,3.999883720902626,2.072536347306225,0.0005918772441765259,0.5207455259687811,0.002616261654094944,0.011507822341029272,0.5616217748812993,0.003214738438925623,0.16714120283722878,-0.0824791903141886,1.2040666304528713,0.197100209622086,3.976520150899887,2.5176459923386574,18.314136564731598,0.0,0.0,0.0,0.0,0.0,0.0,0.0,0.0,0.0,0.0,0.0,0.0,0.0,0.0,0.0,0.0,False,0,5.943376779556274,0.034922119140625
STABILIZE,2.522367238998413,29.963808857042842,0.03234103520711263,0.03255271911621094,-10.0,40.0,10.0,2.391778781525552,-1.1170045478305366,173.30102377289953,3.9997576033216524,2.082156796851682,0.0012875791020386903,0.5207660096253817,0.005291461688601515,0.009514369081771003,0.5640242275467018,0.006670900083175738,0.16714120283722878,-0.0824791903141886,1.2040666304528713,0.197100209622086,3.976520150899887,2.5176459923386574,18.314136564731598,0.0,0.0,0.0,0.0,0.0,0.0,0.0,0.0,0.0,0.0,0.0,0.0,0.0,0.0,0.0,0.0,False,0,5.972057819366455,0.034922119140625
STABILIZE,2.5560290813446045,29.80687341880099,0.0325196107228597,0.03264427185058594,-10.0,40.0,10.0,2.3901410302286297,-1.1165256875366953,173.3035372825141,3.999624772030256,2.084577783924015,0.002023329724429449,0.5207825696517213,0.0010015253085883273,0.011650135810712644,0.5683703487632716,0.010315130998273494,-0.24278273340314627,0.15882429433986545,1.3158251531422138,0.2078697103959036,-8.571706712245941,-1.3005788438022137,21.08030915260315,0.0,0.0,0.0,0.0,0.0,0.0,0.0,0.0,0.0,0.0,0.0,0.0,0.0,0.0,0.0,0.0,False,0,6.0007545948028564,0.03991015625
STABILIZE,2.589885711669922,29.440530087669426,0.03228762944539388,0.03287363052368164,-10.0,40.0,10.0,2.390397589209328,-1.116577661007411,173.29997192376734,3.999784524486034,2.09180186011252,0.0011448235050970173,0.520811584025509,0.004196443843846303,0.012711542003837428,0.5666533490062495,0.005902592351913842,0.19662510603666306,0.0914295727852732,0.8015608415007591,-0.2686333944494378,2.202332019805908,6.353559345006943,13.301587104797363,0.0,0.0,0.0,0.0,0.0,0.0,0.0,0.0,0.0,0.0,0.0,0.0,0.0,0.0,0.0,0.0,False,1,6.02953028678894,0.05986669921875
STABILIZE,2.623295307159424,29.930239196209396,0.03234294255574544,0.03247714042663574,-10.0,40.0,10.0,2.3896180938703004,-1.116004778890776,173.28868845125848,3.9998593270742737,2.091095647555934,0.0007378186016594962,0.5208080284451592,-0.004321155489378307,0.011545866868491244,0.5810376210875113,0.0038546699630739277,-0.16721298452466726,-0.12237494811415672,1.280322391539812,0.14282955418957452,0.21698034834116697,-3.1444646418094635,21.23320698738098,0.0,0.0,0.0,0.0,0.0,0.0,0.0,0.0,0.0,0.0,0.0,0.0,0.0,0.0,0.0,0.0,False,0,6.087329626083374,0.034921875
STABILIZE,2.6567888259887695,29.857797773285117,0.03239301045735677,0.032556772232055664,-10.0,40.0,10.0,2.3897171316132657,-1.1152314734106836,173.28591539445546,3.9997677886108436,2.092927156509873,0.001242676399406172,0.5208279198310576,-0.0075200445691341235,0.008794071642487576,0.583703373237859,0.006357671542119497,-0.16721298452466726,-0.12237494811415672,1.280322391539812,0.14282955418957452,0.21698034834116697,-3.1444646418094635,21.23320698738098,0.0,0.0,0.0,0.0,0.0,0.0,0.0,0.0,0.0,0.0,0.0,0.0,0.0,0.0,0.0,0.0,False,0,6.11594033241272,0.034921875
STABILIZE,2.690229892730713,29.90441831780232,0.0323522408803304,0.032483577728271484,-10.0,40.0,10.0,2.388623234129006,-1.1153401161071692,173.27948135625732,3.999820223011232,2.0994120741082845,0.0009557731688754098,0.5208614614467062,-0.0031234424716503253,0.013362843427093186,0.5795265156232765,0.0049067561493587875,0.25044120848178864,0.28118446934968233,0.8967824280261993,-0.07542191034261624,1.9666505977511406,6.468202173709869,13.815993070602417,0.0,0.0,0.0,0.0,0.0,0.0,0.0,0.0,0.0,0.0,0.0,0.0,0.0,0.0,0.0,0.0,False,0,6.144632816314697,0.034922119140625
STABILIZE,2.7236177921295166,29.94883219444623,0.03236249287923177,0.03248739242553711,-10.0,40.0,10.0,2.388952363869636,-1.1155830147095278,173.27788309199153,3.9999189484403472,2.1069601924134074,0.00041672870384898067,0.5208808296585977,-0.002089732144389087,0.010920055586516694,0.5824409958254786,0.0022041621352008245,0.061629037372767925,-0.10845569195225835,1.285640336573124,-0.14378636764275812,-2.3049306124448776,-7.096415758132935,21.143333613872528,0.0,0.0,0.0,0.0,0.0,0.0,0.0,0.0,0.0,0.0,0.0,0.0,0.0,0.0,0.0,0.0,False,0,6.173372507095337,0.0299365234375
STABILIZE,2.7570300102233887,29.92874421126992,0.03243568738301595,0.0325474739074707,-10.0,40.0,10.0,2.3894057176757952,-1.115822178052184,173.2722140349804,3.999704066669995,2.1070809745479337,0.0015908963446574706,0.5209198141447544,-0.007931812362764858,0.011844738987549877,0.5755505349264741,0.00804809681469447,-0.3281535813584924,0.08022292167879641,0.8918022736907005,0.335251217632334,-0.30060126446187496,6.432758271694183,13.992783427238464,0.0,0.0,0.0,0.0,0.0,0.0,0.0,0.0,0.0,0.0,0.0,0.0,0.0,0.0,0.0,0.0,False,0,6.202083110809326,0.034922119140625
STABILIZE,2.7906527519226074,29.743250813731677,0.03245285352071126,0.03258681297302246,-10.0,40.0,10.0,2.390865457167474,-1.1184462513539384,173.26632641191586,3.9998089665991485,2.1203845259687943,0.0010172175846056967,0.5209487741334675,-0.0011224050645419273,0.0143608890641164,0.5736859630833444,0.00516243055713697,0.3873866982758045,0.16762512968853116,0.9962356649339199,-0.15741328872802113,8.297796547412872,-3.299366310238838,14.368371665477753,0.0,0.0,0.0,0.0,0.0,0.0,0.0,0.0,0.0,0.0,0.0,0.0,0.0,0.0,0.0,0.0,False,0,6.231410980224609,0.034921875
STABILIZE,2.824054718017578,29.938143741211572,0.03225901921590169,0.032386064529418945,-10.0,40.0,10.0,2.3888631445236026,-1.1190189200271616,173.25889516609888,3.9996354159930485,2.125919556779371,0.0019568086408051646,0.5209817477842338,-0.0031825249007375435,0.013613068443666509,0.5698177585772229,0.00982751011496924,-0.1158627332188189,-0.017184720491059124,0.8816143497824669,0.2699236065114826,-9.723757952451706,10.253915190696716,11.879955232143402,0.0,0.0,0.0,0.0,0.0,0.0,0.0,0.0,0.0,0.0,0.0,0.0,0.0,0.0,0.0,0.0,False,1,6.263578176498413,0.034922119140625
STABILIZE,2.857443332672119,29.951826329132004,0.032320531209309895,0.03248000144958496,-10.0,40.0,10.0,2.387536593720739,-1.1164818249156192,173.24781659926512,3.999820319496516,2.124684042491607,0.0009637052904032857,0.5210142067015183,-0.009039684811043575,0.010093716947909268,0.5662130039166197,0.004845781274913717,-0.35953603219240904,-0.2721712691709399,1.1885096319019794,-1.2075987895994107,-21.268580853939056,-1.773305982351303,4.482492059469223,0.0,0.0,0.0,0.0,0.0,0.0,0.0,0.0,0.0,0.0,0.0,0.0,0.0,0.0,0.0,0.0,False,0,6.320919036865234,0.034921875
STABILIZE,2.890974521636963,29.821920437982154,0.03239301045735677,0.03254842758178711,-10.0,40.0,10.0,2.3853007739846177,-1.1165206716165237,173.2452757688939,4.0006092648717,2.1236450027365925,-0.0033031525489260393,0.5210355881334967,-0.015328329492716068,0.004888531555387547,0.5681553663429483,-0.016433480127289835,-0.35953603219240904,-0.2721712691709399,1.1885096319019794,-1.2075987895994107,-21.268580853939056,-1.773305982351303,4.482492059469223,0.0,0.0,0.0,0.0,0.0,0.0,0.0,0.0,0.0,0.0,0.0,0.0,0.0,0.0,0.0,0.0,False,0,6.3501951694488525,0.034921875
STABILIZE,2.9244022369384766,29.915296064362437,0.03235486348470052,0.03246736526489258,-10.0,40.0,10.0,2.383759925996545,-1.1178725154636573,173.24373214614147,4.000733305589661,2.1356440474034013,-0.003963013311625645,0.5210727197543004,-0.008515863870583772,0.010518402780303507,0.5622078290621392,-0.019667047122372373,0.3912951797246933,0.3496940014883876,0.7345939055085182,-0.16760043583381581,-9.441405534744263,11.406466364860535,-9.81084406375885,0.0,0.0,0.0,0.0,0.0,0.0,0.0,0.0,0.0,0.0,0.0,0.0,0.0,0.0,0.0,0.0,False,0,6.378634214401245,0.039909912109375
STABILIZE,2.9578299522399902,29.915722803914296,0.03236249287923177,0.03247475624084473,-10.0,40.0,10.0,2.38346153210718,-1.1131333246750204,173.2409454289601,4.001056741400627,2.128252408770918,-0.005735785796438195,0.5210912524348681,-0.021667956133417272,0.00864626542172614,0.5655616659797613,-0.028435815113440118,-0.7435855455696583,-0.08462832192890346,1.1181343346834183,-0.464438722934851,-20.517335832118988,-5.708888545632362,4.699251428246498,0.0,0.0,0.0,0.0,0.0,0.0,0.0,0.0,0.0,0.0,0.0,0.0,0.0,0.0,0.0,0.0,False,0,6.407269239425659,0.024944091796875
STABILIZE,2.9915318489074707,29.67464961122942,0.03236249287923177,0.03263688087463379,-10.0,40.0,10.0,2.3829262160309805,-1.1189173209632577,173.2412186365269,4.000303045927153,2.1385263742759446,-0.0016777156426829047,0.5211376490318965,-0.017275464111563353,0.018667603483712318,0.5550585744357619,-0.008118184653410458,0.2188083017244935,0.6083479151129723,0.7886665873229504,1.1402063802759526,14.003077149391174,11.759090423583984,-2.5892453268170357,0.0,0.0,0.0,0.0,0.0,0.0,0.0,0.0,0.0,0.0,0.0,0.0,0.0,0.0,0.0,0.0,False,0,6.435927391052246,0.034922119140625
STABILIZE,3.024815559387207,30.042575136807724,0.03222325642903646,0.032311201095581055,-10.0,40.0,10.0,2.3750023428201192,-1.122812449780869,173.25280263735922,3.999569098032824,2.150193407071479,0.002250447909099762,0.5211721359334925,-0.013429457996216702,0.028791595676723944,0.5504314785215989,0.011484300664068772,0.2188083017244935,0.6083479151129723,0.7886665873229504,1.1402063802759526,14.003077149391174,11.759090423583984,-2.5892453268170357,0.0,0.0,0.0,0.0,0.0,0.0,0.0,0.0,0.0,0.0,0.0,0.0,0.0,0.0,0.0,0.0,False,1,6.4646735191345215,0.034922119140625
STABILIZE,3.05819034576416,29.95995628477753,0.032367976506551106,0.03249526023864746,-10.0,40.0,10.0,2.3663557502177066,-1.1199764271714328,173.2500295805562,4.0000261226605955,2.1640160653103258,-0.00018520113172324016,0.521229320117067,-0.003169336345285408,0.030113873445098433,0.5345021043895628,-0.0006916314199418372,0.572375301271677,0.31980860512703657,0.7237112149596214,-0.17194710418858847,2.221880853176117,19.555997848510742,-3.8248248398303986,0.0,0.0,0.0,0.0,0.0,0.0,0.0,0.0,0.0,0.0,0.0,0.0,0.0,0.0,0.0,0.0,False,0,6.524438381195068,0.02993310546875
STABILIZE,3.091667413711548,29.87183249056335,0.032460959752400716,0.03258323669433594,-10.0,40.0,10.0,2.359265800415822,-1.1216937928608677,173.25515222243374,4.0002828596440345,2.1645689581294754,-0.0015491520935839152,0.5212752387913342,-0.004290971793016282,0.03548159404936351,0.5242216777588651,-0.007486343779026326,-0.08062517736107111,0.3571068402379751,0.5875455681234598,-0.4005634608275529,-5.1593393087387085,5.611870810389519,-8.053874224424362,0.0,0.0,0.0,0.0,0.0,0.0,0.0,0.0,0.0,0.0,0.0,0.0,0.0,0.0,0.0,0.0,False,0,6.55313515663147,0.034921875
STABILIZE,3.1250805854797363,29.927676456317606,0.03242686589558919,0.03253936767578125,-10.0,40.0,10.0,2.364177560202707,-1.1328630731445426,173.23339123973807,4.000544699256613,2.1746716654920464,-0.002931037577501703,0.5213160130157083,-0.0054038238657848625,0.041164655662860546,0.5165142021304064,-0.014347812817116896,-0.08062517736107111,0.3571068402379751,0.5875455681234598,-0.4005634608275529,-5.1593393087387085,5.611870810389519,-8.053874224424362,0.0,0.0,0.0,0.0,0.0,0.0,0.0,0.0,0.0,0.0,0.0,0.0,0.0,0.0,0.0,0.0,False,0,6.581998348236084,0.034921875
STABILIZE,3.1585710048675537,29.85928567869067,0.03244069417317708,0.03257107734680176,-10.0,40.0,10.0,2.36900842493661,-1.1307527581344203,173.22102859734034,4.000673137640815,2.1956753713063906,-0.0035853284087610576,0.5213515580672191,0.02281182141444743,0.025899611066426614,0.5114409455661676,-0.017560510515008038,1.6386015340685844,-0.867578387260437,0.7394362241029739,-0.18524924444273208,57.88229703903198,-37.61965334415436,1.4370270073413849,0.0,0.0,0.0,0.0,0.0,0.0,0.0,0.0,0.0,0.0,0.0,0.0,0.0,0.0,0.0,0.0,False,0,6.610517501831055,0.06485498046875
STABILIZE,3.1938254833221436,28.36480692500169,0.032404454549153645,0.03437542915344238,-10.0,40.0,10.0,2.3609607545470426,-1.13949860192321,173.24069954214997,4.000415172657927,2.211761506137119,-0.002231460704256627,0.5213570412767545,0.04228123885612149,0.00673676236003461,0.5220723285360371,-0.010753240979309712,0.8972137235105038,-1.0552860796451569,0.9380289353430271,0.4463997130891713,-6.0086689889431,4.935946315526962,-0.10893092257902026,0.0,0.0,0.0,0.0,0.0,0.0,0.0,0.0,0.0,0.0,0.0,0.0,0.0,0.0,0.0,0.0,False,0,6.639126300811768,0.034922119140625
STABILIZE,3.227653980255127,29.563376211453743,0.032444032033284505,0.032952308654785156,-10.0,40.0,10.0,2.339206602040552,-1.131447836604175,173.25860829815375,4.00008719969729,2.223180910893938,-0.0005317786044361588,0.5213884760295078,0.05881292101749325,-0.013621074410579104,0.519181565249812,-0.002247229779091725,0.8972137235105038,-1.0552860796451569,0.9380289353430271,0.4463997130891713,-6.0086689889431,4.935946315526962,-0.10893092257902026,0.0,0.0,0.0,0.0,0.0,0.0,0.0,0.0,0.0,0.0,0.0,0.0,0.0,0.0,0.0,0.0,False,1,6.6677844524383545,0.034922119140625
STABILIZE,3.261171579360962,29.834223647990214,0.032418282826741536,0.03257274627685547,-10.0,40.0,10.0,2.3414524536170167,-1.1333689340299469,173.24498890094875,4.000175926395516,2.2320045768100996,-0.0009885048752388196,0.5213953813424922,0.06404389496834037,-0.0047488106038136475,0.5284244165384376,-0.004515729153715229,1.5542786568403244,-0.2512374660000205,1.5800733119249344,-0.5016591984866008,-82.91183710098267,18.789860606193542,45.831042528152466,0.0,0.0,0.0,0.0,0.0,0.0,0.0,0.0,0.0,0.0,0.0,0.0,0.0,0.0,0.0,0.0,False,0,6.725069284439087,0.06485498046875
STABILIZE,3.2945945262908936,29.918710321706257,0.03239944775899251,0.03253531455993652,-10.0,40.0,10.0,2.352070836455448,-1.13176266563623,173.22762656007856,4.000558763715569,2.2597866582476906,-0.002927645377847744,0.5213717254937574,0.09928689064766878,-0.01192796045738188,0.55288533052071,-0.014164079993333575,1.5542786568403244,-0.2512374660000205,1.5800733119249344,-0.5016591984866008,-82.91183710098267,18.789860606193542,45.831042528152466,0.0,0.0,0.0,0.0,0.0,0.0,0.0,0.0,0.0,0.0,0.0,0.0,0.0,0.0,0.0,0.0,False,0,6.753917455673218,0.06485498046875
STABILIZE,3.3281660079956055,29.788879340345595,0.032434972127278645,0.0325627326965332,-10.0,40.0,10.0,2.3548304463235445,-1.1305547893701957,173.21796867259218,4.0006931085116975,2.217324562006836,-0.0036877909298360114,0.5214030837939401,0.0472271796931306,-0.016105812909183986,0.5498513383251437,-0.017904911754716094,-2.7254559099674225,-0.09083399781957269,0.26734056882560253,-0.14421944432481923,-45.78093886375427,1.9058940932154655,-1.1079024523496628,0.0,0.0,0.0,0.0,0.0,0.0,0.0,0.0,0.0,0.0,0.0,0.0,0.0,0.0,0.0,0.0,False,0,6.782536745071411,0.034922119140625
STABILIZE,3.361445903778076,30.046879477333945,0.03229215939839681,0.03240513801574707,-10.0,40.0,10.0,2.413282564910279,-1.1432873292001573,173.1758264054132,4.001062067637165,2.228700529123117,-0.00558347452416536,0.5214008363064502,0.07160132059457461,-0.010495949132257449,0.5635880001974845,-0.027292131551466696,1.2722820974886417,0.26619064155966043,1.8545133993029594,-0.47077185576018665,57.36420750617981,2.3269856348633766,-7.583990693092346,0.0,0.0,0.0,0.0,0.0,0.0,0.0,0.0,0.0,0.0,0.0,0.0,0.0,0.0,0.0,0.0,False,0,6.811659574508667,0.02993310546875
STABILIZE,3.394941806793213,29.854184906009554,0.03246453603108724,0.03258919715881348,-10.0,40.0,10.0,2.39716075714811,-1.1522360509516376,173.22615123921784,4.0015000621138945,2.2323131595781516,-0.007846447132456646,0.5213667361286176,0.0826379431111277,-0.020349704935802064,0.5932264630896829,-0.03847826321510375,0.6890971679240465,-0.495452294126153,2.777067944407463,-0.5946141777482133,-38.35000991821289,-4.565708339214325,31.940358877182007,0.0,0.0,0.0,0.0,0.0,0.0,0.0,0.0,0.0,0.0,0.0,0.0,0.0,0.0,0.0,0.0,False,0,6.839931964874268,0.034921875
STABILIZE,3.428785800933838,29.546507368480373,0.032414944966634114,0.032958269119262695,-10.0,40.0,10.0,2.3711163920692053,-1.1239598148397254,173.2266839939731,4.001828994153303,2.147505436461421,-0.009935654124745296,0.5212707638273272,-0.052214628614031394,-0.024972502911042797,0.6538715330266254,-0.04875919273002995,-6.591618061065674,-0.23556347005069256,4.193976521492004,-0.5440382277698557,-232.1545124053955,-10.897614806890488,84.2939019203186,0.0,0.0,0.0,0.0,0.0,0.0,0.0,0.0,0.0,0.0,0.0,0.0,0.0,0.0,0.0,0.0,False,1,6.868656158447266,0.034922119140625
STABILIZE,3.4622812271118164,29.856310016158538,0.032434972127278645,0.03256487846374512,-10.0,40.0,10.0,2.3876232517458336,-1.1293916294988837,173.11878066546524,4.009705626433905,2.059578488327723,-0.05411889520738756,0.5210565111181473,-0.14573224313467548,-0.027995643372407723,0.7733451343974307,-0.2687761973802828,1.9930198788642883,0.058710016310214996,4.266569763422012,-10.75059481019501,165.65626859664917,-28.017032146453857,171.29979133605957,0.0,0.0,0.0,0.0,0.0,0.0,0.0,0.0,0.0,0.0,0.0,0.0,0.0,0.0,0.0,0.0,False,0,6.926110744476318,0.029932861328125
STABILIZE,3.495720386505127,29.903565495754343,0.032381804784139,0.03250575065612793,-10.0,40.0,10.0,2.379568964610508,-1.130957023479286,173.21553712524764,4.0109850432948555,2.1647781194036124,-0.05843554573293822,0.5210791977359623,-0.027353265856673775,-0.04251483750813198,0.7743476427165575,-0.2893912875938084,6.049948185682297,-0.7966098375618458,1.600513607263565,-1.4007211077210517,-102.74879932403564,-28.034570813179016,129.72216606140137,0.0,0.0,0.0,0.0,0.0,0.0,0.0,0.0,0.0,0.0,0.0,0.0,0.0,0.0,0.0,0.0,False,0,6.954694986343384,0.034922119140625
STABILIZE,3.5291178226470947,29.942631962192493,0.03239134152730306,0.032514333724975586,-10.0,40.0,10.0,2.378831944510381,-1.1141065199100415,173.12772821327798,4.0096012698427375,2.04926536145652,-0.054180937788679794,0.5209306794060328,-0.1973642732917571,-0.04308397452907405,0.8608221745273977,-0.2672253187269365,-8.954700082540512,-0.052447529742494226,5.790839344263077,1.0352140997366919,-167.53897666931152,3.5348229110240936,219.51379776000977,0.0,0.0,0.0,0.0,0.0,0.0,0.0,0.0,0.0,0.0,0.0,0.0,0.0,0.0,0.0,0.0,False,0,6.983647346496582,0.034921875
