E-kp,E-ki,E-kd,E-I-Tot,E-P,E-I,E-D,E-PID,N-kp,N-ki,N-kd,N-I-Tot,N-P,N-I,N-D,N-PID,D-kp,D-ki,D-kd,D-I-Tot,D-P,D-I,D-D,D-PID,Y-kp,Y-ki,Y-kd,Y-I-Tot,Y-P,Y-I,Y-D,Y-PID,errorN,desiredN,actualN,errorE,desiredE,actualE,errorD,desiredD,actualD,errorY,desiredY,actualY,roll,pitch,yaw-rate,thrust,dt,Time,Mode
0.1,0.001,0.05,-0.0010055690515072553,-0.003037720515267667,-1.0055690515072552e-06,-0.045883203719558195,-0.04892192980387737,0.1,0.001,0.04,-5.7452590910224985e-05,-0.0001735583586245762,-5.7452590910224987e-08,-0.002097207688720337,-0.0022708234999358236,0.002,8e-05,0,-0.02533625894345202,-0.0015307645647466071,-2.0269007154761614e-06,-0.0,-0.0015327914654620833,0.2,0.02,0,0.0003563879399260692,0.0021532225059724608,7.127758798521385e-06,0.0,0.002160350264770982,-0.0017355835862457617,0.0,0.0017355835862457617,-0.030377205152676667,0.0,0.030377205152676667,-0.7653822823733035,0.0,0.7653822823733035,0.010766112529862303,0,-0.010766112529862303,-0.048921502243141596,0.00228001609153487,-0.002160350264770982,0.4,0.03310275077819824,0.03341364860534668,STABILIZE
0.1,0.001,0.05,-0.0019606653677423326,-0.002858748518925319,-1.9606653677423324e-06,-0.02160237585509292,-0.024463085039385983,0.1,0.001,0.04,5.5459564220712346e-05,0.0003379632512055313,5.545956422071235e-08,0.0020135200894111282,0.00235153880018088,0.002,8e-05,0,-0.05064181077383296,-0.0015148672984282322,-4.051344861906637e-06,-0.0,-0.0015189186432901388,0.2,0.02,0,0.0007601663092003368,0.002417140126112236,1.5203326184006737e-05,0.0,0.0024323434522962426,0.0033796325120553127,0.0,-0.0033796325120553127,-0.028587485189253185,0.0,0.028587485189253185,-0.7574336492141162,0.0,0.7574336492141162,0.01208570063056118,0,-0.01208570063056118,-0.02446358051762388,-0.0023463786204958206,-0.0024323434522962426,0.4,0.03340959548950195,0.0667572021484375,STABILIZE
0.1,0.001,0.05,-0.0029109543981982317,-0.002840811861015145,-2.9109543981982317e-06,-0.0143122169337942,-0.017155939749207545,0.1,0.001,0.04,0.0001531235100838158,0.0002919584325500861,1.531235100838158e-07,0.0011589765019714988,0.0014510880580316688,0.002,8e-05,0,-0.07587340056732057,-0.0015085557606241303,-6.069872045385647e-06,-0.0,-0.0015146256326695159,0.2,0.02,0,0.0010628753185490496,0.001809847986525559,2.125750637098099e-05,0.0,0.00183110549289654,0.002919584325500861,0.0,-0.002919584325500861,-0.028408118610151446,0.0,0.028408118610151446,-0.7542778803120651,0.0,0.7542778803120651,0.009049239932627795,0,-0.009049239932627795,-0.017156168718674075,-0.0014483784474337822,-0.00183110549289654,0.4,0.03345131874084473,0.10023331642150879,STABILIZE
0.1,0.001,0.05,-0.003811753866713326,-0.002653603229356961,-3.811753866713326e-06,-0.01004480640228056,-0.012702221385504234,0.1,0.001,0.04,0.00023367049633896863,0.00023727782965278553,2.3367049633896864e-07,0.0007081525473900803,0.0009456640475392048,0.002,8e-05,0,-0.10147260487424795,-0.0015082187233038495,-8.117808389939836e-06,-0.0,-0.0015163365316937893,0.2,0.02,0,0.0013418982180160815,0.0016439087565421938,2.683796436032163e-05,0.0,0.0016707467209025155,0.002372778296527855,0.0,-0.002372778296527855,-0.026536032293569607,0.0,0.026536032293569607,-0.7541093616519248,0.0,0.7541093616519248,0.008219543782710968,0,-0.008219543782710968,-0.012702356917965877,-0.0009438418012430607,-0.0016707467209025155,0.4,0.03394627571105957,0.13416719436645508,STABILIZE
0.1,0.001,0.05,-0.004719528697741573,-0.002709104340904698,-4.719528697741573e-06,-0.008201479040148332,-0.010915302909750771,0.1,0.001,0.04,0.0004211981262989379,0.0005596452985909174,4.211981262989379e-07,0.001336164094171788,0.0018962305908890042,0.002,8e-05,0,-0.1267753609225089,-0.0015102380877767133,-1.0142028873800713e-05,-0.0,-0.0015203801166505141,0.2,0.02,0,0.001664771505748384,0.0019271242062681394,3.329543011496768e-05,0.0,0.001960419636383107,0.005596452985909174,0.0,-0.005596452985909174,-0.02709104340904698,0.0,0.02709104340904698,-0.7551190438883566,0.0,0.7551190438883566,0.009635621031340696,0,-0.009635621031340696,-0.010915621650774213,-0.0018943949014358504,-0.001960419636383107,0.4,0.03350830078125,0.1676774024963379,STABILIZE
0.1,0.001,0.05,-0.005678973782221111,-0.002861798884646962,-5.678973782221111e-06,0.000519709815956374,-0.002347768042472809,0.1,0.001,0.04,0.000787717905618375,0.0010932422424430955,7.87717905618375e-07,0.0030288809144469486,0.004122910874795663,0.002,8e-05,0,-0.15213058434402368,-0.0015125732839003983,-1.2170446747521896e-05,0.0,-0.0015247437306479203,0.2,0.02,0,0.0020470481951804635,0.0022804827939406475,4.094096390360927e-05,0.0,0.002321423757844257,0.010932422424430955,0.0,-0.010932422424430955,-0.02861798884646962,0.0,0.02861798884646962,-0.7562866419501991,0.0,0.7562866419501991,0.011402413969703236,0,-0.011402413969703236,-0.0023485884950938786,-0.004122443564620092,-0.002321423757844257,0.4,0.033525943756103516,0.2012171745300293,STABILIZE
0.1,0.001,0.05,-0.006585458482360764,-0.002703023179108878,-6.585458482360764e-06,0.0004574685658245506,-0.002252140071766688,0.1,0.001,0.04,0.001170928932328814,0.001142687005670199,1.1709289323288142e-06,0.0019219817849495168,0.0030658397195520446,0.002,8e-05,0,-0.17732142679336182,-0.0015023183740740626,-1.4185714143468947e-05,0.0,-0.0015165040882175315,0.2,0.02,0,0.0025440191260670698,0.0029638094174625576,5.08803825213414e-05,0.0,0.003014689799983899,0.011426870056701989,0.0,-0.011426870056701989,-0.02703023179108878,0.0,0.02703023179108878,-0.7511591870370313,0.0,0.7511591870370313,0.014819047087312787,0,-0.014819047087312787,-0.0022529329487818357,-0.003065257120884544,-0.003014689799983899,0.4,0.03353595733642578,0.23478198051452637,STABILIZE
0.1,0.001,0.05,-0.0075110659188791975,-0.002769100551654074,-7.5110659188791975e-06,0.00020616750818957868,-0.0025704441093833746,0.1,0.001,0.04,0.001535312322830861,0.0010901103511528512,1.5353123228308611e-06,0.0019061708397315083,0.0029978165032071903,0.002,8e-05,0,-0.20249177191459589,-0.001506021101617296,-1.619934175316767e-05,0.0,-0.0015222204433704635,0.2,0.02,0,0.003147065102477095,0.0036082141954928318,6.29413020495419e-05,0.0,0.003671155497542374,0.010901103511528511,0.0,-0.010901103511528511,-0.02769100551654074,0.0,0.02769100551654074,-0.753010550808648,0.0,0.753010550808648,0.018041070977464158,0,-0.018041070977464158,-0.0025713879226784263,-0.0029970069832198597,-0.003671155497542374,0.4,0.03342628479003906,0.26819467544555664,STABILIZE
0.1,0.001,0.05,-0.00839313737976246,-0.0026363360672884036,-8.39313737976246e-06,5.1489093814968836e-05,-0.002593240110853197,0.1,0.001,0.04,0.001942124088538875,0.0012158794135107565,1.942124088538875e-06,0.0023357536628119467,0.003553575200411242,0.002,8e-05,0,-0.2276897740563927,-0.001506236281661564,-1.821518192451142e-05,0.0,-0.0015244514635860756,0.2,0.02,0,0.0037228100007693685,0.003441573859345385,7.445620001538737e-05,0.0,0.0035160300593607722,0.012158794135107565,0.0,-0.012158794135107565,-0.026363360672884036,0.0,0.026363360672884036,-0.753118140830782,0.0,0.753118140830782,0.017207869296726925,0,-0.017207869296726925,-0.002594307253252042,-0.0035527962020413645,-0.0035160300593607722,0.4,0.03345823287963867,0.30164575576782227,STABILIZE
0.1,0.001,0.05,-0.00922767326858189,-0.0024943861242803515,-9.22767326858189e-06,0.0006414043077971693,-0.0018622094897517644,0.1,0.001,0.04,0.002384002453534687,0.001320752381092302,2.384002453534687e-06,0.0018168796596961777,0.0031400160432420144,0.002,8e-05,0,-0.25277022659111154,-0.0014992844197935,-2.0221618127288925e-05,0.0,-0.0015195060379207888,0.2,0.02,0,0.004264964333104998,0.0032409444864247927,8.529928666209997e-05,0.0,0.0033262437730868927,0.013207523810923018,0.0,-0.013207523810923018,-0.024943861242803515,0.0,0.024943861242803515,-0.7496422098967499,0.0,0.7496422098967499,0.016204722432123963,0,-0.016204722432123963,-0.001863097492686867,-0.0031394892368477186,-0.0033262437730868927,0.4,0.03345656394958496,0.33509206771850586,STABILIZE
0.1,0.001,0.05,-0.01005858917349691,-0.0024885849473370394,-1.0058589173496909e-05,0.001114230663384259,-0.0013844128731262772,0.1,0.001,0.04,0.002898798706139454,0.0015418097037253897,2.898798706139454e-06,0.0010732559795467644,0.0026179644819782936,0.002,8e-05,0,-0.27768125479880557,-0.0014921656801525805,-2.2214500383904448e-05,0.0,-0.001514380180536485,0.2,0.02,0,0.0046136002890621,0.002088322505233636,9.2272005781242e-05,-0.0,0.0021805945110148777,0.015418097037253897,0.0,-0.015418097037253897,-0.024885849473370393,0.0,0.024885849473370393,-0.7460828400762902,0.0,0.7460828400762902,0.010441612526168178,0,-0.010441612526168178,-0.0013848899493371241,-0.002617712142387441,-0.0021805945110148777,0.4,0.03338909149169922,0.36846232414245605,STABILIZE
0.1,0.001,0.05,-0.010887492847072883,-0.0024753996067571836,-1.0887492847072883e-05,0.0006801576031306585,-0.001806129496473598,0.1,0.001,0.04,0.0034289709272525212,0.00158328180884408,3.4289709272525215e-06,0.0010543858373606779,0.0026410966171320103,0.002,8e-05,0,-0.3026943378462451,-0.0014939582948715598,-2.421554702769961e-05,0.0,-0.0015181738418992593,0.2,0.02,0,0.004867013771290896,0.0015135646137262163,9.734027542581791e-05,-0.0,0.0016109048891520344,0.0158328180884408,0.0,-0.0158328180884408,-0.024753996067571834,0.0,0.024753996067571834,-0.7469791474357799,0.0,0.7469791474357799,0.007567823068631081,0,-0.007567823068631081,-0.0018064783258171944,-0.0026408580343158976,-0.0016109048891520344,0.4,0.03348565101623535,0.4019641876220703,STABILIZE
0.1,0.001,0.05,-0.011736594531296404,-0.002507986218888081,-1.1736594531296404e-05,0.0007815876109840612,-0.001738135202435316,0.1,0.001,0.04,0.003960501848436938,0.0015699794853927989,3.960501848436938e-06,0.0011487861269398178,0.0027227261141810535,0.002,8e-05,0,-0.32789378535966246,-0.0014886289418926007,-2.6231502828773e-05,0.0,-0.0015148604447213737,0.2,0.02,0,0.005099473788024126,0.0013732313319872328,0.00010198947576048253,-0.0,0.0014752208077477152,0.015699794853927987,0.0,-0.015699794853927987,-0.025079862188880808,0.0,0.025079862188880808,-0.7443144709463003,0.0,0.7443144709463003,0.006866156659936164,0,-0.006866156659936164,-0.0017384614733940162,-0.0027225178016521807,-0.0014752208077477152,0.4,0.03385591506958008,0.4358255863189697,STABILIZE
0.1,0.001,0.05,-0.012522630562407225,-0.0023503436676116716,-1.2522630562407225e-05,0.0008561514552743751,-0.0015067148428997035,0.1,0.001,0.04,0.00444712819472518,0.0014550721674619032,4.44712819472518e-06,0.0005731976432184841,0.0020327169388751126,0.002,8e-05,0,-0.3526818893423561,-0.0014823891252285252,-2.821455114738849e-05,0.0,-0.0015106036763759137,0.2,0.02,0,0.005405929626809877,0.0018326807209456356,0.00010811859253619754,-0.0,0.0019407993134818332,0.014550721674619032,0.0,-0.014550721674619032,-0.023503436676116714,0.0,0.023503436676116714,-0.7411945626142626,0.0,0.7411945626142626,0.009163403604728178,0,-0.009163403604728178,-0.001507039919227236,-0.0020324759416189045,-0.0019407993134818332,0.4,0.033443450927734375,0.46927785873413086,STABILIZE
0.1,0.001,0.05,-0.013347142879936592,-0.002464531546570144,-1.3347142879936592e-05,9.055369417821583e-05,-0.0023873249952718646,0.1,0.001,0.04,0.004960024904330975,0.0015330882196438334,4.960024904330975e-06,0.0005089864360097087,0.002047034680557873,0.002,8e-05,0,-0.3782579978719234,-0.0015289796154531118,-3.026063982975387e-05,-0.0,-0.0015592402552828657,0.2,0.02,0,0.005684174058850475,0.0016633885651978074,0.00011368348117700951,-0.0,0.001777072046374817,0.015330882196438333,0.0,-0.015330882196438333,-0.024645315465701437,0.0,0.024645315465701437,-0.764489807726556,0.0,0.764489807726556,0.008316942825989037,0,-0.008316942825989037,-0.002387622113653213,-0.0020466881195850646,-0.001777072046374817,0.4,0.03345513343811035,0.5028173923492432,STABILIZE
0.1,0.001,0.05,-0.014103139141609208,-0.002261327141474589,-1.4103139141609208e-05,0.000681001857019435,-0.0015944284235967633,0.1,0.001,0.04,0.005510522617216117,0.001646642295178363,5.510522617216117e-06,0.00025106412759375664,0.0019032169453893355,0.002,8e-05,0,-0.40360840701395395,-0.001516556923536328,-3.228867256111632e-05,-0.0,-0.0015488455960974443,0.2,0.02,0,0.005788074918909329,0.0006215740653368085,0.00011576149837818657,-0.0,0.000737335563714995,0.01646642295178363,0.0,-0.01646642295178363,-0.02261327141474589,0.0,0.02261327141474589,-0.7582784617681639,0.0,0.7582784617681639,0.0031078703266840422,0,-0.0031078703266840422,-0.0015945316566293478,-0.0019031304566942432,-0.000737335563714995,0.4,0.0334315299987793,0.5361742973327637,STABILIZE
0.1,0.001,0.05,-0.014847767520374575,-0.0022070665382195437,-1.4847767520374574e-05,0.0008024533208625923,-0.001419460984877326,0.1,0.001,0.04,0.006223717739636958,0.0021138988719800306,6.223717739636958e-06,0.0012599366084782905,0.003380059198197958,0.002,8e-05,0,-0.4290572143893197,-0.0015085971149499482,-3.432457715114558e-05,-0.0,-0.0015429216921010937,0.2,0.02,0,0.005833104737340775,0.00026693531516198504,0.0001166620947468155,-0.0,0.00038359740990880054,0.021138988719800307,0.0,-0.021138988719800307,-0.022070665382195438,0.0,0.022070665382195438,-0.7542985574749741,0.0,0.7542985574749741,0.0013346765758099253,0,-0.0013346765758099253,-0.0014195397212835438,-0.003380026131645992,-0.00038359740990880054,0.4,0.03373837471008301,0.5699183940887451,STABILIZE
0.1,0.001,0.05,-0.015614653129125747,-0.002273598948448109,-1.5614653129125747e-05,0.0007014544084635718,-0.0015877591931136629,0.1,0.001,0.04,0.007013304692356226,0.0023409020131884583,7.013304692356226e-06,0.0018297694909746474,0.004177684808855462,0.002,8e-05,0,-0.4544122370096256,-0.0015034094292440934,-3.635297896077005e-05,-0.0,-0.0015397624082048634,0.2,0.02,0,0.005718819409732951,-0.0006776473510705943,0.00011437638819465901,-0.0,-0.0005632709628759353,0.023409020131884582,0.0,-0.023409020131884582,-0.02273598948448109,0.0,0.02273598948448109,-0.7517047146220467,0.0,0.7517047146220467,-0.0033882367553529713,0,0.0033882367553529713,-0.0015875121392398789,-0.0041777786950991875,0.0005632709628759353,0.4,0.03373003005981445,0.6036388874053955,STABILIZE
0.1,0.001,0.05,-0.016322278393737098,-0.002114092411807343,-1.6322278393737097e-05,0.0007066236788671616,-0.0014237910113339184,0.1,0.001,0.04,0.007773135222802486,0.002270060212672373,7.773135222802487e-06,0.0019353221513997898,0.004213155499294965,0.002,8e-05,0,-0.47955025839879517,-0.0015020407813133262,-3.8364020671903616e-05,-0.0,-0.0015404048019852297,0.2,0.02,0,0.005541087420907271,-0.0010619797446552875,0.00011082174841814543,-0.0,-0.000951157996237142,0.02270060212672373,0.0,-0.02270060212672373,-0.02114092411807343,0.0,0.02114092411807343,-0.751020390656663,0.0,0.751020390656663,-0.005309898723276437,0,0.005309898723276437,-0.001423400550125681,-0.004213287431341064,0.000951157996237142,0.4,0.03347182273864746,0.6371059417724609,STABILIZE
0.1,0.001,0.05,-0.017066978750341393,-0.0020128495563203667,-1.7066978750341393e-05,0.0013215893173452867,-0.0007083272177254212,0.1,0.001,0.04,0.00851631060186494,0.0020087276966471858,8.516310601864942e-06,0.001183681070691895,0.0032009250779409457,0.002,8e-05,0,-0.5070307120296595,-0.0014855375966406187,-4.056245696237277e-05,0.0,-0.0015261000536029915,0.2,0.02,0,0.00533057449450879,-0.0011379901909353816,0.0001066114898901758,-0.0,-0.0010313787010452057,0.02008727696647186,0.0,-0.02008727696647186,-0.020128495563203664,0.0,0.020128495563203664,-0.7427687983203094,0.0,0.7427687983203094,-0.005689950954676908,0,0.005689950954676908,-0.0007080093355541418,-0.003200995404984216,0.0010313787010452057,0.4,0.036997318267822266,0.6741065979003906,STABILIZE
0.1,0.001,0.05,-0.01771235395512015,-0.0019227052426408623,-1.771235395512015e-05,0.0009823251054894133,-0.0009580924911065693,0.1,0.001,0.04,0.0092763795834476,0.0022644015525180596,9.276379583447601e-06,0.0015213157057387832,0.00379499363784029,0.002,8e-05,0,-0.5318619634224533,-0.0014795479243930577,-4.2548957073796266e-05,0.0,-0.0015220968814668538,0.2,0.02,0,0.005119405480638633,-0.0012582316985377206,0.00010238810961277266,-0.0,-0.001155843588924948,0.022644015525180593,0.0,-0.022644015525180593,-0.01922705242640862,0.0,0.01922705242640862,-0.7397739621965288,0.0,0.7397739621965288,-0.006291158492688602,0,0.006291158492688602,-0.0009576757896056206,-0.003795098814888266,0.001155843588924948,0.4,0.03356599807739258,0.70772385597229,STABILIZE
0.1,0.001,0.05,-0.01832128187052927,-0.001819705025373074,-1.832128187052927e-05,0.0011293008356262032,-0.0007087254716174002,0.1,0.001,0.04,0.01013649233504295,0.0025703395375032984,1.013649233504295e-05,0.0011447688903265278,0.003725244920164869,0.002,8e-05,0,-0.556604375793881,-0.0014787921851764643,-4.4528350063510485e-05,0.0,-0.0015233205352399748,0.2,0.02,0,0.0048890837517416635,-0.00137657544323564,9.778167503483328e-05,-0.0,-0.0012787937682008066,0.02570339537503298,0.0,-0.02570339537503298,-0.01819705025373074,0.0,0.01819705025373074,-0.7393960925882321,0.0,0.7393960925882321,-0.006882877216178199,0,0.006882877216178199,-0.0007082779570440675,-0.003725330031674905,0.0012787937682008066,0.4,0.0334630012512207,0.7411417961120605,STABILIZE
0.1,0.001,0.05,-0.019025444120888215,-0.0021051258692717234,-1.9025444120888216e-05,0.0004732716994127566,-0.001650879613979855,0.1,0.001,0.04,0.011172488785262965,0.003097159676935411,1.1172488785262965e-05,0.001866331488077273,0.004974663653797947,0.002,8e-05,0,-0.5811140743379831,-0.0014654577244644922,-4.6489125947038655e-05,0.0,-0.0015119468504115308,0.2,0.02,0,0.004639060195437814,-0.001494914150919767,9.278120390875629e-05,-0.0,-0.0014021329470110108,0.030971596769354105,0.0,-0.030971596769354105,-0.021051258692717234,0.0,0.021051258692717234,-0.7327288622322461,0.0,0.7327288622322461,-0.007474570754598835,0,0.007474570754598835,-0.0016502306258596325,-0.004974878978402143,0.0014021329470110108,0.4,0.03344988822937012,0.7745983600616455,STABILIZE
0.1,0.001,0.05,-0.01990172727010204,-0.0022496697278531846,-1.990172727010204e-05,-0.0003743535078964261,-0.0026439249630197123,0.1,0.001,0.04,0.012373376153027419,0.0030830216925257364,1.2373376153027419e-05,0.002006611348565147,0.0051020064172439105,0.002,8e-05,0,-0.6094521725892131,-0.0014550402307271855,-4.875617380713706e-05,0.0,-0.0015037964045343227,0.2,0.02,0,0.00441522698497498,-0.0011492878714333393,8.83045396994996e-05,-0.0,-0.0010609833317338398,0.03083021692525736,0.0,-0.03083021692525736,-0.022496697278531843,0.0,0.022496697278531843,-0.7275201153635927,0.0,0.7275201153635927,-0.005746439357166696,0,0.005746439357166696,-0.0026434132476268885,-0.005102271562152244,0.0010609833317338398,0.4,0.03895163536071777,0.8135571479797363,STABILIZE
0.1,0.001,0.05,-0.02064356778136593,-0.002219063753864495,-2.064356778136593e-05,-0.0005564511863785194,-0.0027961585080243804,0.1,0.001,0.04,0.013375762498137036,0.0029984331834503994,1.3375762498137036e-05,0.0023692722412502576,0.005381081187198794,0.002,8e-05,0,-0.6336784483827037,-0.0014493587149310126,-5.06942758706163e-05,0.0,-0.0015000529908016289,0.2,0.02,0,0.004314775692987344,-0.0006009588791500475,8.629551385974687e-05,0.0,-0.0005146633652903007,0.029984331834503993,0.0,-0.029984331834503993,-0.02219063753864495,0.0,0.02219063753864495,-0.7246793574655063,0.0,0.7246793574655063,-0.0030047943957502376,0,0.0030047943957502376,-0.0027958763011491686,-0.005381227820292908,0.0005146633652903007,0.4,0.03343033790588379,0.8469719886779785,STABILIZE
0.1,0.001,0.05,-0.021382516691912098,-0.002181829706519658,-2.1382516691912098e-05,-0.0007150718957415121,-0.0029182841189530823,0.1,0.001,0.04,0.01433435933686462,0.0028303649000115836,1.433435933686462e-05,0.0013629159158246942,0.004207615175173142,0.002,8e-05,0,-0.6580479598562683,-0.0014390744287611473,-5.264383678850147e-05,0.0,-0.0014917182655496488,0.2,0.02,0,0.004231756040516697,-0.0004902497084717678,8.463512081033395e-05,0.0,-0.00040561458766143383,0.028303649000115835,0.0,-0.028303649000115835,-0.021818297065196578,0.0,0.021818297065196578,-0.7195372143805736,0.0,0.7195372143805736,-0.002451248542358839,0,0.002451248542358839,-0.0029181041045843108,-0.0042077400223979235,0.00040561458766143383,0.4,0.03386831283569336,0.8808615207672119,STABILIZE
0.1,0.001,0.05,-0.02211619156377492,-0.0021788964453400305,-2.211619156377492e-05,-0.0010141638669722032,-0.0032151765038760088,0.1,0.001,0.04,0.015222178680294093,0.0026366807501406312,1.5222178680294093e-05,0.00017134131322877732,0.0028232442420497027,0.002,8e-05,0,-0.6821639633020483,-0.0014324130810259702,-5.457311706416387e-05,0.0,-0.0014869861980901342,0.2,0.02,0,0.004058987943943498,-0.00102618695536268,8.117975887886996e-05,0.0,-0.00094500719648381,0.02636680750140631,0.0,-0.02636680750140631,-0.021788964453400304,0.0,0.021788964453400304,-0.716206540512985,0.0,0.716206540512985,-0.005130934776813399,0,0.005130934776813399,-0.0032149236646471908,-0.002823532155268403,0.00094500719648381,0.4,0.03367185592651367,0.9145488739013672,STABILIZE
0.1,0.001,0.05,-0.022844441622438056,-0.002177075425365837,-2.2844441622438058e-05,-0.0001554410814537283,-0.0023553609484420032,0.1,0.001,0.04,0.01603619278598883,0.0024334637317604433,1.603619278598883e-05,-0.001574628919365117,0.000874871005181315,0.002,8e-05,0,-0.7060343110253139,-0.0014271896529237946,-5.648274488202511e-05,0.0,-0.0014836723978058197,0.2,0.02,0,0.003876265645947582,-0.0010924825062521282,7.752531291895164e-05,0.0,-0.0010149571933331767,0.02433463731760443,0.0,-0.02433463731760443,-0.02177075425365837,0.0,0.02177075425365837,-0.7135948264618973,0.0,0.7135948264618973,-0.005462412531260641,0,0.005462412531260641,-0.0023552775300876927,-0.0008750955544491103,0.0010149571933331767,0.4,0.03345084190368652,0.9479727745056152,STABILIZE
0.1,0.001,0.05,-0.023575846882793287,-0.0021866168737020176,-2.3575846882793287e-05,0.00018711917259312777,-0.002023073547991683,0.1,0.001,0.04,0.016787000870971156,0.002244623762668724,1.6787000870971156e-05,-0.0019972382855979,0.0002641724779417951,0.002,8e-05,0,-0.729937803714937,-0.0014292426726643238,-5.8395024297194965e-05,0.0,-0.0014876376969615189,0.2,0.02,0,0.003680495103647053,-0.0011705553524737403,7.360990207294106e-05,-0.0,-0.0010969454504007993,0.022446237626687238,0.0,-0.022446237626687238,-0.021866168737020176,0.0,0.021866168737020176,-0.7146213363321618,0.0,0.7146213363321618,-0.005852776762368702,0,0.005852776762368702,-0.0020230465521586484,-0.000264379133981051,0.0010969454504007993,0.4,0.03344917297363281,0.9814350605010986,STABILIZE
0.1,0.001,0.05,-0.024249063311551286,-0.002012568858608854,-2.4249063311551288e-05,0.0006158812059228648,-0.0014209367159975406,0.1,0.001,0.04,0.01756972256060103,0.002339932940158613,1.756972256060103e-05,-0.0015668748346693365,0.0007906278280498777,0.002,8e-05,0,-0.7539679335598889,-0.001436753142923142,-6.031743468479112e-05,0.0,-0.0014970705776079331,0.2,0.02,0,0.003579846016871584,-0.0006017774048248737,7.159692033743168e-05,0.0,-0.000530180484487442,0.02339932940158613,0.0,-0.02339932940158613,-0.020125688586088538,0.0,0.020125688586088538,-0.7183765714615711,0.0,0.7183765714615711,-0.0030088870241243683,0,0.0030088870241243683,-0.001420895194229373,-0.0007907024474305203,0.000530180484487442,0.4,0.03345060348510742,1.0148870944976807,STABILIZE
0.1,0.001,0.05,-0.02497642893639266,-0.0021757495826032884,-2.497642893639266e-05,1.782530672107688e-05,-0.0021829007048186043,0.1,0.001,0.04,0.018298443222069558,0.0021798028678772273,1.8298443222069557e-05,-0.0015530767229788107,0.0006450245881204862,0.002,8e-05,0,-0.777939843247556,-0.0014341308061821042,-6.223518745980449e-05,0.0,-0.0014963659936419087,0.2,0.02,0,0.003461896984352203,-0.0007056356514743736,6.923793968704407e-05,-0.0,-0.0006363977117873295,0.02179802867877227,0.0,-0.02179802867877227,-0.021757495826032883,0.0,0.021757495826032883,-0.717065403091052,0.0,0.717065403091052,-0.003528178257371868,0,0.003528178257371868,-0.0021828609811448377,-0.0006451590062712912,0.0006363977117873295,0.4,0.03343057632446289,1.0483121871948242,STABILIZE
0.1,0.001,0.05,-0.025755806390164906,-0.0023281764371451408,-2.575580639016491e-05,-0.0004462194398802756,-0.0028001516834155814,0.1,0.001,0.04,0.018971909387574343,0.0020117955044166866,1.8971909387574343e-05,-0.0014944088321346188,0.0005363585816696422,0.002,8e-05,0,-0.8017881004370307,-0.001424802582799307,-6.414304803496247e-05,0.0,-0.0014889456308342696,0.2,0.02,0,0.003327490511524165,-0.0008030049663958352,6.65498102304833e-05,0.0,-0.0007364551561653519,0.020117955044166864,0.0,-0.020117955044166864,-0.023281764371451408,0.0,0.023281764371451408,-0.7124012913996535,0.0,0.7124012913996535,-0.0040150248319791755,0,0.0040150248319791755,-0.002800114090996761,-0.0005365548021098755,0.0007364551561653519,0.4,0.03347587585449219,1.0818407535552979,STABILIZE
0.1,0.001,0.05,-0.026506678453155928,-0.0022472497554597392,-2.650667845315593e-05,-0.00020946164140906514,-0.00248321807532196,0.1,0.001,0.04,0.019662284749912988,0.002066192019464575,1.966228474991299e-05,-0.000878160668120084,0.001207693636094404,0.002,8e-05,0,-0.8255155552968778,-0.0014202557202374103,-6.604124442375023e-05,0.0,-0.0014862969646611606,0.2,0.02,0,0.002970232991863784,-0.002138438525718709,5.940465983727568e-05,-0.0,-0.002079033865881433,0.020661920194645748,0.0,-0.020661920194645748,-0.022472497554597393,0.0,0.022472497554597393,-0.7101278601187051,0.0,0.7101278601187051,-0.010692192628593545,0,0.010692192628593545,-0.0024829926595858233,-0.0012081570182354378,0.002079033865881433,0.4,0.033412933349609375,1.115227222442627,STABILIZE
0.1,0.001,0.05,-0.027419508973241042,-0.00231929288933552,-2.7419508973241042e-05,-0.0003639814987546221,-0.002710693897063383,0.1,0.001,0.04,0.020557763728098928,0.0022752066029326353,2.0557763728098927e-05,-1.6678227565695148e-06,0.002294096543904165,0.002,8e-05,0,-0.8534856628511595,-0.0014213125029725404,-6.827885302809277e-05,0.0,-0.0014895913560006332,0.2,0.02,0,0.0025319923917810593,-0.0022269376082982464,5.063984783562119e-05,-0.0,-0.0021762977604626254,0.02275206602932635,0.0,-0.02275206602932635,-0.023192928893355197,0.0,0.023192928893355197,-0.7106562514862702,0.0,0.7106562514862702,-0.011134688041491233,0,0.011134688041491233,-0.0027102480181134857,-0.002294623288612235,0.0021762977604626254,0.4,0.03935813903808594,1.1545648574829102,STABILIZE
0.1,0.001,0.05,-0.02814700095215322,-0.0021744062290184256,-2.814700095215322e-05,-0.0004512422015567643,-0.0026537954315273434,0.1,0.001,0.04,0.021355297049372404,0.0023837533222289247,2.1355297049372406e-05,2.9940950775355413e-05,0.0024350495700536526,0.002,8e-05,0,-0.8770941245270634,-0.0014112701614219494,-7.016752996216508e-05,0.0,-0.0014814376913841144,0.2,0.02,0,0.0021928307029373175,-0.0020274458282522664,4.385661405874635e-05,-0.0,-0.00198358921419352,0.023837533222289247,0.0,-0.023837533222289247,-0.021744062290184257,0.0,0.021744062290184257,-0.7056350807109747,0.0,0.7056350807109747,-0.010137229141261332,0,0.010137229141261332,-0.002653364561480482,-0.002435519062724282,0.00198358921419352,0.4,0.033457040786743164,1.1880242824554443,STABILIZE
0.1,0.001,0.05,-0.02883574303312725,-0.0020544285842686713,-2.8835743033127252e-05,0.00039475379135067257,-0.001688510535951126,0.1,0.001,0.04,0.022199607823766423,0.002518469884209799,2.2199607823766422e-05,0.0007346089056606362,0.0032752783976942013,0.002,8e-05,0,-0.9008263321488909,-0.0014158021428610685,-7.206610657191127e-05,0.0,-0.0014878682494329797,0.2,0.02,0,0.0018785731008125015,-0.0018747795973665657,3.757146201625003e-05,-0.0,-0.0018372081353503157,0.025184698842097987,0.0,-0.025184698842097987,-0.02054428584268671,0.0,0.02054428584268671,-0.7079010714305343,0.0,0.7079010714305343,-0.009373897986832828,0,0.009373897986832828,-0.001687974660176866,-0.0032755546032727113,0.0018372081353503157,0.4,0.03352475166320801,1.2215631008148193,STABILIZE
0.1,0.001,0.05,-0.029533362100649274,-0.002085639047560045,-2.9533362100649276e-05,0.0007567787636050481,-0.0013583936460556463,0.1,0.001,0.04,0.022909449202910357,0.0021221795200856235,2.2909449202910356e-05,0.00018829305957950265,0.0023333820288680366,0.002,8e-05,0,-0.9244262244056437,-0.0014111098477777757,-7.39540979524515e-05,0.0,-0.0014850639457302272,0.2,0.02,0,0.0015919876354347426,-0.001713582282600533,3.183975270869485e-05,-0.0,-0.001681742529891838,0.021221795200856236,0.0,-0.021221795200856236,-0.02085639047560045,0.0,0.02085639047560045,-0.7055549238888879,0.0,0.7055549238888879,-0.008567911413002664,0,0.008567911413002664,-0.0013580447009706998,-0.002333585134605993,0.001681742529891838,0.4,0.03344869613647461,1.255014419555664,STABILIZE
0.1,0.001,0.05,-0.03029352774797246,-0.0022737174832451862,-3.029352774797246e-05,-4.7980852725359946e-05,-0.0023519918637185185,0.1,0.001,0.04,0.023560793139289063,0.001948222865588615,2.3560793139289063e-05,-0.00035820240111185734,0.0016135812576160468,0.002,8e-05,0,-0.9484663112416648,-0.0014381172295873219,-7.587730489933319e-05,-0.0,-0.001513994534486655,0.2,0.02,0,0.001500007402569698,-0.0005502407647982025,3.0000148051393964e-05,0.0,-0.0005202406167468086,0.019482228655886148,0.0,-0.019482228655886148,-0.02273717483245186,0.0,0.02273717483245186,-0.719058614793661,0.0,0.719058614793661,-0.002751203823991013,0,0.002751203823991013,-0.0023519143807639526,-0.00161369419267828,0.0005202406167468086,0.4,0.033432722091674805,1.2884526252746582,STABILIZE
0.1,0.001,0.05,-0.03103965339416444,-0.0022296397656888962,-3.103965339416444e-05,0.0002667812192516658,-0.001993898199831395,0.1,0.001,0.04,0.024297579396816343,0.002201730964456388,2.4297579396816344e-05,-0.00017700431513071048,0.002049024228722494,0.002,8e-05,0,-0.9724280581124322,-0.0014320929444284877,-7.779424464899458e-05,-0.0,-0.0015098871890774823,0.2,0.02,0,0.0013675508724895278,-0.0007916370337869999,2.7351017449790557e-05,0.0,-0.0007642860163372093,0.022017309644563877,0.0,-0.022017309644563877,-0.022296397656888962,0.0,0.022296397656888962,-0.7160464722142439,0.0,0.7160464722142439,-0.003958185168934999,0,0.003958185168934999,-0.001993756641587736,-0.0020491619690272125,0.0007642860163372093,0.4,0.03346395492553711,1.321951150894165,STABILIZE
0.1,0.001,0.05,-0.03176990839344715,-0.002185436753581108,-3.176990839344715e-05,-3.3985093075917376e-05,-0.0022511917550504727,0.1,0.001,0.04,0.02511891210280013,0.0024580053328471588,2.511891210280013e-05,0.00017700937911099176,0.0026601336240609508,0.002,8e-05,0,-0.996259063274152,-0.0014263826911520053,-7.970072506193216e-05,-0.0,-0.0015060834162139375,0.2,0.02,0,0.0011941128391610328,-0.0010380972478852665,2.3882256783220656e-05,0.0,-0.001014214991102046,0.024580053328471588,0.0,-0.024580053328471588,-0.02185436753581108,0.0,0.02185436753581108,-0.7131913455760026,0.0,0.7131913455760026,-0.005190486239426332,0,0.005190486239426332,-0.0022509507614495903,-0.0026603375510255056,0.001014214991102046,0.4,0.033414602279663086,1.3553171157836914,STABILIZE
0.1,0.001,0.05,-0.032478856081137514,-0.0021181337908398024,-3.2478856081137514e-05,-0.00019078081060676345,-0.0023413934575277034,0.1,0.001,0.04,0.025970735526877307,0.0025450058018311127,2.5970735526877306e-05,6.348180863757035e-05,0.0026344583459955604,0.002,8e-05,0,-1.0200585705151224,-0.0014221229963148673,-8.16046856412098e-05,-0.0,-0.001503727681956077,0.2,0.02,0,0.0009715811094557186,-0.001329722867870382,1.9431622189114372e-05,0.0,-0.0013102912456812678,0.025450058018311125,0.0,-0.025450058018311125,-0.02118133790839802,0.0,0.02118133790839802,-0.7110614981574336,0.0,0.7110614981574336,-0.00664861433935191,0,0.00664861433935191,-0.0023410877386624493,-0.0026347300240486754,0.0013102912456812678,0.4,0.03347039222717285,1.3887979984283447,STABILIZE
0.1,0.001,0.05,-0.03323442524907218,-0.0022604042677211457,-3.3234425249072176e-05,-0.0005230969084619454,-0.0028167356014321635,0.1,0.001,0.04,0.02681138040436051,0.0025149216634859557,2.681138040436051e-05,0.0009392972455083034,0.0034810302893986196,0.002,8e-05,0,-1.044633324121181,-0.001470384983579249,-8.357066592969449e-05,-0.0,-0.0015539556495089435,0.2,0.02,0,0.0008246692134432443,-0.0008790201898612056,1.6493384268864886e-05,0.0,-0.0008625268055923407,0.025149216634859556,0.0,-0.025149216634859556,-0.022604042677211455,0.0,0.022604042677211455,-0.7351924917896245,0.0,0.7351924917896245,-0.004395100949306028,0,0.004395100949306028,-0.002816468566853581,-0.0034812463480787723,0.0008625268055923407,0.4,0.03342628479003906,1.422220230102539,STABILIZE
0.1,0.001,0.05,-0.03394481233379179,-0.002123735301739723,-3.394481233379179e-05,0.00044803928461351126,-0.0017096408294600036,0.1,0.001,0.04,0.027431337100828686,0.001853389440996204,2.7431337100828685e-05,-0.00022659304638481835,0.0016542277317122143,0.002,8e-05,0,-1.0691528374677268,-0.0014660445606521862,-8.553222699741816e-05,-0.0,-0.0015515767876496044,0.2,0.02,0,0.0006840082233469184,-0.0008410251725314939,1.3680164466938367e-05,-0.0,-0.0008273450080645555,0.01853389440996204,0.0,-0.01853389440996204,-0.02123735301739723,0.0,0.02123735301739723,-0.7330222803260931,0.0,0.7330222803260931,-0.004205125862657469,0,0.004205125862657469,-0.0017095194156370004,-0.001654353203424999,0.0008273450080645555,0.4,0.03344988822937012,1.455688714981079,STABILIZE
0.1,0.001,0.05,-0.03469506517235609,-0.0022227006758266644,-3.469506517235609e-05,2.312725399844524e-05,-0.0022342684870005755,0.1,0.001,0.04,0.02797744483461662,0.0016178999486192239,2.797744483461662e-05,-0.0013907669504494506,0.0002551104430043899,0.002,8e-05,0,-1.0934913239075137,-0.0014421050471953951,-8.74793059126011e-05,-0.0,-0.0015295843531079962,0.2,0.02,0,0.0007287301993005752,0.00026498684461285767,1.4574603986011504e-05,0.0,0.00027956144859886915,0.01617899948619224,0.0,-0.01617899948619224,-0.02222700675826664,0.0,0.02222700675826664,-0.7210525235976976,0.0,0.7210525235976976,0.0013249342230642882,0,-0.0013249342230642882,-0.002234274385695597,-0.00025505877667372957,-0.00027956144859886915,0.4,0.03375411033630371,1.4894251823425293,STABILIZE
0.1,0.001,0.05,-0.03547442378156504,-0.0023298790694641124,-3.547442378156504e-05,-0.0004295672109964466,-0.002794920704242124,0.1,0.001,0.04,0.028539844108543835,0.0016812828927812975,2.8539844108543834e-05,-0.001852743755667613,-0.0001429210187777715,0.002,8e-05,0,-1.1176225965135071,-0.001442800433584817,-8.940980772108058e-05,-0.0,-0.0015322102413058976,0.2,0.02,0,0.0009554112928215649,0.0013553184092592572,1.91082258564313e-05,0.0,0.0013744266351156885,0.016812828927812974,0.0,-0.016812828927812974,-0.023298790694641122,0.0,0.023298790694641122,-0.7214002167924085,0.0,0.7214002167924085,0.006776592046296286,0,-0.006776592046296286,-0.0027949037808753315,0.00014325158379069317,-0.0013744266351156885,0.4,0.03345060348510742,1.5228748321533203,STABILIZE
0.1,0.001,0.05,-0.03624336440276211,-0.0022993410496198927,-3.624336440276211e-05,-0.0005393323331226552,-0.00287491674714531,0.1,0.001,0.04,0.029094556487099747,0.0016587404899487184,2.9094556487099748e-05,-0.0021146161750349745,-0.00042678112859915627,0.002,8e-05,0,-1.1418765090328327,-0.001450515556916648,-9.135012072262662e-05,-0.0,-0.0015418656776392747,0.2,0.02,0,0.0011818616125159334,0.0013542957711408666,2.363723225031867e-05,0.0,0.0013779330033911854,0.016587404899487183,0.0,-0.016587404899487183,-0.022993410496198925,0.0,0.022993410496198925,-0.7252577784583241,0.0,0.7252577784583241,0.006771478855704333,0,-0.006771478855704333,-0.0028748662881100747,0.0004271208965072318,-0.0013779330033911854,0.4,0.033441781997680664,1.5563302040100098,STABILIZE
0.1,0.001,0.05,-0.03702611609193579,-0.0023389723513040405,-3.702611609193579e-05,-0.00023213168936748964,-0.002608130156763466,0.1,0.001,0.04,0.029610942060497074,0.0015430328614987358,2.9610942060497075e-05,-0.002319215580676664,-0.0007465717771174313,0.002,8e-05,0,-1.1661591403996785,-0.0014511984878350997,-9.329273123197429e-05,0.0,-0.001544491219067074,0.2,0.02,0,0.0014061070216622074,0.0013401537656308254,2.8122140433244148e-05,0.0,0.0013682759060640697,0.015430328614987356,0.0,-0.015430328614987356,-0.023389723513040403,0.0,0.023389723513040403,-0.7255992439175498,0.0,0.7255992439175498,0.006700768828154126,0,-0.006700768828154126,-0.0026080428270008832,0.0007468767940808861,-0.0013682759060640697,0.4,0.03346562385559082,1.5898292064666748,STABILIZE
0.1,0.001,0.05,-0.037768740261529835,-0.0022198564123757157,-3.776874026152984e-05,-0.0002846478879919929,-0.002542273040629238,0.1,0.001,0.04,0.030137738680094246,0.0015747034663171418,3.0137738680094248e-05,-0.0006613344871849388,0.0009435067178122972,0.002,8e-05,0,-1.1900009520793056,-0.0014253615949129644,-9.520007616634445e-05,0.0,-0.0015205616710793088,0.2,0.02,0,0.0016459187764135445,0.0014336933359948003,3.291837552827089e-05,0.0,0.0014666117115230712,0.015747034663171417,0.0,-0.015747034663171417,-0.022198564123757154,0.0,0.022198564123757154,-0.7126807974564822,0.0,0.7126807974564822,0.007168466679974001,0,-0.007168466679974001,-0.0025423910660137164,-0.0009431886381423405,-0.0014666117115230712,0.4,0.03345370292663574,1.623258352279663,STABILIZE
0.1,0.001,0.05,-0.0384845412139422,-0.0021379240888036743,-3.84845412139422e-05,0.0002532591502355415,-0.001923149479782075,0.1,0.001,0.04,0.03062267006788278,0.0014483726123527736,3.0622670067882784e-05,-0.00040506087754489553,0.0010739344048757609,0.002,8e-05,0,-1.213721367782611,-0.0014169427396715404,-9.70977094226089e-05,0.0,-0.0015140404490941494,0.2,0.02,0,0.0018762505431069517,0.0013758904085583198,3.752501086213903e-05,0.0,0.0014134154194204588,0.014483726123527736,0.0,-0.014483726123527736,-0.021379240888036742,0.0,0.021379240888036742,-0.7084713698357702,0.0,0.7084713698357702,0.006879452042791599,0,-0.006879452042791599,-0.0019232784122446504,-0.001073703486329265,-0.0014134154194204588,0.4,0.03348112106323242,1.6567344665527344,STABILIZE
0.1,0.001,0.05,-0.03926073863589827,-0.0023231442946952314,-3.926073863589827e-05,1.9306507593055896e-05,-0.002343098525738074,0.1,0.001,0.04,0.031196256498546435,0.001716733405984306,3.119625649854643e-05,8.591240009429573e-05,0.0018338420625771481,0.002,8e-05,0,-1.2372184126973493,-0.001406524275700616,-9.897747301578795e-05,0.0,-0.0015055017487164038,0.2,0.02,0,0.0021544130206744855,0.001665070134169771,4.3088260413489714e-05,0.0,0.0017081583945832608,0.01716733405984306,0.0,-0.01716733405984306,-0.023231442946952313,0.0,0.023231442946952313,-0.7032621378503079,0.0,0.7032621378503079,0.008325350670848854,0,-0.008325350670848854,-0.0023433649670201936,-0.0018335015798017712,-0.0017081583945832608,0.4,0.033411502838134766,1.6901288032531738,STABILIZE
0.1,0.001,0.05,-0.04004403269449407,-0.0023416940984216537,-4.004403269449407e-05,-0.00012746595872617042,-0.002509204089842318,0.1,0.001,0.04,0.031872441038164126,0.002021485198937007,3.187244103816413e-05,0.0008686944716670636,0.0029220521116422346,0.002,8e-05,0,-1.260863234673466,-0.0014137459482065303,-0.0001008690587738773,0.0,-0.0015146150069804075,0.2,0.02,0,0.0025307676234145823,0.00225025925443688,5.0615352468291643e-05,0.0,0.0023008746069051716,0.02021485198937007,0.0,-0.02021485198937007,-0.023416940984216535,0.0,0.023416940984216535,-0.7068729741032651,0.0,0.7068729741032651,0.0112512962721844,0,-0.0112512962721844,-0.002509777851158234,-0.0029215593174655575,-0.0023008746069051716,0.4,0.03344988822937012,1.7235846519470215,STABILIZE
0.1,0.001,0.05,-0.04081955814042732,-0.0023176765302996383,-4.0819558140427325e-05,6.27350380310893e-05,-0.002295761050408976,0.1,0.001,0.04,0.032602387844316336,0.0021814636642261305,3.260238784431634e-05,0.0015277746375920716,0.0037418406896625182,0.002,8e-05,0,-1.2845073081581149,-0.0014132176960384825,-0.0001027605846526492,0.0,-0.0015159782806911317,0.2,0.02,0,0.002928910420565113,0.002379718735220077,5.857820841130226e-05,0.0,0.002438296943631379,0.021814636642261305,0.0,-0.021814636642261305,-0.023176765302996383,0.0,0.023176765302996383,-0.7066088480192413,0.0,0.7066088480192413,0.011898593676100383,0,-0.011898593676100383,-0.002296538067593128,-0.003741363849117674,-0.002438296943631379,0.4,0.03346133232116699,1.7570571899414062,STABILIZE
0.1,0.001,0.05,-0.041706069544932785,-0.0023836926513811194,-4.1706069544932784e-05,-0.00047083419110391925,-0.0028962329120299714,0.1,0.001,0.04,0.0333684610208348,0.0020598528028028334,3.33684610208348e-05,0.0011904443717872986,0.003283665635610967,0.002,8e-05,0,-1.310615511915799,-0.0014040187891924333,-0.00010484924095326392,0.0,-0.0015088680301456972,0.2,0.02,0,0.003387726638489362,0.0024673723122842616,6.775453276978723e-05,0.0,0.002535126845054049,0.020598528028028334,0.0,-0.020598528028028334,-0.023836926513811193,0.0,0.023836926513811193,-0.7020093945962167,0.0,0.7020093945962167,0.012336861561421308,0,-0.012336861561421308,-0.0028969398800069274,-0.0032830419459463855,-0.002535126845054049,0.4,0.03719067573547363,1.794255256652832,STABILIZE
0.1,0.001,0.05,-0.04252946102363429,-0.0024632351235939287,-4.2529461023634286e-05,-0.000953503253842543,-0.003459267838460106,0.1,0.001,0.04,0.034020859345089,0.0019516967426126731,3.4020859345089e-05,0.0012334547668017377,0.0032191723687594997,0.002,8e-05,0,-1.3340543420641713,-0.001402379091133468,-0.00010672434736513372,0.0,-0.0015091034384986017,0.2,0.02,0,0.0038192947584942166,0.0025821344498143323,7.638589516988434e-05,0.0,0.0026585203449842167,0.01951696742612673,0.0,-0.01951696742612673,-0.024632351235939286,0.0,0.024632351235939286,-0.701189545566734,0.0,0.701189545566734,0.01291067224907166,0,-0.01291067224907166,-0.003459993138778897,-0.0032183927972812853,-0.0026585203449842167,0.4,0.03342723846435547,1.8276770114898682,STABILIZE
0.1,0.001,0.05,-0.043376182154550566,-0.0025293472069160368,-4.3376182154550564e-05,-0.0005966343798954002,-0.0031693577689659875,0.1,0.001,0.04,0.0346820564243421,0.001975144973434267,3.46820564243421e-05,0.000646931845808933,0.0026567588756675423,0.002,8e-05,0,-1.3574800375351337,-0.0013995568374542656,-0.00010859840300281071,0.0,-0.0015081552404570763,0.2,0.02,0,0.004169046563997355,0.0020895752333613946,8.33809312799471e-05,0.0,0.0021729561646413416,0.01975144973434267,0.0,-0.01975144973434267,-0.025293472069160366,0.0,0.025293472069160366,-0.6997784187271328,0.0,0.6997784187271328,0.010447876166806973,0,-0.010447876166806973,-0.003169842175823521,-0.0026561808996214344,-0.0021729561646413416,0.4,0.03347587585449219,1.8611602783203125,STABILIZE
0.1,0.001,0.05,-0.04417531254533014,-0.0023851783972847302,-4.417531254533014e-05,-0.00011087571966719624,-0.002540229429497257,0.1,0.001,0.04,0.03527592243584955,0.0017725222290037098,3.527592243584955e-05,-0.0005657412138900563,0.001242056937549503,0.002,8e-05,0,-1.3808716886228054,-0.0013963493691363266,-0.00011046973508982444,0.0,-0.001506819104226151,0.2,0.02,0,0.004477339647752596,0.0018403354743847273,8.954679295505192e-05,-0.0,0.0019298822673397792,0.017725222290037097,0.0,-0.017725222290037097,-0.0238517839728473,0.0,0.0238517839728473,-0.6981746845681633,0.0,0.6981746845681633,0.009201677371923636,0,-0.009201677371923636,-0.0025404288705434892,-0.0012416489617874857,-0.0019298822673397792,0.4,0.03350400924682617,1.8946747779846191,STABILIZE
0.1,0.001,0.05,-0.04501407344878331,-0.0025115605522814857,-4.501407344878331e-05,-0.0005610877455892295,-0.003117662371319499,0.1,0.001,0.04,0.03589789817774992,0.0018624255510738712,3.589789817774993e-05,-0.0007328577664597576,0.0011654656827918635,0.002,8e-05,0,-1.4039859413141171,-0.001384252532896132,-0.00011231887530512938,0.0,-0.0014965714082012613,0.2,0.02,0,0.004731103468274249,0.0015197255823310024,9.462206936548497e-05,-0.0,0.0016143476516964875,0.01862425551073871,0.0,-0.01862425551073871,-0.025115605522814857,0.0,0.025115605522814857,-0.692126266448066,0.0,0.692126266448066,0.007598627911655011,0,-0.007598627911655011,-0.0031178169092143117,-0.0011650522048064368,-0.0016143476516964875,0.4,0.033396005630493164,1.9280881881713867,STABILIZE
0.1,0.001,0.05,-0.045786155013611544,-0.0023080093192064098,-4.5786155013611544e-05,0.00022490196669627078,-0.0021288935075237506,0.1,0.001,0.04,0.03664284157443633,0.0022268842829008656,3.6642841574436325e-05,0.00040032750648600116,0.0026638546309613034,0.002,8e-05,0,-1.4271757608613032,-0.0013864421082901387,-0.00011417406086890426,0.0,-0.0015006161691590429,0.2,0.02,0,0.005073163197538644,0.002045061244385705,0.00010146326395077287,-0.0,0.002146524508336478,0.022268842829008657,0.0,-0.022268842829008657,-0.023080093192064097,0.0,0.023080093192064097,-0.6932210541450693,0.0,0.6932210541450693,0.010225306221928526,0,-0.010225306221928526,-0.0021293688791296666,-0.002663474655007032,-0.002146524508336478,0.4,0.03345227241516113,1.9615154266357422,STABILIZE
0.1,0.001,0.05,-0.04658886366251891,-0.002399204800788672,-4.658886366251891e-05,0.0001902861055681778,-0.002255507558883013,0.1,0.001,0.04,0.037360948777215595,0.0021463407062252467,3.7360948777215594e-05,0.00046658437612825455,0.002650286031130717,0.002,8e-05,0,-1.450180942915901,-0.0013751974219671855,-0.00011601447543327209,0.0,-0.0014912118974004576,0.2,0.02,0,0.005427732468959424,0.002119534402333448,0.00010855464937918847,-0.0,0.0022280890517126363,0.021463407062252467,0.0,-0.021463407062252467,-0.02399204800788672,0.0,0.02399204800788672,-0.6875987109835927,0.0,0.6875987109835927,0.010597672011667239,0,-0.010597672011667239,-0.0022559977285178646,-0.002649868797489274,-0.0022280890517126363,0.4,0.033457279205322266,1.9949729442596436,STABILIZE
0.1,0.001,0.05,-0.047426623781976145,-0.002503505813844773,-4.742662378197615e-05,7.609171670422532e-05,-0.002474840720922524,0.1,0.001,0.04,0.03805676880645008,0.0020793416255082135,3.805676880645008e-05,0.00025037582239775054,0.002367774216712414,0.002,8e-05,0,-1.4731233861568562,-0.0013711929871941648,-0.00011784987089254851,0.0,-0.0014890428580867133,0.2,0.02,0,0.005797664989265417,0.0022109627656096056,0.00011595329978530835,0.0,0.002326916065394914,0.020793416255082135,0.0,-0.020793416255082135,-0.025035058138447728,0.0,0.025035058138447728,-0.6855964935970824,0.0,0.6855964935970824,0.011054813828048028,0,-0.011054813828048028,-0.002475297520077009,-0.002367296669698374,-0.002326916065394914,0.4,0.033463478088378906,2.028439998626709,STABILIZE
0.1,0.001,0.05,-0.048234185745099474,-0.0024140032443009853,-4.8234185745099476e-05,-8.666603470787697e-05,-0.0025489034647539614,0.1,0.001,0.04,0.03866040952357237,0.00180443200158853,3.8660409523572374e-05,7.677462429306265e-05,0.0019198670354051651,0.002,8e-05,0,-1.4959866468553156,-0.001366879274202551,-0.00011967893174842526,0.0,-0.0014865582059509761,0.2,0.02,0,0.00608578126391326,0.0017225021818656123,0.00012171562527826521,-0.0,0.0018442178071438776,0.0180443200158853,0.0,-0.0180443200158853,-0.02414003244300985,0.0,0.02414003244300985,-0.6834396371012754,0.0,0.6834396371012754,0.008612510909328061,0,-0.008612510909328061,-0.002549192023980397,-0.0019194838710301506,-0.0018442178071438776,0.4,0.03345322608947754,2.061933994293213,STABILIZE
0.1,0.001,0.05,-0.048899777461085765,-0.0019901579017844607,-4.8899777461085766e-05,0.0015590911082723792,-0.00047996657097316726,0.1,0.001,0.04,0.03889282562378269,0.0006949376430415531,3.889282562378269e-05,-0.0027925505048402312,-0.0020587200361748955,0.002,8e-05,0,-1.5186074033240666,-0.0013527475222228982,-0.00012148859226592534,0.0,-0.0014742361144888237,0.2,0.02,0,0.00641306689915501,0.0019572061294414744,0.0001282613379831002,0.0,0.0020854674674245744,0.006949376430415531,0.0,-0.006949376430415531,-0.019901579017844607,0.0,0.019901579017844607,-0.6763737611114491,0.0,0.6763737611114491,0.009786030647207372,0,-0.009786030647207372,-0.00047961493777158256,0.0020588019836949023,-0.0020854674674245744,0.4,0.03344416618347168,2.0953447818756104,STABILIZE
0.1,0.001,0.05,-0.04955722432362647,-0.001959365056092196,-4.9557224323626474e-05,0.00104237938161359,-0.0009665428988022322,0.1,0.001,0.04,0.03923292381019796,0.0010135822985407532,3.923292381019796e-05,-0.002904425380009431,-0.0018516101576584799,0.002,8e-05,0,-1.5410810465993376,-0.0013395476904849073,-0.00012328648372794703,0.0,-0.0014628341742128543,0.2,0.02,0,0.006818816150357798,0.002418479574972798,0.00013637632300715597,0.0,0.002554855897979954,0.01013582298540753,0.0,-0.01013582298540753,-0.01959365056092196,0.0,0.01959365056092196,-0.6697738452424536,0.0,0.6697738452424536,0.012092397874863988,0,-0.012092397874863988,-0.0009661520909603708,0.001851814107382808,-0.002554855897979954,0.4,0.0335540771484375,2.1289145946502686,STABILIZE
0.1,0.001,0.05,-0.050204914512088444,-0.0019363690166556134,-5.020491451208845e-05,0.0013837024796260677,-0.000602871451541634,0.1,0.001,0.04,0.039678250597991536,0.0013313726369978442,3.967825059799154e-05,-0.0019517706014636107,-0.000580719713867775,0.002,8e-05,0,-1.5633778708350239,-0.0013331954193199324,-0.00012507022966680193,0.0,-0.0014582656489867344,0.2,0.02,0,0.007303550781658086,0.002898376841491899,0.00014607101563316173,0.0,0.0030444478571250606,0.013313726369978442,0.0,-0.013313726369978442,-0.019363690166556133,0.0,0.019363690166556133,-0.6665977096599662,0.0,0.6665977096599662,0.014491884207459494,0,-0.014491884207459494,-0.0006027245501864353,0.0005808721802265508,-0.0030444478571250606,0.4,0.03344869613647461,2.1623682975769043,STABILIZE
0.1,0.001,0.05,-0.050886954073012025,-0.002039134400088399,-5.088695407301203e-05,0.0013881447864199173,-0.0007018765677414939,0.1,0.001,0.04,0.04003420778958779,0.0010642264700304043,4.003420778958779e-05,-0.0024305604531868045,-0.0013262997753668124,0.002,8e-05,0,-1.5855995185776794,-0.0013287477423548704,-0.00012684796148621438,0.0,-0.0014555957038410849,0.2,0.02,0,0.007738350387183574,0.002599892685319554,0.00015476700774367147,0.0,0.0027546596930632253,0.010642264700304042,0.0,-0.010642264700304042,-0.020391344000883993,0.0,0.020391344000883993,-0.6643738711774352,0.0,0.6643738711774352,0.01299946342659777,0,-0.01299946342659777,-0.0007015756342265725,0.0013264589853976712,-0.0027546596930632253,0.4,0.0334475040435791,2.195805311203003,STABILIZE
0.1,0.001,0.05,-0.0515302555013881,-0.0019200319893000646,-5.15302555013881e-05,0.0014760788316735805,-0.0004954834131278721,0.1,0.001,0.04,0.04034863712476672,0.0009384626790614831,4.0348637124766716e-05,-0.002073431038649069,-0.0010946197224628192,0.002,8e-05,0,-1.6083897616901506,-0.0013604196692157471,-0.00012867118093521206,0.0,-0.0014890908501509592,0.2,0.02,0,0.008313493499890818,0.003433206040319714,0.00016626986999781636,0.0,0.0035994759103175305,0.00938462679061483,0.0,-0.00938462679061483,-0.019200319893000646,0.0,0.019200319893000646,-0.6802098346078735,0.0,0.6802098346078735,0.01716603020159857,0,-0.01716603020159857,-0.0004951554387250285,0.0010947681220196584,-0.0035994759103175305,0.4,0.03350472450256348,2.229374647140503,STABILIZE
0.1,0.001,0.05,-0.05211479854160847,-0.0017480294969045983,-5.211479854160847e-05,0.0007231164132302681,-0.0010770278822159387,0.1,0.001,0.04,0.040623264906193744,0.0008212525504074715,4.062326490619374e-05,0.0003001249781976161,0.0011620007935112813,0.002,8e-05,0,-1.6310020576386173,-0.0013524054719992805,-0.0001304801646110894,0.0,-0.0014828856366103699,0.2,0.02,0,0.009004426989226351,0.0041323633561778745,0.00018008853978452704,0.0,0.004312451895962402,0.008212525504074714,0.0,-0.008212525504074714,-0.017480294969045983,0.0,0.017480294969045983,-0.6762027359996402,0.0,0.6762027359996402,0.020661816780889374,0,-0.020661816780889374,-0.0010774468491051715,-0.0011616123236883873,-0.004312451895962402,0.4,0.03344011306762695,2.2627432346343994,STABILIZE
0.1,0.001,0.05,-0.052725833781437824,-0.0018111242203970172,-5.272583378143783e-05,0.00044433122248721486,-0.00141951883169124,0.1,0.001,0.04,0.04087465282255141,0.0007451202718809962,4.087465282255142e-05,-0.0006401175468227412,0.00014587737788080638,0.002,8e-05,0,-1.6543832392622089,-0.0013860485150353988,-0.0001323506591409767,-0.0,-0.0015183991741763755,0.2,0.02,0,0.009525287673489712,0.003087689020965117,0.00019050575346979425,0.0,0.003278194774434911,0.007451202718809962,0.0,-0.007451202718809962,-0.01811124220397017,0.0,0.01811124220397017,-0.6930242575176994,0.0,0.6930242575176994,0.015438445104825584,0,-0.015438445104825584,-0.0014195580870664756,-0.00014549488082957245,-0.003278194774434911,0.4,0.033737897872924805,2.296487331390381,STABILIZE
0.1,0.001,0.05,-0.05330280543867447,-0.0017205179551628492,-5.3302805438674475e-05,0.0006457671133883995,-0.0011280536472131242,0.1,0.001,0.04,0.04112027633168577,0.0007324443971819619,4.112027633168578e-05,-0.00143042322180535,-0.0006568585482917024,0.002,8e-05,0,-1.6776203348321308,-0.0013858510951947104,-0.00013420962678657047,-0.0,-0.001520060721981281,0.2,0.02,0,0.010090710081612383,0.0033721566500708104,0.00020181420163224766,0.0,0.003573970851703058,0.007324443971819618,0.0,-0.007324443971819618,-0.01720517955162849,0.0,0.01720517955162849,-0.6929255475973551,0.0,0.6929255475973551,0.01686078325035405,0,-0.01686078325035405,-0.0011278603005462277,0.0006571904791660386,-0.003573970851703058,0.4,0.03353476524353027,2.330049514770508,STABILIZE
0.1,0.001,0.05,-0.05385431991235212,-0.001652606457630739,-5.3854319912352126e-05,0.0011565068983192665,-0.0005499538792238245,0.1,0.001,0.04,0.041347665932311484,0.0006813701912232458,4.134766593231149e-05,-0.0009138955373042687,-0.0001911776801487114,0.002,8e-05,0,-1.700672761010321,-0.0013815263310170166,-0.00013605382088082568,-0.0,-0.0015175801518978423,0.2,0.02,0,0.010540055534035853,0.002692916439455288,0.00021080111068071708,0.0,0.0029037175501360054,0.006813701912232458,0.0,-0.006813701912232458,-0.016526064576307387,0.0,0.016526064576307387,-0.6907631655085084,0.0,0.6907631655085084,0.01346458219727644,0,-0.01346458219727644,-0.0005499089370366813,0.00019130691474058948,-0.0029037175501360054,0.4,0.03337240219116211,2.3634114265441895,STABILIZE
0.1,0.001,0.05,-0.05433444918099315,-0.001434969938276272,-5.433444918099315e-05,0.0014514811543633586,-3.782323309390657e-05,0.1,0.001,0.04,0.04167054944851684,0.0009650070711811588,4.167054944851684e-05,6.45615770712849e-05,0.0010712391977009605,0.002,8e-05,0,-1.7236659636624647,-0.0013744029679302466,-0.0001378932770929972,-0.0,-0.0015122962450232439,0.2,0.02,0,0.011145413551436851,0.003618486160294537,0.000222908271028737,0.0,0.003841394431323274,0.009650070711811587,0.0,-0.009650070711811587,-0.014349699382762718,0.0,0.014349699382762718,-0.6872014839651233,0.0,0.6872014839651233,0.018092430801472683,0,-0.018092430801472683,-3.8161499068382225e-05,-0.0010712272007569299,-0.003841394431323274,0.4,0.03345918655395508,2.39685320854187,STABILIZE
0.1,0.001,0.05,-0.05479461378023659,-0.0013761347131720173,-5.479461378023659e-05,0.001113069709417767,-0.00031785961753448685,0.1,0.001,0.04,0.04208836114784362,0.0012494772174093138,4.208836114784362e-05,0.00102554018474783,0.0023171057633049877,0.002,8e-05,0,-1.746598534393345,-0.0013716094935126426,-0.0001397278827514676,-0.0,-0.0015113373762641103,0.2,0.02,0,0.011726340980691023,0.003474558462536265,0.00023452681961382048,-0.0,0.0037090852821500854,0.012494772174093137,0.0,-0.012494772174093137,-0.013761347131720171,0.0,0.013761347131720171,-0.6858047467563213,0.0,0.6858047467563213,0.017372792312681323,0,-0.017372792312681323,-0.00031856217817214,-0.0023170092778058917,-0.0037090852821500854,0.4,0.033438920974731445,2.4303057193756104,STABILIZE
0.1,0.001,0.05,-0.055238694693527456,-0.0013195309838970248,-5.523869469352746e-05,0.0014682750119358523,9.350533334529995e-05,0.1,0.001,0.04,0.04259920887859391,0.001517920245171601,4.2599208878593916e-05,0.0018441825658320954,0.00340470201988229,0.002,8e-05,0,-1.7694158255812464,-0.0013559746338981315,-0.00014155326604649974,0.0,-0.0014975278999446312,0.2,0.02,0,0.01227879214810197,0.0032830793248317886,0.0002455758429620394,0.0,0.0035286551677938278,0.01517920245171601,0.0,-0.01517920245171601,-0.013195309838970246,0.0,0.013195309838970246,-0.6779873169490658,0.0,0.6779873169490658,0.016415396624158942,0,-0.016415396624158942,9.252987313454438e-05,-0.0034047286696787258,-0.0035286551677938278,0.4,0.03365445137023926,2.4639487266540527,STABILIZE
0.1,0.001,0.05,-0.05574918707625561,-0.0015257818906922497,-5.5749187076255614e-05,0.0005816372364773486,-0.0009998938412911567,0.1,0.001,0.04,0.04306532212222858,0.0013931395848629296,4.306532212222858e-05,0.001576062027603231,0.003012266934588389,0.002,8e-05,0,-1.7917014610228352,-0.0013321655769916736,-0.00014333611688182682,0.0,-0.0014755016938735005,0.2,0.02,0,0.012753526207700767,0.002837811710958977,0.00025507052415401537,-0.0,0.0030928822351129924,0.013931395848629295,0.0,-0.013931395848629295,-0.015257818906922497,0.0,0.015257818906922497,-0.6660827884958368,0.0,0.6660827884958368,0.014189058554794885,0,-0.014189058554794885,-0.0010006397858458884,-0.0030120192227223266,-0.0030928822351129924,0.4,0.03345775604248047,2.4974043369293213,STABILIZE
0.1,0.001,0.05,-0.05627515023816921,-0.001572245705190478,-5.627515023816921e-05,0.00023924838508258855,-0.0013892724703460587,0.1,0.001,0.04,0.04357292847159964,0.0015173722429959252,4.357292847159964e-05,0.0019955885498920537,0.0035565337213595786,0.002,8e-05,0,-1.8139439110122566,-0.0013297736039744258,-0.00014511551288098055,0.0,-0.0014748891168554065,0.2,0.02,0,0.013117462578547736,0.0021758078795668548,0.0002623492515709547,-0.0,0.0024381571311378096,0.015173722429959251,0.0,-0.015173722429959251,-0.015722457051904778,0.0,0.015722457051904778,-0.664886801987213,0.0,0.664886801987213,0.010879039397834273,0,-0.010879039397834273,-0.0013899477423414772,-0.0035562698690607105,-0.0024381571311378096,0.4,0.03345298767089844,2.5308942794799805,STABILIZE
0.1,0.001,0.05,-0.05681860402592226,-0.0016251553535539965,-5.681860402592226e-05,-0.0005694274198471991,-0.002251401377427118,0.1,0.001,0.04,0.04412504073552586,0.0016510478382942935,4.412504073552586e-05,0.0016372175204636217,0.003332390399493441,0.002,8e-05,0,-1.8362548536188184,-0.0013343820077068363,-0.00014690038828950547,0.0,-0.0014812823959963418,0.2,0.02,0,0.013372902716904668,0.001527746858034531,0.00026745805433809336,-0.0,0.0017952049123726244,0.016510478382942933,0.0,-0.016510478382942933,-0.016251553535539965,0.0,0.016251553535539965,-0.6671910038534181,0.0,0.6671910038534181,0.0076387342901726545,0,-0.0076387342901726545,-0.0022518456352509137,-0.003332090210651295,-0.0017952049123726244,0.4,0.03344011306762695,2.5643224716186523,STABILIZE
0.1,0.001,0.05,-0.057351878828957495,-0.0015938181943962841,-5.73518788289575e-05,-0.0006517172255251522,-0.0023028872987503938,0.1,0.001,0.04,0.04452421051339883,0.0011930135288710172,4.452421051339883e-05,-0.00013851034006270025,0.0010990273993217157,0.002,8e-05,0,-1.8585813778368707,-0.0013345622299731964,-0.00014868651022694967,0.0,-0.0014832487402001461,0.2,0.02,0,0.013494160602201181,0.0007248158836667531,0.0002698832120440236,-0.0,0.0009946990957107767,0.011930135288710172,0.0,-0.011930135288710172,-0.01593818194396284,0.0,0.01593818194396284,-0.6672811149865981,0.0,0.6672811149865981,0.0036240794183337653,0,-0.0036240794183337653,-0.0023029568099545874,-0.0010988817346236715,-0.0009946990957107767,0.4,0.03345894813537598,2.597846508026123,STABILIZE
0.1,0.001,0.05,-0.05787219638807667,-0.0015566564092297922,-5.787219638807667e-05,-0.0007087296290609051,-0.0023232582346787737,0.1,0.001,0.04,0.044769682355272,0.0007343886617706628,4.4769682355272e-05,-0.0018742964748111352,-0.0010951381306852003,0.002,8e-05,0,-1.880784703488917,-0.0013285328767679483,-0.00015046277627911336,0.0,-0.0014789956530470616,0.2,0.02,0,0.013486807542575831,-4.3996929154673656e-05,0.00026973615085151663,-0.0,0.000225739221696843,0.007343886617706627,0.0,-0.007343886617706627,-0.01556656409229792,0.0,0.01556656409229792,-0.6642664383839741,0.0,0.6642664383839741,-0.00021998464577336826,0,0.00021998464577336826,-0.0023232624393967247,0.0010951292106284943,-0.000225739221696843,0.4,0.033425331115722656,2.6312074661254883,STABILIZE
