Mode,Time,Freq,North-Vision,East-Vision,Down-Vision,Yaw-Vision,North-Desired,East-Desired,Down-Desired,Roll-UAV,Pitch-UAV,Yaw-UAV,Roll-Control,Pitch-Control,Yaw-Control,Thrust-Control,northVraw,eastVraw,downVraw,yawVraw,zGyro
GUIDED_NOGPS,0.004251003265380859,236.51201082666066,305.46949083602266,75.26809325197439,38.473605113558285,0.9769597125601297,309.8738239053433,65.8433040954192,26.04898846020415,-0.2212434742548398,0.34686422008822176,103.82283689391242,2.024984497642425,1.4476468492724577,-0.039078388502405186,0.4937876916733229,305.46949083602266,75.26809325197439,38.473605113558285,2.588723661812793,-7.7349302342661135
GUIDED_NOGPS,0.007628679275512695,296.5849243388488,306.15468559026624,76.32624314688485,39.95240309404805,-1.9405152353349064,309.87364472275783,65.8431070481506,26.048997375361363,-0.2212434742548398,0.34686422008822176,103.82283689391242,0.40281357377740007,-0.09930054313711859,0.07762060941339625,0.4930482971406567,306.83988034450977,77.38439304179532,41.431201074537825,-1.628045530178568,-7.7349302342661135
GUIDED_NOGPS,0.03558063507080078,35.78818751173228,305.29622049055456,77.06569080207599,41.01413553448349,-1.9169316028138013,309.87240490442815,65.84174361869212,26.049059423304524,-0.1282335599951763,0.22417102406719686,103.46057732071328,0.1971075848327282,0.12950954273393853,0.07667726411255205,0.49251746194441054,303.57929029113114,78.54458611245828,43.13760041535437,0.8514635134815904,-7.276563998161455
GUIDED_NOGPS,0.07675647735595703,24.291711068896817,304.5332138142561,78.80497596928728,43.133496612442705,-2.0430445178958565,309.8690833148227,65.83809086327742,26.04922675513411,0.1732393839836828,-0.06295129225906877,103.06621585841509,0.2361493698912151,0.13319055054800322,0.08172178071583426,0.4914578650713457,302.2441937853608,80.48594875360828,44.83168834743591,1.8536446249698173,-6.932789321082962
GUIDED_NOGPS,0.10684895515441895,33.23985005904123,303.96848730289764,81.19191069290629,45.01181812418887,-2.2931110128496237,309.86270137591487,65.83107263867073,26.04955045758108,0.34300644386763396,-0.2223040345462562,102.88641795870367,0.3036275037902888,0.1484538942257593,0.09172444051398496,0.4905188661666961,301.70958125746375,84.54519721265234,47.06616560977633,-0.3205416337151803,-6.302535746439056
GUIDED_NOGPS,0.14403605461120605,26.893632300797005,302.11521815116373,83.4325946858428,46.16601574574744,-2.377023872627903,309.8523224801826,65.81965895664241,26.05008056022291,0.45887793509425573,-0.46938543408037986,102.57318548336688,0.32139087168484265,0.21733825804109538,0.09508095490511613,0.4899420324072377,296.20314507735327,85.26663809126782,46.60019328003004,3.3926054349214922,-4.8128454790989155
GUIDED_NOGPS,0.17729473114013672,30.089774952831203,300.2969053812902,85.83533466027058,47.02783075737216,-2.5228353033934554,309.8370514036086,65.80286533844429,26.050866042699678,0.49840920238043834,-0.527248769016318,102.42714237853367,0.36773458393091496,0.2611280577690321,0.10091341213573822,0.48951151764266376,297.74831649514203,87.6941686768916,47.41713338231008,1.2704074615442664,-5.042028597151244
GUIDED_NOGPS,0.21670842170715332,25.370666763448078,299.8777228180255,87.91648935816953,47.61665937719594,-2.668090804203887,309.8160337186801,65.77975216928515,26.051954841930115,0.5142303750974209,-0.5577034619474942,102.26530104615023,0.3867384380780188,0.2266428903835715,0.10672363216815547,0.4892176477323671,301.4833774748079,90.78866130634918,48.83265146924767,-2.211472601176567,-4.068000345428845
GUIDED_NOGPS,0.2628214359283447,21.690449964058725,299.10225134205336,90.09185101449839,48.46002327861737,-2.784895524814219,309.7884552073889,65.74942405280613,26.053393859327684,0.5800515741075115,-0.5273550638352764,102.10670405362252,0.4160818817887154,0.2498934364301537,0.11139582099256876,0.48879668529035514,298.3668364055001,91.79272306025446,49.130284984294335,-0.08894511469628696,-3.20856365273261
GUIDED_NOGPS,0.3063340187072754,22.986266235545568,299.09778279309955,92.98030402664666,50.037936942572856,-2.9197047918497585,309.7535412742312,65.71102916555621,26.055228968016632,0.6934023520044283,-0.4755823366482855,102.02627857614563,0.478680224096892,0.23652178285254913,0.11678819167399035,0.48800864601272187,301.68723851269465,96.35952771333642,52.150874374176546,-2.031919691378164,-2.119943841984046
GUIDED_NOGPS,0.34726548194885254,24.437061938859337,300.2040361635789,95.38199727966322,51.58523469570619,-2.995711675361506,309.7105563592077,65.66375861146763,26.057505020048065,0.8305532442293719,-0.44436020793083497,101.99728442311893,0.5142823516096389,0.1886461411521284,0.11982846701446023,0.48723613516217096,301.7344119297501,97.99374106539884,53.47454472864768,-1.9890990109969522,-1.0313240312354819
GUIDED_NOGPS,0.3868429660797119,25.27054513905625,301.0228471674911,98.00137077667176,53.51037408849273,-3.027885001972659,309.65880335082335,65.60684577633133,26.060265853616002,0.8831739820905022,-0.46391157106914355,101.99819283827854,0.5635047363171981,0.18033509967717212,0.12111540007890635,0.48627494588256165,301.84237151470296,99.65084355128006,54.90570316265397,-1.6055052362851683,-0.6302535746439055
GUIDED_NOGPS,0.42536330223083496,25.96593842667971,301.1363389787808,99.62909093813887,54.847872791880405,-3.0435701982510825,309.5976229990873,65.53956568227235,26.063554300273445,1.0030389995474658,-0.49445404260332493,102.02796563287062,0.5715805666196924,0.19474193525297548,0.1217428079300433,0.4856078407541965,302.0508365312567,101.24268819773776,56.16337048433955,-3.4165965760224424,0.6875493541569879
GUIDED_NOGPS,0.45523738861083984,33.48264520867261,299.88259025622745,100.48148750704813,55.70456271208236,-2.9394371527161005,309.526393328513,65.46123434222538,26.067412192148442,1.0368632702561325,-0.583749374491133,102.0825866556632,0.5728475362583038,0.2620310830266113,0.11757748610864402,0.48518142474003306,292.0980927927333,100.55093077212656,56.04461448925355,3.237022886666452,1.5469860468532228
GUIDED_NOGPS,0.49579644203186035,24.673537578238975,297.9647611122352,100.78151658066362,56.08419982094889,-2.8245693699331236,309.4445290511179,65.37120811441008,26.071880369160162,1.0703735657063902,-0.6125985994413858,102.14989816993369,0.5599319759234708,0.3014221406460872,0.11298277479732495,0.48499384027410564,292.0980927927333,100.55093077212656,56.04461448925355,3.237022886666452,1.7188733853924698
GUIDED_NOGPS,0.5317678451538086,27.79728144530085,296.2688323684197,101.02008609112143,56.36063745994452,-2.6972047699478767,309.3514809794236,65.26888305680657,26.076998686234944,1.186431072866189,-0.6524867441117016,102.28813436854557,0.5645097946378654,0.3321200464366459,0.10788819079791508,0.48485818061314523,293.2547682106725,101.95839672911119,56.99268340132644,1.7717366488636372,2.635605857601787
GUIDED_NOGPS,0.5676867961883545,27.847850479699897,295.9163882819073,102.56757049764201,57.19782116529921,-2.5795204122394897,309.2467354394558,65.15369428163088,26.082806020522366,1.225110540857677,-0.6433402136785554,102.40615320721423,0.6228403919482257,0.30128365355951486,0.1031808164895796,0.48444249242761156,300.08015108214124,105.19338399168825,58.55616560531761,-0.8880306430140337,3.6096341093241864
GUIDED_NOGPS,0.6092877388000488,24.041499246249877,295.9908633432162,104.64738309531437,58.35814497614422,-2.4883867592244813,309.12981368374386,65.02511530981036,26.089340278611317,1.3640189794942825,-0.5258217930883143,102.5843665030382,0.6644520523788826,0.28679671693794734,0.09953547036897925,0.48386559765123355,302.42321183780103,106.79036856514365,59.52558592178858,-4.776551488091513,4.1252961249419275
GUIDED_NOGPS,0.6454403400421143,27.691572310434754,298.1165990599371,106.78122951442856,59.55042591070036,-2.3592376110845077,309.0002713043212,64.88265742545919,26.096638403746056,1.3989192184406378,-0.4637908688199047,102.75988870432919,0.714177998479368,0.184048090515244,0.09436950444338031,0.48327310624652287,302.72677137633775,108.35993598645376,60.56952620499487,-4.708184349886338,4.469070802020421
GUIDED_NOGPS,0.6828925609588623,26.708507386653082,299.1892822920592,107.41333543901244,60.11219294752885,-2.1661232188099016,308.85769764572495,64.72586903035368,26.104736383042273,1.529352566256021,-0.3598153526520502,102.94767109518035,0.6932872941781913,0.18697519629673767,0.08664492875239606,0.4829962717177567,297.46150895334404,107.08970176543988,60.24146671580306,1.680362151103921,4.5263665815335035
GUIDED_NOGPS,0.7164750099182129,29.77661349292555,299.4762016396121,107.34714439598098,60.246900001647106,-1.9282605137804032,308.7017152179961,64.55433499840788,26.113669254703165,1.5705961299506142,-0.2796458205060404,103.08911748270214,0.6810161970843067,0.19424883669399995,0.07713042055121613,0.482933384626528,294.6893649484367,106.5917954360492,59.92970708414335,4.655917371060127,4.5263665815335035
GUIDED_NOGPS,0.7517039775848389,28.39053446688688,302.0337086986027,108.98995412672879,61.79229556645032,-1.8680769326895434,308.531979109679,64.3676760301489,26.123471115235485,1.57728608679923,-0.19885788943588004,103.25158036230006,0.7534821055593858,0.07691700824108313,0.07472307730758174,0.48216558777439256,312.8676863770944,113.28836517869723,65.20571289940452,-9.798513107956708,5.042028597151244
GUIDED_NOGPS,0.7895035743713379,26.461817998283955,303.8286224522264,110.93785855662942,63.59907986543333,-1.7844432240245938,308.348176400822,64.16554800719237,26.134175126665628,1.5684576404101653,-0.15770773391427215,103.40622950548749,0.7921415670870201,0.06285799867274554,0.07137772896098375,0.48126754763061613,311.3977806059195,112.93341505514177,65.6618196127521,-8.413155528465367,4.755549699585833
GUIDED_NOGPS,0.8215391635894775,31.227136007623812,303.5236727361572,111.84436487221892,65.1415600343134,-1.6082961252200036,308.1500255759767,63.94764134671792,26.145813523755667,1.5848967318036224,-0.08127284782080485,103.6047079725789,0.7920455542009951,0.11812703158885182,0.06433184500880015,0.48050212674472115,301.2020227959916,109.3113143828177,64.55714759078357,0.6414885263121306,4.297183463481175
GUIDED_NOGPS,0.8573458194732666,27.952895387506747,303.2402634098444,110.0614156087034,64.65482898338114,-1.4380365030204207,307.93727593719825,63.713680355944604,26.158417621219446,1.607353113134155,-0.03535991601358246,103.78108394751614,0.7046122332620128,0.1135499596585009,0.05752146012081683,0.4807517943189191,296.04446232177986,107.93951738815072,63.745519746607755,3.22645602718994,3.552338329811104
GUIDED_NOGPS,0.8972964286804199,25.027920159918846,302.8595907605767,108.08542197222552,63.834597259384964,-1.248662745399134,307.70970701704516,63.463422586606306,26.172017820938628,1.693467604581147,0.014556253699207877,103.90822108872675,0.67730458050028,0.11554050204157305,0.04994650981596536,0.48116871028077685,292.78600170209825,107.00543414570816,63.20112444076352,5.339111182877659,2.46371851906254
GUIDED_NOGPS,0.9354121685028076,26.259204768135632,300.80978643609814,108.74809210412805,64.22693755877528,-1.0977008206634566,307.46712799157933,63.19665818942722,26.18664361917876,1.7587492720076594,0.1335179786384373,104.02881490871249,0.7448957343572374,0.1952099141077896,0.04390803282653827,0.48097985303020174,302.6186647547015,111.29932477852525,65.73416848895455,1.9926119338459927,2.521014298575622
GUIDED_NOGPS,0.9794332981109619,22.714518583505278,301.21140611275,111.27850754934224,65.90357397901484,-1.0741322491998355,307.20937709336596,62.91320926859726,26.20232361380535,1.8063893078599695,0.29681915723527386,104.09123600753725,0.8231140689927076,0.12032105028590938,0.04296528996799342,0.4801493748173953,313.40587898917875,115.53076372379327,68.7754290073264,-6.134378398424943,1.3750987083139758
GUIDED_NOGPS,1.0202579498291016,24.49743595733994,302.4782431229475,113.68448120185774,67.52722196685653,-1.039940901421329,306.9363210244733,62.61292923624754,26.219085511499916,1.7610292745299743,0.4097212237202326,104.11538072625324,0.8681960671756572,0.06782510553677364,0.04159763605685316,0.4793459317723217,307.536207846979,114.22335510325465,68.07206840428859,-2.4394662882690312,-0.11459155902616465
GUIDED_NOGPS,1.0648438930511475,22.43339198896062,304.1544072022642,114.74427427006229,68.51799252642199,-1.044447356871276,306.6478543694729,62.29570216692576,26.236956134976054,1.7622558270945206,0.5131671601035732,104.05982396754436,0.8637025185966636,0.02143193358398142,0.04177789427485104,0.478859481804277,304.42528271836335,114.47870398313894,68.70648016765091,0.12052554845219277,-2.0626480624709638
GUIDED_NOGPS,1.1053838729858398,24.677892705428274,306.50489739986244,114.75866158747387,68.7252563018103,-1.126412718012602,306.3438990084393,61.96144215207169,26.255961430195523,1.8948671514814914,0.5376661948827627,103.94044592123088,0.8528656598863533,-0.05227217766417179,0.04505650872050408,0.4787653525641926,304.5384526900894,115.57392567602803,69.39722033349135,-1.1149399839535192,-3.552338329811104
GUIDED_NOGPS,1.1370415687561035,31.593368434531744,306.69847629000867,115.52515112004001,69.22783958404482,-1.2420889349916617,306.02440352994995,61.610092654492604,26.276126473584274,2.0358589045366564,0.5106473539083674,103.82357455434278,0.8910416424375589,-0.010206837625138687,0.04968355739966647,0.47852414344476973,303.5865592054325,116.52282370095307,69.5798182509921,-0.43895582139018074,-4.18259190445501
GUIDED_NOGPS,1.1752233505249023,26.213089345532723,305.25082504374956,117.0322535739412,69.83219471465112,-1.352156404177984,305.6893426440855,61.24162586283868,26.297475479248543,2.261473926643929,0.4254780432486289,103.62118238885697,0.9310125251756778,0.060033751933652804,0.054086256167119366,0.47823264038229873,306.16762275788324,119.0000113448425,70.51954555946983,0.20233170465118633,-4.698253920072751
GUIDED_NOGPS,1.2093188762664795,29.32546530001538,303.83956924781376,117.98245448942403,69.7421744012098,-1.4978872956389593,305.3387165954293,60.85604204607849,26.32003180619091,2.389270181109453,0.31077718241272384,103.4333112055466,0.9433478136025728,0.08563001681523863,0.05991549182555837,0.47828892870249057,300.47992886730003,118.42452842247647,69.12715939316736,2.629070868018786,-6.41712730546522
GUIDED_NOGPS,1.2608435153961182,19.411154357011622,304.0445621104055,119.97407925881976,69.74635131695219,-1.6746992484682865,304.97255057606736,60.45336890797442,26.34381796552635,2.4930563996516777,0.11732162576478011,103.20214345308752,0.9888836782242344,0.036366011443227764,0.06698796993873146,0.4782987333242871,305.4502470313219,122.49769800914018,69.5923489982193,0.5244398266600996,-6.875493541569879
GUIDED_NOGPS,1.288727045059204,35.87665620268756,304.25162571038084,121.86251973048395,69.09049821118808,-1.9426195174283138,304.5908941385887,60.0336609415581,26.368855627698313,2.4865226833803256,-0.10143999520147243,102.83247312463891,1.0564085574475905,0.021161184677841442,0.07770478069713256,0.4786391787082551,305.57377068996635,124.66533275983512,68.55198624217749,-1.3394162617280898,-7.7349302342661135
GUIDED_NOGPS,1.331874132156372,23.181275043523918,305.8974085282106,125.48371918778894,69.0304881902815,-2.1679233100128252,304.1938206090849,59.596998783605834,26.395165629694784,2.3877353095369043,-0.23554515666511927,102.55278370831606,1.1315677076169173,-0.03847510923594086,0.08671693240051301,0.47868233871970667,311.8154732945809,129.28812679439142,68.94712933044758,-3.373447967769181,-8.651662706475431
GUIDED_NOGPS,1.3676905632019043,27.92665290631866,306.6702556372959,128.2803661027117,68.40637443194102,-2.483502980221901,303.78142650015013,59.1434885691141,26.422767982264347,2.1963813700800614,-0.3198141630148854,102.22186787321812,1.1810088018631162,-0.039336657547742085,0.09934011920887605,0.47900819677516165,310.0318583033099,130.8876387539085,67.72000772319782,-2.44886913208461,-8.307888029396937
GUIDED_NOGPS,1.4109086990356445,23.147756309431173,308.33188537805427,131.894206741894,67.02223854291692,-2.7626389483747325,303.3538309238811,58.67326128577493,26.451681877132245,1.9832884325989495,-0.3193634238905175,101.88438139613861,1.2527735885706341,-0.08732407323752753,0.1105055579349893,0.47971472166710766,308.78807757109195,135.50685467738205,64.39957857510518,-1.818325922890864,-8.59436692696235
GUIDED_NOGPS,1.4459667205810547,28.521426919990752,308.64935186702104,134.45287643527584,65.30154299704837,-3.0972811242948417,302.911175004877,58.18647212845133,26.481925694216457,1.8637650313221923,-0.24876482772112027,101.61121481047313,1.2949992983541496,-0.06619969172170719,0.12389124497179367,0.48059019134858405,307.0375794761557,136.9641358745369,63.7850426928419,-1.9827105669749727,-8.307888029396937
GUIDED_NOGPS,1.48258638381958,27.312178890270822,309.6799150598987,137.83160234922244,64.21444609820502,-3.358635116716912,302.45362129323945,57.68329985365282,26.513517008843742,1.7950529013850407,-0.24849572893999233,101.52143880402248,1.375967668614849,-0.1043683567803486,0.13434540466867648,0.48114953545531935,310.7265866543543,141.02381649574838,64.4587170266678,-2.8597812340259168,-7.39115555718762
GUIDED_NOGPS,1.528230905532837,21.91266913954339,310.1668887575055,141.0445553919751,64.48076602368513,-3.6114678947604353,301.9813531775725,57.16394613401077,26.54647259896573,1.5889653901148344,-0.20625100892346349,101.1036361324928,1.4163263151657632,-0.09513843902015483,0.1444587157904174,0.4810328532876403,314.2503417826152,145.14571380564004,65.19853835154551,-4.286804950785211,-6.187944187412891
GUIDED_NOGPS,1.5681192874908447,25.074752498923907,309.9609367322867,144.4977660964723,64.99164489718696,-3.8555010502650937,301.4945742979822,56.62863491275389,26.58080845237497,1.5205623262376262,-0.18677234994721847,100.88127932406303,1.4942952505532003,-0.07548257145949772,0.15422004201060374,0.480794581777594,309.0020981772158,147.32376798802858,65.31767931334737,-1.3072658422518941,-4.5263665815335035
GUIDED_NOGPS,1.6121892929077148,22.708123764922444,308.53864684066855,146.14509060903143,64.65234309433826,-3.982232141762701,300.99350795907714,56.07761175818365,26.616539773920987,1.4276703661432777,-0.1660609752279184,100.72825576589807,1.4865812292703087,-0.026368923185160154,0.15928928567050804,0.4809820983397914,301.676628113001,145.9657900334258,63.44081161812171,1.4073550923700253,-3.4377467707849396
GUIDED_NOGPS,1.651029348373413,25.739822031297944,308.82155572877946,148.21923402166863,64.56986386624298,-4.112547742145321,300.47839654296786,55.511143218149755,26.653680992726372,1.3443480346846457,-0.14018285588619459,100.61785258815398,1.5469195830144868,-0.07588523248977352,0.16450190968581285,0.4810419085632417,308.4521239167104,151.36814404355158,64.95110066725964,-2.8283509870253027,-2.119943841984046
GUIDED_NOGPS,1.7032244205474854,19.161872738569496,308.3822133876189,150.13431167744994,64.39832036182666,-4.164318002007278,299.94950092226696,54.92951617452553,26.692245769402824,1.241889007275519,-0.07015431370822901,100.59801771880426,1.5699184370776313,-0.05592289197636047,0.16657272008029111,0.4811469627037881,308.5298749485514,153.06900095537247,64.80304880009838,-2.872548079540209,-0.057295779513082325
GUIDED_NOGPS,1.7476222515106201,22.542143874452478,309.7199680904341,155.51835944473171,65.73923565440323,-4.244302131665315,299.40709987308924,54.33303719768342,26.732247003267222,1.1921882820062752,0.014542273155750508,100.62672500388582,1.7405102163320563,-0.11915493010533584,0.1697720852666126,0.480496505674432,320.93911529669145,162.11793333527115,67.46355749585142,-8.750453523342145,0.6875493541569879
GUIDED_NOGPS,1.7910702228546143,23.01464512057944,312.4500095374359,159.71046872387146,66.75360660800534,-4.22498363925739,298.85148948805124,53.722031900970364,26.773696839557694,1.0423462046123604,0.04838815500983799,100.76057622105057,1.804736312123399,-0.21346519889617413,0.1689993455702956,0.48001004511577616,322.6523054122249,163.9444718809708,67.99421352806598,-8.542194357397548,3.380450991271857
GUIDED_NOGPS,1.8286223411560059,26.6352367404999,315.4333273703232,162.63380355643474,67.38484424874791,-4.110755503446327,298.2829825892715,53.096844295183296,26.816606676649673,0.9769954882422072,0.1673274683908533,100.91137996773527,1.854880491206361,-0.30352963579127024,0.16443022013785308,0.47971588121395087,316.5932172774375,161.8390054530623,66.69676172232609,-4.670748571474675,4.068000345428845
GUIDED_NOGPS,1.870039939880371,24.14877422475041,316.8531860167369,162.47808790160548,67.08275365455806,-3.950342805258703,297.7019081413703,52.45783614304454,26.860987173271972,0.9056900208545666,0.21690941240156258,101.16857074093211,1.7951731513381763,-0.3066504683839343,0.15801371221034813,0.47988911675935697,315.55141714877914,161.65078637078338,66.5572857132819,-4.233989949720765,5.844169510334397
GUIDED_NOGPS,1.903824806213379,29.603229722481014,317.4425747381454,161.02838408204687,66.52022418469996,-3.6914558251748546,297.10861066446984,51.80538631367729,26.906848255722842,0.9348117063196796,0.29051916149958334,101.45371064821263,1.7535995905305988,-0.3277413731066101,0.14765823300699418,0.48019331203551147,311.47681855559375,159.59536042229507,66.30662511849168,-0.8940223610950255,7.448451336700702
GUIDED_NOGPS,1.9357821941375732,31.30147689873654,316.4380270647083,160.9237697939726,66.61127670372407,-3.4392998214740724,296.5034496471937,51.13989013708101,26.954199125086035,0.9148395928563275,0.29922674555685047,101.64175258625225,1.7906501098770486,-0.2779926804048164,0.1375719928589629,0.480171461210681,315.916376929506,161.5251625888395,66.96991927939841,-1.1535733745752452,7.906817572805361
GUIDED_NOGPS,1.9758884906768799,24.938929618332413,317.84155148506545,162.88679477959099,67.78050955821709,-3.2191548979632154,295.8867989596674,50.4617587586069,27.00304826444687,0.9848516998916028,0.3076468746995953,101.95803132595886,1.8761287476117565,-0.38341170563947446,0.12876619591852861,0.4796112693531149,329.66992751401034,167.53986132763856,70.06498427676092,-5.63821639091536,8.479775367936185
GUIDED_NOGPS,2.0226714611053467,21.37965766482144,320.2480620551194,164.9717079273144,68.83974268240587,-2.9226700891514823,295.2590462665177,49.77141849343331,27.05340344610831,1.0090932151947416,0.21691960432446472,102.5310022350529,1.9168076112687085,-0.4659333022642877,0.1169068035660593,0.4791068303818512,328.6257701277072,165.8500998654654,69.48432449105805,-6.249773460240249,9.224620501606255
GUIDED_NOGPS,2.0650947093963623,23.59903675196363,321.98229001256277,165.32781779408947,69.24674428022284,-2.5333982878828345,294.6205924398731,49.06931018104122,27.105271738806994,0.9964877809163658,0.17571061846254482,102.7622792705387,1.9052905315057618,-0.5192928571389601,0.10133593151531338,0.47892926372929207,324.222556935996,162.59349218916464,68.19092407284933,-4.0479639774875125,9.453803619658583
GUIDED_NOGPS,2.093954563140869,34.63046996268041,324.78859366399126,163.34254801088383,68.4683985813114,-2.2227833430233983,293.9718509723635,48.35588853968963,27.15865951492935,1.039366748030354,0.02028123288414794,103.21150081225043,1.832066116745973,-0.6630917134508894,0.08891133372093593,0.479345130466809,325.5083368127363,161.58405197802165,67.7299471800266,-2.0277260613034116,10.370536091867901
STABILIZE,2.1383628845214844,22.52434859192748,326.8077875654093,161.48013517840354,67.7143695869953,-1.9230800049168906,293.31324739011995,47.63162152089109,27.213572457727615,1.1653400890394243,-0.2318244644756077,103.73107330241331,1.8245769498239597,-0.6685017591719066,0.07692320019667563,0.47974960143536616,326.01234643659643,160.2628613680245,67.22223750810971,-0.44817828186674546,10.657014989433312
STABILIZE,2.175509214401245,26.92591736640731,327.11544548432533,160.42569249412463,66.89884730314321,-1.4404148620059547,292.645218665775,46.89698966388696,27.27001556853592,1.1110312272362433,-0.44454702427680537,104.17153171141992,1.8270270694178308,-0.6693610274538053,0.05761659448023819,0.48018558413269635,331.20821710859053,159.43016413632793,65.74435722129303,1.2486026917944315,11.401860123103383
STABILIZE,2.2098748683929443,29.107907977376037,329.20895257038734,160.26208915291022,66.22938445088924,-1.048078841853335,291.96821263146234,46.15248545012309,27.327993173986357,1.0120052236586943,-0.65879020830283,104.42494539000573,1.85399340145648,-0.7909870160017809,0.04192315367413341,0.4805493043615486,339.0933055580172,161.0932419543784,65.72155862326467,-2.2533816477536703,11.401860123103383
STABILIZE,2.2495312690734863,25.221614210633923,331.60472210237174,159.358950046289,64.8992676332915,-0.6942639078691294,291.28268739181675,45.39861265772505,27.387508933225043,0.8494942659323165,-0.8020992097556278,104.71949729796252,1.8309303043803884,-0.8620143878111464,0.027770556314765178,0.48124412064996674,336.20140459591795,157.55344404816077,63.231887055316506,-1.2009325711822072,10.427831871380983
STABILIZE,2.3002781867980957,19.707482098220158,333.6937287734362,158.0081411374083,63.434141945566324,-0.2723749248596223,290.5891107369742,44.63588571597368,27.44856584512816,0.42589036255891555,-1.2695195770674537,105.53767199826001,1.8090375501005884,-0.9082308643031379,0.010894996994384891,0.4820072119497809,335.9533701680589,155.37773740968575,61.34898015811749,1.587451904940508,10.485127650894066
STABILIZE,2.337688684463501,26.737621837329236,337.2916351066472,155.73792032314427,61.24052268630686,0.22849476649841122,289.8879595555716,43.86482905978053,27.511166255518066,0.41578979343693606,-1.3042472470155604,105.88467292885335,1.7535146286571837,-1.0704791798682616,-0.00913979065993645,0.4831353217846056,344.00187810265123,154.2825795115863,59.140700845486265,0.6487920053679659,9.625690958197831
STABILIZE,2.3880064487457275,19.876333996777557,340.0598788080038,154.0338632767595,59.59595618886374,0.5764992537357626,289.17971924774696,43.085976484163226,27.57531186437932,0.5005101792413048,-1.358290371771346,106.40689553241418,1.7494575608188057,-1.1041326753954785,-0.023059970149430505,0.4839896778377578,345.0494356153736,152.44127290900641,58.29818756298713,1.2366104385005485,8.938141604040842
STABILIZE,2.4218146800994873,29.582976562444898,342.4042782984146,152.65334771769741,58.134852925737924,1.0241055256144518,288.464883138139,42.29987049872101,27.64100373307476,0.6022309058898354,-1.4280210536684754,106.68545113733481,1.7304382492307475,-1.1998650178767973,-0.04096422102457807,0.4847530754036684,350.81530301007143,151.23619073249958,56.96567036874004,3.1196606422981006,7.505747116213785
STABILIZE,2.456320285797119,28.99261757956148,345.3270579812454,151.63788479133518,57.409842766822514,1.2865103239161282,287.74395188888735,41.5070616821101,27.70824229156157,0.7665909238905826,-1.3603445511642271,106.88177126464848,1.7282460644405018,-1.2959434006872412,-0.05146041295664513,0.48514919976236953,350.81530301007143,151.23619073249958,56.96567036874004,3.1196606422981006,6.990085100596044
STABILIZE,2.5212996006011963,15.391376463249054,349.2686572095201,151.35146486382249,56.90614759779052,1.4829776340152834,287.0174329126324,40.70810803651912,27.77702734560735,2.6147059107510127,-1.235548777456749,107.25966514085778,1.7419581652819771,-1.3619862033539107,-0.059319105360611336,0.4854354398739084,355.66136630943254,151.58201312646833,56.78710205589117,-0.4417814905924615,5.328507494716656
STABILIZE,2.542271375656128,47.701031514062485,352.0629084532194,151.00508277081397,56.48324555620667,1.797614258009871,286.2858397855153,39.903574342144665,27.84735808400616,3.646751549764759,-1.179279331196657,107.33743367474754,1.7479176341126064,-1.5410907532552032,-0.07190457032039485,0.48568205626389976,357.9731343211477,150.19704445347406,55.696964243988475,3.6126627459988185,4.469070802020421
STABILIZE,2.581432342529297,25.5399847769828,349.29325753615814,146.78599535408375,54.07044473009023,1.9325844458277874,285.54969166017764,39.094031511666586,27.919233085794605,8.621238086440284,-1.2861089326226511,107.50989595129036,1.6126112448595922,-1.2776828890381953,-0.0773033778331115,0.48692439417785216,331.20118103006695,138.57892848230892,49.72726789039073,11.960980027740959,2.521014298575622
STABILIZE,2.62404203414917,23.47409306126104,350.57976714171684,146.25613360446076,52.0474570212639,2.0861216571677206,284.80951267876185,38.28005594472353,27.9926503274679,13.811163303689996,-1.707594997105672,107.57092369152443,1.682192377772352,-1.423349625201993,-0.08344486628670883,0.487972596653102,357.24785103786525,149.99242787759937,50.71813892941218,4.986124518593201,2.4064227395494577
STABILIZE,2.6610448360443115,27.02707021760563,349.87137293300407,145.16817878318543,48.20672273247593,2.2568991356149626,284.06583138591054,37.46222888238831,28.06760719019591,17.99017015113269,-2.2977324127397654,107.50422006409009,1.6642824447912203,-1.381578299500478,-0.09027596542459851,0.48993044222886,347.2733319665074,146.9331799896481,44.17476137762458,7.818687903454062,2.9220847551671985
STABILIZE,2.7052805423736572,22.6125098390175,350.3181448641809,150.10951809399486,43.85641608428185,2.3600184529105293,283.31918014176694,36.6411357616434,28.144100467039248,21.714522041378906,-3.4042832493238917,107.20698389178946,1.8621520221850059,-1.4425738753328567,-0.09440073811642118,0.4921438421913787,357.8952259653165,153.40294641473724,36.67634794580847,5.234254234778803,1.3750987083139758
STABILIZE,2.7539117336273193,20.565656763767056,352.6547798914364,153.4873809401218,29.89018813552841,2.42213820591106,282.5700945349746,35.81736556985637,28.222126370165313,23.605500894231955,-4.819210296744924,106.5862358094512,1.8881453046466208,-1.5436038244465018,-0.0968855282364424,0.4991659691173185,369.65630945742515,160.12601641598016,8.819455083151864,4.47702655888304,-0.5156620156177409
STABILIZE,2.7964205741882324,23.53349380284693,359.7224278985491,157.08883759398842,13.265192264815326,2.408081829692181,281.8191127956774,34.991510199255295,28.301680538064375,23.14709104053926,-6.109611896539222,105.91786081803043,1.9250241723320587,-1.8217432586976283,-0.09632327318768724,0.5075182441366245,366.53942106563017,157.73754995124804,-5.700226234514669,5.492485852049043,-3.151267873219528
STABILIZE,2.8405704498291016,22.654524635144917,361.462540526611,157.4900700772736,-9.385448966439892,2.2819775775211983,281.0667752085195,34.164163801404214,28.382758042765623,20.746774735994602,-6.87003990872519,105.38119919456419,1.9276226441519293,-1.7398018954180219,-0.09127910310084794,0.5188841035046028,365.9484141781751,154.60664386459285,-31.27557574795718,5.063891867269561,-6.016056848873644
STABILIZE,2.87851881980896,26.358713958925115,366.1740974785631,156.18289898925926,-25.39602307207103,2.0276267160138444,280.31362352564497,33.335922141678566,28.46535339705323,17.106845691437037,-7.199346380499954,104.91005957580589,1.88842184228226,-1.9264526595492333,-0.08110506864055378,0.5269306882345621,370.83111672626785,156.2045031519371,-39.21226723374155,1.9806722814626738,-8.422479588423101
STABILIZE,2.9252982139587402,21.379330733746208,370.0960268898496,156.83650554268903,-37.71941575596344,1.7030574348722012,279.5602003796983,32.507381953740676,28.549460561682444,13.551774917127714,-7.1457157351370135,104.46344033616792,1.9423129764052356,-1.9681984958729306,-0.06812229739488805,0.533134438158823,377.504873021749,159.69836961153734,-42.670404286191896,1.676088817869399,-11.058085446024888
STABILIZE,2.96299409866333,26.53447206933637,375.5767618613911,162.65501065303263,-39.97464670568364,1.152971076344084,278.8070486968238,31.679140294015035,28.63507295259561,10.808987804956741,-6.78392488366967,104.12610412325016,1.959351506089474,-2.0390207194059875,-0.046118843053763355,0.5343048598291397,397.05998431513257,172.06215919562362,-38.04126859711779,-12.038481413547558,-11.745634800181877
STABILIZE,3.01312518119812,19.980107086374115,377.53432006053896,165.65304527559854,-36.68935763723142,0.7039304649621463,278.05471110966585,30.85179389616394,28.722183448138274,7.07268222988936,-6.245547175174462,103.5816355935626,1.975277867970597,-2.0241165228292273,-0.028157218598485852,0.5327057705426849,376.3272120613696,165.19860701963478,-29.356400028384908,-0.39720402584576675,-13.57909974460051
STABILIZE,3.0535454750061035,24.74909867648534,380.645560649339,168.7322504694663,-29.87195284892111,0.12347727378914133,277.30372937036867,30.02593852556288,28.810784396275224,4.344207779124149,-5.786680979467842,103.03103355400036,1.9956851889888685,-2.0042962234549933,-0.004939090951565654,0.5293413686225982,381.5046171221755,168.93598519314062,-22.218189921260965,-1.2204736022648035,-14.896902673401405
STABILIZE,3.096930980682373,23.04866575812195,384.42325004475134,169.4569912111423,-21.651746000668258,-0.471536162847521,276.5546437635764,29.202168333775845,28.90086762180656,2.3446152580895556,-5.622986531385201,102.32024991802298,2.0163918011740782,-1.9833378377631004,0.01886144651390084,0.5252763068112374,389.7195637033292,174.23638142065172,-13.380648052359232,-9.009978996210194,-14.839606893888321
STABILIZE,3.138291597366333,24.180934536335073,383.94187081343307,171.23186402460132,-10.83045960955072,-1.0750993172196133,275.8079925194328,28.38107521303094,28.99242443358377,1.3133074929495825,-5.705137485401176,101.72709579993156,2.0371737653584785,-1.9614245897415932,0.04300397268878453,0.5199114420215672,375.0979768651576,170.52322546001176,3.1074591449677045,-2.835841646588136,-13.980170201192088
STABILIZE,3.1854465007781982,21.22065043612005,379.5494693234381,171.76094411355837,-2.388576587474496,-1.6338803554817811,275.0643112265815,27.563248150695728,29.085445631725772,0.26565863362248565,-5.951652672925276,101.08712756526887,2.05621231312707,-1.940558638731267,0.06535521421927125,0.5157370111096001,375.0979768651576,170.52322546001176,3.1074591449677045,-2.835841646588136,-13.120733508495853
STABILIZE,3.2253384590148926,25.081799970100164,377.81175565005134,170.1242816142992,5.423625886931153,-2.2388860161175934,274.32413224516563,26.749272583752656,29.179921514834998,-0.29926724644419456,-6.227226473386372,100.77761071284058,2.0766052436935483,-1.917348628256949,0.08955544064470373,0.5118781478139519,367.638643694436,169.32639392287422,10.055959370857714,-2.2280628291228908,-12.719663051904275
STABILIZE,3.2617294788360596,27.474446817151616,374.4789464139427,169.58844043161523,7.881074683648443,-2.6968670069766274,273.587984119828,25.93972975327455,29.275841887213453,-1.1982514622768365,-6.584316020270632,100.29608237635468,2.0893951261841686,-1.8465403999022916,0.1078746802790651,0.5106973836017825,364.8405709416325,168.91570191195976,10.479805535119574,-2.378253369994127,-11.229972784564136
STABILIZE,3.3092892169952393,21.03145966003109,369.0311999757837,168.9830148053319,10.21735562636431,-3.0635490992527323,272.8563909927109,25.13519605890012,29.373196066078776,-1.9970685526928618,-6.794388733478129,99.7706564140731,2.0946186900098454,-1.7093731751754384,0.1225419639701093,0.5095779202198573,362.4808315125341,168.70694858116175,10.116301973115304,-0.5895044893572106,-9.511099399171666
STABILIZE,3.3615524768829346,19.13809089249863,366.8482715454866,169.51996949069496,9.827489006032886,-3.5129533276252682,272.129872016456,24.33624241330915,29.471972888780314,-2.2308490659528846,-6.531784181590417,99.36403476221474,2.1105842658339253,-1.7332455595659062,0.14051813310501074,0.5098222419413737,364.1833347136722,170.9372579789634,8.886359509863444,-2.619102299114914,-8.422479588423101
STABILIZE,3.39612078666687,28.937011024795442,363.9536672303549,169.8269731517245,9.042924660283687,-3.924909347701426,271.40894076720434,23.543433596698222,29.57216072001517,-2.2369095781808017,-6.1141497034690495,99.06278926887133,2.1177905044744945,-1.6402218390755097,0.15699637390805704,0.5102646180298658,360.62495528949916,169.8367128950485,8.126112497871976,-3.2053382531076977,-7.276563998161455
STABILIZE,3.434692859649658,25.927255643745518,362.2864669814675,170.02654197003983,8.183985787850043,-4.46977825482973,270.69410465759637,22.757327611256002,29.673747459044286,-2.067270517642722,-5.321135712526596,98.76707622875563,2.1347643639709193,-1.6354143863721637,0.17879113019318918,0.5107448808355971,359.3026424499991,169.3056550361077,7.539485355814375,-47.767055265325155,-6.760901982543714
STABILIZE,3.482938528060913,20.733909398295534,362.1481553530149,170.49789977709577,7.986757727910167,-4.718510570877929,269.9858643497717,21.978475035638695,29.776720546908496,-1.6712070575807234,-4.203420504857261,98.523914664114,2.1458228772250356,-1.6722929743614197,0.18874042283511716,0.5108949814094992,364.14901279936925,172.35133140013127,8.294675330043814,-6.269890207746599,-5.099324376664327
STABILIZE,3.531412363052368,20.63151267117897,360.65589314594644,170.10089672230092,9.228958907345419,-4.944550588561112,269.28471316836914,21.207418379445556,29.881066973644597,-0.26533235868748534,-2.5274850353801845,98.29410611929976,2.1486621118274245,-1.6192019740105004,0.1977820235424445,0.5103260540331496,355.01952047719226,168.64570373066402,11.85271603617773,-2.276073673400333,-3.552338329811104
STABILIZE,3.577557325363159,21.67565360743761,357.30128008023377,168.81118478800832,12.625040724268954,-5.068473499656865,268.5911365135266,20.44469143769419,29.986773285501403,1.0504325082594206,-1.1927126057467794,98.26659411732294,2.143780840802966,-1.5198847289991113,0.20273893998627462,0.5086808662806163,347.4102693851086,165.43651923323,17.727730806584983,-1.4230065839031454,-0.6302535746439055
STABILIZE,3.615720748901367,26.22587381979616,354.8725442765094,166.74254145916905,16.857370843324478,-5.092927665715414,267.905611273881,19.690818645296133,30.093825592155824,2.0390022856587433,-0.10271828111289617,98.29560193072798,2.1424736380004097,-1.4970198830968098,0.20371710662861656,0.5066182273744156,348.4812762708777,166.14540141361337,20.991665687210396,-1.7245508740629276,0.5729577951308232
STABILIZE,3.6642072200775146,20.620963618485742,352.84015726388606,165.97525909106918,20.781189779164446,-5.345899450127499,267.2286052395683,18.946314431532286,30.20220957392893,2.825644990766044,0.9581472610624396,98.4431271866111,2.1482318919959806,-1.4769112012824723,0.21383597800509996,0.5047105098973822,349.14070738688235,166.34385662636438,23.624172843697636,-47.23081956644296,1.8334649444186344
STABILIZE,3.7062156200408936,23.816117016444082,352.2478143385876,167.89152095246746,24.922804618172943,-5.328268617296744,266.5605765152233,18.21168257452814,30.311910489001992,3.249672952837367,1.6010489552519391,98.58412961183683,2.1506696842861426,-1.508449144161701,0.21313074469186977,0.5026945529354145,361.18729817287715,171.18530481742482,30.152575323610474,-12.549231615678494,2.521014298575622
STABILIZE,3.749753952026367,22.96726006319098,352.37410734630384,168.4449688336414,28.597170802378415,-5.285748139656109,265.9019729329798,17.487415555729612,30.42291318063258,3.6938918078688947,1.902699457468792,98.70417018649981,2.1524543883964413,-1.5415011058222818,0.21142992558624435,0.5009128711891271,355.65098551577336,167.8057450571352,32.01476423982682,-12.43028832089486,2.807493196141034
STABILIZE,3.788099765777588,26.08316905568857,352.3978510188566,167.21239008937138,31.689580356864667,-5.148795389462159,265.25323146547015,16.773993914377996,30.535202084370606,4.701459116114373,2.08890279396121,98.88823695444248,2.1499118405415154,-1.5603481345482966,0.20595181557848638,0.49942281086375295,347.5289877478726,162.6461203935543,32.90140150715639,-4.306213066879536,4.1252961249419275
STABILIZE,3.8457798957824707,17.340146516512046,355.53483826335025,165.76548600071746,33.18337774458501,-5.07542986565906,264.6147776388256,16.071885601985954,30.648761235274392,7.702322364753339,2.036780339744374,99.13320168902499,2.159455163065093,-1.6926075485835785,0.2030171946263624,0.4987326917453447,364.16621249334594,166.844592551463,34.63396748677151,-14.302122253499817,3.8388172273765155
STABILIZE,3.878614664077759,30.48518370461896,356.2574425148322,163.02493361884015,32.864456854027864,-4.892541564148857,263.98702494567596,15.381545336812337,30.76357427512675,9.846901018847085,1.4908483353054263,99.23458901706465,2.1531268320045105,-1.6903807665644828,0.19570166256595428,0.49894955871054947,352.7537286442919,159.58408791150322,31.058001568155394,-7.160173954532411,4.5263665815335035
STABILIZE,3.9182958602905273,25.198430769415623,353.7894942054486,160.70665094198526,30.891142195041184,-4.923655889172583,263.37037425814964,14.703413958338217,30.879624459651012,12.15577475078361,0.8333903340558659,99.37532506491277,2.1438133859692408,-1.5710811865429544,0.19694623556690333,0.4999942411323049,348.8475566259588,155.69127236298968,26.98145753019635,-41.912689324590104,6.990085100596044
STABILIZE,3.9585938453674316,24.81910115683896,352.4288084274857,156.9888775458275,28.340305542849464,-4.8935791342248685,262.76521324087344,14.037917781741953,30.996894665727133,13.61934170971842,-0.25772411492147296,99.52535700022126,2.1441081749136135,-1.5854112707275196,0.19574316536899475,0.5013282945614388,348.8475566259588,155.69127236298968,26.98145753019635,-41.912689324590104,8.36518380891002
STABILIZE,4.001532554626465,23.29379488062379,353.7256102167115,153.6627255045827,17.44701219576216,-4.781777090509418,262.17191576397295,13.38546795237471,31.11536739860773,12.849047489276368,-1.1626001159651915,99.75054833715659,2.149351652236861,-1.6894348385452942,0.1912710836203767,0.5068341776014228,354.0129966940018,149.60563178776877,-1.6218784731065161,-37.77742549079403,9.281916281119337
STABILIZE,4.041356325149536,25.11649520342048,349.00598236621346,148.3566111881573,5.008140197097077,-4.400123746250843,261.59084131607176,12.746459800235925,31.235024799134173,10.925976138834367,-1.6851600668380016,99.9800905045932,2.1202524684273123,-1.4767158512861205,0.17600494985003373,0.5131134423010185,340.56807324085554,139.7729294137135,-10.335158465798894,0.18966094735804973,8.708958485988513
STABILIZE,4.084649562835693,23.100712688498948,351.0030523052906,144.40058659605742,-9.887237181888615,-4.120118087904623,261.0223344172921,12.121272194448864,31.35584865095261,8.312339366131871,-1.703534129478982,100.33370305830312,2.128369401208112,-1.7009073229879335,0.16480472351618491,0.5206215429164206,362.73907833967786,143.82319858669007,-17.704674606760726,-10.422640375740585,8.021409131831525
STABILIZE,4.121515512466431,27.129512363925667,351.28689397746473,139.42424635490497,-16.16506895937678,-3.8042858824524526,260.4667240322541,11.510266897735846,31.477820387730063,6.111620399042029,-1.3061940643724257,100.65982410060371,2.0696281772881946,-1.6978024695595406,0.1521714352980981,0.5238214446735534,350.2667649868294,134.6766110643114,-20.455373805571003,-6.363575764964111,7.219268218648373
STABILIZE,4.164295434951782,23.38170628372653,354.77633665946,138.385186290957,-19.771361670537484,-3.647285643928113,259.9243229830763,10.913787920893697,31.600921100370485,3.8422627265486122,-0.7627408849936639,100.95280506505141,2.1226817559806985,-1.8531400165678673,0.14589142575712452,0.525686141385454,366.29477003593513,136.6557492218697,-21.154036599281014,-16.270152012658926,5.557690612768986
STABILIZE,4.201894760131836,26.604488309843074,354.52056888672286,131.6729903254708,-18.275379650491534,-3.452393950425027,259.3954273623755,10.332160877269473,31.725131544230823,2.0291200691467925,-0.33820732884120086,101.16480730669943,1.9234024871614155,-1.7904378725660626,0.13809575801700108,0.5250002555973612,352.7341578303161,123.68661069023148,-13.216728546622875,-7.929080278258283,4.411775022507339
STABILIZE,4.236358404159546,29.0233124589143,357.50928738846426,127.04019316047577,-14.222072965919091,-3.3200044078202984,258.8803159462662,9.765692337235606,31.850432146337084,1.0705238298681305,-0.07554856232695237,101.26297761564003,1.8954105852917114,-1.8868751844443818,0.13280017631281194,0.5230362525561281,355.51166574956227,120.7782195693262,-8.295453751853676,-9.297148044772555,3.7815214478634336
STABILIZE,4.2710182666778564,28.85598508458718,356.08920762857065,120.53676922519507,-8.394256213628273,-3.2158663107124124,258.3792496073611,9.214669182665318,31.9768030126004,0.5959908877527941,-0.13722050145753956,101.32676475229877,1.749280856524492,-1.8265108517695896,0.1286346524284965,0.5201855296131144,355.63867954021003,117.14547741602765,-3.670586342408552,-7.236965457787065,3.151267873219528
STABILIZE,4.31698751449585,21.75897739180959,357.81250133203184,117.48986896260065,-4.297292374707791,-3.144311057246712,257.89247072777084,8.67935796140847,32.10422393503308,-0.5617785769219059,-0.6464887708033726,101.53744193724782,1.8037957888688692,-1.8980490242059607,0.12577244228986847,0.5182007581548704,358.8832335041352,114.5459099024482,-0.92583702986143,-10.612953511618201,3.151267873219528
STABILIZE,4.348843812942505,31.394961002410216,357.060497090791,114.54122899597301,-1.5615782977395305,-3.1098163363329365,257.4202026121038,8.160004241766416,32.232674398964704,-0.6715453731344173,-1.1354862926726508,101.66705843712715,1.7474927921784298,-1.886470660883157,0.12439265345331746,0.5168971263483522,362.53474882973046,111.93229966944331,-0.08831152094889601,-23.703648433496994,3.8388172273765155
STABILIZE,4.38948392868042,24.61186024950416,356.28672388903635,110.29380521639871,-0.7690146826046308,-2.98414766216521,256.96264890046626,7.656831966967843,32.36213359025815,-0.6568487803921068,-1.9748561371817455,101.83225339239307,1.6691453273356875,-1.889098683732545,0.1193659064866084,0.5165655741364313,348.8652918215431,104.40320607730472,-1.292895497003853,-0.9568106860204892,3.6096341093241864
STABILIZE,4.431617736816406,23.738745571239374,354.25127011220803,105.5364802731112,-2.26515103437625,-2.836510720422985,256.5199929814622,7.170042809644315,32.4925804025257,-0.4819283294391678,-2.8203947097284194,102.0218867645093,1.5858234372738986,-1.83600564781657,0.1134604288169194,0.5173788657184509,345.33439686542084,100.27393507258569,-5.414246085176289,-1.087126104067238,3.323155211758775
STABILIZE,4.46776819229126,27.668555521106136,351.92221636378747,99.46901172686454,-8.29569045669771,-2.6980623650835045,256.0923974051932,6.699815526305116,32.623993444345054,-0.4012207331330344,-3.1575354084811877,102.08777076924325,1.4465944833879771,-1.7938022279859172,0.10792249460334018,0.5204598419505214,343.99341079810705,93.7298940307033,-18.179929787913274,-1.170122070482023,2.807493196141034
STABILIZE,4.509016990661621,24.247755481942686,348.55335923126495,94.68376021660178,-15.936228604460359,-2.5830942050134538,255.6800032962584,6.246305311813387,32.75635104647545,-0.26728317810831737,-3.821564692042535,102.25569780017719,1.4100786296394006,-1.7203970490572307,0.10332376820053815,0.5243462898254679,342.03894784152254,90.04745154651644,-24.2145099402918,0.2573104899303189,2.635605857601787
STABILIZE,4.550646781921387,24.025524553635357,342.70831435373253,89.58060569429716,-24.00512373282163,-2.4244872803895037,255.28292976675456,5.809643153861089,32.88963126907369,-0.1861937181986847,-4.062596091436761,102.39969867844856,1.317839402384281,-1.5602644420011322,0.09697949121558015,0.5284473775009476,333.3095244420685,84.96447150567184,-29.6209314702601,4.031545132083295,3.20856365273261
STABILIZE,4.58920955657959,25.936073511133646,341.6970721772598,86.62968612597626,-30.09316444265674,-2.296447820300445,254.90127332927597,5.389935187444792,33.02381190891022,-0.20823791362106284,-4.0334397214172695,102.54201933018412,1.3154066767075332,-1.6655557277717261,0.0918579128120178,0.5315584881757834,343.8090809391795,84.87713532574061,-36.444051917418605,-1.3725175816072266,3.0366763141933633
STABILIZE,4.6366636753082275,21.075527729344316,340.9518232709539,83.83457078383,-35.4516935545895,-2.1497053104876036,254.535107309914,4.987262049340728,33.15887050658519,-0.364840477570902,-3.8237853572964355,102.69690069980334,1.2846676890045257,-1.6709015913170309,0.08598821241950415,0.5343052820305874,341.6081523338911,81.66210552007766,-40.29009727609008,1.8585667934876398,3.552338329811104
STABILIZE,4.680416822433472,22.861727641390136,339.460948392389,80.57116475520608,-40.4879346109115,-1.963044144133113,254.18448126125782,4.601678232580554,33.29478435374452,-0.8384623364839823,-3.706804707381627,102.88372686417068,1.2195558250858183,-1.6366172942263684,0.07852176576532452,0.536891359482328,336.53903640528256,75.17425341980008,-44.729654639226105,4.7161467357023525,3.2658594322456924
STABILIZE,4.722452878952026,23.79287967143927,340.12166718892774,77.20333571746058,-44.128838999639605,-1.8125563862535876,253.84942037539332,4.233211440926624,33.43153050029596,-1.4460267129810984,-3.839971624968896,103.03274110129286,1.1657978264919595,-1.7111370789450695,0.07250225545014351,0.5387801847499678,345.3425418242164,74.77364821250411,-47.36676508360289,0.8932613312653501,3.20856365273261
STABILIZE,4.754538536071777,31.174218099655132,341.12797906802,72.9388999648533,-46.6563138349448,-1.6610811240263619,253.52992489690405,3.881861943347559,33.56908576162517,-1.9073943587495297,-4.018288227404065,103.12598001365271,1.058792437798989,-1.7618854276655374,0.06644324496105447,0.540112699798285,338.34108383752994,68.86879826225581,-47.872521782005656,2.0633465971228873,3.0366763141933633
STABILIZE,4.792497634887695,26.34844772781526,340.0343796476901,70.8370815790052,-47.703936215871316,-1.558288208503366,253.22596953587043,3.5476019284934353,33.70742672581176,-2.8966031857230714,-4.589765886390801,103.29361334645232,1.0855984786968311,-1.6851852064240056,0.06233152834013464,0.5407056814708415,338.34108383752994,68.86879826225581,-47.872521782005656,2.0633465971228873,2.3491269600363753
STABILIZE,4.835517883300781,23.24963553821167,338.2588089929971,67.46454262259681,-49.54787033047228,-1.4253368784915788,252.93750288087,3.2303748591716896,33.846529760845385,-3.6287510130940137,-5.021636613176591,103.40815561883343,1.0108515560809948,-1.6453792037053407,0.05701347513966315,0.5416972000456588,332.7302990604257,64.65603134327891,-52.89856742740579,6.322937555816978,2.119943841984046
STABILIZE,4.869556427001953,29.387517165998712,339.0431280265303,66.19325591794832,-53.06396369275607,-1.3445821123589126,252.66444681197737,2.930094826821943,33.98637102184178,-4.279397394750367,-5.344461235429013,103.53393355239922,1.0309788448970405,-1.7331243729619874,0.0537832844943565,0.5435251673572989,340.4606315729486,65.05493814831033,-58.420801868857055,-2.490855841491154,1.8334649444186344
STABILIZE,4.909138441085815,25.268109306472603,337.1114679088254,64.25298641186258,-57.55676037479873,-1.2677735794910905,252.40669591376394,2.64664590599196,34.12692645825883,-4.864989639656934,-5.427343873459825,103.6239759362275,0.9885446254155668,-1.6295499967530986,0.05071094317964362,0.5458418434165287,335.68424123569173,63.047989743998606,-61.35091182813365,1.4749858506259272,1.604281826366305
STABILIZE,4.945562839508057,27.459877048375375,333.8693110214396,62.70406751893561,-60.844224251458876,-1.155694344536862,252.1641168882981,2.379881508812872,34.26817182111268,-5.338263692530873,-5.347475056400281,103.64801820210594,0.9681665513579656,-1.532000631194659,0.046227773781474475,0.5475561980362857,322.13029940060125,60.009274664498015,-62.76095905738624,9.623172355724918,0.7448451336700702
STABILIZE,4.9853339195251465,25.165471683396433,332.5063694178607,61.39391658065063,-64.00019604624235,-1.110862741605156,251.93654796814502,2.1296237394745106,34.41008267019372,-5.633878975564079,-4.988914030636707,103.68036597801513,0.9573349426673636,-1.5638787059205388,0.04443450966420624,0.549205139358218,331.52637581963506,61.1244853334554,-67.88871725320747,-0.09139617944335043,0.9740282517223995
STABILIZE,5.02192759513855,27.333181276107684,331.7040069986151,60.43588271820235,-66.46559351629766,-1.1666108630015617,251.72379832936656,1.8956627487013122,34.55263438128271,-5.488363075957427,-4.631247759654404,103.66978601499078,0.9528464218643989,-1.563747479717298,0.04666443452006247,0.5505091139487902,328.71848696419795,60.17388815665377,-68.74710423829958,-16.782522316077902,0.40107045659157625
STABILIZE,5.067063331604004,22.156914949815107,329.3821918596585,60.438866266075756,-68.77519923716731,-1.2166209140122861,251.52564750452137,1.6777560882268006,34.69580215336681,-4.627725943363616,-4.010940224517601,103.67419148700543,0.9759377909017048,-1.4890984215770744,0.04866483656049145,0.5517355006952671,328.8515558781656,60.018225308118204,-69.6897762199952,-16.210695426777647,1.088619810748564
STABILIZE,5.099078178405762,31.240858949626464,327.49555566303843,59.75684291024715,-69.08700077431614,-1.1545037340691946,251.34184479566431,1.4756280652703992,34.83956101585571,-3.9386315730956145,-3.7631268741643753,103.73374390637878,0.9499867766442943,-1.4506496895147043,0.046180149362767785,0.551963280895086,326.25106025259134,59.07841526596961,-68.82412186465395,0.4356721782113908,1.6615776058793874
STABILIZE,5.129761457443237,32.62120457939273,327.3496326640975,58.71094637908189,-68.63711286887929,-1.222015799982839,251.17210868734725,1.2889690970112895,34.98388583579759,-3.115617470327762,-3.575184827641366,103.81417621404485,0.9284732982287459,-1.504184976457006,0.048880631999313556,0.5518104993523384,321.4006844058965,57.03619856315798,-67.39744052198903,-26.092326795645164,2.807493196141034
STABILIZE,5.162874221801758,30.192877761541062,325.32449438134984,57.716937464095146,-67.8730009695439,-1.2745033271699728,251.01612625961826,1.1174350650654503,35.12875132509526,-2.1329681862783705,-3.5114420872122216,103.92503701446333,0.9174285590845056,-1.4092964701807906,0.05098013308679891,0.5515008761473196,321.4006844058965,57.03619856315798,-67.39744052198903,-26.092326795645164,3.323155211758775
STABILIZE,5.197381973266602,29.004245902772976,324.7778034256306,56.95895236642599,-68.05187978335147,-1.1501655225210725,250.87355260102214,0.9606466699600276,35.27413204772221,-0.7345120866799715,-3.7852712012272027,104.16135472955659,0.9112400085681771,-1.4477447074439664,0.0460066209008429,0.5516630059155369,325.9850321856021,56.80445997296216,-69.36075830607666,-2.471644198213866,5.614986392282068
STABILIZE,5.229536294937134,31.09448509515231,323.4656666510225,56.20947549940695,-68.93528828555056,-0.964569578722782,250.74401022159952,0.8181887856087826,35.42000242693866,-0.12256111456990715,-3.9341121222991817,104.29034968222146,0.8949877825227583,-1.4025938087271543,0.03858278314891128,0.5521776453562446,322.2908720051248,54.78776796210088,-70.04766602858629,1.8143225029124181,6.302535746439056
STABILIZE,5.274938583374023,22.031684666134385,321.9595364414316,54.67724241600005,-70.39943426151824,-0.6935762456258407,250.62708846588748,0.6896098137882802,35.56633675250765,2.2259840502731314,-4.790301521082845,104.88399557393312,0.8558676082512908,-1.3855407730128042,0.02774304982503363,0.5529828855070129,318.720409204637,52.4394993129373,-71.78987844989206,2.0453006952441513,10.886198107485642
STABILIZE,5.320678949356079,21.86321106321315,320.39516151987686,51.42597283733883,-73.81710757332509,-0.22933748566716056,250.5223429259196,0.5744210386125417,35.71310918791107,3.3937160929042354,-4.962663906109055,105.45241757703991,0.7643762441312202,-1.3625569781118225,0.009173499426686422,0.5547651083806181,313.5788097981225,47.0506512369785,-79.61377824149726,4.984348621288774,13.407212406061264
STABILIZE,5.361063241958618,24.781268278848824,318.6566520119242,47.68059546885144,-78.55389097866599,0.1889263774827751,250.42929485422547,0.4720959810090619,35.860293777565765,4.308774038370592,-4.607988831096395,106.05199890314032,0.678345870449404,-1.3257750406135795,-0.007557055099311005,0.5572070923781158,312.7081368661333,43.55163585663871,-84.25801624460902,-19.13948248942502,13.120733508495853
STABILIZE,5.3978846073150635,27.152519550468693,315.0529561562802,42.2887758193451,-84.6350443417705,0.6768420748004981,250.3474305768304,0.38206975319380376,36.00786445403955,5.032471427634348,-4.1136901752966875,106.569153506337,0.5419225376470782,-1.2054536163881895,-0.027073682992019923,0.560321454397905,307.9665529073817,36.26404036441828,-90.03333853920559,2.914824644941447,13.2926208470351
STABILIZE,5.434339284896851,27.437961600104668,312.24414708748793,37.60776654887676,-88.01483227324066,1.125321361683261,250.27620090625607,0.30373841314681727,36.15579504526733,5.121706995366917,-3.2053386218216375,107.2136979677436,0.4727299188962434,-1.1731966256265436,-0.045012854467330436,0.562085313659254,308.24682666116337,33.00762342557348,-89.75314203590774,-0.9534139953783978,12.776958831417359
STABILIZE,5.4753193855285645,24.40563721211698,310.3349642164452,32.93007088804592,-89.59106684376422,1.5556083798707678,250.21502055451992,0.23645831908785908,36.304059281767124,4.458682603387209,-2.039391606441434,107.75782498797265,0.401436017798752,-1.1677335968593918,-0.06222433519483071,0.5629475630627657,309.17449484942347,29.518548874146177,-88.98671995617974,0.35325626887338046,12.032113697747288
STABILIZE,5.505745887756348,32.87638934612551,309.1015372976308,29.74727625836331,-88.14994478057268,2.0220249407938358,250.16326754613556,0.17954548395161396,36.45263080385614,4.20970257134638,-1.6933553333466649,107.9013545831913,0.35007953907591854,-1.1514017823083342,-0.08088099763175344,0.5623012877922144,307.41167520405065,26.715656475370448,-85.70997234963095,1.8848374202798084,11.058085446024888
STABILIZE,5.5358006954193115,33.27861880732489,307.8308852401194,27.264335989424,-85.42023160280787,2.3454090083215386,250.1202826311121,0.13227492986297307,36.601483168866835,3.4923574714541483,-0.8053625460750129,108.238888871595,0.32320601555740985,-1.1255279560521878,-0.09381636033286155,0.5610108573858373,306.35487657857647,25.55880261875557,-81.56400250261332,1.2198106173196521,11.058085446024888
STABILIZE,5.578446388244629,23.45204253939143,307.50854997435835,25.94442057096047,-82.94599245161908,2.6426444678493435,250.08536869795438,0.09388004261299443,36.75058985836303,1.843953640747747,1.2150398538133165,108.85330536857266,0.3366752896042965,-1.1560786586505944,-0.10570577871397374,0.559848291154991,306.35487657857647,25.55880261875557,-81.56400250261332,1.2198106173196521,10.141352973815572
STABILIZE,5.6124091148376465,29.45148651115761,307.130159957841,25.55880261875551,-81.5640025026132,3.058290134470769,250.05779018666323,0.06355192613406757,36.89992428535588,0.7632342594394915,3.4482619836159576,109.32065423234161,0.3386204412094177,-1.1475489899230613,-0.12233160537883077,0.5592319633939845,306.35487657857647,25.55880261875557,-81.56400250261332,1.2198106173196521,9.11002894258009
STABILIZE,5.648052215576172,28.058735775974526,305.52547870066064,24.798506892569993,-74.4291610767437,3.3323943775796043,250.03677250173473,0.04043875697473709,37.049459801520015,0.1317855385080606,6.1034442357187,109.7251312048006,0.31704411855245634,-1.082064751932493,-0.1332957751031842,0.5557393104391318,301.15108856352174,23.277915440199013,-60.159478225004825,2.551562855703537,7.333859777674538
STABILIZE,5.686950206756592,25.714730640246707,304.05190971978595,23.863065723418014,-64.24497178739716,3.572976207739173,250.02150142516075,0.02364513877685681,37.19916970440958,-0.4573339388158626,7.897886048616437,109.97530737371983,0.29617855147521127,-1.0580823434287356,-0.14291904830956692,0.5507220707459034,300.0438302996771,22.75247911129962,-51.01143463457371,3.5532792898272163,5.271211715203574
STABILIZE,5.723783254623413,27.154453227675596,303.5825088948659,22.706083629658433,-51.18588514519703,3.7330358709806797,250.01112252942846,0.01223145674853754,37.34902724467429,-0.6196167255352797,9.162566436656936,110.04888217145921,0.269245224499755,-1.0746054814586754,-0.1493214348392272,0.5442674561949357,304.0078724539763,22.087856337476833,-42.38674257601289,2.840296506144284,2.3491269600363753
