Mode,Time,Freq,North-Vision,East-Vision,Down-Vision,Yaw-Vision,North-Desired,East-Desired,Down-Desired,Roll-UAV,Pitch-UAV,Yaw-UAV,Roll-Control,Pitch-Control,Yaw-Control,Thrust-Control,northVraw,eastVraw,downVraw,yawVraw,zGyro
GUIDED_NOGPS,0.011378049850463867,88.0619790463793,24.91678068741775,-10.160775864074582,71.6220073772045,3.9406575063192855,24.009178842269968,-11.25489738129021,74.91008457294541,-0.37788821995888905,0.6287415381012994,-53.55504541411184,0.049235468274703265,0.04538009225738904,-10.0,0.5049321157936114,23.35894240877782,-11.931359607390876,80.20820429723597,6.502137622219315,-0.057295779513082325
GUIDED_NOGPS,0.0188448429107666,134.07614359236646,24.513472277948384,-14.037444949546053,83.45795316559978,3.584936858133354,24.009136917423334,-11.25480384570229,74.91010321764733,-0.36167457816889526,0.5934454683482007,-53.560024622016776,-0.126824377579459,0.025540091750143643,10.0,0.48717822507807135,25.04623843144801,-13.55294416286562,82.20899923103545,6.566664984410292,-0.057295779513082325
GUIDED_NOGPS,0.07634401321411133,17.39371897536276,24.840902264596558,-13.756022246610206,84.00963646495,3.6366408885809696,24.008846826769698,-11.254156644769761,74.91023298152892,-0.23111116327459094,0.4687298426417644,-53.602921625099036,-0.1141206222914596,0.04217061250254507,-3.0638528347359473,0.48635089477486837,25.310746011952848,-13.303041399001607,84.52522710331482,6.556696397258938,-0.40107045659157625
GUIDED_NOGPS,0.12388134002685547,21.04074404791765,25.285463231669933,-14.63621603547253,85.85484570319134,3.6727320265024144,24.00806964669687,-11.252422732761328,74.91058293072327,-0.030889477160529775,0.058831407529081704,-53.660909931152446,-0.15477043442940389,0.06491818907798887,-3.0455244781152055,0.4835836058412979,26.42063473520987,-15.514845690461748,86.76226430377629,6.673637032993945,-0.9167324722093172
GUIDED_NOGPS,0.15543293952941895,31.708011097755502,25.60121458078177,-15.074190353399585,87.23165424331026,3.704982691793422,24.006576411127654,-11.249091279504322,74.91125990539572,0.018389510607892415,0.13133514622923642,-53.69471253735484,-0.17531051253089558,0.08120540131343808,-3.220503233046154,0.4815194084931282,26.424389423751606,-15.265461221276942,87.97906218556525,6.639339310329784,-0.6302535746439055
GUIDED_NOGPS,0.19109606742858887,28.04804065801792,25.715946614280284,-14.983675207429147,88.4593565420887,3.742375900409347,24.004147974174494,-11.243673363963193,74.91236853483515,0.0635325920502471,0.03727084819687864,-53.7243555583527,-0.17172002176410436,0.08732916067891547,-3.2790211870781625,0.4796795179891197,25.98049407321003,-13.955094773780747,89.15241112237317,6.563663154048747,-0.2864788975654116
GUIDED_NOGPS,0.23168325424194336,24.643818633700945,25.99991337439041,-15.40474403296885,89.7940979285607,3.7650675141702954,24.0005748727942,-11.235701667818024,74.91401125254522,0.16914196417276273,-0.17640777800556215,-53.804460016938606,-0.19179431697487337,0.10219819984469398,-3.0675305094108953,0.4776798699859768,26.656413808050544,-15.71823158309402,90.29806950527234,6.628570836299304,-1.2032113697747289
GUIDED_NOGPS,0.29714322090148926,15.278237556824804,26.442255420628754,-15.044282647776516,91.44018941181943,3.7760972175426546,23.995657189442635,-11.224730169043013,74.91628831133579,0.16587145081866378,-0.2667649908658955,-53.87233160672102,-0.17614005029295987,0.1253619625996613,-2.9079979679779573,0.47521414834927456,27.319562655617887,-13.33810101311325,92.17994925622007,6.4272386194954,-1.1459155902616465
GUIDED_NOGPS,0.30466127395629883,133.16096260080005,26.33672130833156,-14.663236596938082,93.59483420761005,3.776114625933331,23.989204414729386,-11.210333835484999,74.91929779841414,0.16587145081866378,-0.2667649908658955,-53.87233160672102,-0.15973334902401656,0.12066392997143387,-2.83476819311266,0.47198669538620613,25.682110837064876,-13.264618677297094,93.48177836565849,6.406930887735545,-1.5469860468532228
GUIDED_NOGPS,0.3574104309082031,18.96141987866294,26.118755582268363,-14.673552639532375,94.01701515455403,3.8072653455454675,23.981035310072468,-11.19210831844194,74.9231356504763,0.14890822244768753,-0.11149600801128814,-53.98344512413879,-0.16115200823884585,0.10994731660659973,-3.1825166634925894,0.4713591807438834,25.425077531201822,-14.656901460638915,94.52489255117138,6.457675679230966,-1.8334649444186344
GUIDED_NOGPS,0.3992035388946533,23.934763380297763,26.066456161494624,-14.765399798234855,95.74762216697266,3.766837539925409,23.97097777035301,-11.169669646241436,74.92789566879839,0.20936529504051163,-0.2866047694140785,-54.12525009659201,-0.1668610498266914,0.10804596608106096,-2.371965434340822,0.4687704102527386,25.722171854461916,-14.642116327223196,95.44758844231879,6.441122120616426,-2.635605857601787
GUIDED_NOGPS,0.4359304904937744,27.233618159623926,25.638095533860195,-14.338676706909599,96.90436646621396,3.726183332357664,23.958868686569943,-11.142653917819214,74.93366953432788,0.21485799443281836,-0.17599241712666075,-54.20997176305685,-0.1485607977549065,0.08672837617514015,-2.2924813581970227,0.46704395460217085,24.390658852853228,-12.96703674255673,96.47796683170371,6.328726611391705,-2.7501974166279517
GUIDED_NOGPS,0.4796864986419678,22.85823905129379,25.131744608506388,-13.88331775720344,97.94828094569392,3.6821795130709303,23.944553808494707,-11.11071699629764,74.94054682277492,0.21550040574076978,-0.21940830114243523,-54.34994282971792,-0.12907294436743583,0.06140813277157238,-2.3314102090505555,0.4654883988156215,23.761001341064585,-12.543803975955996,97.39028591355563,6.261885658264825,-2.864788975654116
GUIDED_NOGPS,0.5086078643798828,34.58677815435107,24.390097531914282,-13.543588417877261,99.09334413445458,3.6268043756477972,23.927887607325907,-11.073534202564216,74.94861501970367,0.2896649609665087,-0.2561692330290901,-54.50292199165328,-0.11517805800919209,0.02394749123616895,-1.8334543535762846,0.4637829063278736,22.33521160801725,-12.616134547843394,99.1146897782188,6.129041010710999,-3.724225668350351
GUIDED_NOGPS,0.5682227611541748,16.77735021880175,23.951229862279593,-13.19462569532295,99.92835699695287,3.587620231765283,23.908733138344036,-11.030800008850084,74.95795953562352,0.18660166191903427,-0.13859862552472188,-54.73191091376712,-0.10101928804268659,0.002204423203338478,-2.4826132180232996,0.462544403808006,22.769989734863426,-12.181545183577418,99.61545410735829,6.0052517188542565,-4.010704565915763
GUIDED_NOGPS,0.5983316898345947,33.22589435660192,23.354064549634266,-12.866121685170315,101.16988167289624,3.4796218029426194,23.88696190356615,-10.98222773230853,74.9686637210805,0.2055158164325483,-0.10808603606815928,-54.874023244732996,-0.08810704921263048,-0.027692059675317796,-0.8913565649517889,0.4606981730722764,22.119202386260483,-12.191623125208439,100.31227293034362,5.906046395196559,-4.18259190445501
GUIDED_NOGPS,0.6317358016967773,29.945197264146902,22.62847366224969,-12.622173613014084,101.87112584115775,3.4366629276741354,23.86245371440055,-10.927549228593476,74.98080888174857,0.23832221553211125,-0.15522245219088665,-55.03020918048368,-0.07933400390956183,-0.06418766121183749,-2.0784873998148994,0.45966452456088625,20.303201269938242,-11.978887755938876,101.01812277889078,5.762574756243762,-4.411775022507339
GUIDED_NOGPS,0.6880006790161133,17.77676811772335,22.013717169176843,-12.352305394901467,102.61567958718486,3.3610257163854103,23.835096554301504,-10.866514585437994,74.99447429352087,0.20349810918261776,-0.11346310249225182,-55.281614783453506,-0.06963074140144135,-0.09484212129979626,-2.0023109176016156,0.458568192059504,20.537743288647228,-11.773343180724865,101.42932507286727,5.648660746324373,-3.8388172273765155
GUIDED_NOGPS,0.7286901473999023,24.582433683815687,21.790439771155313,-12.32976946549313,103.75278543921692,3.202131235913304,23.804786441423893,-10.7988918162328,75.00973721760103,0.1535729748465418,-0.06243881462790625,-55.47838228815782,-0.07185963529806548,-0.10505971827432259,-0.6115820653921302,0.45688542766757617,22.784031801336383,-13.139625637126633,101.71620232695372,5.566177500776343,-4.698253920072751
GUIDED_NOGPS,0.7719383239746094,23.127462008425418,21.227391435357244,-12.005306134080595,104.46427103636813,3.0921116417030854,23.771427291277927,-10.724466553604758,75.02667291559456,0.10620625328273806,-0.05699109843458639,-55.656834640602746,-0.060182857877250535,-0.13281856568089148,-1.2130421895410275,0.4558436028188396,20.26574405695444,-11.324430503194817,102.5327516576739,5.2406188214651594,-4.010704565915763
GUIDED_NOGPS,0.8092474937438965,26.80871571654107,21.12739629456505,-11.69020419601574,105.08551552089281,2.9733511965036916,23.73493077938384,-10.643041742995385,75.04535466460008,0.10293770093998283,0.0309140765137124,-55.84314171059318,-0.04924565306178562,-0.13625153089311115,-0.8287331064901167,0.4549397587155609,22.273526083945725,-11.130285727065777,102.79377285370957,4.962435859304415,-4.1252961249419275
GUIDED_NOGPS,0.8704469203948975,16.342569033972467,21.287603013435614,-11.682739986893187,105.49192143206436,2.872265639957385,23.69521620392657,-10.554437336239344,75.06585377230064,0.11100059251283743,-0.13525738236011625,-56.0619331602762,-0.053090881642713174,-0.1258747246619791,-1.5586390696076182,0.45436089851035444,23.342978501318676,-12.380393602144235,102.9043929796857,4.904742670006716,-3.8388172273765155
GUIDED_NOGPS,0.901007890701294,32.730411168423764,21.5638117311559,-11.726434712746153,106.21236286306812,2.733037599439161,23.652210348410435,-10.458489985142958,75.08823959205507,0.10331801707874826,-0.10382826689430258,-56.15246048753555,-0.05972131033232963,-0.10929489906290993,0.05529414214211004,0.45331381509348045,24.23490875970064,-12.735904404070652,102.89685648267735,4.79386464451588,-4.239887683968092
GUIDED_NOGPS,0.9315187931060791,32.786954958335286,21.76522956808044,-11.88417352222062,106.21580011189987,2.7008935380130077,23.605847344313855,-10.3550527350627,75.1125795379892,0.10670695150562495,-0.027025350998447953,-56.32857350018974,-0.07202077464818733,-0.09632457436315445,-1.7648178508163803,0.45334516913913403,23.32969183171661,-13.006902404443021,103.18084665428752,4.638391464500136,-3.6096341093241864
GUIDED_NOGPS,0.972017765045166,24.698091542370587,21.82754979353518,-11.918371703725569,106.26293161965043,2.6379580051300544,23.556068533744018,-10.243994718483702,75.13893910008728,0.013183145552197306,0.12374936738229102,-56.471242491572966,-0.0788646118674268,-0.09046081733595572,-1.4688066182327235,0.4533140112206553,22.93679681094886,-12.559524323913507,103.37777728516781,4.441554854067334,-3.380450991271857
GUIDED_NOGPS,1.0126383304595947,24.62544327282121,22.025284238357038,-11.954611968023231,106.41453417980273,2.5536903498598824,23.502822332091576,-10.125200848598254,75.1673818592832,-0.0061970493102510805,0.14303035107900233,-56.625898464949564,-0.08618206280774686,-0.07733956902729887,-1.1465367371592436,0.4531292715192207,24.06272387303217,-12.727415022053995,103.12577910152922,4.384492998529569,-2.5783100780887045
GUIDED_NOGPS,1.0634891986846924,19.670143318076086,22.32874392576142,-11.220668313812801,106.4350342704125,2.46897173966313,23.446064090685336,-9.99857151288431,75.1979695025518,-0.047668323774448726,0.18416729978951976,-56.76537092780123,-0.05757114943409805,-0.05848364342305827,-1.3033122422093277,0.45314440284820895,24.775347993799087,-7.971821298902219,102.72772329686897,4.112789111919609,-2.979380534680281
GUIDED_NOGPS,1.1043906211853027,24.451735515991,22.187824765948914,-10.827371257954258,106.48566637041503,2.3860323944721,23.385755959446954,-9.86402226668398,75.23076183800025,-0.05987171737682605,0.18746307950746247,-56.88707123843251,-0.04538308780802718,-0.06270465155659069,-1.0829923303761144,0.4531176432013778,22.14019597738047,-9.686646475697975,102.98869901693816,3.9622923760524364,-2.177239621497128
GUIDED_NOGPS,1.1654157638549805,16.39258049135094,22.11227778845901,-10.424418961731114,106.39063300691355,2.314803773383535,23.321866749545617,-9.721483526782043,75.26581680995926,-0.09608948247179963,0.26448135980558407,-57.0323015507545,-0.03310890926695851,-0.06330306561090672,-1.4796021029857782,0.45331277570456857,22.378656323552793,-9.284166878045635,102.6608495947032,3.7555666983401688,-2.291831180523293
GUIDED_NOGPS,1.1943063735961914,34.66080489215767,21.913742226389548,-10.224017299994076,106.32982427073723,2.2317877938414177,23.254371796052734,-9.570900264984441,75.30319051407449,-0.09214714263959323,0.09312706801218511,-57.10064100849506,-0.030758088131003537,-0.07015112018275621,-0.5224942939554986,0.4534600493650059,21.604299268462796,-10.365059150734991,102.75619604036461,3.6898922136915324,-2.46371851906254
GUIDED_NOGPS,1.240515947341919,21.636071949942483,21.6695776239438,-9.845882913006827,105.99630748066791,2.2151159023490643,23.18325282059664,-9.412231701696786,75.34293721239776,-0.14749235891729828,0.17534739113691766,-57.215395016740445,-0.020411573311412853,-0.07916370330280925,-1.7953087180410054,0.45401994459759476,20.630269402492402,-8.338579844186278,102.48630296848309,3.55858157590312,-2.177239621497128
GUIDED_NOGPS,1.2714262008666992,32.36470542845017,21.409694042012525,-9.46317499177136,105.72744924671571,2.1688133415283404,23.10849779401726,-9.245450999502859,75.3851093484784,-0.20535668102901494,0.25112193667586225,-57.27945877606058,-0.010243501890057882,-0.08880611366501644,-1.4220126194284233,0.45448649015264403,20.60193445648643,-8.386211841134315,102.16547688791304,3.429066479732822,-1.7188733853924698
GUIDED_NOGPS,1.315584421157837,22.649753484428746,21.20785711557505,-9.000334349528984,105.439560794363,2.1275207203379063,23.030100799020826,-9.07054495674311,75.4297575624546,-0.16308325287363085,0.15110214057407645,-57.34305125232798,0.003301700263877638,-0.09521357225084852,-1.4991850509298112,0.45498529515213737,20.89370992760562,-7.706285448821051,101.82462825904736,3.358682240358008,-1.088619810748564
GUIDED_NOGPS,1.3487999439239502,30.116133294081322,21.061055339884824,-8.641244771354488,105.16002121803002,2.098555758350437,22.94806189283455,-8.887513701093162,75.47693070614461,-0.18024360957539864,0.09689733243403215,-57.410034917518296,0.01157552838612997,-0.09855124162056582,-1.5103754679191652,0.4554753642321719,20.89370992760562,-7.706285448821051,101.82462825904736,3.358682240358008,-1.6615776058793874
GUIDED_NOGPS,1.3914892673492432,23.431342316372817,20.7309900682754,-8.341333708483848,104.79570279553448,2.0799143567572274,22.86238696986132,-8.696370383142316,75.52667585813816,-0.23370420724038926,0.1902794653230349,-57.42836031506144,0.016678081874249167,-0.11124863857880608,-1.7426927180262426,0.45609645959390555,19.34365755217514,-7.727827883864368,101.65594293149957,3.2259060515050253,-1.260507149287811
GUIDED_NOGPS,1.4336259365081787,23.73982046434757,20.264602979343945,-7.822994401892135,104.44098412534316,2.055623159631459,22.773087624334387,-8.497140869972048,75.57903833888771,-0.23698643330169772,0.11476937617101676,-57.46430760066322,0.031649950633531154,-0.1308542133367624,-1.6570173915291224,0.45670708132031684,18.421007363452013,-6.377320083388683,101.30174244034563,3.1547631486148147,-0.8021409131831525
GUIDED_NOGPS,1.4672772884368896,29.72533344672648,19.909601593516786,-7.35431848512881,104.05260438351374,2.032057111978416,22.680181012972056,-8.28986343873451,75.63406172579975,-0.25680694858198716,0.07731603385725183,-57.53331983203702,0.04389413354388358,-0.14443415817914157,-1.5825414830772428,0.457372186013429,18.73655233495959,-6.049914105293984,101.02382044447877,3.129658845652994,-1.260507149287811
GUIDED_NOGPS,1.508608341217041,24.201584471487013,19.61144067087308,-6.920440702298961,103.63145940261958,2.0208891084911764,22.583689717632385,-8.074588470231035,75.69178786832613,-0.26967929384652245,-0.019523028525423633,-57.574703948218136,0.054113288950762374,-0.15484072699430815,-1.8042005267861054,0.45809049269855984,18.79008425363267,-5.803675288692624,100.77057988756181,3.095574147164249,-0.6875493541569879
GUIDED_NOGPS,1.5625646114349365,18.539261577358456,19.161431249377983,-6.297102287867305,103.17595825512788,2.007381313095257,22.483641607967858,-7.851378142490644,75.75225690305535,-0.24289732169810907,-0.01238099853111749,-57.602577950220955,0.07281953324582538,-0.1729435657821985,-1.8141419029665542,0.4588644479718912,17.580185190592566,-4.519545854224512,100.27237395416785,2.992892626421691,-0.5729577951308232
GUIDED_NOGPS,1.5955662727355957,30.30610268934522,18.660001223195678,-5.560176708612646,102.68968671557887,1.9989522745903547,22.380069704080086,-7.620306124348527,75.81550726880388,-0.2200846766332516,-0.05108789400099131,-57.6310393484924,0.09644291312125411,-0.19350145813743885,-1.8150062635721989,0.4596887308298375,17.453299830604305,-3.9713402070704285,99.98675119542985,2.9571827266308004,-0.17188733853924698
GUIDED_NOGPS,1.6342711448669434,25.840997584898222,18.284630020957337,-5.081177429401526,102.20210155021229,2.0066587220807497,22.2730120391745,-7.3814572690245726,75.88157572170746,-0.20130781959422542,-0.0032217148541303893,-57.62496731032026,0.10759935159091925,-0.20729232430519032,-2.060562101571102,0.46051921125724277,17.26253763026456,-4.093577673085723,99.68912527800192,2.9737555182956745,0.17188733853924698
GUIDED_NOGPS,1.6976072788238525,15.790499280933055,17.96927257332538,-4.736376172370372,101.75800537355626,2.0154525664971907,22.162511522215027,-7.134927307701855,75.95049735031243,-0.19310382858611452,0.05794220227651067,-57.608151384583685,0.11211309345758964,-0.21777822603074598,-2.0474607033179524,0.46128873796513425,17.693900000324085,-4.947178025231909,99.68382920951565,2.99735305269512,0.11459155902616465
GUIDED_NOGPS,1.7314519882202148,29.55712624643247,17.6483025879215,-4.263431874649209,101.28238937738953,2.0310496213328397,22.048615800578794,-6.880822543105132,76.02230559066699,-0.14226547661366667,-0.010851249600446195,-57.60198372376316,0.12224537684269186,-0.22835208166583068,-2.242282007486284,0.4621098743199162,17.693900000324085,-4.947178025231909,99.68382920951565,2.99735305269512,0.40107045659157625
GUIDED_NOGPS,1.7650234699249268,29.792476417774747,17.48909028908471,-3.88589605288349,100.81129839079621,2.0510831847928435,21.931377122710813,-6.61925954307935,76.09703224141255,-0.11751960786921793,-0.05788542632903494,-57.58870583601666,0.12756118947144407,-0.23034843111516548,-2.3081692991182097,0.4629286007759245,17.78312097087046,-3.4116427007518015,98.90943909795119,2.9835705833610695,0.5156620156177409
GUIDED_NOGPS,1.8134210109710693,20.666788207874884,17.28533191900426,-3.5099259874571596,100.38237185003115,2.0683820361194827,21.810852200778676,-6.350364834168159,76.17470747887499,-0.026819424797036036,-0.061299026810160376,-57.58413643946192,0.13246107444508323,-0.2344924347951749,-2.219390363407504,0.4636885034432658,17.51044488539218,-3.295410959519473,98.84553194327158,3.008449978811554,0.17188733853924698
GUIDED_NOGPS,1.864760160446167,19.48202200742251,17.574418848966523,-2.8148915814550115,99.85609711854286,2.103860851587427,21.68710207332723,-6.0742745951923975,76.25535987215605,0.015654006505089087,0.06976013708792524,-57.548079870833426,0.1518645949594297,-0.21291383792971744,-2.429215550195239,0.46459889413041977,21.13816778271631,-1.5726681798620883,98.27930508004862,3.1798246344258407,1.088619810748564
GUIDED_NOGPS,1.8977854251861572,30.287938417544645,17.354448987532017,-2.3947067575799026,99.46577897669502,2.1369381961456,21.560191967933285,-5.791134350828591,76.33901639822453,0.16004695364308252,0.06903848491343108,-57.533142247118604,0.15814125697926287,-0.2175820404730991,-2.6105927253023853,0.46530985613229425,17.375354932727213,-2.39196955731114,98.57515619722474,3.111269159708113,0.6302535746439055
GUIDED_NOGPS,1.9436683654785156,21.79991683991684,17.17660849885905,-1.5703633136125725,98.97822869534946,2.1609236331229806,21.430191163860286,-5.5010986651874765,76.42570245700769,0.32302451200735005,-0.02372103354404272,-57.51837537813304,0.1828668316411557,-0.21987381084951652,-2.395155092907856,0.46617121064248734,17.209958721759694,1.0761557133786739,97.40393969368246,3.01244038770273,0.4583662361046586
GUIDED_NOGPS,1.983959674835205,24.82894487592347,16.728456196162742,-0.6717533036905254,98.51576755904593,2.19619848532502,21.297172854713025,-5.204330835392485,76.5154418864825,0.4544453024054761,-0.08899138846974239,-57.490672130859465,0.21069696620035527,-0.23597432700704704,-2.6206488970451685,0.4669995114911549,15.48311585749744,1.5660093822290193,97.50476376396351,3.018602032404779,0.9167324722093172
GUIDED_NOGPS,2.030162811279297,21.648355845509865,16.474304492774717,-0.09598968986517903,98.18523092412434,2.2349765855882877,21.16121401109231,-4.901002585158245,76.60825697776698,0.6193620341844323,-0.19314835821785184,-57.4614184306443,0.22322382085680936,-0.24193017525830507,-2.6201266948146853,0.467634539080464,16.22851142548973,0.5845225288693326,97.75933603798018,3.113815706615994,1.2032113697747289
GUIDED_NOGPS,2.0571842193603516,37.023047250836356,16.070836693700937,0.9023470601531661,97.7441047360033,2.2715159471381536,21.02239524324967,-4.5912937583690905,76.70416849021147,0.7028609900661323,-0.15828066939175986,-57.43414548528844,0.2550158818825833,-0.25539146319242245,-2.9223587935607114,0.4684400956313123,14.967099831306932,3.270455513563698,97.09032419844985,3.0044430127671307,0.9740282517223995
GUIDED_NOGPS,2.0993919372558594,23.697436071279252,16.087064683567032,1.7077863351233908,97.3500807674798,2.309792473318225,20.880800663742036,-4.275392012657565,76.80319566648997,0.8185068716067322,-0.2060862306097369,-57.36881472587727,0.27754118391855753,-0.24707402468793546,-2.728953356101334,0.46917967234851526,17.165934876116616,4.332101119787386,96.23071114798039,3.072085659296182,1.6615776058793874
GUIDED_NOGPS,2.14333176612854,22.7632124521052,16.075466345514215,2.684197642399952,96.86500584101513,2.3629532659287507,20.73651775008643,-3.9534925129829146,76.90535624769144,0.883892912861499,-0.2467448526349419,-57.318653816612695,0.3076388599409375,-0.2400300416864906,-2.9321382918399483,0.4700605256100145,17.560721549124604,4.77529451715357,95.9657909249018,3.1039412500566925,1.260507149287811
GUIDED_NOGPS,2.1963493824005127,18.866151790895064,16.049428916823413,3.47508859864224,96.4284967057121,2.4372835317294164,20.589637207414675,-3.625797625209591,77.0106664884111,0.9444607359044978,-0.22904014853262258,-57.22060303598258,0.3288470367817135,-0.23362248905990446,-3.1031652141743944,0.4708732546740485,17.33124690051501,4.183441723800573,95.95161721510004,3.168606149099637,2.46371851906254
GUIDED_NOGPS,2.2366154193878174,24.83894350349402,16.030550876718625,4.417348784254223,95.9181042754755,2.527167796426013,20.440252831128042,-3.2925166096857623,77.11914117184175,0.9857911710675968,-0.21837736946458644,-57.153564729278905,0.356727222294839,-0.2267024345458932,-3.5776923251691692,0.4718015553445494,17.31078905679603,5.432029616485972,95.41000144760905,3.1594753183265336,2.3491269600363753
GUIDED_NOGPS,2.260749340057373,41.445691699604744,16.2205449735872,5.165258833408345,95.50330218841238,2.584069415032084,20.288461369551992,-2.953865314821801,77.23079362486504,1.0689910927296973,-0.35537645006305596,-57.09478753637636,0.3753746683434318,-0.2089706475868193,-3.7000701377584124,0.472591237154679,18.117200944440974,5.903460468499888,95.07206381050096,3.2084077210325455,2.2345354010102105
GUIDED_NOGPS,2.3300106525421143,14.440162362589126,16.591732259220805,5.505906781777048,95.28539230545073,2.633928332741786,20.13436238659083,-2.610065870668805,77.34563573314283,1.1396697835392835,-0.4060248640796392,-56.93439420409695,0.37504667308699957,-0.18189805052680694,-3.0296426864456873,0.4730903651415381,19.5421106497157,5.277633519741808,95.20559344678132,3.3882297333398634,2.291831180523293
GUIDED_NOGPS,2.3638014793395996,29.602185067295274,16.961896863450946,6.017499570534361,94.9232784080822,2.7446052358360395,19.9780581243824,-2.26134638249707,77.46367795620844,1.1127890404521694,-0.34837166418238474,-56.88122801159757,0.382304878508036,-0.15475763583514396,-3.766213774124037,0.4738105993221894,20.099504567834323,4.315002421310309,95.34530254285316,3.599387623222129,2.3491269600363753
GUIDED_NOGPS,2.399742364883423,27.83472917192042,17.38063075641706,6.612232261486091,94.55407986345367,2.829786574983804,19.8196533659528,-1.9079406243746284,77.58492934255806,1.190044669823949,-0.49395821355826436,-56.81265974251981,0.39316693635481764,-0.125055241110668,-3.907053905107478,0.4745462742186566,20.29905485212752,5.7657277423024915,94.7674300209211,3.6249512365455057,1.8907607239317168
GUIDED_NOGPS,2.4358043670654297,27.73753752959382,17.89389264783379,6.916637836266517,94.3077424252974,2.900935384503634,19.65925529787103,-1.550087732745716,77.70939754474188,1.1528636813033384,-0.43267434123032494,-56.71743324511149,0.3904886706982856,-0.0904657898597047,-3.7739385695029695,0.4751024826791667,21.112331413415845,5.964505509250208,94.4321682291551,3.8126699994235627,2.46371851906254
GUIDED_NOGPS,2.47592830657959,24.928554022810886,18.35970582223987,7.207240126983112,94.08202378680892,2.967857552432769,19.496973372903724,-1.1880319000092978,77.83708883445559,1.2202819172795953,-0.5240691025142655,-56.643387164319385,0.3869929349537002,-0.05824899033698943,-3.6763533482484654,0.47563259757147003,21.112331413415845,5.964505509250208,94.4321682291551,3.8126699994235627,1.8334649444186344
GUIDED_NOGPS,2.5226082801818848,21.42640252561889,18.667835248857457,7.6862323973921685,93.78705987420113,3.036263463224577,19.332919172669804,-0.8220220680975636,77.96800811763156,1.1832996445751498,-0.4412238170804768,-56.58304244300232,0.39195644589500406,-0.034043270966611076,-3.633881800788222,0.47627142236514564,20.23469298441575,7.24348535139668,93.9210875634475,3.8384523716773,1.5469860468532228
GUIDED_NOGPS,2.5659537315368652,23.146095690083328,18.999283139872464,8.120721487460296,93.45263748131025,3.0939207720066615,19.167206270295203,-0.45231162205441144,78.10215894953018,1.1859749442956793,-0.47807781029457314,-56.54928764812412,0.3946695007754014,-0.008589484051777733,-3.6349539219127536,0.4769742822023299,20.61321554109451,7.678890875846312,93.62994901877106,3.9028998046361645,1.432394487827058
GUIDED_NOGPS,2.587071418762207,47.07993130465041,19.27648129081222,8.427634256944883,93.26154924685567,3.1220196634600117,18.999950093067532,-0.07915808361398646,78.23954354983118,1.178059502099575,-0.4301200639241517,-56.52833945793969,0.3914314184278705,0.014138113879328852,-3.6077496268043125,0.47746699145446325,20.657809721673075,8.11524740886884,93.3746650177608,3.9527646437049944,0.7448451336700702
GUIDED_NOGPS,2.645202875137329,17.205636344990257,19.513327296655017,8.69615671311684,93.09575312985845,3.1354666129079924,18.831267785090777,0.29717719522084884,78.38016281772497,1.1141832528164983,-0.3344118247359365,-56.48960204006196,0.3862968043650313,0.03485574370376252,-3.1075482182661953,0.47792661453179974,20.74115882481788,8.615167862875502,93.11300452935481,3.9798089422751923,0.2864788975654116
GUIDED_NOGPS,2.6727380752563477,36.324069663719264,19.920816951307177,9.183254044686626,92.70176423890793,3.1709946733676375,18.661278069939982,0.676429338600002,78.52401634700382,1.1238893785139095,-0.214792373923976,-56.48613571905818,0.3909481258568355,0.0643162509223654,-3.677921660144484,0.47873337816214384,21.63612093324183,8.396261610112145,93.03873968542943,4.074939589017097,0.2864788975654116
GUIDED_NOGPS,2.717000722885132,22.59813366091248,20.377248646261098,9.287367494295891,92.60278029149511,3.174354741730915,18.49010111331596,1.0583302532476537,78.67110244115334,1.0983921756205461,-0.14442328278286182,-56.52484240108464,0.37804516581777126,0.09632921150863637,-3.0756757185466332,0.47910248322448734,22.731362636557183,7.6635370068506,93.23051309871232,4.169741131235779,-0.6875493541569879
GUIDED_NOGPS,2.758218765258789,24.265571304599362,20.948034303351513,9.604655792758535,92.36597980263028,3.1657357461258475,18.317858385699957,1.4426089348837436,78.82141812844365,1.1024551776813518,-0.2166442089626957,-56.57765342374718,0.3747543245305165,0.13418063937737218,-2.9354503185328493,0.47968315748872004,23.36297327402567,8.176459112364311,92.8492629077718,4.225078290397211,-1.260507149287811
GUIDED_NOGPS,2.795135736465454,27.09288685631605,21.51050328219794,9.724996850502006,92.20777138848308,3.1385948530178105,18.144672525008367,1.8289917746454663,78.97495917702078,1.025420355518834,-0.11311177463681929,-56.652467900820916,0.3623730571998398,0.17163199333538773,-2.6596611098760308,0.48015078168280656,23.843781214945277,7.735957775373502,92.94747997894595,4.241871848920874,-1.6615776058793874
GUIDED_NOGPS,2.842970848083496,20.911712502243585,21.971368544963884,9.89475517873406,92.0631470010602,3.08162890373674,17.970667199247387,2.21720286550881,79.13172010999786,0.8569933867541673,0.02781679916852318,-56.77219770187666,0.3521913692798889,0.20391517555820793,-2.3971562777263493,0.4806028596634065,23.468961278128443,8.365294966176409,92.66617283055366,4.183276963267176,-2.979380534680281
GUIDED_NOGPS,2.9007110595703125,17.32138461919668,22.56868637277387,10.125078308585094,91.85458524842684,2.991994464462286,17.795966969167758,2.6069643087099976,79.29169422054659,0.7805998019608374,0.04252838631049596,-56.900905786596375,0.34469045416118316,0.24313290671336701,-2.1675802333729486,0.4811556634581796,24.325557637076137,8.503207300436904,92.4117540574702,4.156889586744769,-3.0366763141933633
GUIDED_NOGPS,2.9501819610595703,20.21760549123196,23.110514453228383,10.465173499237428,91.5778430761643,2.8839270295365753,17.620697150919398,2.9979965201670282,79.4548735869884,0.709737656539013,0.06683254725492851,-57.07847362954378,0.3421333582695775,0.2794823316897274,-1.7822949430051145,0.48181554576623614,24.370744658050395,9.744703713349766,91.6667641146059,3.9329278103349825,-3.323155211758775
GUIDED_NOGPS,2.971019744873047,48.01941703111763,23.54250396506426,10.74851425094952,91.24848169374349,2.7873527205914654,17.444983678706137,3.3900185369011417,79.62124908788583,0.6490396863758137,0.15262271143805056,-57.180127334961085,0.3369075356696873,0.31019331081953777,-0.47987771281728886,0.4825591510912135,24.622484307616958,10.429560091440479,91.13735572961494,3.6773945703873676,-4.068000345428845
GUIDED_NOGPS,3.014289379119873,23.116500038579822,23.841845853029902,10.852128796187237,91.1222263174393,2.7345905825798473,17.26895296744039,3.782748323458353,79.79081041713383,0.6183111455476024,0.1549293943868108,-57.399748652628254,0.3235292823676441,0.3342306580010836,-2.1820013476324194,0.4830028761495418,24.82797971816795,10.303289033366246,91.14320786690617,3.5870636054943024,-3.9534087864026803
GUIDED_NOGPS,3.0510597229003906,27.202884827416238,24.38422299824265,11.047788558417444,90.89837144930422,2.6059733295893746,17.092731775397837,4.175903078330919,79.96354609905106,0.5537971807116288,0.15487389909980445,-57.515240321304006,0.3143069901636325,0.37055439987209393,-0.9397248928349371,0.48359776197462023,25.576649548282088,9.719183401046823,91.18477068820233,3.536559434506429,-3.666929888837269
GUIDED_NOGPS,3.101154327392578,19.976015278591397,24.870847103670993,11.095891353428394,90.75645704969068,2.498361954738883,16.916447066872138,4.56919954037885,80.13944350347117,0.5111707171535196,0.18487657224614326,-57.70175912715871,0.29837847492613195,0.40405389981064854,-1.555822434177873,0.48407447968067074,26.01931818580847,9.39552447119471,91.23112402262427,3.4345812183819486,-3.896113006889598
GUIDED_NOGPS,3.1282620429992676,36.88791951030746,25.36772962115838,11.053221502280525,90.6058922295644,2.3773108133291654,16.740225874829587,4.962354295251409,80.3184888608342,0.5036471570610448,0.24067921776514745,-57.78661056721778,0.27831852084443565,0.43803178314921826,-0.3254007756518442,0.4845688949469047,26.282850131808896,8.770658444171437,91.38541194971751,3.3484040496608607,-4.068000345428845
GUIDED_NOGPS,3.1842429637908936,17.865511498438906,25.72280181495476,10.923374011271786,90.56693694640367,2.296167233225924,16.564195163563834,5.355084081808631,80.50066727727773,0.4522252241209575,0.3248476389072146,-58.0406594533964,0.2543565506175872,0.46484480789552274,-1.7931304145545983,0.4849005954963111,26.51095214580543,8.900397629535307,91.20144153191252,3.18693181576266,-4.239887683968092
GUIDED_NOGPS,3.216052293777466,31.447924242537844,26.076591775249458,10.91383280141383,90.41578774857902,2.1433363371994796,16.388481691350577,5.747106098542741,80.68596274972835,0.44101581647590876,0.3259093064363284,-58.22314161745163,0.23589601752711722,0.49147527537138935,0.01692397292254677,0.485405262501724,25.596081284741338,8.936137675289492,91.22787585027561,2.796562529515771,-4.010704565915763
GUIDED_NOGPS,3.2569587230682373,24.451165339458313,26.419391200188212,10.780304995045121,90.3518012950565,2.0559024324401984,16.213211873102217,6.138138309999768,80.87435818099286,0.38596934760321905,0.37548111188498845,-58.405453026777614,0.21186722209817846,0.517563602653129,-1.286175160930729,0.4857838353289045,26.95545802467675,8.87660060113457,90.81084146084088,2.751470891550799,-3.896113006889598
GUIDED_NOGPS,3.311316728591919,18.39945954956615,26.90239755020581,10.748956259693403,90.19678240266427,1.9155512013197866,16.038511643022588,6.527899753200966,81.06583539484961,0.3024552906001509,0.5707261247346227,-58.536538017328496,0.19254914421340938,0.5506341128479687,-0.9720782207201151,0.486303579488278,27.47225185092461,9.175890506271767,90.45538016287709,2.670310038080493,-4.1252961249419275
GUIDED_NOGPS,3.334843635559082,42.51529588257952,27.31102998888786,10.735130783650316,90.03677577083549,1.7684037265736723,15.86450631726161,6.916110844064303,81.26037515113983,0.2794713305170877,0.4650605369535866,-58.73858184316665,0.17411831158646845,0.5798606293896892,0.9826597240752939,0.4868353990704565,27.389619671966408,9.427474501105934,90.25441977167759,2.4915366675423334,-4.8128454790989155
GUIDED_NOGPS,3.3842947483062744,20.22599000829427,27.563630735522885,10.600178255740904,89.95639955093014,1.6970086485305105,15.691320456570015,7.302493683826032,81.4579571608589,0.1334885634682813,0.5921084588181706,-58.93488147991281,0.1502875055451348,0.6011827248183484,-1.4032927734562188,0.48725233641489313,27.78308808717878,9.108452780333023,90.12289712265984,2.2081331863850897,-3.9534087864026803
GUIDED_NOGPS,3.4376137256622314,18.759158627290496,28.08323936572913,10.629154257667409,89.70648702677825,1.5096707929717401,15.519077728954015,7.686772365462122,81.65856010124767,0.10700289079575691,0.5637864390944781,-59.175365610399794,0.13400559017498231,0.6357917409437549,-0.22700578924520398,0.48792810961170413,28.25762373960934,9.594129491276906,89.62260086220071,2.032475916255827,-4.583662361046586
GUIDED_NOGPS,3.4643619060516357,37.39738754402389,28.429484913200383,10.742826396051864,89.427761701485,1.3347950014764378,15.347900772329993,8.06867328010976,81.86216163088378,0.03081894745322146,0.6040258582593736,-59.31914109242856,0.1217025213950817,0.6615019595860004,1.4030804174343636,0.4886515998940982,27.878732013976872,10.426420133557286,89.09362353304195,1.6388915185273392,-4.870141258611998
GUIDED_NOGPS,3.5285046100616455,15.591628563993904,28.587808698747647,10.750524851540122,89.25807813726549,1.2393990296352013,15.177911057179202,8.447925423488915,82.06873840477293,-0.04735065994708363,0.6487394782174505,-59.59669948973037,0.10473438070734133,0.6777255053226613,-1.0769388958213573,0.4892159904012612,28.096611704651984,10.244021304270525,89.0340304952279,1.5163377912437848,-4.755549699585833
GUIDED_NOGPS,3.5609195232391357,30.891350459580487,28.933659236681553,10.732337266662944,88.95894968795389,1.071210341949886,15.009228749202439,8.824260702323766,82.27826608944027,-0.05534322191582826,0.6770804944047721,-59.64013266266248,0.086723885162309,0.7031983779521815,0.9361207775771416,0.48997897460222956,28.54339220809601,9.75609945379026,89.0754921935319,1.410727893833928,-4.354479242994256
GUIDED_NOGPS,3.5927484035491943,31.411654571734555,29.119475965112155,10.572062093908812,88.88149043759488,0.9739376196853069,14.841972571974768,9.197414240764179,82.49071937802158,-0.1322384254067574,0.7578526039820505,-59.93848898598698,0.06245214492240476,0.720718488818456,-0.09153707201779637,0.49041384341064004,28.93656282471895,9.12935557143599,89.24268221476757,1.2723024874975246,-5.557690612768986
GUIDED_NOGPS,3.6439075469970703,19.552132911303893,29.354336511238532,10.50027862127017,88.76079981075088,0.8501002715933369,14.676259669600164,9.567124686807336,82.70607200535471,-0.24340782497771465,1.0263499015761903,-60.276658481983475,0.04237330158330272,0.7405692240806292,-0.34852029016106734,0.49091790829190574,29.078196052615155,9.560830601556246,88.88084504562453,1.1148085652368647,-5.271211715203574
GUIDED_NOGPS,3.6840717792510986,24.90280061985311,29.75712110956144,10.300037138731062,88.63085846982473,0.6253448789838615,14.51220546936625,9.933134518719061,82.92429676307077,-0.2353355018741116,0.890654106448724,-60.50341393223873,0.016651946190339127,0.7687704858958869,1.418693666549637,0.4914401574398691,29.535538108907062,8.443268096087328,89.2151056561616,0.8412042442071634,-6.130648407899809
GUIDED_NOGPS,3.7279603481292725,22.790052216625643,29.97449798622797,10.111081004955118,88.56655644559274,0.41204611491690274,14.34992354439894,10.295190351455478,83.14536551468552,-0.21859624234293096,0.9715824566032663,-60.870611732207784,-0.008352291797085366,0.7875815071862011,1.192628313093855,0.4918682136036392,29.064861267372414,8.653413508571518,89.15509527406869,0.660335768594668,-6.818197762056797
GUIDED_NOGPS,3.769303560256958,24.192789986733576,30.3187747899411,9.870363288503537,88.48883039567366,0.1842800933174337,14.189525476317172,10.653043243084394,83.36924921069067,-0.22180779195458566,0.9884980604130376,-61.13879910996834,-0.035491070022068714,0.812655590779741,1.6870871302509418,0.49232062822252554,30.11732486702927,8.260006918366111,89.029009047857,0.6022184552714819,-6.302535746439056
GUIDED_NOGPS,3.812650680541992,23.087996653198726,30.612865079710964,9.647196384339038,88.41147050003127,-0.013037189855331059,14.031120717887578,11.006449001206843,83.5959179036451,-0.20622567585855361,0.9815948735962703,-61.39213765647328,-0.06160819255066163,0.8350759877497337,1.3710610185935859,0.4927766711054207,30.27266872596669,8.30376074431154,88.84743738556821,0.40829546309968284,-5.844169510334397
GUIDED_NOGPS,3.855454444885254,23.358918238573395,30.770678490597906,9.56458264939511,88.27942548293451,-0.2161180525315825,13.874816455679149,11.355168489378567,83.8253407632663,-0.29608240393941165,1.0646006684755542,-61.619569295456365,-0.0811147037187215,0.8504372718145895,1.5435696134664918,0.4933188729204977,29.742757491494864,9.117463021524383,88.40777381536807,-0.11209202194341603,-6.41712730546522
GUIDED_NOGPS,3.907773971557617,19.116894481843914,30.974502223218817,9.507512430526575,88.13260317305605,-0.4493090359841467,13.720717472717979,11.698967933531573,84.05748609152155,-0.295054833995295,0.9488178629864369,-61.93702965788939,-0.09921830218360095,0.8679625769968834,1.603202246430809,0.4938873243776982,30.076508586070823,9.248347973191663,88.2089991613184,-0.30072693251768784,-6.130648407899809
GUIDED_NOGPS,3.9524717330932617,22.37678190354247,31.090415898203904,9.480185216989435,88.00075543059637,-0.6374058687915038,13.568926011141926,12.037619228395538,84.29232133771936,-0.3590091502061507,0.9616496540027752,-62.15195522050218,-0.11572470560805191,0.8809477911372374,1.6070828484717101,0.49443734886068447,29.976014813993363,9.397543956262313,88.0732880713813,-0.5171045249444751,-5.099324376664327
GUIDED_NOGPS,3.986922025680542,29.035769419811288,31.083337888321733,9.525031308017162,87.8286381130891,-0.7495629849203373,13.419541634855307,12.370900243919348,84.52981311360062,-0.3606304129995296,0.9824746873387326,-62.304958288099634,-0.1286977937079923,0.8875600456233318,1.2101892427352032,0.49505176250076727,29.791240042819425,9.837210563918608,87.7896437467983,-0.7727768274108033,-4.92743703812508
GUIDED_NOGPS,4.017049789428711,33.201697169273636,30.971861764751576,9.711410526013815,87.6637750453837,-0.8192276366489264,13.27266109218354,12.698595131692695,84.76992720843008,-0.31182948511215536,0.9775712518448981,-62.53529275747997,-0.1350068081509561,0.8888014431470608,0.7883915305368056,0.49565922824456954,29.334503852109915,10.887901447509753,87.19821435031744,-1.2391756531867189,-4.010704565915763
GUIDED_NOGPS,4.062942028045654,21.795272317229696,30.89691241258181,9.881571059176114,87.49186194662089,-0.9079491675808422,13.128378178527942,13.020494631367324,85.01262860408744,-0.1949707113853494,0.9588386042724919,-62.65581144538485,-0.14177685411724372,0.8917306373917693,0.6645916700206009,0.4962811499861998,29.1215329950288,10.922252448742952,87.17777505700208,-1.3853581098827747,-2.4064227395494577
GUIDED_NOGPS,4.11123514175415,20.71087365505118,30.868612893224206,10.012327940807129,87.31587765657359,-1.0217302708233997,12.986783599020306,13.336396377078838,85.25788149015892,-0.10755497551997757,0.9904978117359704,-62.73576563980902,-0.15004484173889238,0.8968515199203917,0.9595992412738118,0.496913005750378,28.98616400635494,10.657307495074498,87.35735390787133,-1.4729898587017938,-1.2032113697747289
GUIDED_NOGPS,4.1689698696136475,17.322886938564793,30.883063299029416,10.136266659863571,87.15053322278047,-1.0803433438939012,12.847964831177663,13.646105203868,85.50564927902835,-0.07274524992033815,0.9548926759229286,-62.745730885808065,-0.1583324306821675,0.9039798466846196,0.3347497808157369,0.4975326740843718,29.402839266608254,10.639630297133975,87.28407445132177,-1.61567354575679,0.7448451336700702
GUIDED_NOGPS,4.197566747665405,34.977308927156734,30.929411048842148,10.203844286426436,86.99410087269484,-1.0695942964969423,12.71200598755695,13.949433454102273,85.75589462096858,-0.09068444162057913,0.9277759711443317,-62.67126133328742,-0.16886456485027013,0.9125620209270434,-0.36619983947776624,0.4981426906224106,29.617506999302226,10.277822245978689,87.33853165100929,-1.6059406220504564,1.948056503444799
GUIDED_NOGPS,4.247535228729248,20.017008929210593,30.837656854561157,10.28443589038069,86.91442128956652,-1.006381903866875,12.578987678409689,14.246201283897246,86.00857941923276,-0.18007190769100953,0.8806756269581585,-62.51207011430193,-0.1785216821839824,0.9141739188352983,-0.8523625407715101,0.4986412371944994,29.56044938932248,10.579112064586639,87.05870259105608,-1.6684757326079385,3.666929888837269
GUIDED_NOGPS,4.312237501144409,15.457230356478188,30.73381619192839,10.537264320807026,86.68046413791843,-0.8674748525296291,12.44898687433669,14.536236969538347,86.26366484514566,-0.2080817397448649,0.7440423883671078,-62.2752196444534,-0.1800662760985066,0.9148130486741884,-1.3821668376884015,0.4993748010608408,29.039850976932346,11.594055719113946,86.43646028571477,-1.7224283316634987,5.500394833255903
GUIDED_NOGPS,4.343877077102661,31.615992281251884,30.656807844394173,10.774179375324573,86.44526167856594,-0.6284014535288659,12.322076768942743,14.819377213902154,86.52111135319495,-0.192210341125099,0.6097766640971127,-61.99218343543724,-0.18203390273599115,0.9167365537725716,-4.255503648992991,0.5001137745119435,29.25051678243739,11.528074299138794,86.3515002556415,-1.6062390415512426,6.932789321082962
GUIDED_NOGPS,4.390793085098267,21.319886952808897,30.461954554736803,10.948217021646322,86.32611767306737,-0.4451908728369939,12.198326641491299,15.095467452877951,86.78087869612257,-0.18381220999395842,0.6681455397533377,-61.62201450317923,-0.18662626940542335,0.9131813956622752,-2.5562599311259926,0.5006821415345828,28.920189027741575,11.56545368465898,86.33585564585954,-1.294893213544818,8.078704911344607
GUIDED_NOGPS,4.434829473495483,22.71722516803787,30.297374931200082,11.109063987924602,86.19475264496323,-0.12085760034281345,12.077801719559162,15.364362161789114,87.04292594001593,-0.1256833381138228,0.5838385938371662,-61.2364981358562,-0.19148841782390305,0.910978660582046,-4.589099203877179,0.5012722599425791,28.85006456849326,11.440879893321982,86.42771146602355,-1.0521739090744227,9.797578296737077
GUIDED_NOGPS,4.479449272155762,22.41660654064252,30.10785325548851,11.164304614350165,86.16479461448547,0.21213393900321867,11.96056304169118,15.625925161814887,87.30721147939934,-0.04638314764289546,0.5172120194743959,-60.797057425035916,-0.20077292463591254,0.9073645106898666,-5.2354604049717715,0.5017136252973708,28.712231209069706,10.962383764808582,86.79615373586319,-0.7789416793355348,10.370536091867901
GUIDED_NOGPS,4.511648416519165,31.065696890692816,29.866035291930796,11.171207283792164,86.18625469080996,0.5530616549641492,11.84666732005494,15.88002992641162,87.57369305232521,0.08261411287885288,0.4211829748386016,-60.44304189016499,-0.21189701891787555,0.9009683985937929,-5.790295615019384,0.5020811575422729,28.31226914860946,10.77298778108034,86.95990098795151,-0.20122662126928462,10.771606548459477
GUIDED_NOGPS,4.559020757675171,21.11329578117056,29.53121362670791,11.429109566253702,86.07409837655067,0.9006476368020317,11.736166803095465,16.126559887734356,87.84232775546542,0.17858694185612678,0.3612621521369029,-59.94081125030478,-0.21138526446662945,0.8897523411806223,-5.222027555806603,0.5026523440683721,27.578711186778108,12.3915491246717,86.10326335477772,0.023248641117975512,11.802930579694959
GUIDED_NOGPS,4.59386420249939,28.710214866076623,29.112199377213283,11.63785179694815,86.01957679445822,1.260172154059754,11.629109138189875,16.36540874305832,88.11307205920261,0.28751222407833815,0.36689769853239806,-59.44708419596124,-0.21274006257495773,0.8741545119511704,-6.962729108436497,0.5031402428971166,26.82005432579303,12.272845367340185,86.34280271067085,0.3553891241445666,11.631043241155712
GUIDED_NOGPS,4.643050193786621,20.333653296101303,28.688899882021257,11.925935426218343,85.92386624557842,1.5991116961720542,11.525537234302107,16.59648076120042,88.38588182272152,0.32310514025606796,0.3309954494904607,-58.90383143994593,-0.21017454007419353,0.8581681323859576,-5.495570838521823,0.5036930233657146,26.49188570111246,12.991806785066013,85.9646337798655,0.6852694597078574,11.631043241155712
GUIDED_NOGPS,4.681997299194336,25.682609467709245,28.300466899003094,12.36526597581511,85.71596539847296,2.0880709970823847,11.425489124637586,16.81969108894081,88.6607123091002,0.35963069742062187,0.22689461535959232,-58.50690865670899,-0.2004491300906566,0.8437488887182755,-8.687919823730093,0.5044171203659409,26.685898599646368,13.865011785074563,85.40539812053046,1.4273423544536759,10.943493886998723
GUIDED_NOGPS,4.717545747756958,28.17749054436256,27.925006332308126,12.358994810682443,85.81100321930872,2.4535149413365165,11.328997829297904,17.03496605744429,88.93751820040143,0.3337275785193187,0.20293153698683727,-58.07543194646094,-0.21041870610428315,0.8298004251505111,-7.803792050827805,0.504689772471639,26.386084774805497,11.585220724232084,86.89087611153627,1.8984047202620313,10.771606548459477
GUIDED_NOGPS,4.756389856338501,25.719303409369633,27.552789631973706,12.492142035172556,85.81254461077857,2.7722872812376727,11.23609121793558,17.242243488681833,89.21625361276398,0.2946106048949797,0.19540658951218728,-57.81354200311514,-0.21375456540791749,0.8158349207019063,-6.998772425221714,0.5051055635029781,26.054712364849973,12.577656620424271,86.2990364974898,2.2232202745977085,10.370536091867901
GUIDED_NOGPS,4.79152250289917,28.50282017478288,27.154022062321634,12.671685444529698,85.79192937511503,3.09327417261193,11.146791872408656,17.441473001852085,89.49687211149387,0.30720478003339563,0.1778935575934515,-57.49456533868637,-0.21464044007950742,0.8003615094956489,-7.926822870631934,0.5055574141045682,25.60512915735166,12.97710528489876,86.15542530863111,2.528976638414,10.886198107485642
GUIDED_NOGPS,4.831846237182617,24.79049589219221,27.001835555828624,12.819711440170211,85.70452340517582,3.3713313652888224,11.061116949435416,17.63261631980293,89.77932672615577,0.344713564273314,0.21553857209079988,-56.9349064682847,-0.21658071958347244,0.7970359303196605,-6.650445637613755,0.5061122049814699,26.88127964580307,13.008095949159047,85.6360675574411,3.047411672884904,10.141352973815572
GUIDED_NOGPS,4.890397310256958,17.08126247200163,26.626587488680823,12.998592449034025,85.66171688668035,3.7212336891522817,10.979078043249146,17.815647575452854,90.06356996566424,0.26827147446470645,0.34468848467245533,-56.51915968369519,-0.21676748068884732,0.7823754722715839,-6.598266144982651,0.5066027796184759,25.430937841781894,13.17792782762704,85.94103796940887,3.302629307098127,9.453803619658583
GUIDED_NOGPS,4.911808490753174,46.72017822333612,26.26212212979605,13.361174389006479,85.50049441112192,4.067796925005878,10.900681048252714,17.99055361821264,90.34955383337507,0.22718110977876263,0.2779500659620261,-56.21524700148089,-0.2083220653142773,0.7680720540771668,-10.0,0.5072735891333797,25.22183628451758,14.097406819511326,85.34150745422006,4.0258159969189515,9.969465635276325
GUIDED_NOGPS,4.9643518924713135,19.03585870734375,25.96743528465047,13.525607061294394,85.48155142158058,4.233462517496953,10.825926021673332,18.157334320406573,90.63722984217654,0.23418738976331477,0.15531679417879746,-55.66164650887302,-0.20842772666004805,0.757075463148857,-5.579378771206017,0.5077335176308939,24.75438435278099,13.98869316857032,85.63377556252834,4.353296771743584,9.912169855763242
GUIDED_NOGPS,5.0046539306640625,24.8435043742485,25.51455443665685,13.82087638103272,85.40148345673492,4.691836898389365,10.754807046217238,18.31600288369422,90.92654902958078,0.18566256426901043,0.10524595803390335,-55.244502950598246,-0.20228069261976755,0.7379873695219807,-10.0,0.5082875983592688,24.50686232621928,14.242289240337739,85.57415374908997,5.0061999626104505,10.255944532841736
GUIDED_NOGPS,5.043713092803955,25.60234396459637,25.138839872567445,13.966296715379704,85.42286724733314,4.98133777236082,10.687312092724362,18.466586145491828,91.21746197281509,0.14462089136132938,0.11062110346729183,-54.85728928126647,-0.20251302435504562,0.7225763889921542,-8.228900103873203,0.508691892088223,24.108025307927313,13.892919544867059,85.94943685789539,5.344203415413241,8.823550045014677
GUIDED_NOGPS,5.0814738273620605,26.489560307696195,24.700986490657666,14.102808400666811,85.4946407184119,5.289494556476241,10.623422882823014,18.609124885393737,91.50991880391315,0.12669959555712662,0.0106866847301312,-54.54647469289586,-0.20278424181271165,0.7038781803917327,-8.869598470323506,0.5090229171282519,23.473310061063952,13.96100993347602,86.23864075835954,5.609792450922823,8.995437383553925
GUIDED_NOGPS,5.130574464797974,20.3706865987693,24.35817451568934,13.950111504322164,85.73504757962836,5.576813249989824,10.563114751584642,18.743674131594087,91.80386922480645,0.14274429688686838,-0.13456112995159808,-54.186158308515594,-0.21571031822723655,0.6897529882052349,-7.954781773242669,0.5091032324677671,23.76604940429778,12.264093297013373,87.29094158156398,5.931100912813004,8.422479588423101
GUIDED_NOGPS,5.171938180923462,24.1827469701687,24.011725499697913,13.816977766324923,85.93659778349806,5.923512606274946,10.506356510178385,18.87030346730806,92.09926252241551,0.13109650315489588,-0.16059098087851667,-53.79320386518643,-0.22739965654424113,0.6752684494759764,-9.493241425868757,0.5092439971083762,23.876831652172356,12.226879565423634,87.16355799979874,6.314555687563131,7.62033867523995
GUIDED_NOGPS,5.212472438812256,24.674553637085626,23.960679631585812,13.455622723121708,86.18527596537427,6.172090989715543,10.453110308525943,18.98909733719351,92.3960475837412,0.21360273372941696,-0.34443427356928397,-53.496804391059136,-0.2490063576332311,0.6753784661529935,-8.54649048350472,0.5093161574275504,25.19948172810293,10.952595169102754,87.50599037802169,6.674581867906924,7.104676659622208
GUIDED_NOGPS,5.249095678329468,27.316270042853606,23.539068674544218,13.510174104116118,86.3425893328479,6.425886733747108,10.40333149795611,19.100155353772475,92.6941729109561,0.1759638023692981,-0.1469782004192697,-53.232752692841025,-0.2515491562345361,0.6567868588294055,-9.163678112378793,0.5095273753671623,22.6026326111004,13.402006843252511,87.09004217866169,7.05960701738782,6.302535746439056
GUIDED_NOGPS,5.286243915557861,26.924707438101414,23.308980156225186,13.851584748134663,86.22722281684503,6.614984464073901,10.356968493859533,19.20359260385275,92.9935866364957,0.15630160873953544,-0.12247532365867209,-53.04169181118826,-0.24084035350731403,0.6476005831182827,-8.391394406921819,0.510149545729476,23.361365380021553,15.32472584908344,85.53356737758932,7.491528425208717,5.156620156177409
GUIDED_NOGPS,5.328036546707153,23.934490216330655,23.046389577866208,13.848191366628347,86.3662226159425,6.760741958870382,10.313962638343405,19.299539954949136,93.29423653814993,0.18100480214188483,-0.26611356157380556,-52.877176459744746,-0.24531068647443552,0.6366213469761401,-7.728230242688346,0.5103920208833111,22.820934396263006,13.349941549253696,87.04369858614876,7.77407688096967,3.9534087864026803
GUIDED_NOGPS,5.366722583770752,25.854537160891837,22.52800196931206,14.051434895176232,86.44649727301335,6.926044831916072,10.274248062886123,19.388144361705155,93.59607005415413,0.09988839500154238,-0.13150632784530988,-52.74779560139178,-0.24015192599380156,0.612687695321297,-8.255970491270684,0.5107243591717112,21.115391652137912,14.655425966776471,86.74783408952915,7.712175346292363,3.8388172273765155
GUIDED_NOGPS,5.404815912246704,26.25690336231775,22.185365262027144,14.583673273424013,86.26050984175014,7.040374697237925,10.237751550992037,19.469569172314532,93.89903429828061,0.12129216680773927,0.018936912917271915,-52.692638408749346,-0.21986531545007337,0.5973806855517554,-7.727985005128616,0.5114577866847957,21.80095158652851,16.95734000734361,85.15938598005938,8.197774612082071,2.0626480624709638
GUIDED_NOGPS,5.4512083530426025,21.55966773583354,21.851986571840424,15.157845687159371,86.01776184662283,7.102479059287348,10.204392400846082,19.5439944349426,94.20307607492992,0.06700367551014907,0.19023037333837545,-52.63671965001445,-0.19737669365024535,0.5823797085497171,-6.975594847926219,0.5122779713424607,21.515881730667886,17.599551956080052,84.70311560899766,8.342681649150206,0.2291831180523293
GUIDED_NOGPS,5.489807367324829,25.913639817863917,21.482851883615236,15.787591750553185,85.75005302363728,7.132086055945893,10.174082287968467,19.611617204147773,94.50814189422212,0.1361158917820619,0.10948622484801189,-52.69028199348569,-0.1720811454117565,0.5654384797823385,-6.73865948573891,0.5131371333058773,21.21330596349924,18.161308376286524,84.44592988185322,8.427239011879045,-0.9167324722093172
GUIDED_NOGPS,5.528579473495483,25.79871815374774,21.138841232152064,16.337296267553466,85.54944857916838,7.097202945576283,10.146725127869395,19.672651847303325,94.81417798708804,0.16249104078803636,0.21968513724723232,-52.76601854609738,-0.15009100108874365,0.5496058052141335,-5.9083820894447685,0.5138970941118794,20.790761786637926,18.246045542851007,84.68326313774641,8.418375421572788,-2.807493196141034
GUIDED_NOGPS,5.568824529647827,24.853514733854386,20.89512551641429,16.944247738624572,85.28497766739949,7.027616007361266,10.122216938703794,19.727330351018377,95.12113032036069,0.22893748225166083,0.17893558832870154,-52.929523029543724,-0.12523871755772126,0.5386454288855248,-5.471857212387407,0.5147542289794418,21.15911780024713,19.01400184514859,84.14931609646311,8.48179725584381,-3.495042550298022
GUIDED_NOGPS,5.607116460800171,26.12134271657221,20.573528543865084,17.489086661714545,85.11564648053411,6.919586727289738,10.10044570392592,19.775902627559855,95.42894461186648,0.26594915678604925,0.30570902196601574,-53.035069942787935,-0.10290671846303898,0.5236541419969581,-4.876941029098799,0.5154699471969986,20.47028743712352,18.97375214594636,84.59239520986408,8.446016103207741,-4.469070802020421
GUIDED_NOGPS,5.645330429077148,26.177097635868886,20.308072066861303,18.105869942110424,84.90700390999466,6.780951000025695,10.081291234944068,19.81863682127401,95.73756634551657,0.37504520707772415,0.21412002717755285,-53.32956379413679,-0.07707450956236132,0.5113390415958617,-4.39953040321863,0.5162458436532829,20.41407981881541,19.99066986115723,84.19600793655059,8.3635467619457,-5.614986392282068
GUIDED_NOGPS,5.682709455490112,26.7796172975872,20.014347394727356,18.7336666605113,84.73033141677816,6.598416628169136,10.064625033775293,19.85581961500743,96.04694078639821,0.41400108428718607,0.1827822654918881,-53.590668265728034,-0.05049688295232586,0.4974861180476031,-3.6419118814548663,0.5169749140544301,19.96013677580655,20.525744566558554,84.23947624698994,8.210024138912022,-7.276563998161455
GUIDED_NOGPS,5.734363555908203,19.357313617441548,19.88754298366014,19.366572001917103,84.5706656450958,6.384369629228807,10.050310155699997,19.887756536529036,96.35701299586592,0.4848248632557821,0.019834015576070778,-53.95654100899811,-0.023453304057537,0.4918616413980072,-3.9353283069736644,0.5176795210261552,20.749585805213865,21.121347384878455,84.19285356436964,8.213495853089988,-8.422479588423101
GUIDED_NOGPS,5.769733905792236,28.280655383992986,19.84105744762643,19.900261891997495,84.47582497139172,6.145342607677676,10.038201071916937,19.914772264951193,96.66772784663297,0.46709139765375474,0.028665023286074138,-54.286869447827435,-0.0006529667829163978,0.4901428187854746,-2.4866268770536273,0.5182878543128618,21.119493291501943,20.29194532636708,84.66355547418404,8.112810735943063,-9.052733163067007
GUIDED_NOGPS,5.787129878997803,57.506635954809695,19.576273794080166,20.1400902278062,84.62839528135599,5.945054964021217,10.028143532197497,19.93721093715173,96.97903003786254,0.40092762196810566,0.20251574922111276,-54.53981867354969,0.009129568079451254,0.47740651309413346,-0.016218681393724843,0.5185259521347598,18.97370782551375,19.623425173043803,85.8963737769811,7.667521218322238,-10.714310768946394
GUIDED_NOGPS,5.8422675132751465,18.14247340897196,19.425111855946117,19.861717014232134,85.11607762236426,5.806409799783031,10.019974427540582,19.955436454194807,97.29086411025912,0.4179287632250608,0.09596671915961791,-55.11674767726774,-0.004217374798320269,0.4702568714202768,-4.095966732472764,0.5182621797318423,19.173625828078904,17.223315687397278,88.14992461202829,7.6710816682324054,-10.828902327972559
GUIDED_NOGPS,5.884669303894043,23.587623300228323,19.11067082729351,20.037147824700355,85.36646948283476,5.433233915605516,10.013521652827315,19.969832787752846,97.60317446115978,0.43249851722005,0.29148387235899476,-55.76308164823688,0.0030291766626378983,0.45485745872330985,-1.8880434372346264,0.5183550574674876,19.04047864802139,18.923159008990343,86.98754990507375,7.111354028664026,-11.631043241155712
GUIDED_NOGPS,5.949395656585693,15.451536015973534,18.910279603766643,20.757786393788074,85.19092409831849,4.910070570503434,10.008603969475736,19.980804286527825,97.91590535962548,0.5601137183117153,0.44550036927455106,-56.51896502330385,0.03496419482671121,0.4450837817145454,-1.0401580336342358,0.5190874718919605,20.026389644474406,22.351917413074617,84.33299894799123,6.415180897517596,-12.547775713365029
GUIDED_NOGPS,5.969848394393921,48.92001212997737,18.675576467412252,21.496697881291517,85.07609540882817,4.3967869955512695,10.005030868095481,19.988775982672973,98.22900096153234,0.5650606429006557,0.677481981461922,-56.801027930363276,0.06785648543783451,0.43352727996583856,7.865305014438018,0.5197293583290562,19.305936564330917,23.026838786220136,84.65940788205427,5.620420096281775,-12.08940947726037
