E-kp,E-ki,E-kd,E-I-Tot,E-P,E-I,E-D,E-PID,N-kp,N-ki,N-kd,N-I-Tot,N-P,N-I,N-D,N-PID,D-kp,D-ki,D-kd,D-I-Tot,D-P,D-I,D-D,D-PID,Y-kp,Y-ki,Y-kd,Y-I-Tot,Y-P,Y-I,Y-D,Y-PID,errorN,desiredN,actualN,errorE,desiredE,actualE,errorD,desiredD,actualD,errorY,desiredY,actualY,roll,pitch,yaw-rate,thrust,dt,Time,Mode
0.03,0.005,0.03,-0.004660543400266845,-0.004233952614506017,-2.330271700133423e-05,-0.12821362376510245,-0.13247087909660982,0.03,0.005,0.03,-0.004487763536052377,-0.004076987708271486,-2.2438817680261883e-05,-0.12346037278082643,-0.1275597993067782,0.002,8e-05,0,-0.006433790558725662,-0.00038965934538507486,-5.14703244698053e-07,-0.0,-0.0003901740486297729,0.2,0.02,0.005,-0.004577588774575556,-0.02772394017278167,-9.155177549151113e-05,-0.02098858418030476,-0.04880407612857794,-0.13589959027571621,0.0,0.13589959027571621,-0.14113175381686724,0.0,0.14113175381686724,-0.19482967269253743,0.0,0.19482967269253743,-0.13861970086390835,0,0.13861970086390835,-0.13277910547203411,0.12723893019772126,0.04880407612857794,0.4,0.03302264213562012,0.033304691314697266,STABILIZE
0.03,0.005,0.03,-0.009528460264234987,-0.004366170513912501,-4.7642301321174936e-05,-0.06608331062568937,-0.07049712344092304,0.03,0.005,0.03,-0.009125706693650794,-0.004159900677391886,-4.562853346825397e-05,-0.0629696356631059,-0.06717516487396603,0.002,8e-05,0,-0.013750192274749884,-0.0004374856615005775,-1.1000153819799907e-06,-0.0,-0.0004385856768825575,0.2,0.02,0.005,-0.009358175182175292,-0.028585609266216463,-0.00018716350364350584,-0.01081631503254896,-0.039589087802408926,-0.13866335591306286,0.0,0.13866335591306286,-0.1455390171304167,0.0,0.1455390171304167,-0.21874283075028875,0.0,0.21874283075028875,-0.1429280463310823,0,0.1429280463310823,-0.07066447673586015,0.06699909638895395,0.039589087802408926,0.4,0.0334475040435791,0.06671905517578125,STABILIZE
0.03,0.005,0.03,-0.014682190937827164,-0.00462324991177619,-7.341095468913583e-05,-0.04661796100732747,-0.0513146218737928,0.03,0.005,0.03,-0.013842985932205173,-0.004231723038074297,-6.921492966102586e-05,-0.042695641373983025,-0.046996579341718345,0.002,8e-05,0,-0.02208854378577485,-0.0004986715492039903,-1.7670835028619882e-06,-0.0,-0.0005004386327068524,0.2,0.02,0.005,-0.014274150837704733,-0.02939978235207106,-0.00028548301675409464,-0.007413756994656374,-0.037099022363481525,-0.14105743460247658,0.0,0.14105743460247658,-0.15410833039253968,0.0,0.15410833039253968,-0.24933577460199519,0.0,0.24933577460199519,-0.1469989117603553,0,0.1469989117603553,-0.05143502798466712,0.046864771247593556,0.037099022363481525,0.4,0.03344225883483887,0.10016870498657227,STABILIZE
0.03,0.005,0.03,-0.020588926148320547,-0.004836089777919897,-0.00010294463074160274,-0.036415644509002774,-0.04135467891766428,0.03,0.005,0.03,-0.019011073279377743,-0.004231328051858068,-9.505536639688872e-05,-0.03201903610013142,-0.03634541951838637,0.002,8e-05,0,-0.03235475955600948,-0.0005603585215303694,-2.5883807644807583e-06,-0.0,-0.0005629469022948502,0.2,0.02,0.005,-0.019725937443577937,-0.029757362893380532,-0.00039451874887155874,-0.005621310675355417,-0.035773192317607505,-0.14104426839526893,0.0,0.14104426839526893,-0.1612029925973299,0.0,0.1612029925973299,-0.2801792607651847,0.0,0.2801792607651847,-0.14878681446690264,0,0.14878681446690264,-0.041448921879482896,0.036237906443103624,0.035773192317607505,0.4,0.036641597747802734,0.13684749603271484,STABILIZE
0.03,0.005,0.03,-0.026126114989625245,-0.004965822084252317,-0.00013063057494812623,-0.029908152933036704,-0.03500460559223715,0.03,0.005,0.03,-0.023693014034755662,-0.004198824614177047,-0.00011846507017377831,-0.02542089887707,-0.029738188561420825,0.002,8e-05,0,-0.04270638311787112,-0.0006188979325623175,-3.4165106494296903e-06,-0.0,-0.0006223144432117471,0.2,0.02,0.005,-0.02474794400326649,-0.030025333306717306,-0.0004949588800653297,-0.004537101758460906,-0.03505739394524354,-0.13996082047256825,0.0,0.13996082047256825,-0.16552740280841058,0.0,0.16552740280841058,-0.30944896628115875,0.0,0.30944896628115875,-0.15012666653358653,0,0.15012666653358653,-0.03508240548081057,0.029646367353567852,0.03505739394524354,0.4,0.03345179557800293,0.1702561378479004,STABILIZE
0.03,0.005,0.03,-0.03221534304582559,-0.005462649953593983,-0.00016107671522912795,-0.00723679194167828,-0.01286051861050139,0.03,0.005,0.03,-0.02862245751413113,-0.004422206549882031,-0.00014311228757065566,-0.0020647980649767454,-0.006630116902429432,0.002,8e-05,0,-0.05638491341623532,-0.0008180678208573974,-4.510793073298826e-06,-0.0,-0.0008225786139306962,0.2,0.02,0.005,-0.03026579906526692,-0.03300047276948662,-0.0006053159813053385,-0.0007842181398519799,-0.03439000689064394,-0.14740688499606772,0.0,0.14740688499606772,-0.1820883317864661,0.0,0.1820883317864661,-0.4090339104286987,0.0,0.4090339104286987,-0.1650023638474331,0,0.1650023638474331,-0.012879558894677512,0.0065930532949056665,0.03439000689064394,0.4,0.03344106674194336,0.20369648933410645,STABILIZE
0.03,0.005,0.03,-0.03833789634417936,-0.005489649795383597,-0.0001916894817208968,-0.006607584452770912,-0.012288923729875405,0.03,0.005,0.03,-0.03337452231163569,-0.004260832086228605,-0.00016687261155817846,-0.0006043997856120443,-0.005032104483398828,0.002,8e-05,0,-0.07098393317406528,-0.0008726588611096969,-5.678714653925223e-06,-0.0,-0.0008783375757636221,0.2,0.02,0.005,-0.035839386864339094,-0.03331621479876813,-0.0007167877372867818,-0.000702592795138229,-0.03473559533119314,-0.14202773620762016,0.0,0.14202773620762016,-0.18298832651278657,0.0,0.18298832651278657,-0.43632943055484846,0.0,0.43632943055484846,-0.16658107399384064,0,0.16658107399384064,-0.0123035020520008,0.004996354593796312,0.03473559533119314,0.4,0.033458709716796875,0.23717212677001953,STABILIZE
0.03,0.005,0.03,-0.04480888581082773,-0.005807074208306053,-0.00022404442905413866,-0.006969179254544064,-0.013000297891904256,0.03,0.005,0.03,-0.03822887762293271,-0.004356304653480937,-0.00019114438811466353,-0.0007460505846883561,-0.005293499626283956,0.002,8e-05,0,-0.08758450898549164,-0.0009931585283766903,-7.006760718839331e-06,-0.0,-0.0010001652890955298,0.2,0.02,0.005,-0.04163854145548446,-0.034694458222386114,-0.0008327708291096891,-0.0007870041793365524,-0.036314233230832355,-0.14521015511603125,0.0,0.14521015511603125,-0.19356914027686842,0.0,0.19356914027686842,-0.4965792641883452,0.0,0.4965792641883452,-0.17347229111193058,0,0.17347229111193058,-0.013016265213339732,0.00525411490811922,0.036314233230832355,0.4,0.033429861068725586,0.27059435844421387,STABILIZE
0.03,0.005,0.03,-0.05110601611537022,-0.005642642032315793,-0.0002555300805768511,-0.004825160109476821,-0.010723332222369465,0.03,0.005,0.03,-0.04274133888749444,-0.004043461445008623,-0.0002137066944374722,0.0011206471152306074,-0.0031365210242154874,0.002,8e-05,0,-0.1049576257563984,-0.0010378301880687249,-8.396610060511872e-06,-0.0,-0.0010462267981292367,0.2,0.02,0.005,-0.04729356032793225,-0.0337817869833978,-0.000945871206558645,-0.0006019076144175962,-0.03532956580437405,-0.1347820481669541,0.0,0.1347820481669541,-0.18808806774385978,0.0,0.18808806774385978,-0.5189150940343624,0.0,0.5189150940343624,-0.168908934916989,0,0.168908934916989,-0.010732532129275949,0.0031048948743415627,0.03532956580437405,0.4,0.03347969055175781,0.3040904998779297,STABILIZE
0.03,0.005,0.03,-0.05720597501741182,-0.005470365549957317,-0.0002860298750870591,-0.0030195537305216435,-0.00877594915556602,0.03,0.005,0.03,-0.0468938676448999,-0.0037239349681708676,-0.00023446933822449952,0.0028366323118683466,-0.0011217719945270203,0.002,8e-05,0,-0.12304466651376678,-0.0010813485385578214,-9.843573321101343e-06,-0.0,-0.0010911921118789227,0.2,0.02,0.005,-0.0527852222724004,-0.032832350507559,-0.001055704445448008,-0.0004199473038406905,-0.0343080022568477,-0.12413116560569559,0.0,0.12413116560569559,-0.18234551833191057,0.0,0.18234551833191057,-0.5406742692789107,0.0,0.5406742692789107,-0.16416175253779497,0,0.16416175253779497,-0.00877912718932139,0.0010966228989506691,0.0343080022568477,0.4,0.033452749252319336,0.3375422954559326,STABILIZE
0.03,0.005,0.03,-0.06317728605751179,-0.005304862524778581,-0.0003158864302875589,0.0009320200052563274,-0.004688728949809813,0.03,0.005,0.03,-0.05094189995726799,-0.0035962378728499047,-0.00025470949978633996,0.004928906228484412,0.0010779588558481675,0.002,8e-05,0,-0.14207979466264006,-0.0011273765207584436,-1.1366383573011206e-05,-0.0,-0.0011387429043314549,0.2,0.02,0.005,-0.05823602971415996,-0.032283010027326045,-0.0011647205942831992,0.00010622415762959941,-0.033341506463979646,-0.1198745957616635,0.0,0.1198745957616635,-0.17682875082595273,0.0,0.17682875082595273,-0.5636882603792218,0.0,0.5636882603792218,-0.1614150501366302,0,0.1614150501366302,-0.004685673495547185,-0.0010911637607677158,0.033341506463979646,0.4,0.03376889228820801,0.3713037967681885,STABILIZE
0.03,0.005,0.03,-0.06885111217923573,-0.005081153459137233,-0.00034425556089617864,0.002429018790333706,-0.0029963902296997057,0.03,0.005,0.03,-0.05447277488215951,-0.003162049198106598,-0.00027236387441079753,0.006556517591766244,0.0031221045192488485,0.002,8e-05,0,-0.1621642626926961,-0.0011990998903439868,-1.297314101541569e-05,-0.0,-0.0012120730313594024,0.2,0.02,0.005,-0.06325085360896553,-0.02993992558506905,-0.0012650170721793105,0.0005031300105887664,-0.030701812646659596,-0.1054016399368866,0.0,0.1054016399368866,-0.16937178197124111,0.0,0.16937178197124111,-0.5995499451719934,0.0,0.5995499451719934,-0.14969962792534525,0,0.14969962792534525,-0.002988222728660548,-0.003129922676628042,0.030701812646659596,0.4,0.03349924087524414,0.4048125743865967,STABILIZE
0.03,0.005,0.03,-0.07436212431835877,-0.004942452159419334,-0.00037181062159179386,0.005157344393331002,-0.00015691838768012566,0.03,0.005,0.03,-0.05769532988661371,-0.0028900905203135194,-0.00028847664943306854,0.008753707289170963,0.005575140119424374,0.002,8e-05,0,-0.18289823048239381,-0.0012396590836497925,-1.4631858438591507e-05,-0.0,-0.001254290942088384,0.2,0.02,0.005,-0.06817443332820486,-0.029437493030454495,-0.0013634886665640973,0.0007843691791981638,-0.03001661251782043,-0.09633635067711732,0.0,0.09633635067711732,-0.1647484053139778,0.0,0.1647484053139778,-0.6198295418248962,0.0,0.6198295418248962,-0.14718746515227246,0,0.14718746515227246,-0.00014259587539880328,-0.005575524831612412,0.03001661251782043,0.4,0.033451080322265625,0.4382669925689697,STABILIZE
0.03,0.005,0.03,-0.07971269664328394,-0.004799385565595153,-0.00039856348321641973,0.005030588611980726,-0.00016736043683084588,0.03,0.005,0.03,-0.06056427885871096,-0.002573405506728702,-0.00030282139429355483,0.008778599323922059,0.005902372422899802,0.002,8e-05,0,-0.20439224133564343,-0.001285321010804509,-1.6351379306851475e-05,-0.0,-0.0013016723901113606,0.2,0.02,0.005,-0.0729770046240675,-0.028718910744969895,-0.00145954009248135,0.0007554932678045469,-0.0294229575696467,-0.0857801835576234,0.0,0.0857801835576234,-0.15997951885317177,0.0,0.15997951885317177,-0.6426605054022545,0.0,0.6426605054022545,-0.14359455372484947,0,0.14359455372484947,-0.0001525674142302787,-0.005902773324339957,0.0294229575696467,0.4,0.03344535827636719,0.4717116355895996,STABILIZE
0.03,0.005,0.03,-0.08507457917511782,-0.0047953101760108965,-0.00042537289587558913,0.004024917936688553,-0.0011957651351979324,0.03,0.005,0.03,-0.06332160073128536,-0.002465964809111755,-0.0003166080036564268,0.00750886942557623,0.004726296612808049,0.002,8e-05,0,-0.22786347590044204,-0.0013994071333950219,-1.8229078072035366e-05,-0.0,-0.0014176362114670573,0.2,0.02,0.005,-0.07790343826230194,-0.029372491491700143,-0.0015580687652460388,0.0005161663361645182,-0.030414393920781664,-0.08219882697039184,0.0,0.08219882697039184,-0.15984367253369655,0.0,0.15984367253369655,-0.6997035666975109,0.0,0.6997035666975109,-0.1468624574585007,0,0.1468624574585007,-0.001183646618799323,-0.004729346108353743,0.030414393920781664,0.4,0.03354454040527344,0.5052416324615479,STABILIZE
0.03,0.005,0.03,-0.09022241039244308,-0.0046070859612837,-0.0004511120519622154,0.004167724757587004,-0.0008904732556589108,0.03,0.005,0.03,-0.06593752689096814,-0.0023411406041185783,-0.0003296876344548407,0.007497317631102585,0.004826489392529166,0.002,8e-05,0,-0.2518087793277239,-0.0014286672918001964,-2.0144702346217913e-05,-0.0,-0.0014488119941464144,0.2,0.02,0.005,-0.08275508885087338,-0.02894678085071988,-0.0016551017770174675,0.0004983268561509367,-0.03010355577158641,-0.07803802013728595,0.0,0.07803802013728595,-0.15356953204279,0.0,0.15356953204279,-0.7143336459000982,0.0,0.7143336459000982,-0.1447339042535994,0,0.1447339042535994,-0.0008782783139118125,-0.004828723400501686,0.03010355577158641,0.4,0.033521175384521484,0.5388510227203369,STABILIZE
0.03,0.005,0.03,-0.09533917548387652,-0.004450206314121132,-0.0004766958774193826,0.0037417380029932477,-0.001185164188547267,0.03,0.005,0.03,-0.06845489826536941,-0.00218943449330989,-0.00034227449132684704,0.005784710506277253,0.003253001521640516,0.002,8e-05,0,-0.27678081802485627,-0.001447929467161618,-2.2142465441988505e-05,-0.0,-0.0014700719326036064,0.2,0.02,0.005,-0.08755444652798587,-0.027827649509999827,-0.0017510889305597174,0.0003108285995339267,-0.02926790984102562,-0.07298114977699634,0.0,0.07298114977699634,-0.1483402104707044,0.0,0.1483402104707044,-0.7239647335808089,0.0,0.7239647335808089,-0.13913824754999912,0,0.13913824754999912,-0.0011772610460264196,-0.00325587000402645,0.02926790984102562,0.4,0.034493446350097656,0.573279857635498,STABILIZE
0.03,0.005,0.03,-0.09991834521128104,-0.004102856776561385,-0.0004995917260564052,0.0049872540257019215,0.0003848055230841318,0.03,0.005,0.03,-0.07050150969753756,-0.0018337284012878209,-0.0003525075484876878,0.006283412157472816,0.004097176207697308,0.002,8e-05,0,-0.3018146038404052,-0.0014953225714206394,-2.414516830723242e-05,-0.0,-0.0015194677397278719,0.2,0.02,0.005,-0.09162771932121108,-0.024330545895619657,-0.0018325543864242217,0.0007579530452028818,-0.025405147236840998,-0.061124280042927366,0.0,0.061124280042927366,-0.13676189255204615,0.0,0.13676189255204615,-0.7476612857103196,0.0,0.7476612857103196,-0.12165272947809827,0,0.12165272947809827,0.00039350394033787497,-0.004096349938232269,0.025405147236840998,0.4,0.03348278999328613,0.6067667007446289,STABILIZE
0.03,0.005,0.03,-0.1043019060061267,-0.003929161334382361,-0.0005215095300306335,0.005169664268352781,0.0007189934039397864,0.03,0.005,0.03,-0.0722837060459198,-0.0015974540584847686,-0.000361418530229599,0.005801547603622205,0.0038426750149078374,0.002,8e-05,0,-0.32704059586168893,-0.0015074045524513763,-2.6163247668935118e-05,-0.0,-0.0015335678001203114,0.2,0.02,0.005,-0.09545447649413648,-0.022867172790377144,-0.0019090895298827296,0.0008691400684827838,-0.02390712225177709,-0.05324846861615896,0.0,0.05324846861615896,-0.13097204447941202,0.0,0.13097204447941202,-0.7537022762256881,0.0,0.7537022762256881,-0.11433586395188572,0,0.11433586395188572,0.000726660168517893,-0.003841232586630939,0.02390712225177709,0.4,0.033469438552856445,0.6402945518493652,STABILIZE
0.03,0.005,0.03,-0.10858655186829103,-0.0038439500791257277,-0.0005429327593414552,0.005655011762354738,0.0012681289238875553,0.03,0.005,0.03,-0.07384992893162004,-0.0014051295670851152,-0.0003692496446581002,0.006311249113568243,0.004536869901825028,0.002,8e-05,0,-0.352765686790438,-0.0015386097006568902,-2.8221254943235044e-05,-0.0,-0.0015668309556001252,0.2,0.02,0.005,-0.09923113162815193,-0.022588057089189813,-0.0019846226325630385,0.001008294466274861,-0.02356438525547799,-0.04683765223617051,0.0,0.04683765223617051,-0.12813166930419093,0.0,0.12813166930419093,-0.7693048503284451,0.0,0.7693048503284451,-0.11294028544594906,0,0.11294028544594906,0.00127706944089124,-0.0045343613791611025,0.02356438525547799,0.4,0.03343939781188965,0.6736910343170166,STABILIZE
0.03,0.005,0.03,-0.11286414067681017,-0.0038345841264822793,-0.0005643207033840509,0.004587968141237521,0.00018906331137119071,0.03,0.005,0.03,-0.07515533349794576,-0.0011702115029618768,-0.00037577666748972883,0.006970427293245966,0.00542443912279436,0.002,8e-05,0,-0.3802172095358972,-0.0016405686798422771,-3.041737676287178e-05,-0.0,-0.001670986056605149,0.2,0.02,0.005,-0.10303472574576428,-0.02273118849561563,-0.0020606945149152854,0.0009234110140088667,-0.02386847199652205,-0.03900705009872923,0.0,0.03900705009872923,-0.12781947088274265,0.0,0.12781947088274265,-0.8202843399211386,0.0,0.8202843399211386,-0.11365594247807816,0,0.11365594247807816,0.00019982323171979536,-0.005424053411303556,0.02386847199652205,0.4,0.03346586227416992,0.7071478366851807,STABILIZE
0.03,0.005,0.03,-0.11701867197640901,-0.0037205336206806773,-0.0005850933598820451,0.004359257244890084,5.3630264327361905e-05,0.03,0.005,0.03,-0.07626832354867673,-0.0009967230006493145,-0.0003813416177433837,0.00712657283654635,0.005748508218153652,0.002,8e-05,0,-0.4090177679928983,-0.001719463052209976,-3.272142143943187e-05,-0.0,-0.0017521844736494078,0.2,0.02,0.005,-0.1067356632229119,-0.022095492557879945,-0.002134713264458238,0.0008560687154054298,-0.02337413710693275,-0.03322410002164382,0.0,0.03322410002164382,-0.12401778735602258,0.0,0.12401778735602258,-0.8597315261049879,0.0,0.8597315261049879,-0.11047746278939971,0,0.11047746278939971,6.47144052957875e-05,-0.005748394122290077,0.02337413710693275,0.4,0.03349947929382324,0.7406513690948486,STABILIZE
0.03,0.005,0.03,-0.12106645718622538,-0.0036307785865527698,-0.000605332285931127,0.002821185351425218,-0.0014149255210586793,0.03,0.005,0.03,-0.07715925928456217,-0.0007991507019697448,-0.0003857962964228109,0.006183317615726533,0.004998370617333978,0.002,8e-05,0,-0.4377993141672485,-0.0017210962888097694,-3.5023945133379884e-05,-0.0,-0.0017561202339431493,0.2,0.02,0.005,-0.1099970072535225,-0.019502382094462017,-0.00219994014507045,0.000721505634916668,-0.020980816604615798,-0.026638356732324828,0.0,0.026638356732324828,-0.12102595288509232,0.0,0.12102595288509232,-0.8605481444048847,0.0,0.8605481444048847,-0.09751191047231007,0,0.09751191047231007,-0.0014064167295806966,-0.0050007714445999595,0.020980816604615798,0.4,0.03344559669494629,0.7741003036499023,STABILIZE
0.03,0.005,0.03,-0.12472743536907184,-0.003284710560147517,-0.0006236371768453592,0.003853249974097103,-5.5097762895773075e-05,0.03,0.005,0.03,-0.07785537635033868,-0.0006245716207129099,-0.0003892768817516934,0.005815677898509954,0.004801829396045351,0.002,8e-05,0,-0.46656904885852235,-0.0017208561324921548,-3.732552390868179e-05,-0.0,-0.0017581816564008366,0.2,0.02,0.005,-0.11318239750949764,-0.019053350387823347,-0.002263647950189953,0.0005700391639509088,-0.02074695917406239,-0.020819054023763665,0.0,0.020819054023763665,-0.10949035200491723,0.0,0.10949035200491723,-0.8604280662460774,0.0,0.8604280662460774,-0.09526675193911673,0,0.09526675193911673,-4.7113599894179885e-05,-0.0048019143704262765,0.02074695917406239,0.4,0.03343653678894043,0.807603120803833,STABILIZE
0.03,0.005,0.03,-0.1283913616393299,-0.003278565615823274,-0.0006419568081966495,0.0033802616870296383,-0.0005402607369902851,0.03,0.005,0.03,-0.07857763763659782,-0.000646296034391199,-0.00039288818818298914,0.004535794382398259,0.003496610159824071,0.002,8e-05,0,-0.4954601334449145,-0.001723493861356473,-3.963681067559317e-05,-0.0,-0.001763130672032066,0.2,0.02,0.005,-0.11618588507570944,-0.017917265679477767,-0.002323717701514189,0.000697737066038722,-0.019543246314953234,-0.0215432011463733,0.0,0.0215432011463733,-0.10928552052744248,0.0,0.10928552052744248,-0.8617469306782364,0.0,0.8617469306782364,-0.08958632839738884,0,0.08958632839738884,-0.0005347928617016791,-0.0034974506242106016,0.019543246314953234,0.4,0.03352618217468262,0.8410656452178955,STABILIZE
0.03,0.005,0.03,-0.13189098660544835,-0.0031383744187403425,-0.0006594549330272417,0.004162421114801243,0.00036459176303365844,0.03,0.005,0.03,-0.0790569723447268,-0.0004298551417853412,-0.00039528486172363405,0.004425858975320892,0.0036007189718119167,0.002,8e-05,0,-0.525544866296916,-0.0017986147447503968,-4.204358930375328e-05,-0.0,-0.00184065833405415,0.2,0.02,0.005,-0.11927345438110244,-0.018459022739000762,-0.002385469087622049,0.0006381494352068086,-0.020206342391416002,-0.01432850472617804,0.0,0.01432850472617804,-0.10461248062467808,0.0,0.10461248062467808,-0.8993073723751984,0.0,0.8993073723751984,-0.0922951136950038,0,0.0922951136950038,0.00037039151867622537,-0.003600126996444844,0.020206342391416002,0.4,0.03345322608947754,0.874518871307373,STABILIZE
0.03,0.005,0.03,-0.1352902386241952,-0.003047537175917098,-0.000676451193120976,0.0040244351045197885,0.0003004467354817144,0.03,0.005,0.03,-0.07937110135079355,-0.00028162661042566573,-0.0003968555067539677,0.004276034466919838,0.003597552349740204,0.002,8e-05,0,-0.5555369960750269,-0.0017925929975112379,-4.444295968600216e-05,-0.0,-0.00183703595719724,0.2,0.02,0.005,-0.12214485010739556,-0.01716198186029901,-0.0024428970021479115,0.0007370743460730344,-0.018867804516373883,-0.009387553680855525,0.0,0.009387553680855525,-0.10158457253056993,0.0,0.10158457253056993,-0.8962964987556189,0.0,0.8962964987556189,-0.08580990930149504,0,0.08580990930149504,0.0003058343263684172,-0.0035970983465562433,0.018867804516373883,0.4,0.0334622859954834,0.9080150127410889,STABILIZE
0.03,0.005,0.03,-0.13852025435420862,-0.0028974423754829456,-0.0006926012717710431,0.004385316072486715,0.0007952724252327263,0.03,0.005,0.03,-0.0794587923188215,-7.866200908880923e-05,-0.0003972939615941075,0.004308357556444901,0.003832401585761984,0.002,8e-05,0,-0.5855137994152299,-0.001792686012276525,-4.684110395321839e-05,-0.0,-0.0018395271162297434,0.2,0.02,0.005,-0.1250818418581628,-0.0175639275809998,-0.002501636837163256,0.00028932004216578955,-0.019776244375997266,-0.0026220669696269744,0.0,0.0026220669696269744,-0.09658141251609818,0.0,0.09658141251609818,-0.8963430061382625,0.0,0.8963430061382625,-0.087819637904999,0,0.087819637904999,0.0008011455709845188,-0.003831178137202498,0.019776244375997266,0.4,0.033443450927734375,0.9414358139038086,STABILIZE
0.03,0.005,0.03,-0.14159294271323938,-0.0027547625043717974,-0.000707964713566197,0.00316809702469247,-0.00029463019324552477,0.03,0.005,0.03,-0.07932892486928508,0.00011643028472765983,-0.00039664462434642545,0.004430158981630991,0.0041499446420122255,0.002,8e-05,0,-0.6155173795750314,-0.0017932773728520086,-4.9241390366002515e-05,-0.0,-0.0018425187632180112,0.2,0.02,0.005,-0.12808981919090062,-0.01797831345499737,-0.0025617963838180124,0.00016025483478003397,-0.020379855004035347,0.0038810094909219944,0.0,-0.0038810094909219944,-0.09182541681239324,0.0,0.09182541681239324,-0.8966386864260043,0.0,0.8966386864260043,-0.08989156727498684,0,0.08989156727498684,-0.00028811896931018113,-0.004150401780799241,0.020379855004035347,0.4,0.0334622859954834,0.9749033451080322,STABILIZE
0.03,0.005,0.03,-0.14449510563693957,-0.0025717749115161184,-0.0007224755281846979,0.0042124789101393905,0.000918228470438574,0.03,0.005,0.03,-0.07898928085141878,0.00030097826585195116,-0.0003949464042570939,0.005650013493731231,0.005556045355326088,0.002,8e-05,0,-0.6454975311356151,-0.0017711434231187616,-5.1639802490849215e-05,-0.0,-0.0018227832256096108,0.2,0.02,0.005,-0.13086242395102654,-0.016379772716896706,-0.0026172484790205307,0.00022691565315087418,-0.018770105542766362,0.010032608861731705,0.0,-0.010032608861731705,-0.08572583038387062,0.0,0.08572583038387062,-0.8855717115593807,0.0,0.8855717115593807,-0.08189886358448353,0,0.08189886358448353,0.0009261693677016912,-0.0055547271595187825,0.018770105542766362,0.4,0.033854007720947266,1.0087792873382568,STABILIZE
0.03,0.005,0.03,-0.1472359180951394,-0.002457733068943722,-0.000736179590475697,0.00405610135253897,0.0008621886931195507,0.03,0.005,0.03,-0.07834696112701191,0.0005759790031553125,-0.00039173480563505956,0.006000007879860758,0.006184252077381011,0.002,8e-05,0,-0.6751538833511826,-0.001772890305485436,-5.401231066809461e-05,0.0,-0.0018269026161535306,0.2,0.02,0.005,-0.13336566074942324,-0.014964632939186215,-0.002667313214988465,0.0005193846167549463,-0.017112561537419732,0.019199300105177085,0.0,-0.019199300105177085,-0.0819244356314574,0.0,0.0819244356314574,-0.886445152742718,0.0,0.886445152742718,-0.07482316469593107,0,0.07482316469593107,0.0008702640358564133,-0.006183120863045575,0.017112561537419732,0.4,0.03345537185668945,1.0422053337097168,STABILIZE
0.03,0.005,0.03,-0.1498616259211338,-0.0023489257843390217,-0.000749308129605669,0.004162095921377809,0.0010638620074331188,0.03,0.005,0.03,-0.0774044632662672,0.0008431469430340007,-0.000387022316331336,0.006707431626515536,0.007163556253218201,0.002,8e-05,0,-0.7049110328522801,-0.0017746918891629333,-5.639288262818241e-05,0.0,-0.0018310847717911158,0.2,0.02,0.005,-0.13564402179920454,-0.013587957662014975,-0.002712880435984091,0.0005308376897514842,-0.01577000040824758,0.02810489810113336,0.0,-0.02810489810113336,-0.07829752614463406,0.0,0.07829752614463406,-0.8873459445814667,0.0,0.8873459445814667,-0.06793978831007487,0,0.06793978831007487,0.0010723556090997165,-0.007162289718484836,0.01577000040824758,0.4,0.033535003662109375,1.075751543045044,STABILIZE
0.03,0.005,0.03,-0.15268168566199697,-0.0022610849998740776,-0.0007634084283099848,0.0037340225723591415,0.000709529144175079,0.03,0.005,0.03,-0.0762829219685232,0.0008992363418131351,-0.00038141460984261597,0.005793465142334269,0.006311286874304788,0.002,8e-05,0,-0.7380510955828411,-0.0017714163438732114,-5.9044087646627294e-05,0.0,-0.0018304604315198386,0.2,0.02,0.005,-0.13839989862342983,-0.01473082681775425,-0.0027679979724685964,0.00043820824048271923,-0.01706061654974013,0.029974544727104504,0.0,-0.029974544727104504,-0.07536949999580259,0.0,0.07536949999580259,-0.8857081719366057,0.0,0.8857081719366057,-0.07365413408877125,0,0.07365413408877125,0.0007176417600691839,-0.0063103695549793695,0.01706061654974013,0.4,0.03741645812988281,1.1131486892700195,STABILIZE
0.03,0.005,0.03,-0.15567308053983683,-0.0020995464334980507,-0.0007783654026991842,0.003637094284107593,0.0007591824479103578,0.03,0.005,0.03,-0.07438444074002155,0.0013324718584936375,-0.0003719222037001078,0.006654565990957983,0.007615115645751513,0.002,8e-05,0,-0.7761223561211351,-0.0017813847730164597,-6.208978848969081e-05,0.0,-0.0018434745615061505,0.2,0.02,0.005,-0.14110474470946321,-0.012656191475894177,-0.0028220948941892646,0.0007428112087298355,-0.014735475161353607,0.04441572861645458,0.0,-0.04441572861645458,-0.06998488111660169,0.0,0.06998488111660169,-0.8906923865082298,0.0,0.8906923865082298,-0.06328095737947088,0,0.06328095737947088,0.0007675925818608967,-0.007614272513881859,0.014735475161353607,0.4,0.04274344444274902,1.1558921337127686,STABILIZE
0.03,0.005,0.03,-0.15791539909747934,-0.00201038127818268,-0.0007895769954873967,0.003089003052678788,0.0002890447790087113,0.03,0.005,0.03,-0.07272298198972972,0.001489603497538374,-0.0003636149099486486,0.006503498274146944,0.007629486861736669,0.002,8e-05,0,-0.8059317907961463,-0.0017817370084667623,-6.447454326369172e-05,-0.0,-0.001846211551730454,0.2,0.02,0.005,-0.14309435889469466,-0.011892104848834992,-0.0028618871778938932,0.0006208933104286487,-0.014133098716300236,0.0496534499179458,0.0,-0.0496534499179458,-0.067012709272756,0.0,0.067012709272756,-0.8908685042333812,0.0,0.8908685042333812,-0.05946052424417496,0,0.05946052424417496,0.00029696236548519284,-0.00762918278789872,0.014133098716300236,0.4,0.03346109390258789,1.1893746852874756,STABILIZE
0.03,0.005,0.03,-0.1600827461501556,-0.0019435661564375642,-0.0008004137307507781,0.002806690602730962,6.271071554261962e-05,0.03,0.005,0.03,-0.07102310139584508,0.0015243661084086819,-0.00035511550697922545,0.005067334965335837,0.006236585566765294,0.002,8e-05,0,-0.8357696241303298,-0.0017838030132471365,-6.686156993042639e-05,-0.0,-0.0018506645831775628,0.2,0.02,0.005,-0.1449565280383075,-0.011132654614525568,-0.00289913056076615,0.0005229026971030801,-0.013508882478188638,0.05081220361362273,0.0,-0.05081220361362273,-0.06478553854791881,0.0,0.06478553854791881,-0.8919015066235683,0.0,0.8919015066235683,-0.055663273072627834,0,0.055663273072627834,6.876957394673654e-05,-0.0062365216997239915,0.013508882478188638,0.4,0.033454179763793945,1.222848653793335,STABILIZE
0.03,0.005,0.03,-0.16218933391593654,-0.0018891341840811752,-0.0008109466695796827,0.002483194282595711,-0.0002168865710651469,0.03,0.005,0.03,-0.06919105015252325,0.0016429368322400122,-0.00034595525076261624,0.004182842049869792,0.005479823631347188,0.002,8e-05,0,-0.8657484827063316,-0.001792285054709951,-6.925987861650653e-05,-0.0,-0.0018615449333264575,0.2,0.02,0.005,-0.14662032377457895,-0.009946997230230023,-0.002932406475491579,0.000494854465152575,-0.012384549240569026,0.054764561074667074,0.0,-0.054764561074667074,-0.06297113946937251,0.0,0.06297113946937251,-0.8961425273549755,0.0,0.8961425273549755,-0.049734986151150115,0,0.049734986151150115,-0.000212129787891751,-0.005480009832880638,0.012384549240569026,0.4,0.03345322608947754,1.256331205368042,STABILIZE
0.03,0.005,0.03,-0.1642003301909629,-0.0018023183493343449,-0.0008210016509548145,0.002532378033285178,-9.094196700398143e-05,0.03,0.005,0.03,-0.06743009736356931,0.00157822148318081,-0.00033715048681784654,0.0034963644155918037,0.004737435411954767,0.002,8e-05,0,-0.895968424012225,-0.0018056043632968205,-7.167747392097801e-05,-0.0,-0.0018772818372177985,0.2,0.02,0.005,-0.14816829214899277,-0.00924892084599113,-0.0029633658429798555,0.0007518502681784024,-0.011460436420792582,0.05260738277269367,0.0,-0.05260738277269367,-0.06007727831114483,0.0,0.06007727831114483,-0.9028021816484102,0.0,0.9028021816484102,-0.046244604229955646,0,0.046244604229955646,-8.711825606105814e-05,-0.004737507269996159,0.011460436420792582,0.4,0.03347349166870117,1.2897703647613525,STABILIZE
0.03,0.005,0.03,-0.16617337777364377,-0.0017695048648058913,-0.0008308668888682189,0.0019727154325799444,-0.0006276563210941659,0.03,0.005,0.03,-0.06562193353004013,0.0016216307847216611,-0.0003281096676502007,0.001728761594873901,0.0030222827119453614,0.002,8e-05,0,-0.9261610912440322,-0.0018051962529815884,-7.409288729952259e-05,-0.0,-0.001879289140281111,0.2,0.02,0.005,-0.14967855712291572,-0.009029757626258787,-0.0029935711424583147,0.0005419246440335288,-0.011481404124683573,0.05405435949072204,0.0,-0.05405435949072204,-0.058983495493529714,0.0,0.058983495493529714,-0.9025981264907942,0.0,0.9025981264907942,-0.045148788131293936,0,0.045148788131293936,-0.0006252745827891306,-0.0030227763636185775,0.011481404124683573,0.4,0.03345084190368652,1.3232083320617676,STABILIZE
0.03,0.005,0.03,-0.16806964234985014,-0.0017026209712517528,-0.0008403482117492507,0.0018401259525681877,-0.0007028432304328159,0.03,0.005,0.03,-0.06371427079307586,0.0017128551694662898,-0.0003185713539653793,0.0013356294490956854,0.002729913264596596,0.002,8e-05,0,-0.9562200911719866,-0.0017992947571545419,-7.649760729375894e-05,-0.0,-0.0018757923644483008,0.2,0.02,0.005,-0.15108210869070987,-0.008401487020130263,-0.0030216421738141976,0.0005217680272871214,-0.010901361166657339,0.057095172315542994,0.0,-0.057095172315542994,-0.05675403237505843,0.0,0.05675403237505843,-0.899647378577271,0.0,0.899647378577271,-0.042007435100651316,0,0.042007435100651316,-0.0007008415565179964,-0.0027304278330406596,0.010901361166657339,0.4,0.03341197967529297,1.3566205501556396,STABILIZE
0.03,0.005,0.03,-0.16975070115884122,-0.0015073265584727234,-0.0008487535057942062,0.002608092269739111,0.0002520122054721816,0.03,0.005,0.03,-0.06167197128157022,0.0018312341469457058,-0.00030835985640785107,0.0018354397194074443,0.003358314009945299,0.002,8e-05,0,-0.9863171369846035,-0.0017991072547963774,-7.890537095876829e-05,-0.0,-0.0018780126257551457,0.2,0.02,0.005,-0.1523579150132553,-0.007626371122591594,-0.003047158300265106,0.0005240970055619096,-0.01014943241729479,0.061041138231523524,0.0,-0.061041138231523524,-0.050244218615757445,0.0,0.050244218615757445,-0.8995536273981887,0.0,0.8995536273981887,-0.03813185561295797,0,0.03813185561295797,0.00025424719623088704,-0.0033581455454328598,0.01014943241729479,0.4,0.03345775604248047,1.3900859355926514,STABILIZE
0.03,0.005,0.03,-0.1714351296426448,-0.0015106924719881496,-0.0008571756482132239,0.002262545938285048,-0.00010532218191632546,0.03,0.005,0.03,-0.059640826653336934,0.0018216474779994393,-0.0002982041332666847,0.0010692458658040503,0.002592689210536805,0.002,8e-05,0,-1.016499987471748,-0.0018046479049127827,-8.131999899773985e-05,-0.0,-0.0018859679039105225,0.2,0.02,0.005,-0.15350433814726225,-0.006854521933938588,-0.003070086762945245,0.0004622589221317236,-0.00946234977475211,0.06072158259998131,0.0,-0.06072158259998131,-0.05035641573293832,0.0,0.05035641573293832,-0.9023239524563913,0.0,0.9023239524563913,-0.034272609669692936,0,0.034272609669692936,-0.0001037712945671977,-0.002592751747248746,0.00946234977475211,0.4,0.03345012664794922,1.4235656261444092,STABILIZE
0.03,0.005,0.03,-0.17312662427801637,-0.0015172893542268438,-0.0008656331213900819,0.0017043821511850414,-0.0006785403244318842,0.03,0.005,0.03,-0.057625181011131565,0.001808056384488699,-0.00028812590505565783,0.0013746363861007742,0.0028945668655338155,0.002,8e-05,0,-1.0467666848683952,-0.001809970771301532,-8.374133478947163e-05,-0.0,-0.0018937121060910035,0.2,0.02,0.005,-0.15452435147483287,-0.006099754740486976,-0.0030904870294966576,0.00047082499007728855,-0.008719416779906345,0.060268546149623306,0.0,-0.060268546149623306,-0.05057631180756146,0.0,0.05057631180756146,-0.9049853856507659,0.0,0.9049853856507659,-0.030498773702434877,0,0.030498773702434877,-0.0006769994387976942,-0.0028949276451742264,0.008719416779906345,0.4,0.03344440460205078,1.457000494003296,STABILIZE
0.03,0.005,0.03,-0.17482989623391287,-0.0015276794922813662,-0.0008741494811695644,0.0014460661579661206,-0.0009557628154848099,0.03,0.005,0.03,-0.05559010997958461,0.001825272980904442,-0.00027795054989792305,0.0012180402963312819,0.0027653627273378006,0.002,8e-05,0,-1.0770158678146289,-0.0018087170904701533,-8.616126942517032e-05,-0.0,-0.0018948783598953236,0.2,0.02,0.005,-0.15528353020028568,-0.004539426859523834,-0.0031056706040057135,0.0006713112748639097,-0.006973786188665639,0.06084243269681474,0.0,-0.06084243269681474,-0.050922649742712205,0.0,0.050922649742712205,-0.9043585452350766,0.0,0.9043585452350766,-0.02269713429761917,0,0.02269713429761917,-0.0009546672704928304,-0.0027657411259664885,0.006973786188665639,0.4,0.033448219299316406,1.4904448986053467,STABILIZE
0.03,0.005,0.03,-0.17646512577121662,-0.0014659828840729032,-0.0008823256288560831,0.0014144473612862792,-0.0009338611516427069,0.03,0.005,0.03,-0.053529827197219125,0.0018470430153053675,-0.0002676491359860956,0.0008020945554377801,0.0023814884347570517,0.002,8e-05,0,-1.1071269467285836,-0.0017996383301478569,-8.857015573828669e-05,-0.0,-0.0018882084858861435,0.2,0.02,0.005,-0.155961008759937,-0.004049062430761372,-0.00311922017519874,0.0006505611095003199,-0.006517721496459792,0.06156810051017892,0.0,-0.06156810051017892,-0.04886609613576344,0.0,0.04886609613576344,-0.8998191650739285,0.0,0.8998191650739285,-0.020245312153806858,0,0.020245312153806858,-0.0009330196007220948,-0.0023818182634486235,0.006517721496459792,0.4,0.033463478088378906,1.5239012241363525,STABILIZE
0.03,0.005,0.03,-0.17808778152773327,-0.0014554778653385657,-0.0008904389076386664,0.0003098565479653884,-0.0020360602250118435,0.03,0.005,0.03,-0.05141455805171123,0.001897338611813421,-0.00025707279025855614,0.000395220560175189,0.002035486381730054,0.002,8e-05,0,-1.137430956592629,-0.00181212457462548,-9.099447652741034e-05,-0.0,-0.0019031190511528903,0.2,0.02,0.005,-0.15652045245354654,-0.003345371354673163,-0.0031304090490709307,0.0006399247105248864,-0.005835855693219208,0.0632446203937807,0.0,-0.0632446203937807,-0.04851592884461886,0.0,0.04851592884461886,-0.90606228731274,0.0,0.90606228731274,-0.016726856773365814,0,0.016726856773365814,-0.0020354659009579733,-0.0020360806998056657,0.005835855693219208,0.4,0.03344583511352539,1.5573525428771973,STABILIZE
0.03,0.005,0.03,-0.17967343171840822,-0.0014220821379628307,-0.0008983671585920412,0.0005296534128511832,-0.0017907958837036888,0.03,0.005,0.03,-0.0493863677993801,0.0018189718937962692,-0.0002469318389969005,-1.6012154606386848e-05,0.0015560279001929818,0.002,8e-05,0,-1.1678800224532375,-0.0018205391047228649,-9.343040179625902e-05,-0.0,-0.001913969506519124,0.2,0.02,0.005,-0.15693520424360008,-0.0024797865918215877,-0.0031387040848720018,0.0006539341096977338,-0.004964556566995856,0.06063239645987564,0.0,-0.06063239645987564,-0.04740273793209436,0.0,0.04740273793209436,-0.9102695523614324,0.0,0.9102695523614324,-0.012398932959107937,0,0.012398932959107937,-0.0017904591139080229,-0.0015564153959315465,0.004964556566995856,0.4,0.03345060348510742,1.5908029079437256,STABILIZE
0.03,0.005,0.03,-0.18113289699027327,-0.0013091377894562165,-0.0009056644849513663,0.0012445091375954504,-0.0009702931368121323,0.03,0.005,0.03,-0.04745807554941018,0.0017296747666528957,-0.0002372903777470509,-0.0004687321918639723,0.0010236521970418725,0.002,8e-05,0,-1.1983592482449146,-0.0018226541389944825,-9.586873985959317e-05,-0.0,-0.0019185228788540756,0.2,0.02,0.005,-0.15722501830667174,-0.0017330847089318002,-0.003144500366133435,0.000652726739333737,-0.004224858335731499,0.057655825555096525,0.0,-0.057655825555096525,-0.043637926315207215,0.0,0.043637926315207215,-0.9113270694972413,0.0,0.9113270694972413,-0.008665423544659,0,0.008665423544659,-0.0009701383083813976,-0.001023798932634851,0.004224858335731499,0.4,0.033444881439208984,1.6242799758911133,STABILIZE
0.03,0.005,0.03,-0.18253930914035116,-0.001235272460258877,-0.0009126965457017558,0.0017391492024651743,-0.00040881980349545825,0.03,0.005,0.03,-0.04542392072109928,0.0017866280799522009,-0.0002271196036054964,-0.00023819074930540906,0.0013213177270412955,0.002,8e-05,0,-1.2295706173243175,-0.001827560276629059,-9.83656493859454e-05,-0.0,-0.0019259259260150045,0.2,0.02,0.005,-0.15759573606218696,-0.002170712351954519,-0.0031519147212437392,0.0003554189904301854,-0.004967208082768073,0.05955426933174003,0.0,-0.05955426933174003,-0.0411757486752959,0.0,0.0411757486752959,-0.9137801383145295,0.0,0.9137801383145295,-0.010853561759772593,0,0.010853561759772593,-0.0004085694984318663,-0.0013213951462279457,0.004967208082768073,0.4,0.03415632247924805,1.6584234237670898,STABILIZE
0.03,0.005,0.03,-0.18390722984162738,-0.0012275212562410055,-0.0009195361492081369,0.0014167801919691655,-0.0007302772134799771,0.03,0.005,0.03,-0.0435567884455113,0.001675495190883198,-0.00021778394222755651,-0.0010331464803072753,0.00042456476834836637,0.002,8e-05,0,-1.2601541052885448,-0.0018296324502365643,-0.00010081232842308359,-0.0,-0.001930444778659648,0.2,0.02,0.005,-0.15782735203339582,-0.0013856238288203978,-0.0031565470406679165,0.00039956860782278775,-0.0041426022616655265,0.0558498396961066,0.0,-0.0558498396961066,-0.04091737520803352,0.0,0.04091737520803352,-0.9148162251182821,0.0,0.9148162251182821,-0.006928119144101989,0,0.006928119144101989,-0.0007302258704105972,-0.00042465306926227174,0.0041426022616655265,0.4,0.033431291580200195,1.6918330192565918,STABILIZE
0.03,0.005,0.03,-0.18533046116963584,-0.0012758356408228127,-0.0009266523058481792,0.0010652237720274902,-0.0011372641746435017,0.03,0.005,0.03,-0.041676912087321084,0.0016851886344262843,-0.00020838456043660542,-0.0012759746454766886,0.0002008294285129903,0.002,8e-05,0,-1.2905191188215448,-0.0018146858601301814,-0.00010324152950572359,-0.0,-0.001917927389635905,0.2,0.02,0.005,-0.15810449011613903,-0.0016562434905919212,-0.0031620898023227806,0.00025393780115649507,-0.004564395491758207,0.05617295448087615,0.0,-0.05617295448087615,-0.04252785469409376,0.0,0.04252785469409376,-0.9073429300650907,0.0,0.9073429300650907,-0.008281217452959606,0,0.008281217452959606,-0.001137235135981581,-0.00020099380033566867,0.004564395491758207,0.4,0.03346586227416992,1.725355863571167,STABILIZE
0.03,0.005,0.03,-0.1866437588290453,-0.001177589173958188,-0.0009332187941452266,0.0014528468917816954,-0.000657961076321719,0.03,0.005,0.03,-0.03984284429827601,0.0016445459696136783,-0.00019921422149138005,-0.001050375351644812,0.00039495639647748617,0.002,8e-05,0,-1.3208691384681008,-0.001814255095897224,-0.00010566953107744807,0.0,-0.0019199246269746722,0.2,0.02,0.005,-0.15838062652755808,-0.001650680617060528,-0.003167612530551162,0.0001253866078033692,-0.004692906539808321,0.05481819898712261,0.0,-0.05481819898712261,-0.039252972465272935,0.0,0.039252972465272935,-0.9071275479486121,0.0,0.9071275479486121,-0.00825340308530264,0,0.00825340308530264,-0.0006579041763985314,-0.0003950511710529236,0.004692906539808321,0.4,0.033457279205322266,1.7587730884552002,STABILIZE
0.03,0.005,0.03,-0.1878494015681428,-0.001079451005735282,-0.0009392470078407141,0.001363216218635003,-0.0006554817949409929,0.03,0.005,0.03,-0.03805310580781752,0.0016024108559511607,-0.00019026552903908758,-0.0007678791245776927,0.0006442662023343805,0.002,8e-05,0,-1.3512499001784517,-0.0018133920173727094,-0.00010809999201427614,0.0,-0.0019214920093869857,0.2,0.02,0.005,-0.15865952858528118,-0.0016647336558765708,-0.0031731905717056236,1.1657871062606255e-05,-0.004826266356519588,0.053413695198372024,0.0,-0.053413695198372024,-0.035981700191176066,0.0,0.035981700191176066,-0.9066960086863547,0.0,0.9066960086863547,-0.008323668279382853,0,0.008323668279382853,-0.0006553881919829592,-0.0006443614209267485,0.004826266356519588,0.4,0.03350710868835449,1.7923321723937988,STABILIZE
0.03,0.005,0.03,-0.18900447644505416,-0.0010366765712971856,-0.0009450223822252709,0.001186635783979775,-0.0007950631695426813,0.03,0.005,0.03,-0.03623213423206549,0.0016343170536511475,-0.00018116067116032746,-0.0009104604986345938,0.0005426958838562262,0.002,8e-05,0,-1.3815749611164583,-0.0018144439998933567,-0.00011052599688931668,0.0,-0.0019249699967826734,0.2,0.02,0.005,-0.15860878158263889,0.00030363531550721656,-0.003172175631652778,0.0003701546389011991,-0.0024983856772443623,0.054477235121704916,0.0,-0.054477235121704916,-0.03455588570990619,0.0,0.03455588570990619,-0.9072219999466783,0.0,0.9072219999466783,0.0015181765775360827,0,-0.0015181765775360827,-0.0007950775491740405,-0.0005426748167338762,0.0024983856772443623,0.4,0.03342628479003906,1.8256945610046387,STABILIZE
0.03,0.005,0.03,-0.19011571917652242,-0.0009956684231640681,-0.0009505785958826121,0.0013852189246671364,-0.000561028094379544,0.03,0.005,0.03,-0.034397040978572394,0.0016442351921171596,-0.00017198520489286197,-0.00018637292563875585,0.0012858770615855417,0.002,8e-05,0,-1.4117365765433612,-0.0018016446645283655,-0.0001129389261234689,0.0,-0.0019145835906518344,0.2,0.02,0.005,-0.1587208863828242,-0.0006696359338291452,-0.003174417727656484,0.00010739532225091566,-0.003736658339234713,0.054807839737238656,0.0,-0.054807839737238656,-0.033188947438802276,0.0,0.033188947438802276,-0.9008223322641827,0.0,0.9008223322641827,-0.003348179669145726,0,0.003348179669145726,-0.0005609529509334956,-0.001285909844053623,0.003736658339234713,0.4,0.03348231315612793,1.8591883182525635,STABILIZE
0.03,0.005,0.03,-0.19117366564963642,-0.0009489693661847954,-0.0009558683282481821,0.001953215070666675,4.8377376233697464e-05,0.03,0.005,0.03,-0.032645210715739885,0.0015713774717640077,-0.00016322605357869943,-0.0006799884735649244,0.0007281629446203838,0.002,8e-05,0,-1.4418743406938146,-0.0018022219252675485,-0.00011534994725550518,0.0,-0.0019175718725230537,0.2,0.02,0.005,-0.15879077300892094,-0.00041791822779468967,-0.003175815460178419,0.0001854589736500748,-0.0034082747143230336,0.05237924905880026,0.0,-0.05237924905880026,-0.03163231220615985,0.0,0.03163231220615985,-0.9011109626337742,0.0,0.9011109626337742,-0.0020895911389734482,0,0.0020895911389734482,4.8403932482796996e-05,-0.0007281611798013443,0.0034082747143230336,0.4,0.033445119857788086,1.8926360607147217,STABILIZE
0.03,0.005,0.03,-0.19226282699357267,-0.0009034160411701634,-0.0009613141349678634,0.0016178178691202345,-0.0002469123070177922,0.03,0.005,0.03,-0.030840449308723476,0.001496977848746449,-0.00015420224654361737,-0.0008484460734762394,0.0004943295287265923,0.002,8e-05,0,-1.4744710773457474,-0.0018025131565741373,-0.0001179576861876598,0.0,-0.001920470842761797,0.2,0.02,0.005,-0.15882285781386965,-0.00017742046899883125,-0.003176457156277393,0.00021787485573013474,-0.0031360027695460898,0.04989926162488163,0.0,-0.04989926162488163,-0.030113868039005447,0.0,0.030113868039005447,-0.9012565782870686,0.0,0.9012565782870686,-0.0008871023449941561,0,0.0008871023449941561,-0.00024690465335493086,-0.0004943333515752147,0.0031360027695460898,0.4,0.03616809844970703,1.9287991523742676,STABILIZE
0.03,0.005,0.03,-0.1933061195230253,-0.0009351649181751901,-0.0009665305976151265,0.0008423199929526565,-0.00105937552283766,0.03,0.005,0.03,-0.02918596162583504,0.0014830153527525046,-0.0001459298081291752,-0.0006803826079180978,0.0006567029367052315,0.002,8e-05,0,-1.5045780235418411,-0.0017991093313490727,-0.0001203662418833473,0.0,-0.00191947557323242,0.2,0.02,0.005,-0.15888336389147437,-0.00036156788573968654,-0.003177667277829487,0.0001924615055661487,-0.0033467736580030253,0.04943384509175015,0.0,-0.04943384509175015,-0.031172163939173006,0.0,0.031172163939173006,-0.8995546656745363,0.0,0.8995546656745363,-0.0018078394286984325,0,0.0018078394286984325,-0.0010593548015264847,-0.000656736362589756,0.0033467736580030253,0.4,0.03346872329711914,1.962275505065918,STABILIZE
0.03,0.005,0.03,-0.19432341383358598,-0.0009114391452678818,-0.0009716170691679299,0.000728100222997726,-0.0011549559914380858,0.03,0.005,0.03,-0.027624922548591,0.0013986042264493767,-0.000138124612742955,-0.0013754719562171357,-0.00011499234251071398,0.002,8e-05,0,-1.5353764193558135,-0.0018395766931228684,-0.00012283011354846508,-0.0,-0.0019624068066713333,0.2,0.02,0.005,-0.15869607081204243,0.0011186945767801381,-0.0031739214162408488,0.00011906601452460132,-0.0019361608249361091,0.04662014088164589,0.0,-0.04662014088164589,-0.03038130484226273,0.0,0.03038130484226273,-0.9197883465614342,0.0,0.9197883465614342,0.005593472883900691,0,-0.005593472883900691,-0.0011549447598623603,0.00011510509398505435,0.0019361608249361091,0.4,0.03348422050476074,1.9957642555236816,STABILIZE
0.03,0.005,0.03,-0.19527022075795608,-0.0008493386429175102,-0.0009763511037897805,0.0008545302361288376,-0.0009711595105784532,0.03,0.005,0.03,-0.026115416188426124,0.001354111435413023,-0.00013057708094213062,-0.0017007994436840739,-0.0004772650892131815,0.002,8e-05,0,-1.5658309226703622,-0.0018212925888147025,-0.00012526647381362897,-0.0,-0.0019465590626283314,0.2,0.02,0.005,-0.15858774767208103,0.0006478126731246907,-0.0031717549534416205,0.00019400589138994582,-0.002329936388926984,0.04513704784710077,0.0,-0.04513704784710077,-0.02831128809725034,0.0,0.02831128809725034,-0.9106462944073512,0.0,0.9106462944073512,0.0032390633656234533,0,-0.0032390633656234533,-0.0009711325281236573,0.00047731999035112774,0.002329936388926984,0.4,0.03344273567199707,2.0292012691497803,STABILIZE
0.03,0.005,0.03,-0.19621852946167373,-0.000850412999965318,-0.0009810926473083686,0.0005688494178688704,-0.0012626562294048163,0.03,0.005,0.03,-0.02455811297475479,0.0013965398531111351,-0.00012279056487377396,-0.0010114578884797055,0.0002622913997576558,0.002,8e-05,0,-1.5963287024396595,-0.0018232957463614854,-0.00012770629619517277,-0.0,-0.0019510020425566581,0.2,0.02,0.005,-0.15855644984633652,0.00018711261272787361,-0.0031711289969267305,8.751758275359182e-05,-0.0028964988014452647,0.04655132843703784,0.0,-0.04655132843703784,-0.028347099998843932,0.0,0.028347099998843932,-0.9116478731807427,0.0,0.9116478731807427,0.000935563063639368,0,-0.000935563063639368,-0.0012626605121024796,-0.00026227078224370036,0.0028964988014452647,0.4,0.03345346450805664,2.0626566410064697,STABILIZE
0.03,0.005,0.03,-0.19711336036187302,-0.0007997200500084084,-0.0009855668018093652,0.0006189838516546723,-0.0011663030001631013,0.03,0.005,0.03,-0.022958578450274818,0.0014295212979596687,-0.00011479289225137408,-0.00040354186323846307,0.0009111865424698315,0.002,8e-05,0,-1.6268966961987146,-0.0018212631006375244,-0.00013015173569589717,-0.0,-0.0019514148363334216,0.2,0.02,0.005,-0.15853519826411452,0.00012661845862748834,-0.0031707039652822907,4.525964761881667e-05,-0.0029988258590359857,0.04765070993198896,0.0,-0.04765070993198896,-0.02665733500028028,0.0,0.02665733500028028,-0.9106315503187622,0.0,0.9106315503187622,0.0006330922931374417,0,-0.0006330922931374417,-0.0011663130682885929,-0.0009111736552967417,0.0029988258590359857,0.4,0.03356790542602539,2.0962815284729004,STABILIZE
0.03,0.005,0.03,-0.19794879328914988,-0.000749686495305791,-0.0009897439664457493,0.0011080282146937836,-0.0006314022470577567,0.03,0.005,0.03,-0.021334958380397298,0.0014569763773402467,-0.00010667479190198649,-0.00015585798601900816,0.0011944435994192522,0.002,8e-05,0,-1.657166553981703,-0.001810869778116255,-0.00013257332431853625,-0.0,-0.0019434431024347911,0.2,0.02,0.005,-0.15852734337610477,4.699123269523416e-05,-0.0031705468675220956,6.086093518118143e-05,-0.00306269469964568,0.04856587924467489,0.0,-0.04856587924467489,-0.024989549843526367,0.0,0.024989549843526367,-0.9054348890581274,0.0,0.9054348890581274,0.00023495616347617078,0,-0.00023495616347617078,-0.0006314071451773706,-0.0011944410101809824,0.00306269469964568,0.4,0.033431291580200195,2.1296582221984863,STABILIZE
0.03,0.005,0.03,-0.19886613794254937,-0.0008230032189968421,-0.0009943306897127469,0.0005278037572436215,-0.0012895301514659675,0.03,0.005,0.03,-0.019711154656361748,0.0014568087217251408,-9.855577328180874e-05,0.0003473237652412073,0.0017055767136845393,0.002,8e-05,0,-1.6873380954795816,-0.0018045762613379756,-0.00013498704763836655,0.0,-0.0019395633089763422,0.2,0.02,0.005,-0.15853060618437506,-1.9515033231854773e-05,-0.0031706121236875014,-0.00017012231615581215,-0.003360249473075168,0.04856029072417136,0.0,-0.04856029072417136,-0.02743344063322807,0.0,0.02743344063322807,-0.9022881306689877,0.0,0.9022881306689877,-9.757516615927387e-05,0,9.757516615927387e-05,-0.00128952724685345,-0.001705578909762124,0.003360249473075168,0.4,0.033438920974731445,2.163100481033325,STABILIZE
0.03,0.005,0.03,-0.1997559165478182,-0.0007939134672770107,-0.0009987795827390911,0.00032945704572836333,-0.0014632360042877385,0.03,0.005,0.03,-0.017953246368869347,0.0015685104759923976,-8.976623184434673e-05,0.0012778535947304407,0.0027565978388784914,0.002,8e-05,0,-1.7177746829117164,-0.0018104890750154654,-0.00013742197463293733,0.0,-0.0019479110496484027,0.2,0.02,0.005,-0.158720751177441,-0.0011310579196251013,-0.00317441502354882,-0.00026501855357783467,-0.0045704914967517555,0.05228368253307992,0.0,-0.05228368253307992,-0.026463782242567027,0.0,0.026463782242567027,-0.9052445375077327,0.0,0.9052445375077327,-0.0056552895981255066,0,0.0056552895981255066,-0.0014629639115161912,-0.002756742251853583,0.0045704914967517555,0.4,0.03362250328063965,2.196726083755493,STABILIZE
0.03,0.005,0.03,-0.2006216560350223,-0.0007672414149873016,-0.0010031082801751116,0.0004934632655671432,-0.00127688642959527,0.03,0.005,0.03,-0.01598641776708251,0.0017430559443994567,-7.993208883541256e-05,0.0020554429005719666,0.003718566756136011,0.002,8e-05,0,-1.7483483883918336,-0.0018063488613436506,-0.0001398678710713467,0.0,-0.0019462167324149973,0.2,0.02,0.005,-0.1590745276660052,-0.0020901743745246806,-0.0031814905533201036,-0.0003378274623717501,-0.005609492390216534,0.058101864813315224,0.0,-0.058101864813315224,-0.025574713832910052,0.0,0.025574713832910052,-0.9031744306718253,0.0,0.9031744306718253,-0.010450871872623403,0,0.010450871872623403,-0.00127620813388357,-0.0037187996010720806,0.005609492390216534,0.4,0.03385138511657715,2.230602264404297,STABILIZE
0.03,0.005,0.03,-0.20147138714605536,-0.0007617783077289453,-0.0010073569357302767,0.00022408194552687644,-0.0015450532979323455,0.03,0.005,0.03,-0.013925137968732272,0.0018479236739185648,-6.962568984366136e-05,0.0024856919035684483,0.004263989887643352,0.002,8e-05,0,-1.7781895313570426,-0.001783492455717172,-0.00014225516250856342,0.0,-0.0019257476182257354,0.2,0.02,0.005,-0.15931656938771135,-0.001446591992589,-0.0031863313877542273,-0.0002326555259858423,-0.00486557890632907,0.0615974557972855,0.0,-0.0615974557972855,-0.02539261025763151,0.0,0.02539261025763151,-0.8917462278585859,0.0,0.8917462278585859,-0.0072329599629449995,0,0.0072329599629449995,-0.0015445150039480483,-0.004264184899597547,0.00486557890632907,0.4,0.03346371650695801,2.2640509605407715,STABILIZE
0.03,0.005,0.03,-0.20254068870277328,-0.0007890296079545193,-0.0010127034435138665,-0.00020929662036999275,-0.0020110296718383784,0.03,0.005,0.03,-0.011599808638118573,0.0017158430926920438,-5.7999043190592865e-05,0.0016717023007546891,0.00332954635025614,0.002,8e-05,0,-1.8143757138377348,-0.0017801008640785474,-0.0001451500571070188,0.0,-0.001925250921185566,0.2,0.02,0.005,-0.15893168753660952,0.0018933428970576704,-0.0031786337507321905,0.00019000571572708798,-0.0010952851379474322,0.05719476975640146,0.0,-0.05719476975640146,-0.026300986931817313,0.0,0.026300986931817313,-0.8900504320392737,0.0,0.8900504320392737,0.009466714485288352,0,-0.009466714485288352,-0.002011579769804071,-0.003329214031754846,0.0010952851379474322,0.4,0.040656328201293945,2.304708480834961,STABILIZE
0.03,0.005,0.03,-0.2034369383865774,-0.0008033044776857637,-0.001017184691932887,0.0001439180124464285,-0.0016765711571722222,0.03,0.005,0.03,-0.009876159383944146,0.0015448989147322035,-4.938079691972073e-05,0.0006512618444259239,0.0021467799622384067,0.002,8e-05,0,-1.8443855009099805,-0.0017931756269235044,-0.00014755084007279844,0.0,-0.0019407264669963028,0.2,0.02,0.005,-0.15932838080396658,-0.0023703623643740435,-0.0031865676160793316,-0.00043697308715392964,-0.005993903067607304,0.05149663049107345,0.0,-0.05149663049107345,-0.026776815922858792,0.0,0.026776815922858792,-0.8965878134617522,0.0,0.8965878134617522,-0.011851811821870216,0,0.011851811821870216,-0.0016761270531335285,-0.0021471267203134643,0.005993903067607304,0.4,0.033471107482910156,2.338191032409668,STABILIZE
0.03,0.005,0.03,-0.20430532807446533,-0.000779016221038838,-0.0010215266403723266,0.00011613757075762634,-0.0016844052906535383,0.03,0.005,0.03,-0.008083442011752307,0.0016082133771904005,-4.041721005876154e-05,0.0003654702930422394,0.0019332664601738785,0.002,8e-05,0,-1.8740152967316677,-0.0017720225449554079,-0.00014992122373853341,0.0,-0.0019219437686939414,0.2,0.02,0.005,-0.15957971217053454,-0.0015030979305193596,-0.0031915942434106908,-0.00014200782984009316,-0.004836700003770143,0.05360711257301335,0.0,-0.05360711257301335,-0.025967207367961265,0.0,0.025967207367961265,-0.886011272477704,0.0,0.886011272477704,-0.007515489652596798,0,0.007515489652596798,-0.0016841516895260505,-0.0019334873870499954,0.004836700003770143,0.4,0.033441781997680664,2.371628999710083,STABILIZE
0.03,0.005,0.03,-0.20490302955121176,-0.0005353395747770396,-0.0010245151477560588,0.0014135700151020156,-0.00014628470743108268,0.03,0.005,0.03,-0.005768366888320685,0.0020735289778790376,-2.8841834441603424e-05,0.0021126668968255748,0.0041573540402630085,0.002,8e-05,0,-1.9040805007837243,-0.001795220990075337,-0.00015232644006269794,0.0,-0.001947547430138035,0.2,0.02,0.005,-0.1599756046770023,-0.0023639105731458666,-0.003199512093540046,-0.00012884185444813031,-0.005692264521134044,0.06911763259596793,0.0,-0.06911763259596793,-0.017844652492567985,0.0,0.017844652492567985,-0.8976104950376684,0.0,0.8976104950376684,-0.011819552865729333,0,0.011819552865729333,-0.0001454270832872214,-0.004157384128892341,0.005692264521134044,0.4,0.03349471092224121,2.4051618576049805,STABILIZE
0.03,0.005,0.03,-0.20522590914110136,-0.0002899159007090929,-0.0010261295457055068,0.002850036939359787,0.001533991492945187,0.03,0.005,0.03,-0.0029368672003807312,0.002542423888321052,-1.4684336001903657e-05,0.004292739433703004,0.006820478986022152,0.002,8e-05,0,-1.9344602636582289,-0.0018185471391160921,-0.0001547568210926583,-0.0,-0.0019733039602087502,0.2,0.02,0.005,-0.16051474892513573,-0.0032273432615787054,-0.003210294978502715,-0.0003542168120480602,-0.006791855052129481,0.08474746294403507,0.0,-0.08474746294403507,-0.009663863356969763,0.0,0.009663863356969763,-0.9092735695580461,0.0,0.9092735695580461,-0.016136716307893526,0,0.016136716307893526,0.001535912343803248,-0.0068200466839568475,0.006791855052129481,0.4,0.03341102600097656,2.4385271072387695,STABILIZE
0.03,0.005,0.03,-0.2057363450440772,-0.00045394450757559724,-0.001028681725220386,0.0020115931832636225,0.0005289669504676393,0.03,0.005,0.03,-0.0006434947817273561,0.0020395583602243706,-3.2174739086367806e-06,0.0019610681253495114,0.0039974090116652455,0.002,8e-05,0,-1.9650620088671642,-0.0018143308596745786,-0.00015720496070937315,-0.0,-0.0019715358203839517,0.2,0.02,0.005,-0.1613596311860335,-0.005009178229125511,-0.00322719262372067,-0.0010290746703316067,-0.009265445523177786,0.0679852786741457,0.0,-0.0679852786741457,-0.015131483585853242,0.0,0.015131483585853242,-0.9071654298372892,0.0,0.9071654298372892,-0.025045891145627552,0,0.025045891145627552,0.0005307143003241949,-0.0039971774006992665,0.009265445523177786,0.4,0.033733367919921875,2.472287178039551,STABILIZE
0.03,0.005,0.03,-0.20631141349066762,-0.000515846420062309,-0.001031557067453338,0.0017267092216811458,0.00017930573416549884,0.03,0.005,0.03,0.001588211015921508,0.002001878999230473,7.94105507960754e-06,0.002757184381908137,0.004767004436218218,0.002,8e-05,0,-1.9954772865474757,-0.0018188689479328667,-0.00015963818292379808,-0.0,-0.001978507130856665,0.2,0.02,0.005,-0.16110486772697655,0.0015235150887562728,-0.003222097354539531,0.0005845052006906367,-0.0011140770650926216,0.06672929997434911,0.0,-0.06672929997434911,-0.017194880668743633,0.0,0.017194880668743633,-0.9094344739664333,0.0,0.9094344739664333,0.007617575443781364,0,-0.007617575443781364,0.00017867195089327353,-0.004767028233102127,0.0011140770650926216,0.4,0.03344416618347168,2.5057454109191895,STABILIZE
0.03,0.005,0.03,-0.2069562872458559,-0.0005785743620332452,-0.0010347814362292795,0.001206259670761695,-0.0004070961275008296,0.03,0.005,0.03,0.0037914534126676277,0.00197672731111499,1.8957267063338137e-05,0.0022280905715797265,0.004223775149758054,0.002,8e-05,0,-2.026125440395785,-0.0018331480559948099,-0.00016209003523166282,-0.0,-0.001995238091226473,0.2,0.02,0.005,-0.15975664188478075,0.008064099370864702,-0.003195132837695615,0.001432862004470969,0.0063018285376400555,0.06589091037049967,0.0,-0.06589091037049967,-0.01928581206777484,0.0,0.01928581206777484,-0.916574027997405,0.0,0.916574027997405,0.040320496854323505,0,-0.040320496854323505,-0.00041006840441971465,-0.004223487620016958,-0.0063018285376400555,0.4,0.03343772888183594,2.539177656173706,STABILIZE
0.03,0.005,0.03,-0.20770358293090152,-0.0006697499852496894,-0.0010385179146545076,-0.0007935191456153796,-0.0025017870455195765,0.03,0.005,0.03,0.006052510128924182,0.0020264304112355726,3.026255064462091e-05,-0.0002533817667430718,0.0018033111951371215,0.002,8e-05,0,-2.0577696676227974,-0.0018907036971348146,-0.00016462157340982382,-0.0,-0.0020553252705446385,0.2,0.02,0.005,-0.15719809260811607,0.015287017571919512,-0.0031439618521623214,0.002640263011478566,0.014783318731235756,0.06754768037451908,0.0,-0.06754768037451908,-0.022324999508322983,0.0,0.022324999508322983,-0.9453518485674073,0.0,0.9453518485674073,0.07643508785959756,0,-0.07643508785959756,-0.0025041905150093953,-0.0017999720976096887,-0.014783318731235756,0.4,0.03347349166870117,2.572640895843506,STABILIZE
