Mode,Time,Freq,North-Vision,East-Vision,Down-Vision,Yaw-Vision,North-Desired,East-Desired,Down-Desired,Roll-UAV,Pitch-UAV,Yaw-UAV,Roll-Control,Pitch-Control,Yaw-Control,Thrust-Control,northVraw,eastVraw,downVraw,N-Velocity,E-Velocity,D-Velocity,yawVraw,yawRate,Q-Size
GUIDED_NOGPS,0.0074310302734375,134.8867663611513,-16.0463672370038,51.23482241620653,64.38758149788445,-0.8709868166884058,-17.160394080231278,49.0206702696084,65.71016053817561,0.17681468118928037,0.08519361652823018,-23.657084190391185,-3.9387338235047564,4.060341841222189,-10.0,0.5026451580805823,-18.67858084276559,45.97611542488593,67.37272784388415,-14.35316950082779,-20.443247258663177,10.784529149532318,-0.9505960005121263,-2.9503885775593948,0
GUIDED_NOGPS,0.02739691734313965,50.09499922366739,-17.233040594368138,48.4333906223036,68.14206804938398,-0.8821366743315068,-17.160294214057494,49.02054445812167,65.70996388936173,0.031234935322144327,0.0509279681898245,-23.669984710186046,3.937943599395634,-4.06110824873937,-0.6396257649497343,0.49513579167995553,-19.219748273428095,45.32380132579563,67.52785339587817,-14.35316950082779,-20.443247258663177,10.784529149532318,-1.0714322672424819,-2.9503885775593948,0
GUIDED_NOGPS,0.06042647361755371,30.281596996606744,-17.6792880003014,47.66185161597635,68.18112921639344,-0.9298414717173089,-17.159608661068226,49.019680797909785,65.70860321693148,0.13313900986120739,0.10646337922249863,-23.47040487509098,1.6025334918466785,-1.0203558564496562,-0.8468433194009864,0.4950549480010761,-19.68843886088282,44.67147836469919,67.71990755495455,-11.65180504322052,-21.83350771665573,5.760309100151062,-1.1858796147059993,-0.7045728595877198,0
GUIDED_NOGPS,0.0941004753112793,29.699233852123548,-18.259487860554213,46.81035928935381,68.2743487532921,-1.0525353806065834,-17.15778847211031,49.01738772238437,65.704957847854,0.17332669567922526,0.30896640855030355,-23.31236966562252,1.7812217416088385,-1.3426189569751623,-1.3606243323138514,0.4948612181891238,-19.534388153278258,44.37298764322178,67.95196313813284,-18.840649724006653,-21.585193276405334,1.5929903835058212,-1.2269824054113576,-4.421476855430857,0
GUIDED_NOGPS,0.12852716445922852,29.052864900809045,-18.805869197808946,46.02973385927458,68.35001568543689,-1.1712205616448506,-17.15432393616207,49.01302309718691,65.69795381499245,0.1133444012749964,0.49609227414792306,-23.143469332731858,1.664437838563482,-1.301945039262291,-1.3928488295347432,0.4946958762591111,-19.534388153278258,44.37298764322178,67.95196313813284,-18.840649724006653,-21.585193276405334,1.5929903835058212,-1.2269824054113576,-4.421476855430857,0
GUIDED_NOGPS,0.16158699989318848,30.253202538949797,-19.4357537322594,45.1360416453845,68.48255808039559,-1.2878846148698186,-17.14874365708314,49.005993057077475,65.68656321288466,0.1801354071059495,0.46694118685286734,-23.04168243862574,1.9951881419223378,-1.5942588557793713,-1.4772814011537876,0.49440801026497816,-21.13105432326422,42.49560954562648,68.05386548915564,-17.620371282100677,-21.867936849594116,4.805535078048706,-1.6015111977998169,-2.741787129787801,0
GUIDED_NOGPS,0.19463467597961426,30.265209077461485,-19.98040545175885,44.293102911178124,68.56280145607862,-1.4114382724258556,-17.14061363036435,48.9957508428234,65.66980355352408,0.4324603642102331,0.4085116132264792,-22.878797794846573,1.9590221491654145,-1.4782680061922318,-1.5965777453310475,0.4942140041948909,-21.27734581262596,42.14623615071052,68.11788858003648,-15.690049529075623,-23.289786279201508,2.7221204712986946,-1.6797139247003456,-3.479292600232383,0
GUIDED_NOGPS,0.22826004028320312,29.74514921139226,-20.58252571672131,43.48478297016063,68.57846328638335,-1.5328800793439814,-17.129536319877534,48.981795638088016,65.64673712214037,0.6870591873387492,0.22564650501047828,-22.788031410966273,1.9017551664212193,-1.636274803368692,-1.6406449770861462,0.49413654767151405,-21.579232194249407,41.86498041771115,68.12741296960549,-19.97990906238556,-23.803429305553436,-0.4444974008947611,-1.7353910468255216,-3.6569029184186905,0
GUIDED_NOGPS,0.2664909362792969,26.160280918849132,-21.138799828427643,42.651168387780416,68.58493295768156,-1.6634638189062414,-17.11514973462541,48.963671406319364,65.61647033298033,1.1409702942459363,-0.048766790281737346,-22.657006184570626,1.8194541862767264,-1.4613161675523338,-1.6817901568015583,0.4940630747505975,-21.844577019319082,41.08077249023839,68.21260822066904,-18.069520592689514,-24.676355719566345,-1.1398631148040295,-1.8779787107941077,-3.9229626922527823,0
GUIDED_NOGPS,0.29575324058532715,34.17867125174181,-21.761711292300355,41.6981328661322,68.5953120430131,-1.7789943500772778,-17.09712650549141,48.940965727638876,65.57815308508856,1.547861738576521,-0.35914524706144846,-22.600489784283354,2.547016331403241,-2.032441649406877,-1.8566888241632897,0.4939656820841509,-22.43445736544733,39.99832683290554,68.29294771927361,-18.3073490858078,-25.734993815422058,-1.7207356169819832,-2.086589380407011,-2.1670790047670607,0
GUIDED_NOGPS,0.32952427864074707,29.61514400502729,-22.336150384593523,40.89666540550988,68.5232555726725,-1.877014700464636,-17.07517296198953,48.913308635730104,65.5309781180883,1.935480096616622,-0.606558524420126,-22.52199895788886,2.031886823082711,-1.7758082262467056,-1.7060615010368676,0.4940154450908316,-23.36172066932128,38.75086469335352,68.23097586041288,-21.10171914100647,-25.335469841957092,-4.13767471909523,-2.290714152710224,-2.1313622380497717,0
GUIDED_NOGPS,0.3639369010925293,29.427517013961975,-23.01978787315727,40.035745875749406,68.46745224253057,-2.004331719917168,-17.049028209014185,48.880371454727445,65.47418036796219,2.198253909129703,-0.96913223296023,-22.50084586202933,2.1867923111650343,-2.0877250192228667,-1.957303561477886,0.49401345625086324,-24.02358183635537,37.96179623618039,68.12240994350545,-23.95685315132141,-24.50619786977768,-3.4811563789844513,-2.4091745198942673,-3.213834309932076,0
GUIDED_NOGPS,0.40029096603393555,27.195653160600934,-23.651712747926783,39.22969920690347,68.43094846550763,-2.0559381035452415,-17.01846320359004,48.84186563610481,65.407036322833,2.383329624078834,-1.2421179253344203,-22.482901247532414,2.088655981809098,-2.010363047886673,-1.5311641562896754,0.4939521757146507,-24.116799727556682,37.66622027867594,68.15832699409646,-22.449636459350586,-23.0512797832489,-2.481485530734062,-2.4726608890581474,0.7915779436694578,0
GUIDED_NOGPS,0.43112754821777344,32.43553575847562,-24.27813488699796,38.402165398703765,68.34140600042642,-2.163672445358091,-16.98327983162188,48.79754159556436,65.32886337874444,2.5722368617089315,-1.448098821620551,-22.486314634570128,2.253679871287612,-2.1567178894382293,-1.955861970180989,0.4939749147566361,-25.385449050826246,36.41387778686378,67.97622664550178,-19.504734873771667,-22.26281464099884,-4.8401907086372375,-2.5423649115431077,-2.3685695852824367,0
GUIDED_NOGPS,0.4637441635131836,30.664151715869046,-24.932936104124153,37.64818168399533,68.19201173708153,-2.1889793024746718,-16.943309984644436,48.747187549925215,65.23901919544195,2.693598010759245,-1.5396363765468273,-22.50586605106929,2.134083195508904,-2.27721263989144,-1.466888936575265,0.49409401491672084,-25.791832946656392,36.02590112441621,67.87741660469013,-23.074907064437866,-21.1861252784729,-7.865935564041138,-2.5650335053091196,1.726163186529469,0
GUIDED_NOGPS,0.49824953079223633,28.989411406928202,-25.60571180664532,36.8718297214768,68.1037805696222,-2.235088053040578,-16.89841463657225,48.69062835401216,65.13690105215345,2.7015423745376164,-1.6946041907477194,-22.573018763441564,2.1619587161067657,-2.3353990937242757,-1.610094833610014,0.49406624096506246,-27.103040981015727,34.62743694523223,67.53583555421525,-20.92883735895157,-19.964471459388733,-3.234429657459259,-2.6683855658081246,0.6182307307422961,0
GUIDED_NOGPS,0.5316324234008789,29.961668416804176,-26.27412004895339,36.11187801902765,67.91057450037566,-2.26431390612034,-16.84848292044951,48.62772433754434,65.02194520337007,2.638849135363127,-1.7048406166011587,-22.595116132953848,2.194184230898352,-2.435148832010373,-1.53275024478021,0.4942227414059888,-28.04358963778707,34.190805295189676,67.14757396278733,-18.77734363079071,-18.997763097286224,-8.226191252470016,-2.6432753485154206,1.315298066205818,0
GUIDED_NOGPS,0.569035530090332,26.738474092207262,-26.91996815589522,35.37981201344713,67.71278029829496,-2.287254116484567,-16.793431205199905,48.558370142023996,64.89362623462702,2.628688375199087,-1.757059974126845,-22.693125932448943,2.1375793534541727,-2.4153774434046547,-1.5048379138346957,0.4943616918726641,-28.531315931687416,33.54434489135704,66.98342436695089,-18.77734363079071,-18.997763097286224,-8.226191252470016,-2.636882691840029,1.315298066205818,0
GUIDED_NOGPS,0.5992660522460938,33.08436928125197,-27.519181649756995,34.65289501980991,67.62073016145308,-2.2834643336406453,-16.733202172376462,48.48249355762515,64.75145641828428,2.5603273596739564,-1.73019417207854,-22.749580861033685,2.2220368092666054,-2.4585779118150404,-1.3471342504346215,0.4942614525136624,-28.156440170795246,33.30802685673401,67.16214358730772,-18.494132161140442,-19.19080764055252,-2.765517309308052,-2.6521619929706985,2.752406366399878,0
GUIDED_NOGPS,0.6340460777282715,28.757655125128558,-28.14595408993114,34.02719402784328,67.52461320606498,-2.2125658393710776,-16.667763892911417,48.40005436008232,64.5949850693074,2.5016240181918126,-1.8369174786855762,-22.94470058260073,2.0161007259416825,-2.5321406153828327,-0.912174991824868,0.4941407437264848,-29.313114967027765,32.89638814785873,66.68862278113872,-19.61204707622528,-15.994445979595184,-1.78317129611969,-2.5906933942924266,6.135567469158917,0
GUIDED_NOGPS,0.6658926010131836,31.408361476999573,-28.72102944714712,33.41870945674299,67.43835666848199,-2.188775467318151,-16.59710890386603,48.31104314757925,64.42379790104827,2.5435746131872077,-1.8402777183138108,-23.04795767492569,2.063381070784408,-2.5681035921308166,-1.1662873487758951,0.4939708824651326,-29.75404478995754,32.28027445512272,66.56383901762743,-16.439850628376007,-14.532488584518433,-1.0350335389375687,-2.5684583062119524,3.2096856103415274,0
GUIDED_NOGPS,0.699291467666626,29.9432732464751,-29.365799863187988,32.79352685214232,67.29007296078312,-2.098601831885918,-16.52125328518046,48.21548017763757,64.23751638102593,2.5322623258177854,-1.782433700006619,-23.198098893260912,2.0848251950219283,-2.7391970971551687,-0.7210898812118212,0.4938948868404856,-31.564877201641742,30.910739689819625,66.03210582291736,-17.590948939323425,-14.376385509967804,-3.4374799579381943,-2.211267911026232,5.839648242707645,0
GUIDED_NOGPS,0.7334866523742676,29.249797762838572,-29.99589560567143,32.20446342833348,67.21188592236729,-2.016364595462624,-16.4402357364236,48.11341420400558,64.03579708670726,2.5144944424656437,-1.7765181158551533,-23.313322477011734,2.0241994790721933,-2.7499235583461177,-0.7284052418353943,0.49364782232867993,-31.564877201641742,30.910739689819625,66.03210582291736,-17.535069584846497,-13.094888627529144,0.5254041869193316,-2.211267911026232,5.36948576788747,0
GUIDED_NOGPS,0.7665872573852539,30.214627891396585,-30.547328263862553,31.607058484980453,67.21632159269834,-1.938153639809243,-16.354116653542917,48.00492131354687,63.818331061287836,2.394691430319739,-1.7292707091584132,-23.42753690031269,2.100314672302548,-2.698899966684534,-0.6900954986156691,0.493204018937179,-30.68775285062867,29.86052393155645,67.62412504872,-17.260856926441193,-12.275343388319016,0.16969384159892797,-2.2675605441161135,5.279863440693148,0
GUIDED_NOGPS,0.8009042739868164,29.145124417174504,-31.042975865807254,31.092667585336386,67.23550611978901,-1.8653869894650343,-16.26297720561433,47.89010376312912,63.58484316947265,2.444190451565056,-1.8080701747260273,-23.610953092736917,1.9359625220331977,-2.595948245293213,-0.6935799160821062,0.4926986740993673,-30.802743962447252,30.304699125477306,67.28567919546262,-15.90837836265564,-11.700289696455002,2.011936716735363,-1.7366951512066215,3.3026931500432375,0
GUIDED_NOGPS,0.834463357925415,29.803061093978712,-31.550430957474745,30.550608741283586,67.27644127546213,-1.7793525143135465,-16.16691841159201,47.76908881651272,63.335091453256915,2.3786255447313995,-1.7338732961636498,-23.767142443582184,2.019991591044338,-2.701208890364983,-0.5573963921305505,0.49211730035558954,-31.792307114555477,29.2186311252958,67.30803535922354,-14.655239880084991,-11.27571165561676,3.23176346719265,-1.7545186532637538,4.199749705065202,0
GUIDED_NOGPS,0.8676378726959229,30.149904755058763,-32.08083780254053,30.047803783482177,67.24196218274213,-1.6698690356880643,-16.06606021705828,47.64202758123956,63.06886648770682,2.4240330692204677,-1.7788948082429064,-23.93994622958351,1.974962971990131,-2.8337653414877697,-0.34104454623524594,0.4916538086099294,-32.04475834437282,28.96403952084107,67.22384016554926,-17.527949810028076,-10.588214546442032,-1.2617027387022972,-1.7077795476086282,5.575616181283401,0
GUIDED_NOGPS,0.9096453189849854,23.807194995969986,-32.57387052581959,29.586849759859927,67.27386156260816,-1.5389434250990035,-15.96054057097341,47.509093845521676,62.78599073674029,2.4722140773993835,-1.7852827426641606,-24.132321922651503,1.7841810584949735,-2.5415737847943203,-0.2999398992701994,0.49102425834826424,-32.542816206456074,28.468547711050398,67.25123252372595,-15.631228685379028,-8.76779705286026,2.645321935415268,-1.489468809276909,6.331419301627625,0
GUIDED_NOGPS,0.938331127166748,34.86681906978677,-32.963953590938004,29.160090621458913,67.13246034587738,-1.3653112093995325,-15.850514502425515,47.370482915130005,62.4863179089078,2.5129651204217955,-1.7453199461606508,-24.279865961554826,1.9562494971659616,-2.815626316549664,0.39895544520104986,0.4907077151260609,-33.055981816422374,28.354001661762968,66.91141135224557,-8.487194031476974,-7.4638016521930695,-6.950458884239197,-1.4392061890199996,7.9849880360070244,0
GUIDED_NOGPS,0.9704420566558838,31.146669835069765,-33.22964302642402,28.886381401033148,67.09442031088255,-1.2448131645525997,-15.736153197380364,47.226410450283055,62.16973231317311,2.504173813186343,-1.7819400053956742,-24.446896530160195,1.5839561142737522,-2.4332328815783133,-0.0005935903920691876,0.4901506240045811,-34.37690405509412,27.932935114747636,66.50169386285327,-6.790541112422943,-6.918850541114807,-0.022878876188769937,-1.1813790836807676,5.943561460079749,0
GUIDED_NOGPS,1.0076444149017334,26.88432374225225,-33.662937392051454,28.55643628854181,67.05057669042377,-1.1494363945126669,-15.617643075431246,47.077111302535656,61.836148214694035,2.496792299684263,-1.7948236631610222,-24.653859799748044,1.652684882426517,-2.7022476167673917,-0.17385497703772224,0.48957114304854055,-34.37690405509412,27.932935114747636,66.50169386285327,-13.603140413761139,-6.347693502902985,-0.24586545769125223,-1.1813790836807676,4.102197955131318,0
GUIDED_NOGPS,1.036536693572998,34.617607976163946,-34.11189377554674,28.207323282988042,67.03616757188422,-1.0547364514937172,-15.495184866548815,46.92283835166762,61.485509190603274,2.404920065488656,-1.8383718820919657,-24.67264452751287,1.7821067156091432,-3.082323382528882,0.017522607648724153,0.4888986832374381,-34.91210296204035,27.30755826150869,66.4877413535253,-12.681913375854492,-5.225153267383575,1.6251806169748306,-1.1122842369681205,3.846371939108021,0
GUIDED_NOGPS,1.0699012279510498,29.975800976251225,-34.47405805644827,27.971559286126432,67.0353007557078,-0.969264557558735,-15.368992687830932,46.76386134257251,61.117787485789094,2.323911460611366,-1.8124562233902333,-24.916046856322737,1.5124353291570907,-2.7704877207795886,-0.06897618886105106,0.4881649734601626,-34.51127856659398,27.887677534498366,66.79981478780951,-12.627767026424408,-3.9409171789884567,1.2525150552392006,-0.78531106508327,2.9307394039777375,0
GUIDED_NOGPS,1.103956937789917,29.367146748072788,-34.89492991608881,27.668497405246256,67.0465336435675,-0.835071599210593,-15.23929312025252,46.60046572214629,60.73298336867619,2.221227677289864,-1.7351375214903368,-25.026431251046606,1.6439175316457557,-2.9245083953050877,0.2867272537356601,0.4873728994502174,-35.15332299463765,27.258168111309388,66.8242234295191,-10.9575055539608,-3.369378298521042,2.0765025168657303,-0.5860917792372413,4.979219003996697,0
GUIDED_NOGPS,1.1416008472442627,26.568760847807635,-35.339540227909986,27.382169760243467,66.89873288755683,-0.7156830978712523,-15.106324285415411,46.432951476176065,60.33112448700639,2.0489246295320678,-1.7661131764282851,-25.182603526418948,1.5976750924507328,-2.915192208550824,0.20489060010213705,0.48686478319889914,-36.43222409998991,27.169007908226035,66.06327370539455,-10.096675157546997,-3.1247034668922424,-5.973604694008827,-0.3454147608866685,3.4835992479474878,0
GUIDED_NOGPS,1.1719543933868408,32.95413939674882,-35.849415779303314,27.06907210457888,66.80689922293477,-0.5847688993801818,-14.970334922298179,46.26163196622879,59.91226522361947,1.915059751988988,-1.6234981862281843,-25.256405427948227,1.7123755790069946,-3.4058414853417727,0.5230885026229066,0.4862107320013694,-36.891422280485244,26.914891219978273,65.9977317401596,-10.97523719072342,-2.440980263054371,-2.0406456664204597,-0.26336417453596217,3.6679486149670706,0
GUIDED_NOGPS,1.205815315246582,29.53714410461898,-36.199522039914896,26.903459002096824,66.73476285790014,-0.43776557341529765,-14.83158346400601,46.08683276653998,59.476486052233916,1.7272056441515422,-1.6429680673441287,-25.405720193393876,1.3989427033633086,-2.933347145133335,0.5960406331215967,0.4854834463886676,-36.891422280485244,26.914891219978273,65.9977317401596,-9.99419316649437,-0.9939744137227535,-1.4750313013792038,-0.26336417453596217,6.243345719827603,0
GUIDED_NOGPS,1.2387917041778564,30.32911282566724,-36.600929585226886,26.729912130927236,66.74906755413089,-0.29193879966263675,-14.690337114520538,45.90889050090239,59.023892893227675,1.6165565795973358,-1.7211989196633393,-25.52150556020393,1.4138141135893258,-3.1318976679272716,0.7098760355707211,0.48454965067819356,-36.699540919289504,27.06927083862177,66.18146667813053,-11.5897998213768,-0.16804436454549432,3.5892244428396225,-0.07622801031810095,5.256292457867434,0
GUIDED_NOGPS,1.274047613143921,28.36883577163187,-36.9723689894804,26.568901860663576,66.74338511604199,-0.18689058712902823,-14.546870925449689,45.72815167955477,58.55461646941897,1.621541123587564,-1.7331326475255266,-25.632301473825294,1.3905420304576903,-3.047844686610688,0.48533549384444136,0.48362246270675396,-37.59364713354593,26.742252715696836,66.01766687533744,-8.981452137231827,-0.07719679269939661,2.5760874152183533,-0.014267435963849471,2.951803707378057,0
GUIDED_NOGPS,1.3058905601501465,31.408126282368094,-37.326689442010476,26.43704631593988,66.69897635228226,-0.0307873268121973,-14.401466872777533,45.544971536070555,58.06881166184702,1.4743119137162963,-1.8944007776272265,-25.786844749080586,1.3268978347915097,-3.1597083740803535,0.959473458582403,0.48273967061912954,-37.47309445570565,27.36898053471949,66.14214447400835,-8.883165568113327,-0.32543432898819447,-0.39491839706897736,0.36868630248660933,4.947310494628513,0
GUIDED_NOGPS,1.3394207954406738,29.82870716078883,-37.74261348199831,26.327443365709406,66.61569366259498,0.029539414008242455,-14.25441293361413,45.35971286424655,57.566656865552865,1.4354462163482198,-1.9446082175555208,-25.873005877913005,1.279985448269212,-3.3084503112100854,0.3836390784950166,0.4819019264059158,-38.087862622525556,26.973058062843254,66.22882634246722,-13.917535543441772,0.2257039537653327,-3.3620327711105347,0.49285963145402445,-0.4437695032893346,0
GUIDED_NOGPS,1.3733742237091064,29.456864342500772,-38.210633936363365,26.229836180347085,66.50598034340487,0.1646911983379399,-14.106002162945385,45.172744854991684,57.04835334536011,1.399656878870999,-2.000313105992029,-25.991687244931146,1.2607616662792234,-3.4273254708122307,0.8890614250114175,0.4810847460039105,-38.079822926779585,27.073902999121266,66.27685966622042,-17.257395386695862,0.6848719902336597,-5.245494097471237,0.569070020842376,4.1212546098024765,0
GUIDED_NOGPS,1.4078505039215088,29.009260988345957,-38.52697697217273,26.13966953811386,66.4547628764041,0.24258320205951378,-13.956531770382885,44.98444193321566,56.514124591655694,1.332757737271663,-2.182045229899028,-26.095722978821488,1.2418121751123639,-3.151262127486833,0.5971086534781578,0.48011872343050316,-38.42119388603031,27.17062365932786,66.0840668966292,-6.498041749000549,0.519467331469059,-0.9378730319440365,0.5948968683651956,0.5284893021243217,0
GUIDED_NOGPS,1.4408769607543945,30.282471517479387,-38.861410662028874,26.055673587539296,66.39213566979062,0.35292965661530407,-13.806302196913748,44.795182594717744,55.96421567617068,1.3277772487062545,-2.310309992652932,-26.204705477218212,1.2185364199697297,-3.274513956244491,0.8798244751605613,0.4791441600127601,-39.15194031872811,27.134349391064877,65.75434718786718,-6.79859071969986,0.24579083546996117,-0.8422242477536201,0.768959931021571,2.4263734762282545,0
GUIDED_NOGPS,1.4737286567687988,30.472559247903984,-39.128775114690846,25.989157136619962,66.42238254233003,0.45445447158920793,-13.655616191650475,44.60534824307539,55.398892607761006,1.3006157208112292,-2.4631070873582295,-26.33723846787314,1.1769529777973007,-3.175926768744053,0.8920018142937786,0.47795302013086194,-39.46148815807793,27.020074169130723,65.51337355806287,-4.533134028315544,-0.11972477659583092,5.514242500066757,0.7532812555588437,2.4506185133476843,0
GUIDED_NOGPS,1.5077846050262451,29.36755799217202,-39.39320660691131,25.933810198036827,66.37392837477752,0.5356312641440326,-13.5047778885808,44.41532202653301,54.818441688188294,1.2297249739722553,-2.4991126430113635,-26.41711070002727,1.1585965255099546,-3.173432859832968,0.7984421544789535,0.47688902662682153,-39.344452002834785,27.040178441787795,65.6274565828644,-5.280549451708794,0.3032948123291135,-0.05820882506668568,0.7304404687097299,1.6249043514235606,0
GUIDED_NOGPS,1.541900873184204,29.319315512806174,-39.651405030069576,25.893010616469155,66.27283230704451,0.6558220203236282,-13.35409188331753,44.22548767489066,54.22316886790057,1.2089797684722225,-2.501479730445596,-26.441433003661686,1.1232537640310485,-3.206381060731765,1.1092730321647895,0.47590067312171214,-39.438008937895866,27.09805227344305,65.71180362051857,-5.085086077451706,0.8709577843546867,-3.7454698234796524,0.8825762905935528,3.696172664164856,0
GUIDED_NOGPS,1.5743436813354492,30.824831519302705,-39.852662805878865,25.872698705538777,66.2099331339526,0.7076179506871227,-13.203862309848393,44.03622833639274,53.613399101813094,1.1115602467318018,-2.49551227954512,-26.557267889343223,1.068903610981525,-3.1294771569172553,0.7378405280960396,0.474806931935721,-39.46538710081782,27.050541464460302,65.82584383906544,-2.656014636158943,1.688317395746708,-1.7784224823117256,1.0134445613310172,-0.5133211595250158,0
GUIDED_NOGPS,1.6108288764953613,27.413393288976614,-40.03859923064405,25.92250130238158,66.18957898837748,0.8695226545085825,-13.05439191728589,43.84792541461672,52.989475705089085,1.0597453644710273,-2.5049851115936934,-26.666176963206368,0.965413512122626,-3.059824884415126,1.412032703349297,0.47359979343342323,-39.80513606585579,28.51635071188852,65.95406826094771,-1.5676811337471008,1.4229677617549896,0.409010611474514,1.3067069613751094,5.785910021865277,0
GUIDED_NOGPS,1.6423404216766357,31.737762475880594,-40.22992595564786,25.931541680823017,66.15575688866998,1.0046316225711827,-12.905981146617146,43.66095740536185,52.35175970892051,1.0289747219298853,-2.5250948960575035,-26.783401792384005,0.9826116806691877,-3.195159950013242,1.4580797541223345,0.47239200564050104,-39.883188962956794,27.637528354531163,65.62215303251408,-2.3861709982156754,1.1256759986281395,0.5566096864640713,1.207157430078826,4.170591200611595,0
GUIDED_NOGPS,1.6853420734405518,23.25840241772257,-40.33908513717212,25.95920199129973,66.131855262903,1.108794416262737,-12.758927207453745,43.47569873353784,51.70062921630889,1.0836035354069993,-2.4013805333947085,-26.882885205192533,1.0471162052078988,-2.880493063529949,1.1508129543460122,0.4711375479068118,-39.777645720554744,27.687437139020602,65.61616702014761,0.1186533598229289,1.0272324085235596,0.770886056125164,1.2169024835882083,3.412667306530082,0
GUIDED_NOGPS,1.709021806716919,42.236584260611245,-40.49277644788736,25.978005116818437,66.07919853010179,1.2317978052970133,-12.61352315478159,43.29251859005363,51.036478757846005,1.0315216354383594,-2.389779030202619,-26.98058081598581,0.8190950128830091,-3.372882149432344,1.7737616213676537,0.4699145604554884,-40.14079442505751,27.734445668395903,65.33676190279539,-1.3609888032078743,0.6295117549598217,0.22871498949825764,1.430460683281381,2.1937942224885076,0
GUIDED_NOGPS,1.7468242645263672,26.457978767023913,-40.54454585141456,26.06178772531852,66.08909881535668,1.330095857009442,-12.470056965710741,43.111779768706015,50.35971864749473,0.9191479481187247,-2.3130079173750873,-27.088712955830868,0.8899002021176589,-2.8690203293121885,1.3190919090769166,0.4685412396642761,-40.046349931964905,27.986595093716012,65.35244777306528,-1.5546834096312523,1.4111499302089214,2.9861776158213615,1.7293290413853595,3.589788625860499,0
GUIDED_NOGPS,1.7766759395599365,33.50270382529374,-40.63011860181108,26.101776354854067,66.13192621214874,1.4434004719665119,-12.328810616225264,42.933837503068425,49.67077433836978,0.8194956482107973,-2.3335795933815193,-27.1241240715828,0.8653116962584857,-3.058016938153991,1.6249454423643623,0.4670776962524421,-40.046349931964905,27.986595093716012,65.35244777306528,2.6775993406772614,1.5025396831333637,5.46276792883873,1.7293290413853595,2.3121910694390357,0
GUIDED_NOGPS,1.8102900981903076,29.75380053487696,-40.63527514553524,26.145594679463244,66.10804813712215,1.536952437520734,-12.1900591579331,42.75903830337961,48.97008577851845,0.718700625638215,-2.3139374634324437,-27.21350563460888,0.8996050753413882,-2.836692029889381,1.4788846655514016,0.4657240752827926,-40.11464208026281,27.972321196267313,65.28005764069604,4.739179834723473,0.40832338854670525,1.1695877648890018,1.7680079484899345,2.67394093977136,0
GUIDED_NOGPS,1.84373140335083,29.908683157797157,-40.665412823947904,26.178756339199477,66.08103422659805,1.6371700937712037,-12.054069794815867,42.58771879343234,48.25810676670149,0.6796089450581463,-2.2789092651608565,-27.26801054418558,0.9165559660100213,-2.897604346666718,1.58140174125395,0.4643541450802069,-40.296180748588654,27.927496598161678,65.19381790250736,4.739179834723473,0.40832338854670525,1.1695877648890018,1.791011975077903,2.67394093977136,0
GUIDED_NOGPS,1.8773114681243896,29.785494649083564,-40.70089010278184,26.206803717374385,66.03790281808992,1.7489050632778491,-11.921100959978753,42.420204547462106,47.535304308173735,0.707784862766624,-2.358479901774447,-27.365438070053933,0.9266222736861843,-2.914603538114166,1.7152193817833659,0.46299480298016765,-40.385286404736874,27.926158381393517,65.05524984565017,3.8840945810079575,-0.07992227328941226,0.4342731088399887,1.820035598698027,3.5804991417024588,0
GUIDED_NOGPS,1.9111402034759521,29.566919031707766,-40.689512308319095,26.221013927183826,65.96147426678498,1.8383973012033406,-11.791401392400342,42.25680892703589,46.802157970465004,0.7395125322043613,-2.249384705256418,-27.426095272525526,0.9510276756545208,-2.8175221247133946,1.6341046675072908,0.46168136740736004,-39.63829501725484,27.91553151485068,65.47358038178808,4.299847409129143,-1.1343681253492832,-2.9787663370370865,1.9836731784769834,2.0645909490539616,0
GUIDED_NOGPS,1.9448914527893066,29.63586004182918,-40.65949437801354,26.249691903955878,65.8373881392717,1.8935261837435549,-11.665209213682463,42.09783191794078,46.059159239160806,0.7759089561049196,-2.245171545755578,-27.469610407727675,0.9208421146362158,-2.7793299135232195,1.4616274897266015,0.46044354219977823,-39.939147780155,28.068559185036165,64.98790749897208,5.9431042522192,-0.7162102032452822,-4.647692292928696,2.111539287076746,-0.13229630859193062,0
GUIDED_NOGPS,1.9783282279968262,29.9110293383538,-40.573254475548495,26.281821614818245,65.76780017953745,1.9737473108127608,-11.542751004800028,41.94355896707275,45.30681087368315,0.8369761833701227,-2.4258746589754323,-27.51185171264962,0.904611694031604,-2.6589421730470812,1.6637851908528458,0.4590780213882914,-39.26747990891859,28.04770234725202,65.14948676240688,7.169937342405319,-0.5663577001541853,-1.7713181674480438,2.1323404821967396,1.6530574306870012,0
GUIDED_NOGPS,2.012836456298828,28.983602026079204,-40.38805138666302,26.308069957898464,65.73294877058056,2.0116884123373837,-11.42424088285091,41.79425981932534,44.54562626307122,0.8810512873625092,-2.324015620996209,-27.512659382518976,0.9169184403209447,-2.440722039479257,1.4269926080821673,0.4576253549849813,-39.10274693310086,27.988926593038833,65.245568791197,12.852750718593597,-0.9354578331112862,-3.458699211478233e-05,2.211107958942365,-0.8346808129221752,0
GUIDED_NOGPS,2.045625686645508,30.501145346258173,-40.2198011175163,26.3476032286723,65.61830496404917,2.0245418236567057,-11.30987957780576,41.6501873544784,43.776128781762324,0.9051059329588247,-2.3550857246437737,-27.514440354345055,0.8710838884033059,-2.4576081887296355,1.2931258656938411,0.4563156476354263,-39.129892426811594,28.291201294387818,64.54675211030002,11.537396907806396,-0.8795512840151787,-3.0986161902546883,2.3475952380093186,-2.577685645119309,0
GUIDED_NOGPS,2.0799386501312256,29.14775743929728,-40.02958334135136,26.392143538786605,65.5135276022325,2.0296335900864175,-11.19985350925787,41.511576424086726,42.99885114537249,0.8708562161700603,-2.315193577909491,-27.469239869965204,0.8728454363860559,-2.4017814974751355,1.2474391658121864,0.45497064708628,-38.82407748848162,28.329261176300957,64.67854875624468,11.537396907806396,-0.8795512840151787,-3.0986161902546883,2.3527519222400075,-2.577685645119309,0
GUIDED_NOGPS,2.1140847206115723,29.290446028897254,-39.8490884466275,26.429804670518585,65.40857254411785,2.061456802649863,-11.094333863172995,41.37864268836884,42.21433476647737,0.9234477656446592,-2.28365283153943,-27.457761737065,0.8827751840010122,-2.4037057362398264,1.4236599221677424,0.453611524444719,-38.624156834871556,28.367089768628432,64.49905601205838,10.225262492895126,-1.3538392260670662,-2.7079161256551743,2.435621858688129,-1.069619256689927,0
GUIDED_NOGPS,2.1465907096862793,30.76807511737089,-39.67884772154035,26.471161096003325,65.34174280088016,2.0847555406726626,-10.993475668639263,41.25158145309568,41.42312911039291,0.8893925491646815,-2.202926398852226,-27.3915259775888,0.8603366277274709,-2.402830789093201,1.393948717071762,0.4521627726190255,-38.44209445558503,28.283777880408056,64.50562808734779,8.837919682264328,-0.8892388083040714,-0.5011348985135555,2.468153461109323,-1.4403191294342008,0
GUIDED_NOGPS,2.1812472343444824,28.859757524048053,-39.446902644961746,26.53551912608388,65.30349705194389,2.084979629174607,-10.897416874616948,41.13056650647928,40.6257910509562,0.7642150319156231,-2.14824881355557,-27.290005460860314,0.8287966413405288,-2.2654459839957886,1.2522851600889973,0.45064458799802465,-37.490225488357844,28.668449561671395,64.45354735389614,10.201671719551086,-0.5748096853494644,1.1614225804805756,2.5179080220852574,-2.649636992270339,0
GUIDED_NOGPS,2.219616413116455,26.104435067279088,-39.17285058821714,26.590136029250047,65.05599610713335,2.0968025130675843,-10.806277426688357,41.01574895606153,39.8228842263062,0.6780850658212929,-2.169239052092077,-27.194164246426695,0.8759238036482624,-2.1891189343861925,1.3196323816064295,0.4495337762383457,-37.52992552272817,28.277186165775742,64.04305848466133,13.19568157196045,0.04800209426321089,-10.899458825588226,2.2256848146228627,-1.0385778611812173,0
GUIDED_NOGPS,2.248853921890259,34.20319826468454,-38.89821671173761,26.619788900100612,64.89993346870895,2.032102209076908,-10.720158343807675,40.907256065602816,39.014978394664546,0.5762396348595568,-2.021414335102549,-27.026153545675427,0.8204257754876308,-2.032478777453259,0.7527566903081304,0.4482300898519112,-37.361463091933494,28.164826521364105,63.919839768473906,12.84864991903305,-1.342425961047411,-5.128266289830208,2.179502402522784,-5.302253654566096,0
GUIDED_NOGPS,2.28265118598938,29.596336360493094,-38.6460842976125,26.641630146151943,64.74309647103365,1.957731014591374,-10.639140795050821,40.80519009197083,38.202648790116314,0.549441761176982,-2.1197626558483855,-26.97034065487267,0.9027678869509821,-2.1441064640755174,0.7438243136474402,0.4469191046381653,-37.45439672166936,28.189691561923965,63.684855180867274,12.343238294124603,-2.2540347650647163,-5.399557575583458,2.2250362411870475,-5.74690494594945,0
GUIDED_NOGPS,2.328458786010742,21.831802164283594,-38.342209621767566,26.646514053637876,64.58105326725448,1.8815921237781408,-10.563285176365248,40.70962712202915,37.386475478390736,0.46331963912802676,-2.0322301530966755,-26.5906419011752,0.985043530700371,-2.1265455614245217,0.8023283726043355,0.4456108444222725,-36.358202721320446,27.981221503613764,63.74826089611405,12.343238294124603,-2.2540347650647163,-5.399557575583458,2.117479771843373,-5.74690494594945,0
GUIDED_NOGPS,2.362494707107544,29.386075905024136,-38.22202571895776,26.63805619259235,64.377874192892,1.8256154317068616,-10.492630187319854,40.62061590952607,36.56704271264209,0.43617961565671665,-1.9380958456253252,-26.396492066470294,0.8720469130282735,-2.3031887217226914,0.559841817076796,0.4443783370395002,-36.22606179074671,27.774248931197327,63.36732158099079,-0.05138451233506203,-2.625875733792782,-7.360200583934784,1.9606556569543823,-3.9203813076333405,0
GUIDED_NOGPS,2.3814857006073,52.67571742543171,-37.999040290945906,26.64425459537021,64.22598797124976,1.7554313485179374,-10.427191907854812,40.538176711983255,35.74493828923032,0.41037510761155555,-1.9482728274886443,-26.314364164342766,0.9275414722239674,-2.110293012180669,0.6157338121121259,0.4430379006359611,-36.160184759083094,27.69686373939257,63.119556913773906,9.39510464668274,-2.3727327585220337,-5.832969024777412,1.822067831909422,-4.503906993429156,0
GUIDED_NOGPS,2.4181861877441406,27.254322752526072,-37.572983283066286,26.64280198396313,64.01409558519812,1.6359987827079343,-10.36696287503137,40.462300127584406,34.920752903502,0.4422702234056639,-1.8379040141338199,-26.04268485236905,0.9538779455692026,-1.7224698053861223,0.3290833278413047,0.4418133146366078,-34.83120882166503,27.96126224880382,62.98962806831686,18.132559955120087,-2.658761851489544,-7.695755362510681,1.653405932821118,-7.169661524593432,0
GUIDED_NOGPS,2.45041561126709,31.031450914821363,-37.12008862995741,26.60698224827009,63.797812686036515,1.5298877230709522,-10.311911159781765,40.392945932064066,34.095079505570894,0.5554601716919682,-1.74162769530573,-25.8172493361709,1.0076900702115383,-1.5258419317037197,0.2621663165553967,0.44059453363906875,-34.47150168680264,27.967521307503553,62.97089146132875,18.09476613998413,-4.615610092878342,-7.264281064271927,1.589218297268605,-5.894107902281095,0
GUIDED_NOGPS,2.4832651615142822,30.4475627018983,-36.69775834973616,26.564596853218706,63.56372759880745,1.4317541447948292,-10.26197944365903,40.33004191559624,33.2685126560989,0.6253249494124121,-1.647095102428403,-25.625862312985266,1.0311083183571128,-1.5602627617932086,0.2614841829579436,0.43940957011458287,-34.14533295649383,27.864616907698583,62.985834142705954,16.539430618286133,-5.124387890100479,-9.774379432201385,1.5410486236719607,-5.463410260485254,0
GUIDED_NOGPS,2.5235002040863037,24.85616588539969,-36.28179905968205,26.52226102309059,63.32633492788746,1.303297898277737,-10.217084095586841,40.27348271968318,32.441647882076765,0.7007544636765652,-1.45617402621021,-25.401553778000167,1.0467637676780985,-1.6766897656533497,0.14326030404757972,0.43823062590837863,-33.91207049719112,27.92023161645531,62.40125916416292,15.936566889286041,-5.225798487663269,-8.504363894462585,1.3295632472931334,-6.781255133477841,0
GUIDED_NOGPS,2.5512702465057373,36.017758542219475,-35.75468074302176,26.46442787333661,63.022876647201706,1.1639047092986812,-10.1771142486094,40.22312867404404,31.615081032604778,0.7797295931718955,-1.4015055122585454,-25.22172514243749,1.0709930605385014,-1.0499832157728388,-0.307614572725336,0.4371844087708061,-32.47745847666998,27.635470053076716,62.037846866162766,16.77234172821045,-4.637916758656502,-10.112166404724121,0.8598290314380533,-5.456261186858367,0
GUIDED_NOGPS,2.5846028327941895,30.00389149593682,-35.25928776024938,26.420905928896875,62.803983256282976,1.0323744990588088,-10.14193087664124,40.1788046335036,30.78940763467366,0.7721385316005139,-1.2210987652156466,-24.957367793254022,1.0534641578736212,-1.2772035964419561,-0.16824181293264628,0.4359708487567814,-31.62529865959531,27.488158756497214,61.937484732065585,18.44092756509781,-4.736539348959923,-8.369290828704834,0.5878346058105877,-5.591528387615415,0
GUIDED_NOGPS,2.6174185276031494,30.476766238201463,-34.71059981970978,26.332302976319323,62.552460582466885,0.8676811157513619,-10.111365871217089,40.14029881488096,29.96522224894533,0.9111660182999185,-1.16566655073741,-24.752205986059764,1.151522447907015,-1.0909551496849041,-0.48354023795114565,0.4348255233329569,-31.825982166440973,26.8207930174582,61.66180987737784,20.738235116004944,-5.192036181688309,-8.466115593910217,0.3285736315491924,-6.518601916492293,0
GUIDED_NOGPS,2.651970148086548,28.950393086644716,-34.14730282040763,26.222051450629426,62.28259000061834,0.6955655918933212,-10.08522111824174,40.10736163387831,29.14311782553358,1.013989393612583,-1.0204378392410154,-24.552207801878037,1.2001244310935932,-1.0604800355614545,-0.5811113625845222,0.4337210556498305,-31.22650615899039,26.28152990012812,61.06128606958714,20.738235116004944,-5.192036181688309,-8.466115593910217,0.08746731474453123,-6.518601916492293,0
GUIDED_NOGPS,2.686985492706299,28.560658059595795,-33.630003248757724,26.089337197595434,61.939449260418954,0.5142444600229782,-10.063267574739854,40.07970454196952,28.323685059784907,1.024682481645061,-0.9992277539905987,-24.439215982438515,1.2543257693096548,-1.1199131045832367,-0.7267252710711192,0.4327684715987319,-31.00407220732955,26.16860019147725,60.91717714681876,17.266005277633667,-6.364300101995468,-12.88946121931076,-0.005089460281079618,-6.840900614178623,0
GUIDED_NOGPS,2.7205135822296143,29.83231386383681,-33.13273903317445,25.933917987151336,61.725697407333314,0.3536010459670415,-10.045244345605873,40.05699886328903,27.507511748059343,1.2199413683164468,-0.870116474666436,-24.221008513929533,1.3234824633711293,-1.0678132426033198,-0.7473974862337579,0.43156362868145204,-30.136120526863422,25.827052792057938,60.56574857666314,13.536415994167328,-6.824959814548492,-3.7589889019727707,-0.38192326002379345,-4.577086920857141,0
GUIDED_NOGPS,2.7556307315826416,28.479789234958208,-32.64568909398457,25.79000246528245,61.46901905473001,0.13833923769108528,-10.03085776035374,40.038874631520386,26.695182143511104,1.3737659796050081,-0.8906066152896512,-24.035814764773807,1.3038620601782387,-1.0911284249414885,-1.1415139237831304,0.4304523261775622,-30.136120526863422,25.827052792057938,60.56574857666314,15.909789502620697,-6.761389225721359,-8.102472126483917,-0.38192326002379345,-8.672896514680382,0
GUIDED_NOGPS,2.7883365154266357,30.579421264061942,-32.15252577313232,25.668436114325843,61.223203960362895,0.053153893823744816,-10.019780449866943,40.024919426785004,25.887276311869442,1.3260812273579756,-0.8928542811351143,-23.998894177215302,1.2916591933408723,-0.9581453938739146,-0.48942963832370806,0.42932814470301306,-29.560547676389064,26.009896543112134,60.088813035444744,15.689817070960999,-5.971972644329071,-6.506548076868057,-0.5127041277715336,-0.5360627012533964,0
GUIDED_NOGPS,2.820618152618408,30.982397305302968,-31.642570093582144,25.527974691853036,60.9617843877705,-0.11123644708439206,-10.011650423148147,40.014677212530955,25.084369487219462,1.4658328741919602,-0.9528328402796409,-23.76496361323695,1.346963038593553,-0.8615222032073181,-1.084947006408958,0.4282451701988979,-28.934032022578553,25.359865106941513,60.03691923818255,15.86633175611496,-5.6008681654930115,-7.999224960803986,-0.8003792882498981,-4.996239408521546,0
GUIDED_NOGPS,2.859750509262085,25.558816360356847,-31.10295265597873,25.35499897976902,60.71438952141855,-0.22060104085348065,-10.006070144069213,40.007647172421514,24.28703142778275,1.4112043808799635,-1.088215300478933,-23.60937190394406,1.388037709014334,-0.8903312813543697,-0.7255090293043394,0.4271452838127284,-27.122786477859805,24.61062119915654,60.91358529763418,14.631226658821106,-6.11104890704155,-10.608626157045364,-1.0405418273299776,-1.431508825735119,0
GUIDED_NOGPS,2.887190341949463,36.45065526471304,-30.52328060472836,25.188831387992284,60.4539467814595,-0.33688520203369715,-10.002605608120959,40.00328254722402,23.49582577169828,1.3653657006995386,-1.1917951192421763,-23.519705180520134,1.4622575754212208,-0.4975566437457703,-0.9851003749422985,0.42608375798047754,-26.438725047952918,24.874254968225316,60.86210713910903,15.653310716152191,-6.433346122503281,-11.27343699336052,-1.0499565332675989,-1.9465689087341378,0
GUIDED_NOGPS,2.9207706451416016,29.784648596445134,-29.96966349516939,25.0538205565566,60.14739691683609,-0.47724740275290756,-10.000785419163044,40.0009894716986,22.711309392803145,1.3359920452870757,-1.266777576280811,-23.445291977060137,1.3720705209596564,-0.6602420252280403,-1.1209885402189828,0.42512782495193413,-26.993601960565126,25.102782899832476,58.919290950621075,19.16646957397461,-6.062822416424751,-10.546211898326874,-1.1534212919239453,-4.172791375297985,0
GUIDED_NOGPS,2.9567196369171143,27.823281237562025,-29.315600620404904,24.89133452182974,59.8508467375865,-0.6336474920733688,-10.000099866173791,40.00012581148674,21.93403175641332,1.4357642470314484,-1.3106247227096484,-23.37191525480669,1.4206071404676288,-0.4799750270503225,-1.2516111157137042,0.4241663700376536,-24.648529618843725,24.757948555059855,59.676459833451126,17.578163743019104,-6.342515349388123,-11.164452135562897,-1.2952327990297656,-4.338701365992649,0
GUIDED_NOGPS,2.990053176879883,30.003462237292016,-28.64262220423901,24.692673996618126,59.52298041247856,-0.8017876687840678,-10.000000000000007,40.000000000000014,21.164534275104444,1.448759535701044,-1.3239452991384657,-23.299824315664498,1.5318818357890698,-0.2843612173681903,-1.4912657868321202,0.4232831077252518,-24.445805176327482,24.02683377961681,59.156019382765024,17.578163743019104,-6.342515349388123,-11.164452135562897,-1.5099593373248288,-4.338701365992649,0
GUIDED_NOGPS,3.024487018585205,29.047030062951446,-28.047477363190474,24.51228701994487,59.26693606000495,-0.912454540284222,-10.0,40.0,20.403349664492524,1.4187472576011848,-1.2866137262909974,-23.213693922683344,1.495393300542249,-0.43797178093621014,-1.1904171337870313,0.42227282720897513,-24.149970287518126,23.933658185344566,58.995457555872164,14.91294950246811,-5.849527567625046,-7.928020507097244,-1.5216175036659583,-1.6403560535951278,0
GUIDED_NOGPS,3.057586431503296,30.21636925559582,-27.45954722961655,24.343035588536512,58.97538416072639,-1.059482056145814,-10.0,40.0,19.65100129901481,1.4393289654479604,-1.273612994814407,-23.113590670207635,1.4993862277937127,-0.3590443034518069,-1.5217464449411722,0.42135123427657684,-23.607788977866747,24.061497422343567,58.37699886933293,14.129839837551117,-5.787009373307228,-8.931685239076614,-1.5398831232303511,-4.065464770888166,0
GUIDED_NOGPS,3.091411590576172,29.57046270119359,-26.873549177378674,24.163038739117205,58.6816488145352,-1.1946996748272927,-10.0,40.0,18.90800256771064,1.4183690358758954,-1.2386570471376337,-23.061215072104687,1.5273408353149869,-0.33655982222641545,-1.5171694971238043,0.4204527075063509,-23.40060620075348,23.64667692800851,58.231709482367066,15.555387735366821,-5.826149880886078,-9.59106758236885,-1.6880828479202528,-3.439429908688896,0
GUIDED_NOGPS,3.1245293617248535,30.197007876283315,-26.303032686103677,23.970065927969667,58.298035603582825,-1.3240369679865551,-10.0,40.0,18.17485623000192,1.5606337654376217,-1.156095961606341,-23.003510218901834,1.5736911704378624,-0.3003194889382353,-1.573886559096973,0.4197536412528382,-22.57666355296992,23.57409752633623,57.47081019159621,13.060659170150757,-6.776381283998489,-13.64157646894455,-1.748307236649153,-3.169015035485275,0
GUIDED_NOGPS,3.157996654510498,29.885454519544552,-25.749186453954973,23.793626062368368,57.940957620828385,-1.4213219667082644,-10.0,40.0,17.452053771474155,1.6616236618449607,-1.1662785997200664,-23.000885718713256,1.5520022483924922,-0.2952602695146607,-1.43533705792982,0.41902219230129156,-22.30957390983277,23.618345696980228,57.259785097536884,13.219472765922546,-6.444183737039566,-12.490234524011612,-1.784083646115942,-1.6431094736042893,0
GUIDED_NOGPS,3.19176983833313,29.613262164986303,-25.12624163568659,23.606802156344155,57.57487476881105,-1.5082348295549606,-10.0,40.0,16.740074759657176,1.8399026982396949,-1.0216988629165291,-22.976406320727932,1.5863867819213897,-0.112883193912994,-1.419277965251864,0.41833039998169225,-22.257547048144854,23.31354864967743,56.94200653923711,18.682852387428284,-6.4784713089466095,-12.639816105365753,-1.9410715589384977,-0.8004328570415562,0
GUIDED_NOGPS,3.226346969604492,28.926034992862117,-24.461600384426227,23.392758448752318,57.17132091762215,-1.5967099774994953,-10.0,40.0,16.039386199805904,1.8228805861675537,-1.0544049035920178,-23.003455577388475,1.6493509030178253,0.0006403888938783103,-1.470771213584685,0.41773613056436754,-20.88164635673959,22.57210369400586,55.87500525301483,18.682852387428284,-6.4784713089466095,-12.639816105365753,-2.0747506695168423,-0.8004328570415562,0
GUIDED_NOGPS,3.260514736175537,29.27102699383078,-23.93357039800315,23.201974546891037,56.73215186450833,-1.628998420995416,-10.0,40.0,15.350441890680912,1.866721862902573,-1.031503279304965,-23.001891464068542,1.617061636499941,-0.218794136978745,-1.1663114894189135,0.41723658005234515,-20.695457819358523,22.785237145817785,55.39909071473035,10.975632071495056,-6.119921430945396,-14.387768507003784,-2.016572639439009,2.0726729838327906,0
GUIDED_NOGPS,3.2923781871795654,31.38861739943873,-23.447499815387328,23.054015704887902,56.205204292766105,-1.6409472883581708,-10.0,40.0,14.673681780329645,1.9646379607399949,-0.988725911254881,-23.04091062724953,1.5675280351707694,-0.18909548586441413,-1.0594500484970542,0.41693695497512706,-20.418825098752826,23.22899690009434,54.88956830831338,9.500910341739655,-5.294551327824593,-19.812610745429993,-1.8929191681455095,2.513107487177308,0
GUIDED_NOGPS,3.3261287212371826,29.632719385628395,-22.858613279459227,22.897696252110737,55.755660176100996,-1.6925568708559748,-10.0,40.0,14.009531321866774,2.0128358309484247,-0.9727828623498961,-23.111352075707167,1.5851110318646178,0.017945217923152602,-1.3215281265124388,0.41650774229153154,-19.94723198311815,22.733814455137093,54.408687283827845,17.198659479618073,-5.097111687064171,-15.033067762851715,-2.047868174964951,0.07996454642963007,0
GUIDED_NOGPS,3.3667609691619873,24.613593418072135,-22.293019579591093,22.726782141988828,55.31195975446142,-1.6782700044308712,-10.0,40.0,13.358400829255146,2.0864283444909617,-0.8022048642443513,-23.20606630892773,1.564287020470693,-0.1781312857535475,-0.9366577702241468,0.41609288214958745,-19.111399168580817,22.262493505602514,53.27686694959435,13.238348066806793,-4.637171700596809,-11.433656513690948,-2.059718486821173,4.143040778820702,0
GUIDED_NOGPS,3.401043176651001,29.174519705632765,-21.664352618822925,22.522242212609353,54.82897667981455,-1.721430917823292,-10.0,40.0,12.720684833086551,1.970100191085301,-0.6033900103363277,-23.342048545113517,1.705604591421669,0.18482509940695308,-1.2850702503825726,0.41578341630654403,-18.874083609284437,21.9443805448945,53.14676093410346,11.370442062616348,-4.19163815677166,-10.23198738694191,-2.072289128263217,1.148478272969367,0
GUIDED_NOGPS,3.433995246887207,30.351499012236687,-21.070574686186312,22.345076359176367,54.24804945689992,-1.6805426698202286,-10.0,40.0,12.096761436362584,1.932677157735978,-0.3983779336952811,-23.46898590329091,1.680706215525244,0.21602237487351073,-0.7601162897199644,0.41569742395892534,-17.505310997370653,21.65734902952879,51.56985066097417,13.792192935943604,-4.340874031186104,-16.994546353816986,-1.8486401297077504,4.53726179535409,0
GUIDED_NOGPS,3.466937303543091,30.360067172389833,-20.54488785417505,22.17997251653691,53.70634669585899,-1.6593700756122123,-10.0,40.0,11.486991670275074,1.8246641193145732,-0.3249595366157264,-23.636993188947592,1.6655783662235486,0.1171231538539143,-0.8673894233290476,0.4155612899488322,-17.319969639696772,21.547999455673477,51.24145218775065,10.980946570634842,-4.0194254368543625,-15.731357038021088,-1.8399318645964278,3.002604946877319,0
GUIDED_NOGPS,3.5050389766693115,26.24901588970455,-20.033733628797066,22.02105920025549,53.080724541772526,-1.5818915819866,-10.0,40.0,10.89171884998737,1.7891531120460307,-0.10395972802550549,-23.861101940899466,1.6207931242376998,-0.005865037629716498,-0.5412163453786413,0.4156219886164297,-17.18427965493808,21.642645127512694,50.36061201794894,10.666895657777786,-4.2151182889938354,-19.331887364387512,-1.6669503363208913,5.765465558132137,0
GUIDED_NOGPS,3.5361263751983643,32.172309580424944,-19.528402037847876,21.873960025948335,52.43965157266985,-1.5447558446726657,-10.0,40.0,10.31126793041463,1.8220955412998254,-0.00034162285031303036,-23.906041170543563,1.6734782579228427,0.23362311731933844,-0.6882892985653029,0.4157432327154895,-16.92495105265826,21.737429801847206,49.962612671426626,10.512437671422958,-3.932378813624382,-19.42467987537384,-1.560331459820542,3.090460389510724,0
GUIDED_NOGPS,3.5713343620300293,28.40880243292852,-19.02886624762133,21.750227165491705,51.88013473632961,-1.4404871923517863,-10.0,40.0,9.745944862005018,1.829595729338734,0.15326608324135402,-24.148511178531724,1.6009820073944159,0.13951597683455338,-0.27250012934331325,0.4157316202513508,-16.712686679671187,21.662852995497957,49.60910802074528,13.904829323291779,-3.657739609479904,-17.40255206823349,-1.4823328826031779,6.5354869978942105,0
GUIDED_NOGPS,3.603303909301758,31.28396682379617,-18.42373929775306,21.599263668929943,51.25895212678577,-1.319428806373555,-10.0,40.0,9.196035946519942,1.7647334782159427,0.20893247182250171,-24.440605925934612,1.6995113524027319,0.527510035163307,-0.03451363683770359,0.41587416763946833,-16.21461265387,21.40457335016073,48.59318474966402,16.450701653957367,-3.729233518242836,-16.225716471672058,-1.3079625000945794,7.060884785645455,0
GUIDED_NOGPS,3.640375852584839,26.97839440660196,-18.01046073643575,21.48028139172728,50.617521136128985,-1.1957770094617648,-10.0,40.0,8.661807192815502,1.5252787853029315,0.2246191751901996,-24.681399122481533,1.5985403418430963,0.026246471090376533,-0.05022073091676216,0.416088572113373,-15.736881313024679,21.47335020700035,47.8368163349911,8.748364448547363,-3.633991628885269,-19.960588216781616,-1.1153536884033477,6.692058839332998,0
GUIDED_NOGPS,3.700049877166748,16.759852792506962,-17.538845099114916,21.349967920198374,49.897034627576275,-1.0595519711232684,-10.0,40.0,8.143503672622728,1.298809562662584,0.17193032220035434,-24.92151271520604,1.5382754096411209,-0.153166083913201,-0.1786906489753577,0.4164929380900929,-15.422705449950723,21.55441593026105,47.05692800049085,8.748364448547363,-3.633991628885269,-19.960588216781616,-0.912018560236306,6.692058839332998,1
GUIDED_NOGPS,3.7072300910949707,139.38732511382142,-17.187129224261792,21.28044500432399,49.242339938174226,-0.8504420690053982,-10.0,40.0,7.641348876328635,1.2945897864159857,0.055253218832268136,-24.973958322747983,2.0811076332054186,2.7852627131398555,5.371771502561561,0.4167980178763088,-15.081099444494534,21.605214283776164,46.254356139023116,6.4364805817604065,-2.0146647468209267,-20.281414687633514,-0.6567157811187939,8.51858546585687,0
GUIDED_NOGPS,3.7370662689208984,33.520643191662806,-17.14205366626689,21.292699877546674,48.9486561844018,-0.7155486185308849,-10.0,40.0,7.155544068756683,0.7849268868825992,0.028221321124181152,-25.40481007068697,1.3695948009851837,-0.554425282512807,0.47278609001122235,0.41641377576870975,-14.771696169712408,21.597772932611726,46.013362937095636,7.457531988620758,-3.306886926293373,-19.998718798160553,-0.48237297866960827,8.138037207381377,0
GUIDED_NOGPS,3.7713074684143066,29.208041726728922,-16.804142014769667,21.18811018371461,48.22506898921444,-0.5297889142924159,-10.0,40.0,6.686267644947947,0.6402885065017349,0.07991400036172933,-25.615536774507497,1.609650559618131,0.06206311261094889,0.7648042178661876,0.416922397311467,-14.759060154159098,21.504881088743623,45.19387231576998,5.991821736097336,-4.312005639076233,-25.67882239818573,-0.29324104221055003,8.879383378573623,0
GUIDED_NOGPS,3.8046019077301025,30.039993124391223,-16.43808825789947,21.044723361847534,47.467134654026374,-0.38553138156671074,-10.0,40.0,6.2336744859417195,0.7567159110937722,0.19648941461947234,-25.87126759476924,1.7031305579574294,0.1795712100809704,0.636187940586342,0.4175330796638307,-14.524131624168366,21.403340098104387,44.5243166312011,5.379811301827431,-6.007365509867668,-23.945966362953186,-0.011905072413151167,5.258555384916824,0
GUIDED_NOGPS,3.840970993041992,27.498944442259024,-16.089845899445702,20.90642810109553,46.74044706799786,-0.2498819928950626,-10.0,40.0,5.797895314556172,0.8135619213693487,0.5521068689746093,-26.060774608385827,1.6797021614913255,0.11485985812164692,0.5960355529919007,0.4181148964931166,-14.256076883192593,21.36100571270981,43.78169983449329,5.176067352294922,-5.956767871975899,-21.355822682380676,0.15740664898434076,4.498640490692253,0
GUIDED_NOGPS,3.88017201423645,25.51295324180804,-15.788645179582632,20.76321403232838,46.09446474151492,-0.05346841186739952,-10.0,40.0,5.379036051169237,0.9427351526437174,0.8361288663870708,-26.289087341771843,1.6806663482837398,0.016261399023952856,0.9717979838234653,0.41856914261930867,-14.041756017693597,21.37912698991127,42.992155587373205,2.1915892139077187,-6.472504138946533,-14.78809118270874,0.41333714731669624,7.64512465309636,0
GUIDED_NOGPS,3.9044830799102783,41.14402307194287,-15.536922064968579,20.638074790750867,45.52807993740946,0.07280472268833202,-10.0,40.0,4.9771771694993845,1.0173599852462785,0.7783893819906921,-26.42110123804985,1.7853643102118701,0.22641304148177277,1.0791538901633244,0.41889819446417986,-13.988839205495701,21.270045766047172,42.63493174284116,2.2833257913589478,-6.183268874883652,-13.68129700422287,0.548738236992723,3.8148689722218068,0
GUIDED_NOGPS,3.941812038421631,26.79227590083616,-15.34679671846826,20.541181423601213,44.98918097615691,0.18049654355653874,-10.0,40.0,4.59237305238662,0.9870438704500596,0.7465175848892969,-26.591212221970896,1.6294841749622644,-0.11748863300413291,0.688625591466301,0.4192063841524594,-13.939951644347055,21.251113658284865,41.801511249504856,3.227899968624115,-6.227211281657219,-17.430301010608673,0.7543196574701071,3.5134476015072664,0
GUIDED_NOGPS,3.974393606185913,30.697366687647293,-15.08440133801487,20.392448999993803,44.21020558840909,0.3967982216995932,-10.0,40.0,4.224651347572376,1.0197936670249186,0.5690626001457543,-26.72420795794209,1.7677029957488353,0.12069204746014707,1.571248164687367,0.42002889151832656,-13.803843159957694,20.883326964441427,39.23267537306536,1.4683703891932964,-6.085262820124626,-17.05291122198105,1.3988302132647605,6.4060369838758975,0
GUIDED_NOGPS,4.006743669509888,30.91662551136992,-14.899190623739898,20.239784195435263,43.43150158740026,0.5507599516088189,-10.0,40.0,3.8740123234815655,1.1003398467510577,0.2644956871945852,-26.857441042986945,1.7861550053968893,-0.026844448760602182,1.2731608944046349,0.4208850214721626,-13.803843159957694,20.883326964441427,39.23267537306536,-0.9934023022651672,-7.281079143285751,-20.97742259502411,1.3988302132647605,3.7617727891614203,0
GUIDED_NOGPS,4.039921998977661,30.144487566479803,-14.741255732880136,20.093401760422704,42.68162758305825,0.7063620712290783,-10.0,40.0,3.540428225002529,1.0504683667525632,-0.16524775582986376,-27.04631114146343,1.780858639634178,-0.0714721812521707,1.362014131525005,0.4217176012838886,-13.803843159957694,20.883326964441427,39.23267537306536,-2.002906985580921,-7.328755408525467,-21.526414155960083,1.3988302132647605,4.283089965770405,0
GUIDED_NOGPS,4.074696063995361,28.76219081514397,-14.608452615118557,19.936580850167765,41.914115566332086,0.8482074279391473,-10.0,40.0,3.2238426292678355,1.0353036392478425,-0.34353303544438607,-27.156924347524495,1.7995897564448942,-0.1210637318656801,1.3239365763153512,0.4226194541258715,-13.609105307525752,20.512534331049203,38.427781178749235,-4.014671966433525,-6.968172639608383,-21.072909235954285,1.6221395729399868,3.002299295911961,0
GUIDED_NOGPS,4.106950521469116,31.00690470910032,-14.507242747498585,19.765173071104854,41.121982945394684,0.975055557213311,-10.0,40.0,2.9241698014353688,1.0813982380787313,-0.39271463965628267,-27.237158579704634,1.8666387822607655,-0.15380542720660795,1.3732051429989232,0.4236043737120814,-13.546104190657283,20.35475434047521,38.19166427845086,-6.390906125307083,-7.236960530281067,-21.584980189800262,1.672929984520648,1.9682197546294318,0
GUIDED_NOGPS,4.1408164501190186,29.53423229940499,-14.406031597141014,19.59126461461681,40.419489178930284,1.1498946017987044,-10.0,40.0,2.6412940504687867,1.1126267167376758,-0.33300744712913194,-27.352703182346445,1.8675702460895696,-0.15005699489236834,1.7216670611892344,0.424443609743077,-13.691550313807,20.078535955329897,36.879874607820184,-3.2069798558950424,-7.904533296823502,-16.942588984966278,1.9747570883189312,5.020903221614462,0
GUIDED_NOGPS,4.173957347869873,30.17701992949133,-14.266577351725676,19.415659308012113,39.646191963900044,1.3057411212307692,-10.0,40.0,2.375069084918664,1.0188323178992393,-0.15499001231569465,-27.440088622587588,1.8898332884406561,-0.04634897766927268,1.7240684475646848,0.42545775424203724,-13.691550313807,20.078535955329897,36.879874607820184,-0.31893132254481316,-8.030857890844345,-22.11110144853592,1.9747570883189312,3.906818259488988,0
GUIDED_NOGPS,4.216102123260498,23.730149929278642,-14.182131675632341,19.231403861463683,38.965616440150384,1.4177447863026469,-10.0,40.0,2.125317368702895,0.9937598673948861,-0.21058817904642158,-27.505844561274593,1.8468994243833587,-0.19059598304425174,1.3817838970515357,0.42631940185710504,-13.635872963148476,20.002939828308925,36.599960947215465,-3.352830186486244,-8.780135214328766,-17.386002838611603,2.0607864650407386,1.470551574413087,0
GUIDED_NOGPS,4.243326663970947,36.74282760856044,-14.146547000994701,19.038771851810342,38.2530164063502,1.5990330516863858,-10.0,40.0,1.8918294768878354,0.8959159134305725,-0.09575564363590203,-27.513253608976765,2.0402886357823005,-0.2246054349448222,2.2947400987369933,0.4272776261410753,-13.971914536895955,19.656495180878906,34.70665393771268,-5.811892077326775,-8.058105409145355,-13.620908558368683,2.358022846587891,3.4075421033316338,0
GUIDED_NOGPS,4.276596307754517,30.061954387121745,-14.147602656990605,18.88258301289622,37.671076893657236,1.6882748969705204,-10.0,40.0,1.6743634514684231,0.8865456409412555,0.09503376467778309,-27.5024721553719,1.8988359269213155,-0.31969856449674033,1.5487997798437922,0.4280065731156224,-13.971914536895955,19.656495180878906,34.70665393771268,-4.201387241482735,-9.061470627784729,-17.020395398139954,2.358022846587891,1.3944942163538216,0
