Mode,Time,Freq,North-Vision,East-Vision,Down-Vision,Yaw-Vision,North-Desired,East-Desired,Down-Desired,Roll-UAV,Pitch-UAV,Yaw-UAV,Roll-Control,Pitch-Control,Yaw-Control,Thrust-Control,zGyro
GUIDED_NOGPS,0.038774728775024414,25.807131210582988,308.9433864948118,-32.2653552686501,63.76392240425843,0.0033445080964624135,300,0,50,0.9127616145230569,-0.1918883750789696,101.71610602555701,-0.7354725538424207,-0.2038599993885719,-0.0006689016192924827,0.5,-4.583662361046586
GUIDED_NOGPS,0.07867050170898438,25.066810100104586,308.8652291429356,-32.3418800393065,64.04028253891795,-0.16423475504283594,300,0,50,0.8766395187672098,-0.21106429125633908,101.5338219369877,-0.6571088480175105,-0.17988831027754076,0.03284695100856719,0.5,-5.042028597151244
GUIDED_NOGPS,0.1127481460571289,29.35543113101904,308.91708550645984,-32.37876410023809,64.22755565425528,-0.32678354039215335,300,0,50,0.8483181927346048,-0.18475885820466634,101.3613118491207,-0.662141617868629,-0.18247867509571977,0.06535670807843068,0.5,-3.9534087864026803
GUIDED_NOGPS,0.15407013893127441,24.204936433464333,309.33063737552595,-32.40547100946927,64.67943687162101,-0.4465203595983512,300,0,50,0.5697451921759324,-0.15302035651379223,101.14699417334404,-0.6680116797232831,-0.19314179214951832,0.08930407191967024,0.5,-3.552338329811104
GUIDED_NOGPS,0.1910252571105957,27.067185513587464,309.36023096667066,-32.22246805131069,64.89560820490901,-0.5950642927692822,300,0,50,0.18236751826279496,-0.07214397982996547,100.98332235026302,-0.6685489780622721,-0.19419958518309696,0.11901285855385645,0.5,-3.6096341093241864
GUIDED_NOGPS,0.22973155975341797,25.84179363798234,309.89661314167614,-32.06007450769494,65.16063396683582,-0.7314965981607106,300,0,50,-0.43214361418747377,0.03068350426837158,100.79684452554334,-0.6703241714138549,-0.20776462811017987,0.14629931963214213,0.5,-3.896113006889598
GUIDED_NOGPS,0.2712695598602295,24.080146514258157,310.98837053852515,-32.013105935923576,65.48787275356268,-0.8779596906478767,300,0,50,-1.0268386869886694,0.23741454742444001,100.58127692514856,-0.6750254522207298,-0.23266169279201784,0.17559193812957535,0.5,-4.1252961249419275
GUIDED_NOGPS,0.31264352798461914,24.174802160242997,311.5284472688645,-32.167327853475776,65.7160124609764,-1.0499684858939844,300,0,50,-1.4499858748221786,0.3994093456208059,100.40524245966982,-0.683920814527307,-0.2440550463185776,0.2099936971787969,0.5,-4.5263665815335035
GUIDED_NOGPS,0.35457491874694824,23.85322853990605,311.70984932510606,-32.44055637265049,65.96919300193143,-1.2145076386669809,300,0,50,-1.8249072313603434,0.5963172427290737,100.16858323511805,-0.6951012153351636,-0.24877350541402862,0.24290152773339618,0.5,-4.354479242994256
GUIDED_NOGPS,0.39504146575927734,24.714099685940383,312.564254172209,-32.92017630615058,66.60474679888576,-1.379131966647841,300,0,50,-2.018843409210274,0.7011895680710362,99.95290635169656,-0.7105736935115238,-0.2695734101839972,0.2758263933295682,0.5,-4.1252961249419275
GUIDED_NOGPS,0.42821359634399414,30.15098842642513,312.99385711227234,-33.41600521612162,67.6801280596428,-1.5396725445216133,300,0,50,-2.020018842077751,0.7204975523593102,99.81079743582528,-0.7252389308299917,-0.27908260748666514,0.30793450890432267,0.5,-4.1252961249419275
GUIDED_NOGPS,0.4700436592102051,23.954721205302324,312.83111007522336,-33.74835363281935,68.83689478988337,-1.652899954030959,300,0,50,-1.9486228746836074,0.7642635902917536,99.62615693199231,-0.7367829113063679,-0.27626444051486243,0.3305799908061918,0.5,-3.552338329811104
GUIDED_NOGPS,0.5064034461975098,27.46599087152689,313.96274722306197,-33.92921712335923,69.99670814115125,-1.7869629109730811,300,0,50,-1.836027846546182,0.7293684739872759,99.49543394146744,-0.7450713320773061,-0.3044234251054976,0.3573925821946162,0.5,-3.20856365273261
GUIDED_NOGPS,0.5434117317199707,27.0282893634571,314.9129494990058,-34.0626925412963,70.91444898438533,-1.9103167864961808,300,0,50,-1.776123672430585,0.7148804688189152,99.38691589593428,-0.7526424090118172,-0.3251200009118453,0.3820633572992362,0.5,-3.4377467707849396
GUIDED_NOGPS,0.5842008590698242,24.521640503960946,315.24200810878887,-34.102009064675904,71.8293269366939,-2.024644193317939,300,0,50,-1.618659637531465,0.5861502927060982,99.18375191907225,-0.7587193846242006,-0.332419837538841,0.4049288386635878,0.5,-3.20856365273261
GUIDED_NOGPS,0.6249387264251709,24.551209033066222,315.2498686017148,-33.86782816426232,72.11103982262743,-2.1417213795901895,300,0,50,-1.5304242656254783,0.3925055718346568,99.04268802214398,-0.7588985604008603,-0.33427958232264804,0.4283442759180379,0.5,-2.9220847551671985
GUIDED_NOGPS,0.6712889671325684,21.580300270634602,315.33369358227867,-33.39731736708896,72.61177713786363,-2.244002362607543,300,0,50,-1.4454763491443834,0.18096191335637393,98.91760676787354,-0.7551766837966408,-0.33893776869606745,0.4488004725215087,0.5,-2.46371851906254
GUIDED_NOGPS,0.7102010250091553,25.70322707161329,315.35118570826654,-33.09806570024458,73.11511393821253,-2.367955728269476,300,0,50,-1.3479968498053136,0.010847087453920719,98.78520355081284,-0.7546439265767547,-0.3415576797958005,0.47359114565389526,0.5,-2.7501974166279517
GUIDED_NOGPS,0.7492804527282715,25.592502196622082,315.7144124132128,-32.90780050084227,73.58048460790319,-2.44757590360812,300,0,50,-1.25990459170678,-0.19066318321617212,98.692326638479,-0.7562725340871043,-0.35216718986100753,0.48951518072162403,0.5,-1.948056503444799
GUIDED_NOGPS,0.7902157306671143,24.43834339385182,316.2691957145212,-32.76669258511904,73.50829196853668,-2.5198306226721248,300,0,50,-1.1688418416495254,-0.3882733091484819,98.60250282070416,-0.7589406855885124,-0.3663511979922337,0.503966124534425,0.5,-1.7188733853924698
GUIDED_NOGPS,0.8311960697174072,24.403223272727274,317.14064063200834,-32.560973106686156,73.18592893286849,-2.5779283614190405,300,0,50,-1.119468965460442,-0.5447508085993584,98.52697458886216,-0.7599282988673828,-0.3873483967118189,0.5155856722838081,0.5,-1.1459155902616465
GUIDED_NOGPS,0.866321325302124,28.47437559826478,318.3852982091235,-32.36291013272247,72.79759172557043,-2.616339971985913,300,0,50,-1.042741395088869,-0.6116911447771262,98.47238088682626,-0.7605575568660645,-0.41619526985733685,0.5232679943971826,0.5,-0.6302535746439055
GUIDED_NOGPS,0.9021103382110596,27.949728786000826,318.9068398339471,-32.340701732266574,72.68060731587576,-2.636372708730437,300,0,50,-0.946186319165278,-0.7482668603687607,98.41659873187476,-0.7652215430561878,-0.4273102615404904,0.5272745417460875,0.5,-0.4583662361046586
GUIDED_NOGPS,0.948101282119751,21.746116675999087,319.9726031683057,-32.35730659627137,72.6625905179129,-2.6403068475463085,300,0,50,-0.9225936718332903,-0.8421012798468652,98.38177159729686,-0.7716074845108157,-0.45315653352893204,0.5280613695092617,0.5,0.057295779513082325
GUIDED_NOGPS,0.98671555519104,25.90243751814089,320.82166354717197,-32.472589443037236,72.50241464294565,-2.6464421834015983,300,0,50,-0.835582344531764,-0.946866563317929,98.37427887977736,-0.7791941680744826,-0.47323707481011695,0.5292884366803197,0.5,0.2291831180523293
GUIDED_NOGPS,1.0227320194244385,27.770043102021358,322.1257011717821,-32.687423097710216,72.6729557502022,-2.6367920664517803,300,0,50,-0.7968718205238936,-0.9730727185027984,98.36779703025502,-0.7885025446749713,-0.5039281382626418,0.527358413290356,0.5,0.4583662361046586
GUIDED_NOGPS,1.0590167045593262,27.56599520226085,323.5785439217386,-33.10706602715032,73.00645777110344,-2.6328947003803904,300,0,50,-0.7552565451280637,-1.0630332467827421,98.35899291641488,-0.8022638435142534,-0.5367939775546564,0.5265789400760781,0.5,0.11459155902616465
GUIDED_NOGPS,1.0918693542480469,30.44601559210813,324.99171807743494,-33.56496469796456,73.63519950895875,-2.626980956597737,300,0,50,-0.7277976905607316,-1.0544148287106554,98.3621074826764,-0.8160628597307229,-0.568644751287105,0.5253961913195474,0.5,0.17188733853924698
GUIDED_NOGPS,1.1276569366455078,27.948238868824713,325.74960485129503,-34.044096884470214,74.05483110869034,-2.628903642158946,300,0,50,-0.739329077592123,-1.1679634152892382,98.33809253755463,-0.8304603135541488,-0.5852934985774919,0.5257807284317891,0.5,-0.17188733853924698
GUIDED_NOGPS,1.178924322128296,19.508209225960687,327.2325845661033,-34.52623103025632,74.44285295599852,-2.648528482430369,300,0,50,-0.7523862648510717,-1.2497955915700436,98.25300887106378,-0.8467838835948986,-0.6213121294026104,0.5297056964860739,0.5,-0.8594366926962349
GUIDED_NOGPS,1.215153694152832,27.607545778866026,327.27517734109404,-34.76327996941172,74.59122726304702,-2.66010185310039,300,0,50,-0.8056874603082645,-1.282531087436328,98.22016932153436,-0.8562864285846945,-0.6233498741356913,0.532020370620078,0.5,-0.34377467707849396
GUIDED_NOGPS,1.2626087665557861,21.078281495776107,327.3306934109464,-35.129424927960656,74.87367552397541,-2.6621253666756943,300,0,50,-0.9804969206871907,-1.3552654517426765,98.158526864275,-0.8703809315490538,-0.6296345340457704,0.5324250733351389,0.5,-0.11459155902616465
GUIDED_NOGPS,1.304884672164917,23.658538511436387,327.4393442485772,-35.3115792156437,74.99116640877031,-2.673634677596773,300,0,50,-1.0438262212281375,-1.4312447962350157,98.11000520041122,-0.8796129573876824,-0.6365559742638529,0.5347269355193547,0.5,-0.40107045659157625
GUIDED_NOGPS,1.342653512954712,26.48337174427782,327.54281465923907,-35.68694443116441,75.33748091166707,-2.674209820096852,300,0,50,-1.1604774212371984,-1.5340977334601815,98.09724640704164,-0.8931074259565579,-0.6428331934962541,0.5348419640193705,0.5,0.0
GUIDED_NOGPS,1.3808841705322266,26.16223903592213,328.6373443388601,-36.1846898556827,76.10392129651518,-2.666906374865669,300,0,50,-1.171646381355756,-1.674249479969141,98.0712233863039,-0.9088242061883551,-0.6716639363877868,0.5333812749731338,0.5,0.2291831180523293
GUIDED_NOGPS,1.416125774383545,28.384770515544847,329.209688994659,-36.43080729600383,76.19586259449466,-2.653562177925105,300,0,50,-1.118069843897647,-1.8591394991502126,98.07500731110409,-0.9183459481081104,-0.6859825483559917,0.530712435585021,0.5,0.40107045659157625
GUIDED_NOGPS,1.4549736976623535,25.748512845698148,330.7558818534179,-36.990457534830625,76.74044562657093,-2.6101721397203925,300,0,50,-1.03012390125774,-1.934377021065665,98.0975537655543,-0.9360459726316236,-0.7240760731774508,0.5220344279440785,0.5,1.5469860468532228
GUIDED_NOGPS,1.4946794509887695,25.19010726340192,331.32769508306353,-37.09763348932296,75.97827532477379,-2.5553166270634184,300,0,50,-0.9240070941046599,-1.9928026726693655,98.157522826467,-0.9428220154578227,-0.7378939558747248,0.5110633254126837,0.5,1.8334649444186344
GUIDED_NOGPS,1.5368092060089111,23.740357947405958,332.73902832480144,-37.633012111289,75.99536101047288,-2.464636509252602,300,0,50,-0.8790595935283628,-1.9917664049062278,98.24171856836576,-0.9609500726595528,-0.7735601176666429,0.4929273018505204,0.5,2.979380534680281
GUIDED_NOGPS,1.5849173069000244,20.79167203688098,332.1206195933896,-37.85402951521866,75.21699981578978,-2.334197884153126,300,0,50,-0.8380270186460997,-1.9855658738003255,98.39836212679083,-0.9718673548683899,-0.7627948832658891,0.4668395768306252,0.5,4.010704565915763
GUIDED_NOGPS,1.6229569911956787,26.29179647587586,333.52982571845513,-38.34117234145793,75.26998732567218,-2.148759032407061,300,0,50,-0.846235945533103,-1.8403872147839426,98.57132300714306,-0.9882640117793725,-0.8010696835711623,0.42975180648141226,0.5,5.213915935690491
GUIDED_NOGPS,1.65887451171875,27.849699545167823,333.883522322456,-39.147444038297635,75.50547680391125,-1.954996929310912,300,0,50,-0.82191737715839,-1.7809738537932347,98.76314886998287,-1.0109665133632164,-0.8102779213347477,0.3909993858621824,0.5,5.958761069360562
GUIDED_NOGPS,1.7056500911712646,21.38205546492659,335.2322481316325,-40.20750895727024,76.25687946320853,-1.7451425186007206,300,0,50,-0.7790991346949916,-1.6584814546616375,99.02787334183422,-1.0396765086629347,-0.845719919734315,0.34902850372014416,0.5,6.64631042351755
GUIDED_NOGPS,1.7430012226104736,26.77910436326025,335.4698651125797,-41.3574388002907,76.96107954486102,-1.4866575023903488,300,0,50,-0.7797888770794571,-1.5297180880983225,99.24770981046025,-1.0696795564390198,-0.8535466019700382,0.2973315004780698,0.5,6.245239966925974
GUIDED_NOGPS,1.7782893180847168,28.344105204827745,336.0740969578055,-42.35093106585915,77.56024313382079,-1.2667233203127224,300,0,50,-0.706074273905506,-1.4230598817318132,99.4653332977952,-1.095291992621523,-0.8718078229476919,0.25334466406254447,0.5,6.245239966925974
GUIDED_NOGPS,1.815514087677002,26.903637564864884,335.8579327250591,-43.41901357819822,77.98466358466816,-1.0591215957326185,300,0,50,-0.5963001672561486,-1.4121545242265359,99.61257851592234,-1.1230900539008761,-0.8703887432641375,0.21182431914652372,0.5,6.130648407899809
GUIDED_NOGPS,1.8465969562530518,32.15701668302257,336.0520100800562,-44.90510619092233,79.0306694909235,-0.8742831665625137,300,0,50,-0.5956176285868234,-1.3934856962341868,99.74395037441836,-1.1602598536094906,-0.8800739071227692,0.17485663331250276,0.5,5.156620156177409
GUIDED_NOGPS,1.8782870769500732,31.561274399145184,335.3862858277158,-46.22154285413915,79.78945863970881,-0.721117578401491,300,0,50,-0.5090178201827904,-1.3934282799564766,99.86746751536887,-1.1919504888255206,-0.8685644623829246,0.1442235156802982,0.5,4.755549699585833
GUIDED_NOGPS,1.9228858947753906,22.42703454176024,335.98624371637374,-47.81883640023651,81.16246265807844,-0.605333841580397,300,0,50,-0.47533516917769564,-1.2518774118847225,100.08149832320039,-1.2318728023601537,-0.8904206982628565,0.12106676831607942,0.5,3.2658594322456924
GUIDED_NOGPS,1.9601807594299316,26.82123033636015,335.86115631293745,-49.30379704688872,81.82114516102688,-0.4566615317483962,300,0,50,-0.45849880623446715,-1.1648934587007291,100.15292161135122,-1.2693152516436255,-0.8915672041908136,0.09133230634967925,0.5,2.291831180523293
GUIDED_NOGPS,2.00158429145813,24.156145433183784,335.1027655408808,-50.618367810098654,82.25567469237122,-0.37546084675452707,300,0,50,-0.349448272750308,-1.0444121233928776,100.19911418070801,-1.3031659887385156,-0.8807143177298616,0.07509216935090542,0.5,1.3178029288008934
GUIDED_NOGPS,2.041764974594116,24.894227972816573,333.5036448359142,-51.508605785576115,82.28618390251647,-0.30220796972239294,300,0,50,-0.33038809626285853,-0.9176363418780362,100.20470810563825,-1.328278531541345,-0.8519540790538761,0.060441593944478594,0.5,0.8594366926962349
GUIDED_NOGPS,2.08703351020813,22.094820683551774,333.1171256843691,-52.13667752066709,82.64347388568655,-0.27277041344901765,300,0,50,-0.4116421077025929,-0.7172848021284655,100.1731731222403,-1.3494615122564675,-0.8533636897794347,0.05455408268980353,0.5,-0.2291831180523293
GUIDED_NOGPS,2.117507219314575,32.82184834494092,331.2559144095068,-52.78646264112573,83.76512932542485,-0.27803792904769664,300,0,50,-0.4630402950631438,-0.6153304083051264,100.13163874189745,-1.3696385451823094,-0.8146940585592859,0.05560758580953933,0.5,-1.260507149287811
GUIDED_NOGPS,2.155095338821411,26.607019836461788,330.25854809042687,-53.18931757217721,84.65295301202026,-0.32875840597771944,300,0,50,-0.5994424811611777,-0.49240941480311107,100.02212348874546,-1.384663957556923,-0.8027834423397895,0.06575168119554389,0.5,-2.2345354010102105
GUIDED_NOGPS,2.193208694458008,26.24507393015587,330.6226965862746,-53.42119898184632,85.53201293443043,-0.40333984675787365,300,0,50,-0.7409710977572763,-0.4101935206291684,99.90174823481316,-1.3969412736742894,-0.8183090144772374,0.08066796935157473,0.5,-2.979380534680281
GUIDED_NOGPS,2.2288784980773926,28.041102575930793,330.6172603041217,-53.507892351030335,86.34562192122785,-0.5017243860473356,300,0,50,-0.9015301154849115,-0.3406090474689595,99.75190071461225,-1.405960861391402,-0.8216042500697571,0.10034487720946712,0.5,-3.552338329811104
GUIDED_NOGPS,2.2678210735321045,25.681980442942255,330.2578614784622,-53.47953903515105,87.42325982271421,-0.6127873438018009,300,0,50,-1.119483586334134,-0.38276238702491294,99.56356507843832,-1.4134254429987287,-0.8182327892033976,0.12255746876036018,0.5,-3.896113006889598
GUIDED_NOGPS,2.3123722076416016,22.457294611496618,329.7976660374612,-52.99881079192783,88.0661993914141,-0.744010981203942,300,0,50,-1.3192096301661196,-0.40607182163018307,99.38369204664603,-1.4122209021541947,-0.8142100922217472,0.14880219624078841,0.5,-4.1252961249419275
GUIDED_NOGPS,2.3532838821411133,24.443613010006352,330.76606010436876,-52.811565959662865,88.9355215536563,-0.8849504883751854,300,0,50,-1.569845662915559,-0.464580342638423,99.19342346693699,-1.4177689064769616,-0.8420232103348846,0.1769900976750371,0.5,-3.6096341093241864
GUIDED_NOGPS,2.393113136291504,25.114840873027752,330.3962040518255,-52.25190466434208,89.14123426858417,-0.9917909246854716,300,0,50,-1.7048231142414105,-0.6090452468865396,99.0456659846221,-1.4139317636470907,-0.8361681614311556,0.19835818493709434,0.5,-2.5783100780887045
GUIDED_NOGPS,2.432281970977783,25.532055808517374,330.3271415883193,-51.50032606248774,89.17888835793997,-1.0710974224873107,300,0,50,-1.8679502297361175,-0.6543372451290991,98.96386080893286,-1.4064910215598678,-0.8403087952850395,0.21421948449746214,0.5,-1.776169164905552
GUIDED_NOGPS,2.4730288982391357,24.659176558430488,330.1987086045101,-50.2686760169266,88.3021287251533,-1.1064978042812401,300,0,50,-1.9457456574957397,-0.670857978627479,98.91900695665339,-1.3885632309325497,-0.8423475428107126,0.22129956085624802,0.5,-0.34377467707849396
GUIDED_NOGPS,2.512598752975464,25.187989430699016,331.12292738248937,-49.436813197818076,87.87267205146505,-1.1063068945706769,300,0,50,-2.0378360308579637,-0.7052383761449729,98.90611838968957,-1.381084853076381,-0.8685032321665225,0.2212613789141354,0.5,0.6875493541569879
GUIDED_NOGPS,2.5511975288391113,25.911558658182493,330.9022554387645,-48.83924075716241,87.44825963217862,-1.0609766517904962,300,0,50,-2.077869477130701,-0.6289777132361938,98.94091137332161,-1.3771851743234254,-0.8660369612470364,0.21219533035809923,0.5,2.177239621497128
GUIDED_NOGPS,2.594090700149536,23.318789334400783,330.7551821542687,-48.22311967688827,86.8177571103313,-0.9670260815381547,300,0,50,-2.0467229607417967,-0.4809608438154061,99.074024930056,-1.373216568830294,-0.8685834709018213,0.19340521630763097,0.5,3.495042550298022
GUIDED_NOGPS,2.625310182571411,32.033971573247385,330.4251351678196,-47.58930570665692,86.09029800933979,-0.8434765805028739,300,0,50,-2.053751438841151,-0.4361722518590177,99.10877693255303,-1.365920243741837,-0.8650849252256183,0.16869531610057478,0.5,4.010704565915763
GUIDED_NOGPS,2.671449661254883,21.678566444590313,330.78089900992234,-47.45786739436736,86.02711061156272,-0.6801380219331956,300,0,50,-1.8757897927994112,-0.11562872602639543,99.41916804919508,-1.3737735927745902,-0.8796975546916515,0.13602760438663913,0.5,5.901465289847479
GUIDED_NOGPS,2.7093820571899414,26.364181506181996,330.2057557244179,-47.63543839408273,86.42340944565699,-0.44027385631519744,300,0,50,-1.703035098782748,0.011078139946937557,99.62996817754919,-1.385310908572626,-0.8704934631406649,0.0880547712630395,0.5,6.818197762056797
GUIDED_NOGPS,2.7564563751220703,21.245910939787354,329.7506813221554,-48.16979208753589,87.3814490298788,-0.1936929401691619,300,0,50,-1.491088672586846,0.11326716144043708,99.94449838882826,-1.405747289889026,-0.8675521200571599,0.03873858803383238,0.5,7.563042895726867
GUIDED_NOGPS,2.806248426437378,20.08747042652848,330.62994540283336,-49.04686125404555,88.88965720891683,0.1419489431871646,300,0,50,-1.3334577249398836,0.1303113115448221,100.29554962159942,-1.4336583662290199,-0.893954522211823,-0.028389788637432925,0.5,8.59436692696235
GUIDED_NOGPS,2.8446173667907715,26.067120767662704,330.66797626939945,-49.857462453085674,90.28754324127722,0.537153995222096,300,0,50,-1.23211351246935,0.03506747185931484,100.70551806615109,-1.457865722482906,-0.8977477038279599,-0.1074307990444192,0.5,9.511099399171666
GUIDED_NOGPS,2.878105640411377,29.87736494187372,330.36082646156876,-50.78826116729783,91.62616380942973,0.8933411437408586,300,0,50,-1.2314397783407518,-0.044997499695455564,100.99117706780854,-1.4839462353183288,-0.8946492984735515,-0.17866822874817173,0.5,10.255944532841736
GUIDED_NOGPS,2.9195566177368164,24.132795553535367,330.4762941988475,-51.42878601378842,92.03846190909574,1.222382584195024,300,0,50,-1.1981078148608548,-0.24443032564080672,101.42798815579836,-1.5040770912594543,-0.9032296664481795,-0.24447651683900481,0.5,10.59971920992023
GUIDED_NOGPS,2.9613256454467773,23.946378615389886,330.2420084592661,-53.01521041386166,92.42957402685505,1.6527867404522365,300,0,50,-1.0933772159441701,-0.38405299929335446,101.88202498087496,-1.546887437369704,-0.9027189795938236,-0.33055734809044734,0.5,11.459155902616464
GUIDED_NOGPS,2.996256113052368,28.63533893618619,329.87334698169116,-54.79025559991498,92.28819696021844,2.0950850845381606,300,0,50,-1.0263986733957327,-0.5196947932376955,102.26902349924788,-1.5913127360124832,-0.8990538803233141,-0.41901701690763216,0.5,11.688339020668794
GUIDED_NOGPS,3.0356342792510986,25.404935250578443,329.8727724394463,-56.67030886294603,91.59493236702953,2.4809215991448665,300,0,50,-0.9758027664583937,-0.6295527297869442,102.71490507845549,-1.6375338385874703,-0.9047706130031213,-0.4961843198289733,0.5,11.631043241155712
GUIDED_NOGPS,3.0751802921295166,25.28699930064871,329.55389938106345,-58.163852200951084,90.81755564484907,2.911463741076387,300,0,50,-0.8792759184259819,-0.7831723286786992,103.18081277230957,-1.6756267572058767,-0.902309118189016,-0.5822927482152774,0.5,11.802930579694959
GUIDED_NOGPS,3.1204023361206055,22.116374105575094,330.13987778361695,-59.91133797453662,90.38482067120846,3.360407787959652,300,0,50,-0.9643866388692464,-0.9266188944102492,103.64842801345614,-1.7215311529368256,-0.9215751710041838,-0.6720815575919304,0.5,11.802930579694959
GUIDED_NOGPS,3.1682729721069336,20.89306653516047,330.6426980003475,-62.46925114518263,90.09249820754279,3.8312614832704317,300,0,50,-0.9868556133610611,-1.1289271766353228,104.18065684415104,-1.7861005878315428,-0.9372323198404334,-0.7662522966540863,0.5,10.886198107485642
GUIDED_NOGPS,3.2009105682373047,30.646227586912364,329.94755171671795,-64.85546785270661,89.36100930899586,4.324387870323229,300,0,50,-0.9885540893085728,-1.2457733572008467,104.52877109557909,-1.8442387203142685,-0.9240674317988952,-0.8648775740646459,0.5,10.370536091867901
GUIDED_NOGPS,3.241377115249634,24.717740794870586,330.7591831790441,-67.35670486495442,88.54577692689956,4.6388051974577325,300,0,50,-0.8800953276829718,-1.4159296978468487,104.94918289937172,-1.904043834330106,-0.9494046775349765,-0.9277610394915465,0.5,9.797578296737077
GUIDED_NOGPS,3.2775676250457764,27.63865441006886,330.61898095029227,-68.85550239131835,87.38635179867504,5.008083952685964,300,0,50,-0.7443946233570394,-1.611053581560421,105.25994284622895,-1.9419437811343954,-0.9486420459256314,-1.0016167905371929,0.5,8.88084582452776
GUIDED_NOGPS,3.3162899017333984,25.83224423682152,329.9354626668659,-70.74892341519514,86.75309695848024,5.323803209989178,300,0,50,-0.5321857151257678,-1.7817371274329836,105.49304354222315,-1.9915337310589245,-0.9382408891715446,-1.0647606419978357,0.5,8.651662706475431
GUIDED_NOGPS,3.3556365966796875,25.420178304110934,328.45490145762807,-72.37135612571778,85.25565262197493,5.634367409189708,300,0,50,-0.25916395081502336,-1.986390832586016,105.82772964174295,-2.034600228742555,-0.9110911544612792,-1.1268734818379416,0.5,7.563042895726867
GUIDED_NOGPS,3.394754409790039,25.569879231618028,327.5235840261192,-73.99539271253904,84.03539467022576,5.920160890254642,300,0,50,-0.03816260143017521,-2.0786383002991506,106.07920354660448,-2.078684294240817,-0.8981655669757153,-1.1840321780509284,0.5,6.760901982543714
GUIDED_NOGPS,3.4332668781280518,25.971405041579718,325.97715048502545,-75.27741645578794,82.86456199645639,6.176452865168785,300,0,50,0.20609951746210672,-2.1337335943522353,106.32256318673203,-2.1151083674110462,-0.869609271864601,-1.2352905730337571,0.5,6.0733526283867265
GUIDED_NOGPS,3.4733147621154785,24.974717461980923,325.0966167901675,-76.0443504995681,82.1474801024391,6.422610157746973,300,0,50,0.3991386460140912,-2.0149047379367038,106.54374520262455,-2.1412088788595036,-0.8578267739213608,-1.2845220315493948,0.5,6.0733526283867265
GUIDED_NOGPS,3.512078285217285,25.874952960844915,323.46868692303383,-76.63913251417046,81.58101393057927,6.651566272601147,300,0,50,0.4208533648502956,-1.8380086014054857,106.73667072592073,-2.164361052791132,-0.8267198748412216,-1.3303132545202294,0.5,5.213915935690491
GUIDED_NOGPS,3.544576406478882,30.724800750117208,322.3119151873446,-76.87641388900668,81.00414270956668,6.826248463548,300,0,50,0.45362418560119366,-1.6975564332947517,106.839608506902,-2.1785746216850987,-0.8074427667419471,-1.3652496927096,0.5,4.068000345428845
GUIDED_NOGPS,3.586259603500366,23.995423236229662,321.9257217494613,-77.37701986121748,81.08531698999023,6.961965610359702,300,0,50,0.34067943043392235,-1.5115750779503587,106.98702447975838,-2.201872115046257,-0.8058469734620873,-1.3923931220719403,0.5,3.666929888837269
GUIDED_NOGPS,3.621453046798706,28.419581935833587,320.5458539957475,-77.91973251278982,81.79208697515045,7.1131955982588755,300,0,50,0.31946475615015696,-1.3184918199730336,107.06124814546891,-2.2240860275862224,-0.7782003581023827,-1.4226391196517751,0.5,2.864788975654116
GUIDED_NOGPS,3.660193681716919,25.818251208026837,319.81396326970867,-78.75971279784756,83.20167974977564,7.192210973702198,300,0,50,0.32722155653061713,-1.171489713891669,107.103957318349,-2.253654624453996,-0.768603734216395,-1.4384421947404398,0.5,1.4896902673401404
GUIDED_NOGPS,3.7003023624420166,24.936557292255007,319.47664001662866,-79.42011830167114,84.6131411879028,7.228669162679884,300,0,50,0.3774964712573918,-1.0140346436158343,107.0684471648541,-2.279171562919877,-0.7660810214854142,-1.4457338325359768,0.5,-0.2291831180523293
GUIDED_NOGPS,3.740400552749634,24.945159122403222,318.7436073397413,-79.79318867013359,85.64065594843451,7.235271405227054,300,0,50,0.319351417698617,-0.8466507194426226,107.01613474600097,-2.2986971029456793,-0.7534182234320372,-1.4470542810454108,0.5,-1.1459155902616465
GUIDED_NOGPS,3.780569314956665,24.898513558436626,317.50238962772465,-79.86209309572901,86.41574920581462,7.177791297425809,300,0,50,0.29010785604550166,-0.7423084808132766,106.88346515156265,-2.312176449339849,-0.7301636780299238,-1.435558259485162,0.5,-2.979380534680281
GUIDED_NOGPS,3.82328462600708,23.416298661783507,317.3892871411714,-79.87692657525821,87.40034666279088,7.047529244078543,300,0,50,0.2976974235130023,-0.6199723222589435,106.6642024188269,-2.3259540515770283,-0.733683227122395,-1.4095058488157086,0.5,-5.099324376664327
GUIDED_NOGPS,3.866642475128174,23.06882194734266,316.21231157539415,-79.6783223432525,88.31864395067299,6.848327738864825,300,0,50,0.1277749234645805,-0.5920006698953314,106.3418174900023,-2.3353248620112534,-0.7105128458602448,-1.3696655477729651,0.5,-6.818197762056797
GUIDED_NOGPS,3.9099836349487305,23.07605633802817,315.26589061599935,-79.08850231107063,89.56633785822248,6.581623364360743,300,0,50,-0.10084049935945835,-0.5827306090877432,105.95792670770173,-2.3360716667110015,-0.6946733270933707,-1.3163246728721487,0.5,-8.193296470370772
GUIDED_NOGPS,3.9504895210266113,24.691258020839467,315.6089374022443,-78.28734574155781,90.5928282829276,6.263728068098038,300,0,50,-0.23634199428133645,-0.5502642653634396,105.56217871700201,-2.332361384900996,-0.7071584080322428,-1.2527456136196076,0.5,-9.568395178684748
GUIDED_NOGPS,3.9882824420928955,26.465825340737002,314.9949071643915,-76.64560132255951,91.21173451398458,5.897566201251553,300,0,50,-0.36793988935020683,-0.5091870808081598,105.16052944285941,-2.308303706171523,-0.6945841211678773,-1.1795132402503106,0.5,-10.657014989433312
GUIDED_NOGPS,4.03008770942688,23.926298195674867,315.32988304982456,-75.35786964712206,91.74605376413312,5.529693960019689,300,0,50,-0.5330201187824202,-0.36561847880604875,104.65190574593608,-2.296904284643704,-0.7063589199620405,-1.1059387920039379,0.5,-11.459155902616464
GUIDED_NOGPS,4.079067707061768,20.419976436451446,315.33897029441476,-73.07804628600547,91.43085524605668,5.072915316480857,300,0,50,-0.7168601031003082,-0.1988598104265841,104.04904592903408,-2.2640080582342024,-0.7087865757433209,-1.0145830632961714,0.5,-12.3185925953127
GUIDED_NOGPS,4.121408939361572,23.62242898015274,316.0341875861917,-71.7658473129057,92.02725473295762,4.512950020270298,300,0,50,-0.9096598548662249,0.011761318946497503,103.45246988616849,-2.251338282924861,-0.7270210384806985,-0.9025900040540598,0.5,-13.178029288008934
GUIDED_NOGPS,4.160322189331055,25.704172182183655,316.4042554141492,-69.08919169582086,92.50399225189575,4.005597388885226,300,0,50,-1.0291196500063364,0.11070050441639323,102.85367403182264,-2.2048136921000645,-0.7362715830049231,-0.8011194777770453,0.5,-13.750987083139758
GUIDED_NOGPS,4.196717977523804,27.48110728910729,318.17332203817733,-66.78984532680691,93.81010047094566,3.5108123680062375,300,0,50,-1.1450592296812467,0.28728031781167507,102.3326125604207,-2.16924044124885,-0.7781906916721023,-0.7021624736012475,0.5,-13.80828286265284
GUIDED_NOGPS,4.2337682247161865,27.004970511730924,319.12491761113927,-64.16533604923096,95.13573511981802,3.006011120861364,300,0,50,-1.297509799007872,0.41739019213683465,101.7529617263184,-2.125412898836374,-0.7978041217079532,-0.6012022241722729,0.5,-15.068790011940651
GUIDED_NOGPS,4.270577907562256,27.171868724167865,320.9273223575975,-62.052479598615015,96.11430242316942,2.491376729061593,300,0,50,-1.3769707257079191,0.48048491836847373,101.27988916402498,-2.093691639676696,-0.839251968083858,-0.49827534581231864,0.5,-14.896902673401405
GUIDED_NOGPS,4.305144548416138,28.93521437687558,320.7440158811513,-59.318004676178326,96.44151757191838,1.9943909943804112,300,0,50,-1.4912783170580197,0.5285847113292902,100.60519624762195,-2.0450048081792627,-0.8330389852409019,-0.3988781988760823,0.5,-16.615776058793873
GUIDED_NOGPS,4.347055196762085,23.864764755082415,321.68491843103527,-56.74707840904889,97.23601052838258,1.4466584161020832,300,0,50,-1.6359795031627362,0.4631398664146379,99.85722223161385,-2.00485507533162,-0.8582657014983308,-0.28933168322041664,0.5,-17.131438074411616
GUIDED_NOGPS,4.3860108852386475,25.676792164064892,321.2935988582069,-53.721480164265444,97.53065854628046,0.7835188857206138,300,0,50,-1.7954787209911087,0.4120651525443106,99.10545746061639,-1.951090905456382,-0.8505036623496507,-0.15670377714412276,0.5,-17.589804310516275
GUIDED_NOGPS,4.428889274597168,23.327738196541695,320.7296652241149,-49.95527268749522,98.35372370866249,0.1334838952596276,300,0,50,-1.8848231448635762,0.35572809808360584,98.31899532863528,-1.8833401402267917,-0.8424758511204181,-0.02669677905192552,0.5,-18.22005788516018
GUIDED_NOGPS,4.472874641418457,22.738531264569712,321.32924094120983,-45.7602538050182,98.76654437260292,-0.6269383599879673,300,0,50,-2.084858254755505,0.26448194677496584,97.46473673895261,-1.806729218991409,-0.8608971677252719,0.12538767199759346,0.5,-19.423269254934908
GUIDED_NOGPS,4.507666110992432,28.745829620999245,322.1635142265933,-41.486393344020335,98.94464697959813,-1.4148860527088165,300,0,50,-2.251813264393181,0.2000065618356322,96.78139680306035,-1.72431795251982,-0.8817036483676669,0.28297721054176334,0.5,-19.308677695908745
GUIDED_NOGPS,4.549378871917725,23.979235510022068,321.9544050848551,-38.20867638045352,98.82492849330947,-2.0521834292124717,300,0,50,-2.4704055713732114,0.21829316603872487,95.93885881799342,-1.669501269826643,-0.8782802679504311,0.4104366858424944,0.5,-19.19408613688258
GUIDED_NOGPS,4.588181018829346,25.776679756878508,322.7886823321249,-33.35275042080064,98.08420318430967,-2.7927635640722692,300,0,50,-2.626030791281717,0.18440555599767683,95.24804665514917,-1.5729247069614585,-0.9011556397340565,0.5585527128144538,0.5,-19.251381916395662
GUIDED_NOGPS,4.623759984970093,28.113652968342596,324.06339509839734,-28.56855891954487,98.16076031172656,-3.4948872770211863,300,0,50,-2.7153316726982255,0.25555008705299903,94.48926727987411,-1.4803337306558502,-0.9315078246777382,0.6989774554042373,0.5,-19.079494577856416
GUIDED_NOGPS,4.660910129547119,26.923843270168952,324.71768234832643,-23.62091632612724,98.41643569207884,-4.152162501404827,300,0,50,-2.767024678770998,0.3101521667428148,93.78383851220602,-1.3850745485501323,-0.9464398346762231,0.8304325002809654,0.5,-19.652452372987238
GUIDED_NOGPS,4.700650691986084,25.16803878741329,325.53284414988156,-19.683696863347574,98.55033489890955,-4.837657110775009,300,0,50,-2.781582373213234,0.4259084518880455,93.03968940213313,-1.3128447599268454,-0.9670935823548444,0.9675314221550018,0.5,-19.48056503444799
GUIDED_NOGPS,4.734881639480591,29.217400996133886,325.815316630309,-15.82036095535419,98.39101119691112,-5.577384641973946,300,0,50,-2.740303057747204,0.5299353812376603,92.22892545708511,-1.23641733944998,-0.9750605428290207,1.1154769283947894,0.5,-19.365973475421825
GUIDED_NOGPS,4.76924729347229,29.10346454616735,326.737619389006,-11.699418228569703,98.67359658884048,-6.2162346615810256,300,0,50,-2.752465490224881,0.5766406416690306,91.73189259118328,-1.1548478213226636,-0.9990425625609457,1.2432469323162052,0.5,-19.423269254934908
GUIDED_NOGPS,4.805353879928589,27.702912095533115,327.2587847839979,-7.710360977012272,99.58262949481211,-6.842341213187451,300,0,50,-2.72268650577386,0.6415208220383932,90.96439789452728,-1.0771238820747548,-1.0121573052481383,1.3684682426374903,0.5,-18.96490301883025
GUIDED_NOGPS,4.8402931690216064,28.627716501037458,325.7242827204294,-3.5152842794658175,99.89612578046888,-7.486748092573805,300,0,50,-2.7756162029732274,0.7553158290356253,90.20301621717846,-0.9927237015249234,-0.9791990052030566,1.497349618514761,0.5,-18.105466326134014
GUIDED_NOGPS,4.872399091720581,31.152684626068613,325.2562361366364,0.6642432881214339,99.99966369365468,-8.088427818927876,300,0,50,-2.8507122119068136,0.7889389293288941,89.62805772303595,-0.9081387087690709,-0.9760529210438654,1.6176855637855754,0.5,-17.647100090029355
GUIDED_NOGPS,4.908944129943848,27.370817019055078,325.3221705319103,5.129781598258603,100.21219744001559,-8.624435589142053,300,0,50,-2.970886615588838,0.8134856687105679,88.86449038515272,-0.8187981456304321,-0.9826994690067524,1.7248871178284106,0.5,-17.24602963343778
GUIDED_NOGPS,4.950172424316406,24.258694382269418,325.8973364755535,9.609925790022825,101.92368612923872,-9.227180632808803,300,0,50,-3.103381613316507,0.8535705548454918,88.12058033170078,-0.7289877015961669,-0.9996902450827475,1.8454361265617607,0.5,-16.73036761782004
GUIDED_NOGPS,4.986661672592163,27.415364302475307,326.5093769450259,14.09524270827081,103.4976674717595,-9.884820774488734,300,0,50,-3.14416424596383,0.9352745583576537,87.63485142887532,-0.6357539022854258,-1.0160759146294176,1.9769641548977468,0.5,-15.584452027558392
GUIDED_NOGPS,5.0223329067230225,28.04054017916834,328.2904873738645,18.390233381740156,104.45097445134842,-10.399520624939862,300,0,50,-3.2361303952605245,0.9796067549392677,87.10083991880704,-0.5475347494485413,-1.0590436658147402,2.0799041249879724,0.5,-14.438536437296746
GUIDED_NOGPS,5.061167001724243,25.756260516070398,329.7089651933198,23.876951920049354,104.8525731226742,-10.8838110472319,300,0,50,-3.2456617108038657,1.1273149318260824,86.49962617749502,-0.4319719007824112,-1.0906909516473275,2.17676220944638,0.5,-13.34991662654818
GUIDED_NOGPS,5.098185300827026,27.01923547676411,330.5056110475509,29.205371177426752,104.99404774917247,-11.377375562819646,300,0,50,-3.1240322633852173,1.3154306145643986,86.03421025726118,-0.32084461880675014,-1.1096347748835664,2.2754751125639294,0.5,-12.08940947726037
GUIDED_NOGPS,5.136173725128174,26.32992253512285,329.4187592456913,34.198333915658715,105.18214417185119,-11.79974978571624,300,0,50,-2.984250094143379,1.4999254432689615,85.51166663480934,-0.21705430032434878,-1.0873765212344229,2.359949957143248,0.5,-10.771606548459477
GUIDED_NOGPS,5.176031589508057,25.105069731250374,328.4841502100299,37.824066541072966,105.59675332845207,-12.213651771157286,300,0,50,-2.9073423775324474,1.569829014329457,85.10425268100725,-0.14249440687136317,-1.0736787787588873,2.4427303542314576,0.5,-10.141352973815572
GUIDED_NOGPS,5.215729236602783,25.191015015015015,327.7942673461691,41.38221236153437,106.24645880468059,-12.589587532331748,300,0,50,-2.749043352007293,1.6191927124518433,84.78082273323965,-0.06495136234777416,-1.0648811285513802,2.51791750646635,0.5,-8.766254265501596
GUIDED_NOGPS,5.244011878967285,35.365424666312535,327.3838122324543,46.24099771460616,107.72894394635034,-12.92421596573738,300,0,50,-2.69848373044992,1.6184200473019856,84.51057946853892,0.045406598810722315,-1.060148402876016,2.584843193147476,0.5,-7.906817572805361
GUIDED_NOGPS,5.278734445571899,28.803472098229616,327.29949075640707,49.82844642980401,108.70433080604676,-13.115467270354921,300,0,50,-2.582033273969434,1.5987952062692465,84.25144892161781,0.11751647214584517,-1.0634524059736448,2.6230934540709843,0.5,-6.64631042351755
GUIDED_NOGPS,5.322164297103882,23.0324649650749,327.86748504851346,53.355447362438646,109.65155897683839,-13.342040970245048,300,0,50,-2.5078480280729867,1.4881457148282167,83.9774422226844,0.19515082733244804,-1.0811896138333807,2.6684081940490096,0.5,-5.958761069360562
GUIDED_NOGPS,5.35964298248291,26.683869325953495,326.9788021489347,56.132370643696305,109.29277986565121,-13.58461846941921,300,0,50,-2.4397905290790987,1.3311017365630524,83.83414485389754,0.2583631096249727,-1.0637879686015925,2.7169236938838424,0.5,-4.239887683968092
GUIDED_NOGPS,5.398785591125488,25.556013209685478,326.2414171665726,59.79007350252934,108.73175069426138,-13.701578037040811,300,0,50,-2.1825762771069965,1.2069463998119687,83.68212533354057,0.3428270504025023,-1.0536298837898577,2.7403156074081623,0.5,-1.6615776058793874
GUIDED_NOGPS,5.432013988494873,30.100787989263825,324.2786422183281,62.76650733725552,107.17420329455281,-13.771568319900519,300,0,50,-1.9685757782399187,0.9789890497062047,83.66265246421686,0.41030638664632474,-1.0136029990109896,2.754313663980104,0.5,-0.34377467707849396
GUIDED_NOGPS,5.466123342514038,29.323005075574322,322.00089887911344,64.75173696645875,105.67514834520482,-13.751414548991086,300,0,50,-1.6725816331511885,0.9013702463696509,83.66545967196573,0.4557223539614187,-0.9702328266446518,2.7502829097982175,0.5,1.604281826366305
GUIDED_NOGPS,5.502898454666138,27.199885864736743,320.07039748715454,66.49009404184301,104.06965342077704,-13.70643944349559,300,0,50,-1.4389793451398205,0.7024112114371165,83.74902703646083,0.49916516716140424,-0.9360352964615624,2.741287888699118,0.5,2.7501974166279517
GUIDED_NOGPS,5.536022424697876,30.195051365301964,319.77674463077426,68.66071716999866,103.1189550597192,-13.611077100149267,300,0,50,-1.186372482649715,0.6132759621079806,83.85733334612974,0.553501977780117,-0.9371316246707835,2.7222154200298534,0.5,4.239887683968092
GUIDED_NOGPS,5.579775094985962,22.86035699686606,319.6594162110127,70.57232636236625,102.21194382115941,-13.45175752132353,300,0,50,-0.7772068521297807,0.5383509213470564,84.07699222983734,0.6018913734188913,-0.9388474148029263,2.690351504264706,0.5,6.474423084978302
GUIDED_NOGPS,5.611416339874268,31.612179680434128,319.9414839083347,72.09557689910011,100.91632252388968,-13.205414077071572,300,0,50,-0.5162635836751162,0.4076833727483358,84.28310684842081,0.6419255762830638,-0.9481712309435513,2.6410828154143147,0.5,8.193296470370772
GUIDED_NOGPS,5.648389101028442,27.053044375644994,320.54510314345134,73.0013519677011,99.33698671677621,-12.928299514664872,300,0,50,-0.02643742112129795,0.32209736718837373,84.68888838701127,0.6684774939952949,-0.9640239070947344,2.5856599029329743,0.5,10.313240312354818
GUIDED_NOGPS,5.6877968311309814,25.380952957265784,321.1815396376901,73.77452250460766,98.05097413849295,-12.57127137435584,300,0,50,0.3604766270214985,0.26223657544617707,85.15705687348063,0.6950715515610152,-0.9800730402334122,2.5142542748711683,0.5,11.860226359208042
GUIDED_NOGPS,5.7245261669158936,27.233264508421314,321.08480402484963,74.3933362640202,96.99179572726689,-12.15205698917254,300,0,50,0.6276629018209663,0.229847124710889,85.64327754992632,0.7180963442375391,-0.979355038248929,2.430411397834508,0.5,13.06343772898277
GUIDED_NOGPS,5.759364128112793,28.7076602967749,322.4146181451667,74.93604384750884,96.27750670950887,-11.716266083120392,300,0,50,0.8057895396198445,0.2501344940931194,86.0317445589708,0.7392800848966877,-1.0131542833501501,2.3432532166240785,0.5,13.57909974460051
GUIDED_NOGPS,5.800161600112915,24.520493648167527,324.1925214459346,74.84154418184119,95.41623153287749,-11.272914777420883,300,0,50,1.0405608571963425,0.28346544371681137,86.57936180586574,0.7478209139923835,-1.0532070712519264,2.2545829554841768,0.5,14.094761760218251
GUIDED_NOGPS,5.844595432281494,22.508634660999668,326.35773326675337,74.2993026705585,94.920370042794,-10.73152372205553,300,0,50,1.270281249881616,0.1844390666132922,87.3116946886745,0.7491727821966746,-1.1017128215693646,2.146304744411106,0.5,14.896902673401405
GUIDED_NOGPS,5.8832597732543945,25.868569560685586,328.94568285323965,73.26073025096139,94.74773797262397,-10.113414927280004,300,0,50,1.300691066335511,-0.040198758194992704,87.8779788425711,0.7382876929098301,-1.1597589831619064,2.022682985456001,0.5,15.699043586584557
GUIDED_NOGPS,5.923421859741211,24.904575008164358,332.5808271409968,71.65329875684965,95.06177821199964,-9.529985133056606,300,0,50,1.3004297048780522,-0.31229423146040713,88.54047304111648,0.7162880255109526,-1.2400737126370418,1.9059970266113213,0.5,16.50118449976771
GUIDED_NOGPS,5.9651923179626465,23.945148233359784,334.10670981866724,69.36538390614494,94.98486089673663,-8.886103859374813,300,0,50,1.2642105990916497,-0.600718285792942,89.21331497625444,0.6806347101659334,-1.2708648403237266,1.7772207718749629,0.5,17.704395869542438
GUIDED_NOGPS,5.997815132141113,30.660341084364653,337.21455209307726,66.96820678966607,94.84372235239734,-8.183344648792815,300,0,50,1.26794511174206,-0.7946594262021913,89.74175988214915,0.6395417274728025,-1.3437540118280487,1.636668929758563,0.5,18.391945223699427
GUIDED_NOGPS,6.034686326980591,27.128108608055054,340.2457207233953,64.52214301358212,94.07686711511035,-7.585665908919437,300,0,50,1.3243706918577105,-0.95334211625963,90.45188781996622,0.6007850536768169,-1.4090041532640396,1.5171331817838876,0.5,19.70974815250032
GUIDED_NOGPS,6.077171564102173,23.54326898789243,342.70348074588276,62.109897013628064,93.42817205504086,-6.8966069583985945,300,0,50,1.3806920048668125,-1.1183214936798798,91.29121561612322,0.5642005592685572,-1.4629523890862028,1.379321391679719,0.5,21.084846860814295
GUIDED_NOGPS,6.120694160461426,22.978962131837307,343.5310203668723,58.646589766776366,91.78726620103863,-6.03165397620447,300,0,50,1.5268769428470088,-1.2313413809280211,92.34596757870244,0.5028496680823547,-1.4832478310268757,1.206330795240894,0.5,22.86101602571985
GUIDED_NOGPS,6.158732652664185,26.296576802507836,345.9738255293345,53.84152702265567,90.21917461330604,-5.109876657014061,300,0,50,1.607672531199559,-1.2849488676808067,93.11889910593777,0.4101791190289403,-1.5436202980603695,1.0219753314028122,0.5,23.43397382085067
GUIDED_NOGPS,6.195048093795776,27.539750492449112,347.2489248445466,48.6181109462235,88.88397016006428,-4.255432682858796,300,0,50,1.7119250168743427,-1.347133364483836,94.01719875538868,0.3111491030758513,-1.5730644999516785,0.8510865365717593,0.5,24.6371851906254
GUIDED_NOGPS,6.232072114944458,27.015406811975062,349.6254500745619,43.74171383422409,88.85049131249765,-3.391980360713155,300,0,50,1.6754744317081003,-1.4330967379954411,94.87247504325768,0.22126130714912104,-1.630865553823076,0.6783960721426311,0.5,25.553917662834717
GUIDED_NOGPS,6.2729620933532715,24.459578140763593,352.85074485971825,39.84378710016769,89.4967377482162,-2.4890290178690715,300,0,50,1.6447001606289617,-1.5691725691171954,95.96581757464746,0.15344835653722838,-1.705485629840753,0.4978058035738143,0.5,26.012283898939376
GUIDED_NOGPS,6.316232681274414,23.12134241802827,357.4046974460026,35.66128935357202,90.41883433803883,-1.4797445997782919,300,0,50,1.6562734892907252,-1.6641782593162513,96.84340126034573,0.07581126468711898,-1.809134936651827,0.29594891995565836,0.5,26.12687545796554
GUIDED_NOGPS,6.348187446594238,31.292836146052494,358.4491767002166,28.489425735349187,89.6622069685622,-0.4409509216327579,300,0,50,1.6850844011486026,-1.933790051683867,97.78567366767317,-0.07703257068147154,-1.830173934179528,0.08819018432655158,0.5,25.66850922186088
GUIDED_NOGPS,6.385859966278076,26.55059693367263,359.1763593461946,22.68545465099959,88.6012453223489,0.324894605872799,300,0,50,1.7495435643886574,-2.1677690673166436,98.65151625818818,-0.18226988674284797,-1.8523117518119265,-0.0649789211745598,0.5,25.6112134423478
GUIDED_NOGPS,6.4184370040893555,30.705456888094993,359.5127559837242,14.61650039952149,87.48520186872999,1.2461530843741713,300,0,50,1.8779839910702778,-2.476335456233252,99.5058294893842,-0.3512191582393803,-1.8659111066781127,-0.24923061687483428,0.5,25.095551426730058
GUIDED_NOGPS,6.455849647521973,26.733020599632876,358.7232113932404,10.645377052092831,87.56100773211092,1.9768778120656845,300,0,50,2.044076475881828,-2.8908481110171014,100.5061038631434,-0.41483243486008237,-1.8558204192901804,-0.3953755624131369,0.5,23.835044277442247
GUIDED_NOGPS,6.49434757232666,25.98089669098973,356.912452006055,2.7156033393290073,86.73805771013456,2.831561129096338,300,0,50,2.1051031488988343,-3.2512716439899734,101.32546701635647,-0.5830880440473358,-1.8257390952868193,-0.5663122258192675,0.5,23.09019914377218
GUIDED_NOGPS,6.533038854598999,25.850394137550616,357.2041585376438,-3.1937795907257187,85.15796606862034,3.6180052098213737,300,0,50,2.1006720636747884,-3.5621938078400013,102.04905725702763,-0.6964356855733101,-1.8458762501259756,-0.7236010419642748,0.5,21.027551081301212
GUIDED_NOGPS,6.570427656173706,26.75075258941783,358.43610030757407,-11.023697544767943,83.3103541861293,4.406239368107383,300,0,50,2.0490294302471455,-3.7044175562667077,102.62744450613347,-0.860265689540848,-1.881809217003845,-0.8812478736214766,0.5,19.7670439320134
GUIDED_NOGPS,6.605715274810791,28.344871396326383,357.4590270644522,-16.71622447416147,81.33070171409703,5.100962593119527,300,0,50,1.964592497293332,-3.814276453311308,103.37821889970127,-0.9718827289276931,-1.8641994894870415,-1.0201925186239054,0.5,17.589804310516275
GUIDED_NOGPS,6.64267110824585,27.067010841507486,356.3725226499208,-22.34906591124202,79.66087302419358,5.645823978226382,300,0,50,1.855708396309339,-3.9462903495893147,104.018269096634,-1.0866701985499665,-1.8507565353167248,-1.1291647956452764,0.5,15.584452027558392
GUIDED_NOGPS,6.680990219116211,26.101998269950027,356.81252993814076,-27.952910697736655,78.32387628378889,6.194715522180388,300,0,50,1.8093738870838534,-3.9684291271234415,104.47867848820621,-1.2025457591045663,-1.872323871724378,-1.2389431044360777,0.5,13.2926208470351
GUIDED_NOGPS,6.716441631317139,28.211795092552734,356.8313659724082,-34.88351570620396,77.58776171003957,6.688288185825397,300,0,50,1.7668303462911366,-4.067263245073995,104.85800670414122,-1.3509676398726063,-1.8796927863098287,-1.3376576371650795,0.5,11.172677005051053
GUIDED_NOGPS,6.754140615463257,26.537158186442607,355.9099667683343,-39.923073642264676,77.22315911031835,7.059476237085745,300,0,50,1.7336797029893622,-4.110006568899935,105.17212027388094,-1.4516752910536022,-1.8671880999507384,-1.4118952474171491,0.5,8.651662706475431
GUIDED_NOGPS,6.791276931762695,26.934043987799004,354.8077645643854,-45.76902898954419,76.50186226006122,7.355143423186787,300,0,50,1.7889773413966086,-4.17904825546454,105.37452609974508,-1.5777728350434521,-1.8527407289429425,-1.4710286846373575,0.5,6.531718864491385
GUIDED_NOGPS,6.832990884780884,23.97745345201141,353.8149935318461,-48.46696477416458,76.21047971804727,7.557386454892855,300,0,50,1.7279700917300547,-4.217065088384831,105.53993279087528,-1.6305142138050237,-1.842478842792744,-1.5114772909785712,0.5,3.20856365273261
GUIDED_NOGPS,6.873539924621582,24.667007768897356,350.95955018660493,-53.340031900795644,75.84413680356971,7.688763147451428,300,0,50,1.6089955601861317,-4.27514773642615,105.53879214928389,-1.7422020309111268,-1.7889082048553056,-1.5377526294902857,0.5,-0.2864788975654116
GUIDED_NOGPS,6.913865566253662,24.802956742852075,347.3075066398556,-55.97075486358173,75.3059513122742,7.681878283123872,300,0,50,1.2375319869152857,-4.23016197611833,105.39460685590493,-1.7983086471348075,-1.7215513814121657,-1.5363756566247746,0.5,-3.495042550298022
GUIDED_NOGPS,6.947011232376099,30.175934386128997,343.79112398230967,-60.12657133822745,74.87040236965464,7.553852650774742,300,0,50,0.9273717093228315,-4.184837267672949,105.19807499272697,-1.895411355410689,-1.6555105415656324,-1.5107705301549483,0.5,-6.531718864491385
GUIDED_NOGPS,6.9894819259643555,23.547895215531277,341.63670140855254,-62.107256470862495,74.50981379949867,7.316206312287566,300,0,50,0.21522839879315933,-3.9945644190956724,104.73249514795306,-1.9377381696797404,-1.6249853856315362,-1.4632412624575133,0.5,-9.396507840145501
GUIDED_NOGPS,7.033163785934448,22.898422230714637,338.27562095807673,-64.19208548966475,74.33339354567693,6.936179920715661,300,0,50,-0.5012258550002753,-3.8630875464411583,104.15287846479661,-1.9907435865759173,-1.5618070381106974,-1.3872359841431323,0.5,-13.178029288008934
GUIDED_NOGPS,7.078902244567871,21.868682708099794,335.36498304157567,-64.94019364923469,74.11527907601253,6.401399754536269,300,0,50,-1.146631453850819,-3.655563774454545,103.50623713531482,-2.0144472657102894,-1.5114182394830715,-1.2802799509072538,0.5,-16.73036761782004
GUIDED_NOGPS,7.12257719039917,22.89817220972638,334.2430309658663,-65.84837823044336,74.17699847426844,5.740691637138263,300,0,50,-1.7655212978480213,-3.3924140880937017,102.66413628235478,-2.0445678003337755,-1.4987596044236098,-1.1481383274276526,0.5,-19.022198798343332
GUIDED_NOGPS,7.159310340881348,27.23078920715714,332.5480873564619,-65.77998306271853,74.67740660013858,4.987148820800974,300,0,50,-2.2959913548316466,-3.165286819415506,101.77859542627345,-2.050562007776914,-1.467557931374367,-0.9974297641601949,0.5,-20.798367963248882
STABILIZE,7.195098638534546,27.947121535181235,330.85314374705746,-65.52321524236636,75.11687239317541,4.264429833538472,300,0,50,-2.6501915182535796,-2.8860089219901472,100.97166321734981,-2.0542958948874177,-1.4379904871914557,-0.8528859667076945,0.5,-22.17346667156286
STABILIZE,7.237595558166504,23.5342860830093,331.14082892691533,-64.51380735960076,76.1762860144501,3.5131430104309773,300,0,50,-3.069464601445516,-2.517790862513821,99.92598857617753,-1.2988704439276808,-0.6287881271725179,-0.7026286020861955,0.5,-23.20479070279834
STABILIZE,7.278655052185059,24.360136834341006,332.03571623809955,-63.36682684928087,77.62309743075896,2.5977282976461535,300,0,50,-3.340639973524536,-1.9879547324625375,98.98547152746679,-1.274450047537839,-0.6480426533101886,-0.5195456595292307,0.5,-23.835044277442247
STABILIZE,7.317184925079346,25.96095616543494,332.7422725203194,-61.39126571046583,79.53161361173566,1.7510414264742686,300,0,50,-3.643607955199261,-1.2013858787756377,97.97448058689983,-1.232711991101956,-0.6618513051720049,-0.35020828529485376,0.5,-23.376678041337588
STABILIZE,7.3581788539886475,24.397829134504082,333.30991664912256,-58.897130751176185,80.92138794878107,0.8944281794415797,300,0,50,-3.894466716148666,-0.3521164754774029,96.91365658614848,-1.181509197995444,-0.6730432513667187,-0.17888563588831596,0.5,-22.459945569128273
STABILIZE,7.394484281539917,27.549518542359078,331.81364035129155,-54.59286710448262,82.73179052239101,0.03817518136446211,300,0,50,-4.063630438209195,0.3469072289356517,96.02554074875006,-1.0880309954178067,-0.6368162637312917,-0.007635036272892422,0.5,-21.14214264032738
STABILIZE,7.432171583175659,26.540180718317345,330.68815349051613,-50.35116316186961,86.17816360766875,-0.6828090956375088,300,0,50,-4.234243014147413,0.8520875500219528,95.26371510910518,-1.003283617349132,-0.6153726112115653,0.13656181912750176,0.5,-19.93893127055265
STABILIZE,7.473207473754883,24.3750014528633,327.39072804457766,-45.911589786367976,89.99380714927565,-1.3729265422832149,300,0,50,-4.457318699987322,1.3639826941143167,94.40051580179896,-0.9149407034305013,-0.5442693520481943,0.274585308456643,0.5,-18.04817054662093
STABILIZE,7.511542081832886,26.091606377485956,323.81281086189796,-42.83401848720418,94.31663344733158,-2.088741298677809,300,0,50,-4.591908004469246,1.576410115038176,93.76203654837533,-0.8552266441871768,-0.47057990097887986,0.4177482597355618,0.5,-16.73036761782004
STABILIZE,7.54068922996521,34.32130729008976,320.8111364771265,-40.52246811245499,96.54178446905185,-2.713688404024547,300,0,50,-4.6029490052625714,1.6578592671169317,93.55441928817446,-0.8072405051903644,-0.40834801720049463,0.5427376808049095,0.5,-16.386592940741544
STABILIZE,7.572689771652222,31.254826859020692,320.2978365789033,-37.90375514189474,100.74056953642283,-3.1629374043596115,300,0,50,-4.6663344414207595,1.8111578471176961,93.14206027741328,-0.7547935182294031,-0.4069669950855836,0.6325874808719223,0.5,-15.870930925123805
STABILIZE,7.614740610122681,23.783840182363583,318.0602118306606,-35.42847904004401,104.04156166198197,-3.5839748004402767,300,0,50,-4.659678422074582,2.0203114729950036,92.27600595103401,-0.7086197253643945,-0.3589047967221761,0.7167949600880554,0.5,-12.605071492878112
STABILIZE,7.6559836864471436,24.251120246540967,318.2546885214496,-32.25009758226733,108.52087539498716,-4.105260918590473,300,0,50,-4.548282305579906,2.0892020416242216,91.61944718687737,-0.6426261759678803,-0.3685788381550234,0.8210521837180947,0.5,-11.000789666511807
STABILIZE,7.6967127323150635,24.5546585487223,318.0042626702463,-29.180898855961,110.98090308011037,-4.568763924573713,300,0,50,-4.375843080925532,2.1541426264790564,91.22703232849261,-0.5808596487030826,-0.3624103081237788,0.9137527849147427,0.5,-9.740282517223996
STABILIZE,7.736939907073975,24.863238388808202,317.75383681904304,-26.97080674155639,112.8638829938812,-4.961938035153808,300,0,50,-4.204592736073565,2.2561105205981766,90.85024494292887,-0.5381530394055675,-0.3572725846913007,0.9923876070307616,0.5,-8.193296470370772
STABILIZE,7.771366834640503,29.055883840308134,317.0789569079258,-25.463819983077745,113.568541300206,-5.2920465789965005,300,0,50,-4.008043370535869,2.2633266154562954,90.54401341149135,-0.508467099902653,-0.34200437302464365,1.0584093157993002,0.5,-7.219268218648373
STABILIZE,7.815159559249878,23.049425729515853,316.9816414972287,-25.463819983077745,113.568541300206,-5.517157108950445,300,0,50,-3.8411532476953085,2.39100419538499,90.31171184763004,-0.513684684590552,-0.34234783263856483,1.1034314217900891,0.5,-5.729577951308232
STABILIZE,7.847184181213379,30.851359303283513,316.21221659352886,-25.463819983077745,113.568541300206,-5.762436706588466,300,0,50,-3.672666568136257,2.373585505454165,90.12246779629649,-0.512607316451715,-0.32401224305497295,1.1524873413176933,0.5,-4.1252961249419275
STABILIZE,7.889734983444214,23.506456241033,316.21221659352886,-25.463819983077745,113.568541300206,-5.863494350271023,300,0,50,-3.5032198201119957,2.4230134500434315,89.99193605106838,-0.5135438848504646,-0.32696133954021445,1.1726988700542047,0.5,-2.177239621497128
STABILIZE,7.9249656200408936,28.391879725713977,316.21221659352886,-25.463819983077745,113.568541300206,-5.95968952245695,300,0,50,-3.247481529330851,2.4372885454087583,89.92527340476906,-0.5129140743538854,-0.3265603539775531,1.19193790449139,0.5,-0.7448451336700702
STABILIZE,7.961740255355835,27.19829844629471,316.21221659352886,-25.463819983077745,113.568541300206,-5.973465934352771,300,0,50,-2.9837617356177235,2.2701393022665597,89.94580495341411,-0.513018107828624,-0.32662658964944213,1.1946931868705544,0.5,0.8021409131831525
STABILIZE,8.00039529800415,25.874952960844915,316.21221659352886,-25.463819983077745,113.568541300206,-5.933599001299047,300,0,50,-2.491522595296187,1.974369486203382,90.03181752563209,-0.5132206865509091,-0.3267555667677657,1.1867198002598094,0.5,2.6929016371148693
STABILIZE,8.040396451950073,25.005091273295257,316.21221659352886,-25.463819983077745,113.568541300206,-5.8224568740378375,300,0,50,-2.0468322437685167,1.7294089137674002,90.16240391237356,-0.5132884151599301,-0.32679868798366163,1.1644913748075676,0.5,4.92743703812508
STABILIZE,8.070602655410767,33.111009362615846,316.21221659352886,-25.463819983077745,113.568541300206,-5.6293324066548855,300,0,50,-1.3005267149086075,1.1376500752573695,90.48071121826366,-0.5124200124856415,-0.3262457963807787,1.125866481330977,0.5,7.219268218648373
STABILIZE,8.105785369873047,28.43075504822846,316.21221659352886,-25.463819983077745,113.568541300206,-5.362882218422552,300,0,50,-0.5557827380476925,0.4349980996520102,90.83512973429562,-0.5128429459581082,-0.3265150681972163,1.0725764436845104,0.5,10.198648753328653
STABILIZE,8.143356084823608,26.621881168637458,316.21221659352886,-25.463819983077745,113.568541300206,-5.0095905641385885,300,0,50,0.30248247795469874,-0.47016215465505723,91.28280765325493,-0.5130842822494136,-0.32666872135016517,1.0019181128277177,0.5,12.547775713365029
STABILIZE,8.18041443824768,26.99054691471631,316.21221659352886,-25.463819983077745,113.568541300206,-4.565206920152553,300,0,50,1.0702934177053485,-1.2857528022904585,91.77023727318374,-0.5130768270027412,-0.32666397476956993,0.9130413840305107,0.5,14.954198452914486
STABILIZE,8.218164205551147,26.494580185461253,314.9570754281846,-19.067239257205973,111.75667567805476,-4.038582689556097,300,0,50,1.695682506862935,-2.0421309391854323,92.30797806653884,-0.36719554538773136,-0.2980515707474046,0.8077165379112193,0.5,16.73036761782004
STABILIZE,8.252579689025879,29.065347248208667,313.7019342628404,-12.670658531334203,109.94481005590353,-3.4779134569009518,300,0,50,2.151658358611876,-2.788371794691638,92.91919120479577,-0.23665234282808334,-0.27230003145712284,0.6955826913801904,0.5,17.24602963343778
STABILIZE,8.279431343078613,37.249591474245115,312.4467930974962,-6.274077805462432,108.1329444337523,-2.916840677391291,300,0,50,2.4053458850947242,-3.1385295533419812,93.45081897884371,-0.10238321856401236,-0.24561058004006336,0.5833681354782583,0.5,17.76169164905552
STABILIZE,8.317522764205933,26.263479878022054,311.19165193215196,-6.274077805462432,108.1329444337523,-2.444561031503184,300,0,50,2.5322367126083978,-3.442993346444939,93.95025607133338,-0.12642715894027076,-0.22218865147290884,0.4889122063006368,0.5,18.44924100321251
STABILIZE,8.35421109199524,27.257688008526348,309.9365107668077,-6.274077805462432,108.1329444337523,-1.8197623077438863,300,0,50,2.66605271161023,-3.424180871036608,94.48154916611199,-0.12641288248377755,-0.1968229846309851,0.36395246154877725,0.5,18.391945223699427
STABILIZE,8.392938375473022,25.829062671272947,307.28811206721673,-7.966562666980274,99.51557936755137,-1.2430158094341826,300,0,50,2.7182411198412395,-3.2507149835726175,95.43791908388634,-0.1649408947982005,-0.14003923985442374,0.2486031618868365,0.5,17.818987428568605
STABILIZE,8.43233585357666,25.387097945694673,309.0461755246636,-11.83648296451795,90.43547440198883,-0.5983312081397806,300,0,50,2.725652088534115,-2.8485564334500286,96.08309875288575,-0.24840998735384312,-0.18680851757581152,0.11966624162795612,0.5,17.647100090029355
STABILIZE,8.468120098114014,27.950846328135412,311.0323537220178,-16.67410994963363,80.81741228866336,0.034234842472802826,300,0,50,2.640351136650295,-2.467509998051949,96.65854219045933,-0.34941647416570826,-0.22778688885747303,-0.006846968494560565,0.5,16.329297161228464
