Mode,Time,Freq,North-Vision,East-Vision,Down-Vision,Yaw-Vision,North-Desired,East-Desired,Down-Desired,Roll-UAV,Pitch-UAV,Yaw-UAV,Roll-Control,Pitch-Control,Yaw-Control,Thrust-Control,northVraw,eastVraw,downVraw,N-Velocity,E-Velocity,D-Velocity,N-Acceleration,E-Acceleration,D-Acceleration,yawVraw,yawRate,Landing-State,Q-Size
GUIDED_NOGPS,0.005101442337036133,196.72172975001172,-18.188283877422183,42.58249283262009,50.134671656829426,-5.016046222788561,-18.00425932471598,42.49517174430311,50.00819630714737,-0.4647133178838267,-0.9503713041357917,-58.34456872051612,-1.5964906825714613,-2.9060248615047546,-10.0,0.4997470061127661,-19.547144604847656,43.57573973400956,50.48991546425587,-4.388376325368881,-1.4475739561021328,5.733264237642288,-14.893913269042969,-23.8426610827446,28.636547923088074,-5.118676981554092,-1.8055152570896194,False,1
GUIDED_NOGPS,0.02032613754272461,65.69098967877336,-18.60393675276788,42.8847224469803,50.372739155966364,-5.16557336110802,-18.004147689135063,42.49513694408789,50.008046649127856,-0.4326620148733072,-0.9204549688494301,-58.33536845570411,-1.4757830675842958,-1.819733705612388,-5.042677425486131,0.4992701228261736,-19.716908521829474,43.596138062611296,50.49216940115721,-4.388376325368881,-1.4475739561021328,5.733264237642288,-14.893913269042969,-23.8426610827446,28.636547923088074,-5.1154925042674995,-1.8055152570896194,False,1
GUIDED_NOGPS,0.06440544128417969,22.689451846562477,-18.71474337776504,42.848359246301136,50.476767065065204,-5.185084133499721,-18.003381342500305,42.4948980504699,50.00701112017092,-0.52879089766486,-0.8967462083015523,-58.233161504964045,0.004765961561720728,-0.24238166814774684,-3.1994323625464958,0.4990583367319388,-19.86431591801384,43.285446791979645,50.77740051676561,-4.649803042411804,-2.458341605961323,6.11625649034977,-23.46113473176956,-16.533012688159943,27.064627408981323,-5.161803059900399,-1.7240863821349621,False,1
GUIDED_NOGPS,0.06927108764648438,205.81500564306393,-18.95357789436472,42.829913026253735,50.55134360366258,-5.203967821473495,-18.00134664101937,42.49426377196425,50.00423684095832,-0.52879089766486,-0.8967462083015523,-58.233161504964045,-0.11009936169064422,-3.5507630414542377,-3.8974839663895136,0.49890342183145464,-20.415588675617386,42.89997725904942,50.39488687293559,-8.724214881658554,-2.9521171003580093,3.923702985048294,-135.16452312469482,-20.301227271556854,-35.09291410446167,-5.311653105133425,-0.05575285984325713,False,0
GUIDED_NOGPS,0.08807492256164551,53.18401298437817,-19.018187343423143,42.75902539652529,50.5857474405781,-5.228571740046371,-17.997473803315355,42.493056490338645,49.998906477321796,-0.6329152639318532,-0.8434405838935695,-58.12671300674939,0.18880797946970745,-0.36611870371147676,-3.3993721064641744,0.4988230724547857,-19.725119411811633,42.94592846199514,51.46285967974485,-6.682845950126648,-2.6617875322699547,2.1683581173419952,18.202601373195648,-15.206921100616455,-81.76178932189941,-5.216737975928391,-3.255308285789451,False,0
GUIDED_NOGPS,0.11844348907470703,32.932404739284394,-19.08305101925462,42.73357688674752,50.629199202522805,-5.273262403115814,-17.991235878369945,42.49111193888979,49.99023774996522,-0.7853099110846488,-0.9284892990257749,-58.03509967941201,0.0077964046446212555,-0.26384370242347793,-3.457845523640562,0.4987172768375156,-19.72303772474072,42.91165352749056,51.67981701543039,-2.2411100566387177,-2.630895934998989,-0.3047698177397251,-7.673857361078262,-7.385481894016266,-117.15863943099976,-5.207139880471788,-3.228155082187477,False,0
GUIDED_NOGPS,0.15125751495361328,30.479866869172803,-19.23928763455973,42.72854991249488,50.67012158016659,-5.343351310722216,-17.9821477134666,42.488278880719825,49.97748294418661,-1.0263904558243875,-0.9722793493420192,-57.85867589315058,-0.05710854828636553,-0.4633704176298847,-3.63406723300408,0.49860810789557913,-20.784939278585874,42.768687776282746,50.9947030505205,-2.2411100566387177,-2.630895934998989,-0.3047698177397251,-7.673857361078262,-7.385481894016266,-117.15863943099976,-5.373044286962589,-3.228155082187477,False,0
GUIDED_NOGPS,0.1850755214691162,29.572547609478885,-19.378229824309262,42.70467210792135,50.7855198656123,-5.413749982555438,-17.969764922133695,42.48441878701271,49.959928419600246,-1.0113292483742746,-1.04724216958679,-57.76234290509672,-0.019732634436397316,-0.4399116088555104,-3.664101704374956,0.49833996607297637,-19.800277243484118,42.54861044603148,51.95224899820481,-3.6536462604999542,-3.385508432984352,2.2230563685297966,-9.752778708934784,-31.365802884101868,-48.653632402420044,-5.353683662201807,-3.099949229815164,False,0
GUIDED_NOGPS,0.21777939796447754,30.5816508811456,-19.480652124690188,42.65571134901989,50.898362918094236,-5.519629908445316,-17.953682852087713,42.47940551531064,49.93689411985868,-0.7090504221146333,-0.9733701518968113,-57.63058172581801,0.03605115265670378,-0.39648459426825217,-3.9589404184605437,0.4980656945292678,-19.942962082418966,42.50229646480241,51.937576161865785,-1.013707835227251,-4.736840724945068,2.335231378674507,29.385235905647278,-43.31376850605011,-96.62861824035645,-5.356780281252315,-5.725469251013011,False,0
GUIDED_NOGPS,0.25636792182922363,25.917803140313044,-19.591919802942947,42.58604123106309,51.11450059311928,-5.591044208789243,-17.933535553176384,42.473124987790456,49.90773308237487,-0.40052111899078413,-0.8356330373420102,-57.531851341365474,0.0601825967436556,-0.3962682866051806,-3.725652878953956,0.4975713806908319,-19.676179035900653,42.70370626635358,52.35559412931151,-2.9578953981399536,-6.447482109069824,8.749555796384811,-60.075777769088745,-23.737366497516632,17.64150559902191,-5.456341160048379,-3.0725413882231956,False,0
GUIDED_NOGPS,0.2860867977142334,33.654047982026796,-19.67159078735134,42.48450261229546,51.33137301453631,-5.688151966398082,-17.908994745321884,42.46547486954005,49.87183094804419,-0.29446476968402935,-0.805170126839489,-57.522398359554174,0.16262719744525586,-0.4224521165539874,-4.065881514302106,0.4970623587473576,-19.719115680256238,42.55028231712994,52.60977397552999,-0.842352956533432,-7.959605008363724,8.079143613576889,8.916185796260834,-11.6258405148983,15.967550873756409,-5.614890145994503,-4.468585950796904,False,0
GUIDED_NOGPS,0.31923723220825195,30.168337768826873,-19.888974234417233,42.34731183253057,51.53613409631928,-5.765172271171482,-17.879768786463966,42.45636424683481,49.82860547096655,0.14246033710821038,-0.6306097015610037,-57.43382446639745,0.1877510407159101,-0.7253658662877251,-3.9245346853058924,0.496561864597424,-20.254023828379704,42.12443358051387,52.398881465291396,-10.464588552713394,-8.929498493671417,8.936809748411179,-77.45990753173828,-20.76859474182129,43.50659251213074,-5.662286917305769,-3.696302010872263,False,0
GUIDED_NOGPS,0.35340309143066406,29.273069890146704,-20.031278474248378,42.2118584433884,51.67463524314664,-5.775051807553301,-17.845601640503155,42.44571330541395,49.77750602816842,0.22057258159165796,-0.7118827094643672,-57.4193717861137,0.19715833087405849,-0.5811073546539632,-3.5227925394688113,0.4961774716494765,-21.03225215941663,41.854585002724235,52.07066359894394,-2.3408830165863037,-7.949930429458618,4.72036674618721,-130.54051399230957,-14.91236537694931,-153.64245176315308,-6.0443069301808645,2.4256430728738865,False,0
GUIDED_NOGPS,0.3879377841949463,28.95958793921275,-20.128700097724835,42.06060962557492,51.82327271107348,-5.837085500334332,-17.806271845243895,42.433453008757006,49.71801312932491,0.29730196623222915,-0.7319900926897971,-57.38733136871718,0.23872181692902378,-0.5139675412926052,-3.861820910579464,0.4957553996561475,-21.195719021339585,41.62152379358232,52.08992477546487,0.8499953895807266,-8.251802623271942,5.55340014398098,-78.50203514099121,-7.226276397705078,-45.29746770858765,-6.097635819234455,-1.2569142495107837,False,0
GUIDED_NOGPS,0.4285097122192383,24.65077079500908,-20.2438498780592,41.91830802903097,51.967319884800595,-5.858346921128703,-17.76159148033773,42.41952477636019,49.64963792648187,0.2891228947424182,-0.9979007763009121,-57.434808013637934,0.19065861012600271,-0.5215654812154737,-3.6196426725870072,0.4953230197665836,-20.91775270235491,41.40966524685207,52.471059060672964,-1.6675027087330818,-6.9860100746154785,4.466278105974197,-34.38388407230377,-6.512701511383057,-206.8838596343994,-6.172113392487275,1.5159548300339236,False,0
GUIDED_NOGPS,0.4552023410797119,37.46821150049579,-20.36522726894206,41.77492183624939,52.11042941904419,-5.881797218303453,-17.711405135226464,42.40388016201283,49.57192172377794,0.32327498785081915,-1.0373505615647307,-57.4282783527914,0.2856239432475522,-0.7224600728211303,-3.7047374257720795,0.4948759460846413,-20.91775270235491,41.40966524685207,52.471059060672964,-0.7213271223008633,-6.361691653728485,3.0158361420035362,35.19130349159241,3.391828015446663,-40.330272912979126,-6.172113392487275,1.924200039202346,False,0
GUIDED_NOGPS,0.48917675018310547,29.439083622274943,-20.39641190585998,41.63981247416415,52.27147268665346,-5.92181991448765,-17.655588877085318,42.38648053207375,49.48443548716657,0.12118936712464529,-1.202335595235387,-57.495712810466934,0.2359770853235634,-0.45378011036756943,-3.789018099841407,0.49437132235359194,-20.18720745667403,41.315044964137215,53.36739321795088,-0.8903799578547478,-7.166055589914322,5.769750475883484,91.93857908248901,9.761454164981842,-72.61437177658081,-6.0409741387719915,-1.5050328239425443,False,0
GUIDED_NOGPS,0.5214886665344238,30.95290245450386,-20.39787265684313,41.49218937780779,52.46571213098461,-5.916175176436072,-17.594049218766116,42.3672967437477,49.38677935413818,0.12266017899329877,-1.2479322305870995,-57.5257178314908,0.28221435287649177,-0.4211193394385044,-3.5147583216190275,0.4937795740631854,-20.18720745667403,41.315044964137215,53.36739321795088,2.761325426399708,-7.274103164672852,6.446292996406555,87.07486391067505,-6.772425025701523,79.86854314804077,-6.0409741387719915,2.3037498093985462,False,0
GUIDED_NOGPS,0.5602748394012451,25.787139335140886,-20.37839999737914,41.310729676963675,52.6534865320588,-5.950877890891797,-17.526722086740435,42.346308823361774,49.27858214344215,0.1510956839108767,-1.2159978945661165,-57.560264928312726,0.31033016005245534,-0.37866590590098204,-3.750287061136584,0.49317720643995433,-20.082400558103572,40.4925835692324,53.783002016704756,3.2631754875183105,-7.592996954917908,5.5725377053022385,142.12045669555664,0.622161477804184,98.05624485015869,-6.244342768541182,-0.15718239631756298,False,0
GUIDED_NOGPS,0.587505578994751,36.7277057793345,-20.405387587849706,41.11546313583125,52.822414009924756,-5.979921979625066,-17.453571789042773,42.32350564464179,49.159500864808926,0.26206584739735317,-1.1741523137292103,-57.59268100611361,0.4419820964237209,-0.5712879779860609,-3.7995578352885793,0.4925931447955508,-21.242987441264653,40.13889934516932,53.37382123659691,3.2631754875183105,-7.592996954917908,5.5725377053022385,142.12045669555664,0.622161477804184,98.05624485015869,-6.127392500156406,-0.15718239631756298,False,0
GUIDED_NOGPS,0.6462090015411377,17.036511708198784,-20.464171102209054,40.92677567482361,52.90084757576252,-5.962064344839063,-17.374589983213735,42.298884606988736,49.029220228672095,0.42175046750909445,-1.1417635566850097,-57.71162192032021,0.2415207840191743,-0.4756780803595114,-3.5147755829120158,0.49215800655873754,-21.16167113315577,40.04731336795619,53.44694464991276,-0.2953336574137211,-8.166196942329407,1.0427904315292835,-32.048141956329346,-7.404297590255737,-34.93846952915192,-6.112906171476004,2.4073680479758712,False,0
GUIDED_NOGPS,0.6660730838775635,50.35299767101251,-20.546608822808317,40.706916467685936,52.95788611524121,-5.930358417330316,-17.289794644243162,42.27245131375514,48.88745215589043,0.49021132118998345,-1.1025974377151584,-57.7373170919778,0.6157536049661249,-0.9113585836895846,-3.261162918130394,0.4917534419949723,-21.26669350836474,39.87215164107501,53.47401463921689,-0.3094250801950693,-8.169253170490265,-2.5474049150943756,-7.400441914796829,-4.788883030414581,-62.98977732658386,-6.043875097872462,3.7291313151179293,False,0
GUIDED_NOGPS,0.6939799785614014,35.83956250534051,-20.59177582488483,40.51846807161777,52.972568808381446,-5.881968776644478,-17.19922903251334,42.24421925052151,48.733935287469954,0.4991481434712691,-1.1968905470847115,-57.86322479913781,0.4343169656194199,-0.6958376441090233,-3.1819695654552085,0.4914075913031273,-21.14560612106721,39.56610496113572,53.626777021603715,-0.3094250801950693,-8.169253170490265,-2.5474049150943756,-7.400441914796829,-4.788883030414581,-62.98977732658386,-5.932795579779637,3.7291313151179293,False,0
GUIDED_NOGPS,0.7276830673217773,29.67485956049865,-20.544381786903408,40.3507858590762,53.01312860311663,-5.840944776242061,-17.102960661742134,42.21420946337272,48.56843449428605,0.5427716545656414,-1.1392663754914296,-57.891918423841034,0.36123409403029755,-0.4518153734632728,-3.2613830665142753,0.49098347333253645,-20.91338900565048,39.440936566120776,53.75729046930028,5.614814534783363,-6.369546055793762,-1.4750118367373943,51.90621018409729,19.968345761299133,-30.691325664520264,-5.908998129510797,3.3316111037720137,False,0
GUIDED_NOGPS,0.7677030563354492,24.992575466863702,-20.541790122787692,40.13985326589255,53.05184842507385,-5.791746544830573,-17.001080266926166,42.18245023717445,48.39074038680549,0.5087858605552744,-1.1376417509643186,-58.04519469900529,0.39262122370641694,-0.536481779541157,-3.229079992597763,0.49053572851970567,-20.939790081062377,39.234534354218425,53.75179618666368,3.240128606557846,-7.637280225753784,-2.577129751443863,25.063708424568176,1.1049149557948112,-76.3753592967987,-5.836516488536093,3.861431652454253,False,0
GUIDED_NOGPS,0.7945334911346436,37.27673794415116,-20.557480691429113,39.90670742738403,53.12271788380228,-5.70831504118929,-16.893700772283985,42.148976773849576,48.20066882480851,0.4708707334205932,-1.0991441367594823,-58.10224726914241,0.5838032710126214,-0.7139397231376569,-2.80367944248862,0.4900032712940765,-20.984936825540032,39.00982409170663,53.66330119186938,2.4952391162514687,-7.182449102401733,-0.8736975491046906,46.36205434799194,-16.684114933013916,25.029081106185913,-5.840302919333354,6.135390738014142,False,0
GUIDED_NOGPS,0.8280010223388672,29.883964005044422,-20.53931772493371,39.73574770132667,53.18918475930017,-5.6840431404481295,-16.780956259199225,42.11383087065455,47.99806042711089,0.5135092031706027,-1.0202991010234996,-58.26389052603993,0.3889875345622061,-0.5808277397616795,-3.264333524610342,0.48945132142733005,-20.984936825540032,39.00982409170663,53.66330119186938,3.2583672553300858,-6.968799978494644,1.5704020857810974,18.415310978889465,-3.8082215934991837,214.65167999267578,-5.840302919333354,2.0089249073183577,False,0
GUIDED_NOGPS,0.8627181053161621,28.81099052067592,-20.522399315076587,39.537591485344095,53.26869658799965,-5.653012127641815,-16.663000934163787,42.07706059845589,47.78278008128603,0.5504065253972463,-0.8744517237986902,-58.4220845374066,0.4353651343637185,-0.5981925389212392,-3.213696579778984,0.48884644469677463,-20.835069294218044,38.91257251973562,53.62063550484642,3.2583672553300858,-6.968799978494644,1.5704020857810974,18.415310978889465,-3.8082215934991837,214.65167999267578,-5.692330682966653,2.0089249073183577,False,0
GUIDED_NOGPS,0.8960943222045898,29.96316669286051,-20.51956547411776,39.32608420097494,53.34687029424279,-5.558035686683252,-16.540008096720978,42.03871998000649,47.55471645338698,0.5749730082944896,-0.624273633888759,-58.56966443480306,0.4792901656977617,-0.6616767329514396,-2.766227031127336,0.48821848994143247,-20.7316003318193,38.56593045234153,53.60392436502157,1.9355064257979393,-6.814403831958771,1.5170533210039139,-9.803206473588943,-4.78784441947937,-44.44494545459747,-5.536218559529598,5.871928997385594,False,0
GUIDED_NOGPS,0.9306304454803467,28.958588215799722,-20.531922120090247,39.11091875968905,53.39743705306496,-5.447163171829784,-16.412169107408705,41.998868668222116,47.31378149766856,0.6850857429162915,-0.4688564679456741,-58.7556982972267,0.48169457548122113,-0.705407820497296,-2.6280211131488684,0.48761863104730196,-20.39995830945972,38.236789865318656,53.507380408604035,-0.2513664774596691,-6.976675242185593,0.4221891984343529,-94.03011202812195,4.851248860359192,166.25487804412842,-5.484527865830138,6.789055636396818,False,0
GUIDED_NOGPS,0.963531494140625,30.397912740976953,-20.56586960201493,38.889431866460384,53.455142540069275,-5.377842792473392,-16.27969235570263,41.957571624457756,47.05990996630938,0.6036048411300657,-0.3920693468622751,-58.94328261259193,0.5150619739658568,-0.7942924826976346,-2.805092537115479,0.48697865324840095,-20.544732354803223,38.16056589313638,53.527186806038245,-1.3042585924267769,-7.2153255343437195,0.8963057771325111,-27.547702193260193,2.8981363400816917,70.08790969848633,-5.277678926221334,3.3192663906208617,False,0
GUIDED_NOGPS,0.997983455657959,29.029338685676713,-20.53719562603022,38.69755822198662,53.48833937902189,-5.234114595768642,-16.142802227959333,41.91489879678407,46.793058919133955,0.5775034332994207,-0.2907052841544662,-59.1596015337954,0.46520336976288523,-0.6631436859725506,-2.3063886335590347,0.4863600978474477,-20.29961778023076,38.22344798984286,53.52812378065329,2.0405465736985207,-6.3714951276779175,-0.24914571549743414,-79.920095205307,4.139546304941177,2.015850692987442,-5.141990128599422,8.078279882332936,False,0
GUIDED_NOGPS,1.031609058380127,29.742618068359096,-20.560691877049774,38.49576175730576,53.45095833874182,-5.118995599285319,-16.001738075359476,41.870924798263765,46.513207233334725,0.48864448646655306,-0.34900753878585705,-59.25435674815099,0.490155564701532,-0.803142750775565,-2.3856318486302124,0.4858565223863938,-20.17477188422302,37.89411209114714,53.26389303747335,-1.8077358603477478,-6.133902817964554,-4.178280755877495,-84.25657749176025,-1.5101589262485504,-79.34916019439697,-5.1205354587177645,6.022907767667788,False,0
GUIDED_NOGPS,1.0650513172149658,29.906337345274085,-20.539089294702965,38.31241288312549,53.495515346248276,-4.9812630289009565,-15.85675318185099,41.82572858522802,46.220355113194174,0.333310163247581,-0.34024910183578505,-59.58975318734446,0.47164417899818767,-0.7259184547158941,-2.166332261739031,0.4851622100575116,-19.159270577933782,37.943327088784045,54.18307281676037,-1.70542411506176,-5.830257758498192,-0.9096678346395493,-20.630252361297607,-1.2856760993599892,57.59389400482178,-4.889686547883759,7.04838938144574,False,0
GUIDED_NOGPS,1.0986502170562744,29.767103843751773,-20.47608099145404,38.10581888368271,53.462931415394394,-4.816692981000856,-15.708113732092215,41.779393135552915,45.914523599806856,0.18410019851700968,-0.5266083320599235,-59.819056298160135,0.5336019905415726,-0.6577539169283294,-1.9104626531566051,0.4845954241408221,-19.182168817057963,37.69287196100895,53.97217644630312,1.1438677087426186,-7.160840183496475,-5.198195204138756,-35.9659343957901,1.621401496231556,-98.05872440338135,-4.661024135572159,8.307501030878564,False,0
GUIDED_NOGPS,1.1323225498199463,29.703019658942836,-20.440091818144985,37.884909908047234,53.38441993101563,-4.64401494716053,-15.55609777939508,41.73200512693581,45.595754080801484,0.018001763970361965,-0.6919531246007691,-60.05994340980814,0.5681852646866382,-0.7328998599196305,-1.7588652809179872,0.48409396598964244,-19.818029780120796,37.19833655002358,52.95898926478449,1.1438677087426186,-7.160840183496475,-5.198195204138756,-35.9659343957901,1.621401496231556,-98.05872440338135,-4.425947303056278,8.307501030878564,False,0
GUIDED_NOGPS,1.1698439121246338,26.653686063432954,-20.394588637077558,37.701466529859076,53.39600003357635,-4.464979744466654,-15.40099421366827,41.68365461517176,45.264107800062995,-0.08087520274506317,-0.9359679292801157,-60.27557248190545,0.48135707823005114,-0.6967318287655333,-1.7256947135873535,0.48338307759167276,-19.284337258363458,37.562148204485055,53.614826039044985,0.2692892448976636,-6.237712502479553,-0.91909384354949,4.05753068625927,-7.30348601937294,36.638230085372925,-3.9453447116368396,7.584645889316835,False,0
GUIDED_NOGPS,1.2006618976593018,32.45410792491373,-20.32290338444364,37.501647994367296,53.40585999119184,-4.275449285001429,-15.243101729360383,41.634434712429936,44.91966536745462,-0.08324389100488244,-1.2283743040638855,-60.536711104442546,0.5812895362882422,-0.7035797662874239,-1.324781201519114,0.482653727531792,-19.325111654196014,37.45421153736474,53.561053361099255,2.1959248930215836,-6.370808184146881,-0.9548678062856197,26.29815936088562,-1.691657118499279,47.24351763725281,-3.851826762053677,7.630658312434273,False,0
GUIDED_NOGPS,1.2330055236816406,30.921411931231752,-20.340542122332906,37.303135471700834,53.39360450007195,-4.076862197968783,-15.082727793403116,41.58444126553003,44.562526268539955,0.06156041494804559,-1.2236922093878417,-60.67861511463873,0.5565654583571896,-0.9011305938266446,-1.227637373362083,0.4819409317799288,-19.375845280395183,36.87317560403521,53.41265443987469,-3.6249030381441116,-7.370766252279282,-1.5064751729369164,-45.982807874679565,-14.392772316932678,28.75324785709381,-3.734946001140373,9.391826005016645,False,0
GUIDED_NOGPS,1.2670857906341553,29.346188560433795,-20.37077713893602,37.08157816533481,53.366081238103746,-3.8709500433388015,-14.920187613154404,41.53377253421866,44.19280837430502,0.10640659660491628,-1.2791423531126498,-60.85085199493894,0.6001270329923558,-0.9328622508755654,-1.1149942796202417,0.4812315153366227,-19.63579465818843,36.49752596014693,53.02188176245042,-3.6249030381441116,-7.370766252279282,-1.5064751729369164,-45.982807874679565,-14.392772316932678,28.75324785709381,-3.656487112084089,9.391826005016645,False,0
GUIDED_NOGPS,1.3012034893035889,29.31378290922052,-20.360079494205472,36.8690818535041,53.34388318293021,-3.666580622906522,-14.755803104341606,41.4825288694458,43.81064745088033,0.17512759778386078,-1.2862921737914779,-61.019946988220944,0.6018051759092108,-0.8645107567733774,-1.000489233056171,0.4804856005282754,-19.897020044967896,36.56248222348641,52.58341396213232,-0.12620165944099426,-7.064124196767807,0.07093292661011219,17.699159681797028,-4.789497330784798,95.1837956905365,-3.1641074624804144,7.934218386132673,False,0
GUIDED_NOGPS,1.3348805904388428,29.697761854524085,-20.244135436654844,36.651356600892555,53.28198421807274,-3.5084682860036045,-14.589901859004673,41.43081239164114,43.41619666926298,0.2706345331545457,-1.2002352053439023,-61.1883248116401,0.6425397455387858,-0.6577269792481308,-1.1652590989325038,0.4797939403266213,-19.639173054166967,36.58466773798962,52.61195151306404,6.052665412425995,-8.16013589501381,-2.597338892519474,-34.965649247169495,-4.708303883671761,-24.293319880962372,-3.020901145750903,4.947162364900888,False,0
GUIDED_NOGPS,1.367821455001831,30.361605559376017,-20.19204950770154,36.43220581182164,53.219330771015564,-3.349802819334457,-14.422816113439296,41.37872666899055,43.00962611503869,0.3295963012472395,-1.1252323644594633,-61.28736255460529,0.6574776829186347,-0.8082088460181982,-1.0455554225822978,0.47907922844474504,-19.282896437237614,36.11723464583335,52.94370631158779,0.8409211412072182,-7.732678949832916,-3.5474006086587906,70.2298641204834,-3.5614438354969025,92.76500940322876,-2.8621018077044704,5.11106726818733,False,0
GUIDED_NOGPS,1.400782585144043,30.34293568689865,-20.119985011466152,36.226684011092104,53.12710570666732,-3.205719496140071,-14.254881716140087,41.326376395712465,42.59112229810388,0.3247718398156833,-1.1542211814008783,-61.41265554474,0.6449664199216332,-0.7734225313333078,-1.0494225446675243,0.47839888066763003,-19.337552404373085,36.019896203309386,52.84275773741106,2.378971315920353,-7.087434083223343,-5.20254373550415,-23.693928122520447,-0.280508934520185,-71.7625617980957,-2.7646129229639294,4.257126282301071,False,0
GUIDED_NOGPS,1.4359216690063477,28.461236759427017,-20.049151527113413,36.01939183884419,53.044382582870576,-3.0482143069254133,-14.086437095743749,41.27386707033429,42.160887662387765,0.26018975985099463,-1.077451882842345,-61.549921856489746,0.6434272534261455,-0.7714862560837351,-0.9318526694003583,0.4776732835191524,-19.42694679935465,35.836647909387096,52.6408939682002,2.6017149910330772,-6.992463022470474,-4.006693139672279,-18.30853521823883,6.7680783569812775,110.07815599441528,-2.614730868150287,4.95282886059106,False,0
GUIDED_NOGPS,1.4711027145385742,28.42902071358855,-20.004543732031593,35.816578997248726,52.94611893795405,-2.8997389051722133,-13.91782222897223,41.22130467396882,41.719140095574375,0.3240433307715927,-0.9732744225267254,-61.61535506873847,0.6444373624514433,-0.8330813790677923,-0.8967955538073396,0.47695467941055353,-19.314346051781257,35.75104314634524,52.411583352465044,0.572519563138485,-6.292552500963211,-4.354806989431381,-25.38185715675354,3.993261232972145,-31.849053502082825,-2.306066563635934,3.403461492189374,False,0
GUIDED_NOGPS,1.5047760009765625,29.702598966078888,-19.924324256100135,35.625565708985036,52.89703190769644,-2.7065021719869904,-13.749377608575891,41.16879534859064,41.266112438824656,0.27793571189259847,-1.0028887353857254,-61.70869643393586,0.6503929160575611,-0.7760255060303058,-0.4766571131406516,0.47611545318809767,-18.644439399050636,35.608356913304576,52.85945702983666,1.0920836590230465,-5.654948577284813,-2.407284453511238,-120.9813117980957,10.823987424373627,54.237645864486694,-2.0382190454052243,5.982998972347403,False,0
GUIDED_NOGPS,1.5383572578430176,29.781053408881125,-19.84697538282667,35.43143646429899,52.801296061868044,-2.5667339878797737,-13.581443211276683,41.116445075312555,40.802051996498534,0.43648540002420694,-0.9372287395122177,-61.73277968094933,0.6695474657321593,-0.7890119324007515,-0.7079474880422454,0.47534655543162124,-18.433858977017383,35.46510887956403,52.883816743845195,0.48723784275352955,-6.675896048545837,-5.620358511805534,-61.164116859436035,-2.6279153302311897,-27.651798725128174,-1.9904239017598775,3.2381832939929365,False,0
GUIDED_NOGPS,1.574033260345459,28.034542683741947,-19.825728092116623,35.238037427840865,52.658848542079916,-2.448022355831885,-13.414357465711307,41.06435935266197,40.327220045877,0.4842981916377507,-1.0019151132638813,-61.789490741627944,0.6604288004908959,-0.8980421891923465,-0.8032570843986762,0.47464659417092014,-18.953554890215386,35.33196050699393,52.15991273602067,-1.5611509792506695,-6.7764900624752045,-6.67528361082077,-43.616026639938354,9.722885489463806,-28.573495149612427,-2.0923789204776773,2.5693523874450706,False,0
GUIDED_NOGPS,1.605329990386963,31.95538455677879,-19.729575479712565,35.057484651961076,52.453926920992686,-2.3438285084118764,-13.248456220374372,41.012642874857306,39.84189134688412,0.5556871153993124,-1.0743952664670584,-61.81850538522215,0.6871896118290496,-0.7741615198143227,-0.7400765903755209,0.4740542205784041,-19.036927637455634,35.699456797812815,52.104309510623864,3.6053434014320374,-6.834375858306885,-10.515765845775604,-28.080469369888306,-8.646957576274872,-123.10831546783447,-1.9844821988182753,1.2887559510911484,False,0
GUIDED_NOGPS,1.6389703750610352,29.730811761036605,-19.56272710481593,34.90342046756983,52.31659302385751,-2.209311407649345,-13.084071711561574,40.96139921008444,39.34635365180918,0.6142494775081191,-1.2098857290326013,-61.86135116188564,0.6341349313789195,-0.6090865349302718,-0.5257943550842079,0.4733029095490581,-17.513574623002228,35.43717389324761,53.23609317914608,4.207934066653252,-6.417306512594223,-9.83704924583435,6.710255146026611,-2.680616080760956,-77.8278648853302,-1.265681654051669,2.68376296524125,False,0
GUIDED_NOGPS,1.6726202964782715,29.72091012804433,-19.370907273057078,34.704552085861984,52.21757374454323,-2.095294793811039,-12.921531531312866,40.910730478773075,38.84090721502871,0.7175535273836232,-1.1391403371569018,-61.835997499686556,0.7363360501910876,-0.5532757559142999,-0.5794701831357306,0.47245404762817933,-17.06145942836151,34.11295051458043,52.87811625517142,4.676621779799461,-5.1094528287649155,-6.095318496227264,36.6397887468338,13.176092505455017,72.69734144210815,-1.336496977493879,1.316899318679363,False,0
GUIDED_NOGPS,1.7063274383544922,29.670451249619774,-19.18312179594569,34.51515799152272,52.12048890372943,-1.988018280374957,-12.761157595355598,40.86073703187317,38.32586430272855,0.5713621861010801,-1.1493704664297,-61.833169801370175,0.7300112622254946,-0.5534837129583904,-0.5574674079157216,0.47158086436048724,-17.06145942836151,34.11295051458043,52.87811625517142,4.676621779799461,-5.1094528287649155,-6.095318496227264,36.6397887468338,13.176092505455017,72.69734144210815,-1.336496977493879,1.316899318679363,False,0
GUIDED_NOGPS,1.7535741329193115,21.167744996113978,-18.99202697998732,34.346853507492014,51.98649427465615,-1.956813406849327,-12.60326511104771,40.811517129131346,37.80154870262593,0.4379121091479462,-1.093542314423014,-61.830458216269676,0.6352479257439715,-0.5546931748977267,-1.0417549475229624,0.47074670420489495,-17.475380420666692,34.35243716557643,51.79000618880311,6.339184194803238,-5.023644864559174,-5.5938296020030975,37.45555281639099,-9.453219920396805,97.89434671401978,-1.3924791495643456,-3.0554686900625136,False,0
GUIDED_NOGPS,1.773850917816162,49.32676318048711,-18.791523222728443,34.149510730345945,51.838691616633426,-1.9116324502355964,-12.4481615453209,40.7631666173673,37.268295233691546,0.5019511890736189,-1.0190222825355304,-61.79772111957781,0.9629061244896009,-0.45400479584119213,-0.7023619248911976,0.4699521128495879,-17.475380420666692,34.35243716557643,51.79000618880311,6.339184194803238,-5.023644864559174,-5.5938296020030975,37.45555281639099,-9.453219920396805,97.89434671401978,-1.3924791495643456,-3.0554686900625136,False,0
GUIDED_NOGPS,1.8075377941131592,29.688932932224386,-18.661939110440642,34.08118618642949,51.792524112517874,-1.9062490800103853,-12.296145592623763,40.71577860875019,36.72644925587162,0.47479910604955544,-0.8780079044787396,-61.78400609972442,0.5221088754070566,-0.6446586048053793,-1.1117290678526721,0.4689202285838125,-17.37233740184052,34.22289783176065,51.75600279589621,4.504697024822235,-4.4152118265628815,-2.682345360517502,-0.6509386003017426,3.024592436850071,150.15997886657715,-1.3914417010234414,-1.3016692774907037,False,0
GUIDED_NOGPS,1.8409998416900635,29.88864897991178,-18.472745957645397,33.92484114109774,51.6758705950447,-1.8497582200829699,-12.147506142864987,40.66944315907509,36.176366179809975,0.4446027330072233,-0.5357974444536766,-61.74183651178876,0.708343999194589,-0.5152367240962709,-0.7727755492508883,0.4680118086769796,-17.37233740184052,34.22289783176065,51.75600279589621,6.8031638860702515,-5.263575911521912,-5.038076639175415,61.94139122962952,-15.552808344364166,-102.18030214309692,-1.3914417010234414,-0.4531209927584341,False,0
GUIDED_NOGPS,1.873924970626831,30.37523808144377,-18.28895707312798,33.77764634262742,51.560169934787176,-1.8056013809931317,-12.002521249356501,40.62424694603934,35.618410976570075,0.39851661855194404,-0.22525435610258435,-61.75717028647544,0.7045629187859498,-0.5135150618730447,-0.8152864787495026,0.4670852851164167,-17.07382524035833,34.04052016237347,51.6214211043823,5.9706199914216995,-4.857157915830612,-4.933424666523933,29.801714420318604,-3.1155070289969444,51.72114372253418,-1.4067860099537932,-0.8135737141178375,False,0
GUIDED_NOGPS,1.9076142311096191,29.688722783770775,-18.047002542184305,33.62186400653223,51.44019775298442,-1.7670299781107093,-11.861457096756649,40.580272947519035,35.052957687357136,0.4367998822107184,0.17986868288277522,-61.74351673832459,0.7322347401890291,-0.37772182669845245,-0.8311843646407105,0.46615016667107895,-16.66774312980894,33.55846080241984,51.48277639370137,8.988714963197708,-4.4993821531534195,-5.039604008197784,102.61592864990234,-0.27688629925251007,-119.41777467727661,-1.4357106257994274,-0.8427876071367457,False,0
GUIDED_NOGPS,1.9424431324005127,28.714145860574654,-17.83240515307108,33.449396816761485,51.33615675548458,-1.725520025950524,-11.724566969013352,40.53760011984535,34.48038893324017,0.34629069764135223,0.4857974181605685,-61.817474026657486,0.7675202951703235,-0.42498991719595836,-0.7969535601495388,0.46516614444195864,-16.244297436708973,33.36196165621119,50.71045903361134,6.175500899553299,-5.3387124091386795,-1.9208645448088646,-18.729940056800842,-20.830613374710083,48.49785566329956,-1.471439572575604,-0.37423780401263457,False,0
GUIDED_NOGPS,1.9794795513153076,27.00375346857838,-17.613010154194633,33.290590361188215,51.23905883347294,-1.681632672270045,-11.592090217307273,40.49630307608099,33.90109542487406,0.37034998563186927,0.6697473258354114,-61.838217311166815,0.7415380423217188,-0.4078157950571524,-0.7718358588402098,0.4641504144606299,-15.994459243482478,33.502596791470104,50.75668210024326,6.175500899553299,-5.3387124091386795,-1.9208645448088646,-18.729940056800842,-20.830613374710083,48.49785566329956,-1.3268025471823304,-0.37423780401263457,False,0
GUIDED_NOGPS,2.0095388889312744,33.27175516809189,-17.463813640596307,33.11475552982322,51.098459293121635,-1.650489101879179,-11.464251227995,40.45645176429662,33.315475472221614,0.44311714018231907,0.8736584079987637,-61.908513618104585,0.8375303566166011,-0.5229605713707519,-0.7824084250178387,0.46321774810655225,-16.318839068983387,33.123893182402206,50.097046435823245,2.2162362933158875,-4.891807958483696,-2.708960510790348,6.586350500583649,3.524383157491684,53.63430380821228,-1.4680860819653654,-0.9330550670425168,False,0
GUIDED_NOGPS,2.0417404174804688,31.057875718263137,-17.36893972009771,32.993070805050756,50.903778981128774,-1.550720274747729,-11.341258390552198,40.41811114584722,32.72393449427566,0.48313844686102364,0.8678232386526044,-61.95857890472078,0.7147205087619619,-0.6317916605080642,-0.31229429948865295,0.4623770784968969,-16.185530618865208,33.20394309837306,49.79778169924714,0.4344179295003414,-4.799297451972961,-7.346593588590622,-107.89475440979004,-9.79815497994423,-37.81926929950714,-1.3663210308501763,4.561629348991756,False,0
GUIDED_NOGPS,2.0754623413085938,29.65891187826161,-17.24918139850442,32.84957046939876,50.71357242320402,-1.4449275324801,-11.223303065516749,40.381340873648554,32.1268845287811,0.419376496524839,0.6960381113329657,-62.05092989248852,0.7635045200197493,-0.5669770621172086,-0.2400021965433966,0.4615132103754628,-15.760025488989655,33.00747411553826,50.03335794143919,0.4344179295003414,-4.799297451972961,-7.346593588590622,-107.89475440979004,-9.79815497994423,-37.81926929950714,-1.3283810740182167,4.561629348991756,False,0
GUIDED_NOGPS,2.110285997390747,28.71847119802258,-17.041593863642472,32.694917999092695,50.597652381155825,-1.3388093220038986,-11.110558552431996,40.34619497045354,31.524743741956964,0.486441270211548,0.3966780970460206,-62.11656118022317,0.7959872267288136,-0.37088028060032086,-0.1934200994187022,0.4604876691003615,-15.621007401483615,32.91105046759366,49.942178165480726,5.987923964858055,-5.201989412307739,-2.1361839026212692,-6.164000183343887,-0.835837796330452,14.842602610588074,-1.3154561400513147,4.515183208862023,False,0
GUIDED_NOGPS,2.142629861831665,30.92391969505946,-17.0019763404346,32.56100282958718,50.35802018046357,-1.2368692471931038,-11.003179057789819,40.31272150712866,30.917935938218523,0.4470701388448904,-0.011003514794169878,-62.23818635877359,0.7755162836951374,-0.712705248972895,-0.11220616675919948,0.459702981644036,-15.828745604076516,32.88355182175867,49.190532101324365,-4.097866266965866,-4.352517798542976,-8.693541586399078,-11.067751795053482,-14.804176986217499,1.1262118816375732,-1.242654666088127,4.280899609480946,False,0
GUIDED_NOGPS,2.176018714904785,29.951826329132004,-16.94060101421996,32.431003089609106,50.09741974690444,-1.1636751072605689,-10.90129866297385,40.28096228093039,30.306890069899296,0.4985363079320241,-0.4270596055674571,-62.33854915843776,0.7755476156188484,-0.6542479893199266,-0.2579628956931486,0.45894944517528424,-15.689613159604878,32.74030118255097,48.71666989569424,-2.3674681782722473,-4.554446041584015,-9.44913625717163,39.88323509693146,-1.9499551504850388,41.64002537727356,-1.2291346140684125,2.726896677066938,False,0
GUIDED_NOGPS,2.2096686363220215,29.72196317975028,-16.894431294666308,32.27789232301308,49.80690804448586,-1.0480927369022082,-10.805030292202634,40.2509524937816,29.692039746973162,0.6120105628425301,-0.8393544765834623,-62.467865129993605,0.8311562321199792,-0.6771124380891207,0.056603566935521044,0.45824649951679985,-15.456141298392865,32.25086057154332,48.80787561047717,-3.8866590708494186,-4.723213613033295,-11.812985688447952,-32.00363218784332,-9.806983917951584,-34.041789174079895,-1.0571280937426253,5.070883557752853,False,0
GUIDED_NOGPS,2.2441351413726807,29.01728873361237,-16.876578819864307,32.13548518448442,49.51640002088947,-0.959030614631086,-10.714464680472815,40.222720430547966,29.073822746776454,0.6300232657877346,-1.0988378454638894,-62.5528258530794,0.8184277674042215,-0.7261560312684862,-0.05821375864752487,0.4575347584982263,-15.609151157118491,32.202852562320686,48.48925433868285,-4.9551282078027725,-4.283871874213219,-11.265961825847626,-56.47509694099426,-11.431558430194855,5.625694245100021,-0.9780878885332642,3.2590781233244748,False,0
GUIDED_NOGPS,2.277984619140625,29.546091097366826,-16.8542279232935,32.006187421553925,49.222969609200604,-0.8657674724560703,-10.629669341502243,40.19628713731437,28.452680523729917,0.6680085090831143,-1.4052021387034033,-62.663959861064676,0.8094609809752187,-0.7115942109688139,0.03053209320950301,0.45682298204440397,-15.370268973053106,32.34845694062884,48.262472357012015,-4.9551282078027725,-4.283871874213219,-11.265961825847626,-56.47509694099426,-11.431558430194855,5.625694245100021,-0.8008797584132636,3.2590781233244748,False,0
GUIDED_NOGPS,2.311131000518799,30.173329400677662,-16.84636560259233,31.893592746835463,48.933676305543365,-0.7704431352682771,-10.550687535673212,40.171666099661316,27.829057719060913,0.8153768840587209,-1.5797819873323409,-62.814025947319024,0.7924883196336125,-0.737902411318859,0.11283570434007995,0.45609835286030265,-15.338253115980987,32.47967893316554,47.873537858000525,-5.567656829953194,-4.189041629433632,-10.607655346393585,-71.58400416374207,9.020902961492538,27.16822326183319,-0.6225390428195845,3.237153642975557,False,0
GUIDED_NOGPS,2.346553325653076,28.234774589198324,-16.808701929650308,31.793163159014156,48.594595131865006,-0.6587177733412816,-10.477537237975547,40.14886292094133,27.2034016705254,0.9111734888193233,-1.5002786921150981,-62.83487851485507,0.7775645443754735,-0.6628413194680154,0.26543962470704385,0.45546732398092615,-15.338253115980987,32.47967893316554,47.873537858000525,-3.2307352870702744,-3.909122198820114,-14.624050259590149,-79.0482759475708,10.017028450965881,-85.5229139328003,-0.6225390428195845,4.644780071947491,False,0
GUIDED_NOGPS,2.3795406818389893,30.328674210925918,-16.71499872245417,31.68065465253507,48.25546522851213,-0.5328552477215663,-10.410210105949865,40.12787500055541,26.576161922130034,0.9636577296187591,-1.277540993917399,-63.045569360182455,0.8111048502173017,-0.5321544867718726,0.41198008775710854,0.454831437496461,-15.539042002721065,32.18477116754762,47.76821196031112,1.3188619166612625,-4.181578382849693,-14.799530804157257,-29.343712329864502,2.499503642320633,-41.07421040534973,-0.6689310043846831,5.91468939668446,False,0
GUIDED_NOGPS,2.413581371307373,29.377842839232056,-16.60584650085698,31.58844348409498,48.016120103376316,-0.41519770471039336,-10.34867044763066,40.10869121222936,25.947789733854222,0.9398534531442068,-1.0892232869900387,-63.19226816317599,0.7846115037459722,-0.4821351199973755,0.441016544301137,0.453993186338566,-15.52341715252643,32.143072845198944,47.47536655477751,2.420405298471451,-2.759038656949997,-7.426160573959351,70.26425004005432,12.576954066753387,172.78800010681152,-0.5203470475953037,4.9633076514383285,False,0
GUIDED_NOGPS,2.447986125946045,29.072599986137103,-16.478005836315674,31.51513449328137,47.69342388376412,-0.3129194455230969,-10.29285418948951,40.09129158229028,25.31873759137222,0.9899170322131077,-0.7180420459918377,-63.2975418688534,0.7574566519047697,-0.42443476642633465,0.41119018405204466,0.4533193415074822,-15.332950790051566,32.2267272331798,47.06172479202127,3.3533088862895966,-2.180614322423935,-12.457457184791565,66.36665463447571,11.340050399303436,-44.548100233078,-0.07403688273316722,2.94775895472894,False,0
GUIDED_NOGPS,2.480339527130127,30.91434678459554,-16.377877618861078,31.45103050601637,47.427948832633,-0.12891043773845368,-10.242667844378254,40.075646967942916,24.689458715775174,0.9705466157269516,-0.41148389277377195,-63.516531394022344,0.7531180112821579,-0.4577951504832222,1.0545010684863123,0.45253258684266084,-15.415207021353833,32.173399111715355,46.57388759411464,2.1339939907193184,-2.1628595888614655,-8.487831801176071,9.736044704914093,-3.1731262803077698,67.60625839233398,-0.04129711391247183,8.832052728946373,False,0
GUIDED_NOGPS,2.5171217918395996,27.18772038996059,-16.294159280774334,31.379892620555044,47.14134244799125,0.04933213273641961,-10.19798747947209,40.0617187355461,24.060406573293186,1.0644883972410721,-0.20676882263991506,-63.67426095252545,0.7630954973433587,-0.48560272763597856,0.9958635875021383,0.45177957309076316,-15.691272972784516,31.83785824903844,45.74075537803675,2.1339939907193184,-2.1628595888614655,-8.487831801176071,9.736044704914093,-3.1731262803077698,67.60625839233398,-0.029241228712894356,8.832052728946373,False,0
GUIDED_NOGPS,2.55100679397583,29.51594266130905,-16.217275725707836,31.30788999044604,46.84573119535825,0.1812460598370316,-10.158657684212827,40.04945843888916,23.43203438501736,1.2183524955607725,0.024351622088025552,-63.83187439781266,0.7832942626105619,-0.4767450432687069,0.8909004965502424,0.45105086985737625,-15.425684164494369,31.914951023247752,45.6817149756677,0.8751829154789448,-2.17754989862442,-8.639471232891083,-8.855178207159042,-14.123408496379852,6.680598855018616,0.12010482951488188,5.099597246136764,False,0
GUIDED_NOGPS,2.5841493606567383,30.17658570277426,-16.1549782977127,31.262351065435748,46.56538166438347,0.30124462240188393,-10.124490538252019,40.0388074974683,22.804794636622,1.2919400999048438,0.12543207519777358,-64.14326955226272,0.7401797143437288,-0.4918780426903538,0.900574079915595,0.4502937134152426,-15.543419064797718,32.10759871117385,45.21144645750046,0.8751829154789448,-2.17754989862442,-8.639471232891083,-8.855178207159042,-14.123408496379852,6.680598855018616,0.2359925025148171,5.099597246136764,False,0
GUIDED_NOGPS,2.6144020557403564,33.06142010341783,-15.977773488191911,31.20178420166938,46.39431709703971,0.4661143974690004,-10.095264579394104,40.029696874763054,22.179138588086488,1.199090721771102,0.24088129531504462,-64.33219941489443,0.7858359222636195,-0.1929288730584594,1.3695165625215684,0.44932591895749846,-15.543419064797718,32.10759871117385,45.21144645750046,8.427797257900238,-2.6748385280370712,-0.6398716010153294,18.315201997756958,29.544860124588013,100.16336441040039,0.2359925025148171,7.694848430254052,False,0
GUIDED_NOGPS,2.648442029953003,29.37887172015746,-15.903549615994299,31.177700396219983,46.12162076088223,0.6260675360691049,-10.07072377153959,40.02204675651265,21.555515783417476,1.0067402150256723,0.06166731007659893,-64.69714325243739,0.7113021224002446,-0.4275599501533563,1.3148377904518405,0.448557125015005,-15.354899119106998,31.980245840706623,44.693905503660204,1.597331464290619,-0.879242829978466,-8.175908029079437,11.20593398809433,31.64937198162079,-8.300809562206268,0.4621697279537009,7.817992472121151,False,0
GUIDED_NOGPS,2.682427167892456,29.429994807673417,-15.861865643770832,31.160422889254768,45.79235188512786,0.8600193858271448,-10.050576472628272,40.015766228992476,20.93437356037095,1.0624589772839321,-0.10027163931711017,-64.9777752348657,0.7046732875749561,-0.4808057279448518,1.8922215263765787,0.4479057657269411,-15.324590526853967,31.950452366815902,44.09695530487221,-0.9476428851485252,0.274344184435904,-9.34898853302002,-31.066995859146118,2.2291800007224083,7.950493693351746,0.7348314658018276,11.401622828671238,False,0
GUIDED_NOGPS,2.7169394493103027,28.97879602313161,-15.80155385523325,31.170141433132535,45.438169649220264,1.058704486293683,-10.034494402582283,40.0107529572904,20.31615656017422,1.0970780045355535,-0.3185127184933071,-65.2063884965752,0.6558659565952142,-0.4301295855156428,1.78665822725791,0.4473083376345081,-15.232346805789119,32.05643996362797,43.749872275159866,0.31532724387943745,1.4612534083425999,-10.859015583992004,28.777188062667847,-12.264610081911087,36.10157370567322,0.9683887521930354,8.711271078758452,False,0
GUIDED_NOGPS,2.7529006004333496,27.810367462769698,-15.77136021633677,31.180152769087428,45.05645315493682,1.2127366768999803,-10.0221116112494,40.00689286358329,19.701306237248104,1.0870517137207978,-0.642882857808429,-65.47710304432866,0.6600808509089807,-0.48192564398690646,1.5851308679967704,0.4467691965628314,-15.488149257366505,31.874759132776312,43.604813346179924,-0.683631282299757,1.6365054994821548,-13.307158648967743,46.49275839328766,16.69764071702957,-22.880028188228607,1.0449225995018532,6.010511828097861,False,0
GUIDED_NOGPS,2.784003973007202,32.1545514481532,-15.757487469647211,31.22300795529701,44.67569608641716,1.3618567226488167,-10.01302344634604,40.00405980541332,19.090260368928888,1.0348025808391985,-0.7585896240821771,-65.58644071256222,0.5882294087310473,-0.5056167183837524,1.777490541227603,0.44624505553677446,-15.190767114859831,32.183625463464516,43.29681759217419,-2.483205869793892,2.8286900371313095,-12.806500494480133,66.89223647117615,17.205220460891724,67.2354519367218,1.4221118085264628,4.812701553352724,False,0
GUIDED_NOGPS,2.817643642425537,29.73102250575935,-15.737016756689446,31.28972337609079,44.31386337232696,1.4707588163913718,-10.006785521400623,40.00211525396447,18.483452565190433,0.8750979237271969,-0.8099998176346284,-65.72790759065153,0.5471472229678604,-0.4857287000489258,1.5282241901179656,0.4456854089489233,-14.949722861781883,32.36113514118347,43.10407455972495,-2.202190086245537,3.2867103815078735,-13.377711176872253,-11.312667280435562,17.92169064283371,93.58687400817871,1.8081992304882868,2.3258879466024385,False,0
GUIDED_NOGPS,2.850851535797119,30.116565782765726,-15.749432418750004,31.372194217682278,43.90644927411782,1.630507161498253,-10.002912683696614,40.00090797233885,17.881311778366296,0.684985904760533,-0.9599835147321153,-65.87398484643059,0.5126874071480734,-0.5508274258567261,1.9417984772146917,0.445226915650439,-15.1250191443372,32.47563509744081,42.77491602581957,-3.9467547088861465,4.26379069685936,-15.01988023519516,-50.16618371009827,12.862634658813477,6.720009446144104,2.1355916020923287,4.528194292344074,False,0
GUIDED_NOGPS,2.890073776245117,25.50007903600394,-15.78222387257574,31.47019519078257,43.4931871794202,1.7376300491753873,-10.000877982215677,40.0002736938332,17.284261812871748,0.5595029499895281,-0.9235214036216485,-65.92917960511346,0.5082720212489181,-0.5811369832415801,1.5884484659962488,0.4447770470985225,-15.665467540341321,32.28060327933356,42.015915471223835,-3.5862743854522705,5.739886686205864,-14.030162990093231,-20.849409699440002,5.956128239631653,63.2740318775177,2.131239941220796,1.428476435187045,False,0
GUIDED_NOGPS,2.930945634841919,24.471422903685035,-15.815141368102868,31.582143704307853,43.05165222049868,1.8804728236837547,-10.000111635580915,40.00003480021522,16.69272083492578,0.36002247280254557,-0.8927903548333512,-66.01547904527658,0.48643982063089575,-0.5795163846677764,1.827735598609269,0.4443909062989445,-15.65561660128736,32.48752908024332,41.60391481666538,-3.4976329654455185,5.979057401418686,-15.493883192539215,-57.1148157119751,4.713170975446701,5.1775384694337845,2.3417907169253844,3.6118061675368582,False,0
GUIDED_NOGPS,2.9568209648132324,38.655398368738766,-15.804057386556527,31.700413137344583,42.65425997336876,1.9912425344769973,-10.000000000000007,40.0,16.107100882273343,0.05357028089810749,-0.7325208730935012,-66.10249565530253,0.3570729163704422,-0.4947903180148937,2.0514702875291646,0.4439595325057313,-15.607925428056244,32.74186232616445,41.636580835129806,-0.29104636050760746,5.352900922298431,-17.260929942131042,17.754802107810974,-3.4095261245965958,-23.649345338344574,2.520802706365608,3.046345905208904,False,0
GUIDED_NOGPS,2.986212968826294,34.02865534082981,-15.854914870885887,31.86188135857604,42.22876409566304,2.0713182903037275,-10.0,40.0,15.527807373907223,-0.08208974911770896,-0.62286095866933,-66.13897569565957,0.2847486750387403,-0.6550446417508766,1.798646926794389,0.4435903932625715,-15.429961026438422,33.48771616756888,40.67329570452585,-4.926967993378639,6.395309418439865,-19.477474689483643,-32.26771056652069,-25.238370895385742,-22.067028284072876,2.9622846799481026,0.8349295812183518,False,0
GUIDED_NOGPS,3.0192408561706543,30.28115975511147,-15.855978910275761,32.026598086430056,41.8182588040014,2.214000437072256,-10.0,40.0,14.95523861979025,-0.16542502058316674,-0.43272716847468673,-66.12178410951864,0.31557552491765944,-0.5320595609426989,2.176751337360413,0.44319397789951787,-15.409542622440712,34.02739839111309,39.440653949495825,-1.6846774145960808,5.515451729297638,-13.239158689975739,-21.648597717285156,-19.960729777812958,103.44951152801514,3.293901692288493,3.4400871009530984,False,0
GUIDED_NOGPS,3.056248903274536,27.02358754969106,-15.843745687492774,32.179089325803524,41.32437546347894,2.3443579655203917,-10.0,40.0,14.389785330577325,-0.22548967746383244,-0.3407616328278005,-66.12577293999394,0.35455741114892586,-0.5034960787263255,2.1122378634824446,0.4429712232235787,-15.518445019676378,34.011462134012234,39.09073875724678,-0.4973000381141901,4.850703105330467,-15.65140187740326,-34.23989117145538,-13.063180446624756,30.05915880203247,3.3174181829185807,1.564028369455118,False,0
GUIDED_NOGPS,3.099501371383667,23.122617065614076,-15.851766017723303,32.32288128715713,40.79937359142323,2.45124536911338,-10.0,40.0,13.831830127337426,-0.28808355873023916,-0.1361991747332111,-66.116374599696,0.3991513420668988,-0.5381077708659519,1.9641176022266906,0.44281183739619917,-15.543726422812973,34.22564802339353,38.83345247207484,-1.8247924745082855,3.5847052931785583,-15.828998386859894,60.27885675430298,-21.162593364715576,-136.9410276412964,3.408647063002574,-0.6721209232936967,False,0
GUIDED_NOGPS,3.139136552810669,25.232387037003615,-15.85929038671305,32.45909685189721,40.32980502715049,2.518221269493325,-10.0,40.0,13.281747051275786,-0.24624630218638385,0.08758823149244772,-66.08663595604976,0.38226718883014993,-0.5396526413838861,1.8488743044951252,0.442565038838804,-15.410883451313275,34.1496070617644,38.5908132996094,-2.025357633829117,3.50281223654747,-14.502061903476715,-45.17977237701416,-6.809574365615845,33.518198132514954,3.3496342289386396,-1.9601791278724459,False,0
GUIDED_NOGPS,3.160546064376831,46.723300916797555,-15.851726133849496,32.5974683040211,39.820532196444276,2.636565821899688,-10.0,40.0,12.73990107345584,-0.2911674958622057,0.30431078085729363,-66.09020814498568,0.17372842749592285,-0.5098318727501039,2.6904965030361145,0.44245363644565844,-15.716153306293329,34.35587559238071,38.138684214113,-0.11052098125219345,2.7497548609972,-12.007106095552444,8.653834462165833,-31.443515419960022,81.89830183982849,3.4404304141462028,0.2262009242720129,False,0
GUIDED_NOGPS,3.19423770904541,29.683470039136314,-15.84836191641085,32.744099715518566,39.53498355860646,2.663628128798792,-10.0,40.0,12.206647604521464,-0.19530520389169492,0.6692725209663898,-66.06999078504245,0.3022485287749865,-0.5215048072450659,1.7588306907154683,0.4418845709841973,-15.884622789093527,35.2972926615699,37.26204829807675,0.2947076689451933,2.233891934156418,-9.89861935377121,9.36511904001236,-33.38159918785095,127.83939838409424,3.339900094971553,-0.9281059546586079,False,0
GUIDED_NOGPS,3.231818914413452,26.66741267277883,-15.892817284342321,32.87314771572844,38.949914436795304,2.7340034092814034,-10.0,40.0,11.68233200441884,-0.15507763083614123,0.8929904580316914,-66.04271783968659,0.35711711559910875,-0.6128522550313971,2.0157640807674917,0.4419242812093188,-15.975174940404365,34.74082248709655,35.73038979611897,-2.865697257220745,1.9607063382863998,-17.30470508337021,-94.00396347045898,18.985602259635925,-154.0930986404419,3.243089852905005,-0.3103848734222712,False,0
GUIDED_NOGPS,3.266671895980835,28.632211292315464,-15.957774090787696,33.01132783927902,38.2891682704455,2.799983208785646,-10.0,40.0,11.16728909211868,-0.08784669145353056,0.9405613382186551,-66.01644210194954,0.31720793285447546,-0.6675804230106817,2.0573403080630612,0.4421398114503954,-16.438118900551075,34.92165978854263,34.491642689625834,-2.865697257220745,1.9607063382863998,-17.30470508337021,-94.00396347045898,18.985602259635925,-154.0930986404419,3.0309223567237016,-0.3103848734222712,False,0
GUIDED_NOGPS,3.2955963611602783,34.57708383139741,-16.06423631511934,33.1441747601617,37.72920807024015,2.8355549912809224,-10.0,40.0,10.66184265533822,-0.10081548645966583,0.775541033024238,-65.98532376009096,0.27267426710195425,-0.8074696435809068,1.9475926415633027,0.4421862816270473,-16.398810072776477,35.01078337105778,34.27646263539998,-5.894291773438454,2.31535118073225,-17.30353534221649,-69.82727646827698,-8.815956115722656,-93.32561492919922,3.043189439740234,-0.5738993879343283,False,0
GUIDED_NOGPS,3.3289875984191895,29.95417928355139,-16.187497144705954,33.28291192414767,37.19821742865808,2.871795838426509,-10.0,40.0,10.166304960263261,-0.23898127542616457,0.6649175816794191,-65.8930479044041,0.2926015564719016,-0.817872671181367,1.939973610681435,0.44218491996903575,-16.41251195947741,35.06452717226243,33.84892728433307,-7.177162170410156,3.021007589995861,-16.541074216365814,-38.2270872592926,-2.7188383042812347,-112.62686252593994,3.0018279468569693,0.028712194280029538,False,0
GUIDED_NOGPS,3.368741035461426,25.157320825560962,-16.30767846832253,33.425731578940585,36.57665203127073,2.876051763332395,-10.0,40.0,9.680976261270374,-0.24195907782173146,0.30699496515982927,-65.771395405097,0.31644338601120814,-0.7813792726718213,1.747070310062463,0.4423719680153256,-16.41251195947741,35.06452717226243,33.84892728433307,-6.801106035709381,3.067430667579174,-20.051510632038116,-23.4485000371933,-2.327316626906395,-139.88336324691772,3.0018279468569693,-2.770635074077584,False,0
GUIDED_NOGPS,3.4100654125213623,24.20060699077974,-16.48323341931622,33.57601224996208,35.92837005414725,2.834581951420433,-10.0,40.0,9.206144310648867,-0.14435367355026585,-0.002414972129595358,-65.63574101799138,0.3074943594854724,-0.8835070313311653,1.500172594941019,0.4426304696562683,-16.580801033773184,35.1384454103232,33.337134997379295,-9.504415839910507,2.7879172936081886,-15.882717072963715,-42.757055163383484,7.340274006128311,-18.516071140766144,3.011751656102147,-6.485238149944073,False,0
GUIDED_NOGPS,3.4424827098846436,30.855898537504046,-16.731573037096847,33.71219008027342,35.214470066765166,2.812775021563017,-10.0,40.0,8.742083868322723,-0.0622599223685901,-0.2566099403131146,-65.5576992765348,0.2729617369730504,-1.1478207710406862,1.5529835234680844,0.4430615683977356,-16.918303202503257,35.2896254144506,32.44947549053437,-12.823757529258728,1.360800862312317,-17.26953536272049,-16.66937619447708,-21.311436593532562,-69.20767426490784,2.9150488321570496,-4.476758699025647,False,0
GUIDED_NOGPS,3.480077028274536,26.60094498176629,-17.014173525800025,33.8391718794472,34.59895781917213,2.8026553167395583,-10.0,40.0,8.289056211573026,0.08433327949707302,-0.5783841008155293,-65.45633926925181,0.31771615987886426,-1.1613747065618456,1.627694284755635,0.39068769797214004,-17.322041404088985,35.41607612683329,31.653476994808464,-15.127547085285187,1.9589940086007118,-18.902386724948883,-59.539276361465454,-20.336776971817017,17.1046182513237,2.763908156627696,-1.8627475465792718,False,0
GUIDED_NOGPS,3.512895345687866,30.475216159267603,-17.31017290588751,33.96602825844774,33.96849827001726,2.7884469376914875,-10.0,40.0,7.847308644759622,0.2518966295381298,-0.7396824331599653,-65.34308107243467,0.28359077102393015,-1.293293942611349,1.5866702429250863,0.3913738146608067,-17.63890343732146,35.46890750694855,31.162107881114984,-15.127547085285187,1.9589940086007118,-18.902386724948883,-59.539276361465454,-20.336776971817017,17.1046182513237,2.6775749101046555,-1.8627475465792718,False,0
GUIDED_NOGPS,3.5458550453186035,30.35018126297966,-17.536494498470677,34.06141448396346,33.41331486952759,2.7759274270711587,-10.0,40.0,7.417074009043532,0.3356981948165732,-0.8044131497803811,-65.28822099302113,0.3327372499983844,-1.161840117092517,1.5896323454985182,0.39180502329372324,-17.754675084790605,35.47045497315264,30.985421650624563,-11.389164626598358,0.6979485508054495,-18.4982568025589,-32.19363987445831,-15.09588360786438,-0.0388486310839653,2.6179281310713547,-1.1966277982450777,False,0
GUIDED_NOGPS,3.583136796951294,26.825004157126592,-17.73795651264909,34.15964281023154,32.899446645532414,2.681183428141863,-10.0,40.0,6.998570192108687,0.5090130177060302,-0.9893149083490888,-65.07065214719954,0.3365270232643728,-1.07822302743384,1.1005969051805096,0.3921092082876235,-17.965367830032505,35.441283116509645,30.752610548951132,-8.990436792373657,0.9665096178650856,-14.432165026664734,1.223163679242134,0.3010191023349762,175.95033645629883,2.5453688082101,-6.570078490945741,False,0
GUIDED_NOGPS,3.6135094165802,32.930853360760636,-17.98160926754968,34.26761490993785,32.37739695505561,2.620880773442547,-10.0,40.0,6.591999637884399,0.6301427940982098,-1.1668076192156251,-64.87946149195254,0.2769503253004885,-1.2873845020907035,1.1751933097737715,0.3925085105728519,-18.263786513546915,35.46025585501067,30.34831207961429,-10.162270814180374,1.2890350073575974,-11.314921826124191,40.89464545249939,26.990875601768494,45.45271396636963,2.4618327256227643,-4.126543310654182,False,0
GUIDED_NOGPS,3.6490941047668457,28.108942740724856,-18.186292366744233,34.35395993286736,31.9958086211619,2.5548066862677565,-10.0,40.0,6.197548856267034,0.708661848383883,-1.1996726752327282,-64.69012864815979,0.31236199421437044,-1.2144929015292438,1.0977907820449404,0.39239437641554586,-18.40727434415839,35.478043335614196,30.10665028080233,-10.162270814180374,1.2890350073575974,-11.314921826124191,40.89464545249939,26.990875601768494,45.45271396636963,2.424088099907083,-4.126543310654182,False,0
GUIDED_NOGPS,3.677515983581543,35.18829490922514,-18.410874543706868,34.450789480806364,31.54534034128278,2.429359675427939,-10.0,40.0,5.81538793284237,0.8295798355509393,-1.1527072272826626,-64.58740943323197,0.3008111443638345,-1.2321943346384674,0.7109200472567643,0.39259844255853305,-18.95177627998845,35.51331399255853,29.24645040402707,-9.340715408325195,1.6754547134041786,-11.316244304180145,-24.74082261323929,-12.464652210474014,84.43800210952759,2.201354558270892,-7.652214389454833,False,0
GUIDED_NOGPS,3.711423397064209,29.49726076529787,-18.60171200846176,34.56444991873252,31.097296203172892,2.3389823887343724,-10.0,40.0,5.4456700386074175,0.9047940921345313,-1.2660856994622298,-64.40974255254159,0.2572858486325815,-1.1786704030338633,0.8692475452235254,0.3928423030834389,-18.871677202616517,35.62486727783832,29.62553246258335,-6.519594788551331,2.2445835173130035,-10.06389930844307,31.518840789794922,19.275441765785217,96.0151195526123,2.351240949849169,-5.680378049659879,False,0
