E-kp,E-ki,E-kd,E-I-Tot,E-P,E-I,E-D,E-PID,N-kp,N-ki,N-kd,N-I-Tot,N-P,N-I,N-D,N-PID,D-kp,D-ki,D-kd,D-I-Tot,D-P,D-I,D-D,D-PID,Y-kp,Y-ki,Y-kd,Y-I-Tot,Y-P,Y-I,Y-D,Y-PID,errorN,desiredN,actualN,errorE,desiredE,actualE,errorD,desiredD,actualD,errorY,desiredY,actualY,roll,pitch,yaw-rate,thrust,dt,Time,Mode
0.075,0.001,0.065,-0.00044407069156321855,-0.0010084940428757548,-4.4407069156321857e-07,-0.026465822371485048,-0.027474760485052367,0.09,0.001,0.07,-0.0035740416467305203,-0.009740070069554107,-3.5740416467305203e-06,-0.22939163383538325,-0.2391352779465841,0.002,8e-05,0,-0.025352852290842436,-0.0015353832015780066,-2.028228183267395e-06,-0.0,-0.0015374114297612741,0.6,0,0.3,-0.00010030716551429312,-0.0018223977542461305,-0.0,-0.027591361973438314,-0.029413759727684445,-0.10822300077282342,0.0,0.10822300077282342,-0.013446587238343397,0.0,0.013446587238343397,-0.7676916007890033,0.0,0.7676916007890033,-0.0030373295904102177,0,0.0030373295904102177,-0.027487437342750304,0.23913382113500675,0.029413759727684445,0.4,0.03302478790283203,0.03333759307861328,STABILIZE
0.075,0.001,0.065,-0.0008896613205301321,-0.0009997980856345844,-8.896613205301321e-07,-0.013120177298642496,-0.01412086504559761,0.09,0.001,0.07,-0.0071986467587474255,-0.009759289401335,-7.198646758747426e-06,-0.11491942052603941,-0.12468590857413317,0.002,8e-05,0,-0.05097217768891374,-0.0015328959406904765,-4.0777742151130996e-06,-0.0,-0.0015369737149055897,0.6,0,0.3,-0.00014896767002026975,-0.0008734596481776724,-0.0,-0.006698385545889766,-0.007571845194067438,-0.10843654890372224,0.0,0.10843654890372224,-0.013330641141794459,0.0,0.013330641141794459,-0.7664479703452383,0.0,0.7664479703452383,-0.0014557660802961207,0,0.0014557660802961207,-0.014124033049537254,0.12468554975220125,0.007571845194067438,0.4,0.03342604637145996,0.06669807434082031,STABILIZE
0.075,0.001,0.065,-0.0012811860632092188,-0.0008759069963718589,-1.281186063209219e-06,-0.00767918520043089,-0.008556373382865958,0.09,0.001,0.07,-0.010828673267372368,-0.009745179099016064,-1.0828673267372368e-05,-0.07650382607351659,-0.08625983384580002,0.002,8e-05,0,-0.07666160335756955,-0.0015325756100438906,-6.132928268605565e-06,-0.0,-0.001538708538312496,0.6,0,0.3,-0.00028597595842006174,-0.0024520855065075574,-0.0,-0.012313707584951353,-0.014765793091458911,-0.10827976776684517,0.0,0.10827976776684517,-0.011678759951624786,0.0,0.011678759951624786,-0.7662878050219453,0.0,0.7662878050219453,-0.004086809177512596,0,0.004086809177512596,-0.008562526126334949,0.08625922331500484,0.014765793091458911,0.4,0.033524513244628906,0.10025811195373535,STABILIZE
0.075,0.001,0.065,-0.001747946116467765,-0.0010457308070115873,-1.7479461164677649e-06,-0.006858535553718951,-0.007906014306847006,0.09,0.001,0.07,-0.015033211220427226,-0.011303833314947638,-1.5033211220427226e-05,-0.06643123968721401,-0.07775010621338208,0.002,8e-05,0,-0.10294995830765846,-0.0015705738566698393,-8.235996664612677e-06,-0.0,-0.001578809853334452,0.6,0,0.3,-0.0007635968038109609,-0.008560506900439843,-0.0,-0.03204416071621866,-0.040604667616658506,-0.12559814794386265,0.0,0.12559814794386265,-0.013943077426821163,0.0,0.013943077426821163,-0.7852869283349196,0.0,0.7852869283349196,-0.014267511500733071,0,0.014267511500733071,-0.007925375008249488,0.07774813508625707,0.040604667616658506,0.4,0.03347611427307129,0.13367867469787598,STABILIZE
0.075,0.001,0.065,-0.0022211393871264967,-0.001060695274856595,-2.221139387126497e-06,-0.005564352086746532,-0.006627268500990253,0.09,0.001,0.07,-0.019355132291057748,-0.011625460146225411,-1.9355132291057747e-05,-0.05464029269964229,-0.06628510797815876,0.002,8e-05,0,-0.1301007208416451,-0.0016229413963537546,-1.0408057667331608e-05,-0.0,-0.0016333494540210862,0.6,0,0.3,-0.0012182705147135648,-0.008153459259207765,-0.0,-0.024418761512626713,-0.03257222077183448,-0.12917177940250457,0.0,0.12917177940250457,-0.0141426036647546,0.0,0.0141426036647546,-0.8114706981768773,0.0,0.8114706981768773,-0.013589098765346275,0,0.013589098765346275,-0.006642989452836859,0.0662835342946488,0.03257222077183448,0.4,0.033458709716796875,0.16716599464416504,STABILIZE
0.075,0.001,0.065,-0.0026531087129776365,-0.0009687100363365202,-2.6531087129776364e-06,0.00020555048060618076,-0.000765812664443317,0.09,0.001,0.07,-0.023618209008681525,-0.011472162364022561,-2.3618209008681527e-05,-0.008048947059702131,-0.019544727632733374,0.002,8e-05,0,-0.15711140159185571,-0.0016152700953602772,-1.2568912127348458e-05,-0.0,-0.0016278390074876256,0.6,0,0.3,-0.001684803152817682,-0.008369758161314494,-0.0,-0.019547235402239082,-0.027916993563553576,-0.1274684707113618,0.0,0.1274684707113618,-0.01291613381782027,0.0,0.01291613381782027,-0.8076350476801386,0.0,0.8076350476801386,-0.013949596935524158,0,0.013949596935524158,-0.0007705711260938258,0.01954454060382039,0.027916993563553576,0.4,0.03344416618347168,0.20062255859375,STABILIZE
0.075,0.001,0.065,-0.0030780820242274597,-0.000952064183890215,-3.07808202422746e-06,0.0002466418763403037,-0.0007085003895741387,0.09,0.001,0.07,-0.027879868628552802,-0.011456832833322498,-2.7879868628552802e-05,-0.007888276477623874,-0.019372989179574925,0.002,8e-05,0,-0.18382445671456252,-0.001595867621259538,-1.4705956537165003e-05,-0.0,-0.001610573577796703,0.6,0,0.3,-0.002147814781958999,-0.008298248895370645,-0.0,-0.022172551424838104,-0.030470800320208748,-0.1272981425924722,0.0,0.1272981425924722,-0.0126941891185362,0.0,0.0126941891185362,-0.797933810629769,0.0,0.797933810629769,-0.013830414825617744,0,0.013830414825617744,-0.0007131767425932663,0.019372817592900056,0.030470800320208748,0.4,0.033477783203125,0.23410820960998535,STABILIZE
0.075,0.001,0.065,-0.0035450972733938294,-0.0010320140395563323,-3.5450972733938296e-06,-0.0008022307782207819,-0.0018377899150505079,0.09,0.001,0.07,-0.03210793987402726,-0.011211870858682754,-3.210793987402726e-05,-0.00683101347647013,-0.018074992275026912,0.002,8e-05,0,-0.21079392215891596,-0.0015892624221634025,-1.6863513772713278e-05,-0.0,-0.0016061259359361158,0.6,0,0.3,-0.0024659144563088176,-0.005623513673153958,-0.0,-0.009582812658481488,-0.015206326331635446,-0.12457634287425283,0.0,0.12457634287425283,-0.013760187194084431,0.0,0.013760187194084431,-0.7946312110817012,0.0,0.7946312110817012,-0.00937252278858993,0,0.00937252278858993,-0.0018407466226625351,0.018074691404981174,0.015206326331635446,0.4,0.03393959999084473,0.2680375576019287,STABILIZE
0.075,0.001,0.065,-0.004086914434799674,-0.0010694870428099201,-4.086914434799674e-06,-9.386069691975335e-05,-0.0011674346541644732,0.09,0.001,0.07,-0.03667703256955113,-0.010822659265899391,-3.667703256955113e-05,0.0020051119371132953,-0.008854224361355648,0.002,8e-05,0,-0.2407712903345659,-0.0015779200869515174,-1.9261703226765272e-05,-0.0,-0.0015971817901782826,0.6,0,0.3,-0.002882756289237709,-0.006582396734158193,-0.0,0.006140652807044617,-0.00044174392711357653,-0.12025176962110434,0.0,0.12025176962110434,-0.014259827237465602,0.0,0.014259827237465602,-0.7889600434757587,0.0,0.7889600434757587,-0.01097066122359699,0,0.01097066122359699,-0.0011691299879210356,0.008854000665479516,0.00044174392711357653,0.4,0.03799605369567871,0.30605649948120117,STABILIZE
0.075,0.001,0.065,-0.004595738632265146,-0.00108829620403374,-4.595738632265146e-06,-0.00010931278651528274,-0.001202204729181288,0.09,0.001,0.07,-0.040992150527306835,-0.011075243316120875,-4.0992150527306836e-05,0.0023799188649577876,-0.008736316601690393,0.002,8e-05,0,-0.26846756304580965,-0.0015796810821325114,-2.1477405043664774e-05,0.0,-0.0016011584871761762,0.6,0,0.3,-0.0033564994243004483,-0.008106105930401375,-0.0,0.0005787815661097949,-0.00752732436429158,-0.12305825906800971,0.0,0.12305825906800971,-0.014510616053783202,0.0,0.014510616053783202,-0.7898405410662557,0.0,0.7898405410662557,-0.013510176550668959,0,0.013510176550668959,-0.0012042646935397964,0.008736032882477637,0.00752732436429158,0.4,0.035065650939941406,0.34110307693481445,STABILIZE
0.075,0.001,0.065,-0.005058287054062585,-0.0010368415019802724,-5.058287054062585e-06,-0.00031948714618618623,-0.0013613869352205213,0.09,0.001,0.07,-0.045194787570813424,-0.011304680675465913,-4.5194787570813424e-05,0.0006001968668974558,-0.010749678596139272,0.002,8e-05,0,-0.29456317927349607,-0.0015598809637830896,-2.356505434187969e-05,0.0,-0.0015834460181249693,0.6,0,0.3,-0.0036197997594183875,-0.0047216801886336805,-0.0,0.011340830822868022,0.006619150634234341,-0.12560756306073237,0.0,0.12560756306073237,-0.013824553359736966,0.0,0.013824553359736966,-0.7799404818915447,0.0,0.7799404818915447,-0.007869466981056134,0,0.007869466981056134,-0.001362863370404584,0.01074949151082475,-0.006619150634234341,0.4,0.03345847129821777,0.37457752227783203,STABILIZE
0.075,0.001,0.065,-0.005498700855102796,-0.0009876330585332032,-5.4987008551027966e-06,-0.00015063981773243444,-0.0011437715771207403,0.09,0.001,0.07,-0.04947993055123585,-0.011531379420020329,-4.947993055123585e-05,-0.0005254387766788548,-0.01210629812725042,0.002,8e-05,0,-0.3203421492587029,-0.0015415903808155718,-2.5627371940696236e-05,0.0,-0.001567217752756268,0.6,0,0.3,-0.0037010446972688656,-0.0014575417258966678,-0.0,0.020887053166958672,0.019429511441062003,-0.12812643800022588,0.0,0.12812643800022588,-0.01316844078044271,0.0,0.01316844078044271,-0.7707951904077859,0.0,0.7707951904077859,-0.0024292362098277797,0,0.0024292362098277797,-0.0011442848609806917,0.012106249622547303,-0.019429511441062003,0.4,0.03344464302062988,0.40801262855529785,STABILIZE
0.075,0.001,0.065,-0.0058637991956529524,-0.0008191869276905582,-5.8637991956529525e-06,0.0011311571693383925,0.00030610644245218134,0.09,0.001,0.07,-0.053673065331544305,-0.011289981300590729,-5.3673065331544305e-05,-0.0005247824142901986,-0.011868436780212472,0.002,8e-05,0,-0.3459316141178153,-0.0015310983568678242,-2.767452912942523e-05,0.0,-0.0015587728859972495,0.6,0,0.3,-0.0037550618013249,-0.0009696040896318466,-0.0,0.014465927086666379,0.013496322997034533,-0.12544423667323032,0.0,0.12544423667323032,-0.010922492369207443,0.0,0.010922492369207443,-0.7655491784339121,0.0,0.7655491784339121,-0.0016160068160530779,0,0.0016160068160530779,0.0003057716973475826,0.011868445409113703,-0.013496322997034533,0.4,0.03342628479003906,0.4414403438568115,STABILIZE
0.075,0.001,0.065,-0.006179617891919965,-0.0007081665103968509,-6.179617891919965e-06,0.001877439986541748,0.0011630938582529774,0.09,0.001,0.07,-0.05802587929346629,-0.011712481028855214,-5.8025879293466286e-05,-0.0040831469791637745,-0.015853653887312455,0.002,8e-05,0,-0.3714422817032283,-0.001525415322600747,-2.9715382536258267e-05,0.0,-0.0015551307051370053,0.6,0,0.3,-0.003744448640119638,0.00019038481062325492,-0.0,0.020457653721536545,0.0206480385321598,-0.13013867809839127,0.0,0.13013867809839127,-0.009442220138624679,0.0,0.009442220138624679,-0.7627076613003735,0.0,0.7627076613003735,0.0003173080177054249,0,-0.0003173080177054249,0.0011631816568746063,0.015853647445774537,-0.0206480385321598,0.4,0.0334475040435791,0.47489404678344727,STABILIZE
0.075,0.001,0.065,-0.0064778886349771666,-0.000663807502062883,-6.477888634977166e-06,0.0021985729072934988,0.0015282875165956386,0.09,0.001,0.07,-0.062476379992470146,-0.011885613942504468,-6.247637999247015e-05,-0.003761816016592504,-0.015709906339089443,0.002,8e-05,0,-0.3968196054224116,-0.0015060731016309468,-3.174556843379293e-05,0.0,-0.0015378186700647398,0.6,0,0.3,-0.0036502270878197283,0.0016775355874765277,-0.0,0.029215869617859342,0.03089340520533587,-0.13206237713893854,0.0,0.13206237713893854,-0.008850766694171773,0.0,0.008850766694171773,-0.7530365508154734,0.0,0.7530365508154734,0.0027958926457942127,0,-0.0027958926457942127,0.0015290541194362185,0.01570983174372596,-0.03089340520533587,0.4,0.033699989318847656,0.5085830688476562,STABILIZE
0.075,0.001,0.065,-0.006748760212948663,-0.0006056839590204297,-6.748760212948664e-06,0.0022323784718527857,0.0016199457526194074,0.09,0.001,0.07,-0.06688066704179911,-0.011817877844595457,-6.688066704179911e-05,-0.002380970119465748,-0.014265728631103003,0.002,8e-05,0,-0.4221042229626866,-0.0015076750755270135,-3.3768337837014934e-05,0.0,-0.0015414434133640283,0.6,0,0.3,-0.003634483498132865,0.00028162835841672996,-0.0,0.014938798064861758,0.015220426423278487,-0.13130975382883842,0.0,0.13130975382883842,-0.008075786120272396,0.0,0.008075786120272396,-0.7538375377635067,0.0,0.7538375377635067,0.0004693805973612166,0,-0.0004693805973612166,0.0016200626207931003,0.014265715359644977,-0.015220426423278487,0.4,0.033541202545166016,0.5421500205993652,STABILIZE
0.075,0.001,0.065,-0.006993410943135289,-0.0005484248928728798,-6.993410943135289e-06,0.002273990302407182,0.0017185719985911667,0.09,0.001,0.07,-0.07124724013035348,-0.011746071028614241,-7.124724013035349e-05,-0.000992706546213505,-0.012810024814958099,0.002,8e-05,0,-0.4473548227503531,-0.0015094233833365437,-3.578838582002825e-05,0.0,-0.0015452117691565719,0.6,0,0.3,-0.0036980929672702388,-0.0011407287857511455,-0.0,0.0009277099318841725,-0.00021301885386697304,-0.13051190031793602,0.0,0.13051190031793602,-0.007312331904971732,0.0,0.007312331904971732,-0.7547116916682718,0.0,0.7547116916682718,-0.001901214642918576,0,0.001901214642918576,0.0017181469295692144,0.012810081834344221,0.00021301885386697304,0.4,0.033457279205322266,0.5756139755249023,STABILIZE
0.075,0.001,0.065,-0.007188568445095452,-0.0004378083768300295,-7.188568445095452e-06,0.0019740143522903055,0.0015290174070151806,0.09,0.001,0.07,-0.07557873802838716,-0.011660526774120585,-7.557873802838716e-05,-0.0017180702004141234,-0.013454175712563094,0.002,8e-05,0,-0.4726108974328835,-0.0015108919309852228,-3.780887179463068e-05,0.0,-0.0015487008027798535,0.6,0,0.3,-0.0036683180242211553,0.000534367138566338,-0.0,0.004478423374695394,0.005012790513261732,-0.12956140860133983,0.0,0.12956140860133983,-0.005837445024400393,0.0,0.005837445024400393,-0.7554459654926114,0.0,0.7554459654926114,0.0008906118976105633,0,-0.0008906118976105633,0.0015292265400172938,0.01345415194372298,-0.005012790513261732,0.4,0.0334320068359375,0.6090457439422607,STABILIZE
0.075,0.001,0.065,-0.007294769117626641,-0.00023826324703680936,-7.294769117626641e-06,0.002433324690979836,0.0021877666748254,0.09,0.001,0.07,-0.07986807454348276,-0.011547850551550035,-7.986807454348276e-05,0.0007711728712946951,-0.010856545754798823,0.002,8e-05,0,-0.4976409101768958,-0.001497475039186701,-3.981127281415167e-05,0.0,-0.0015372863120008528,0.6,0,0.3,-0.003677680835151758,-0.0001680451681178941,-0.0,-0.0010908320247737609,-0.001258877192891655,-0.12830945057277818,0.0,0.12830945057277818,-0.003176843293824125,0.0,0.003176843293824125,-0.7487375195933506,0.0,0.7487375195933506,-0.0002800752801964902,0,0.0002800752801964902,0.002187713605443716,0.01085655644898848,0.001258877192891655,0.4,0.033429622650146484,0.6424806118011475,STABILIZE
0.075,0.001,0.065,-0.007430622795042891,-0.0002903922896261824,-7.4306227950428915e-06,0.0019476455511481703,0.001649822638726945,0.09,0.001,0.07,-0.08447317688767492,-0.011812293100572904,-8.447317688767492e-05,0.0003979535586203197,-0.011498812718840259,0.002,8e-05,0,-0.5240042415568268,-0.001502736043110091,-4.192033932454615e-05,0.0,-0.001544656382434637,0.6,0,0.3,-0.0036273695282799585,0.000860338321314499,-0.0,-0.0025727997838485986,-0.0017124614625340998,-0.13124770111747672,0.0,0.13124770111747672,-0.0038718971950157657,0.0,0.0038718971950157657,-0.7513680215550455,0.0,0.7513680215550455,0.0014338972021908317,0,-0.0014338972021908317,0.0016501104101111985,0.011498771426402956,0.0017124614625340998,0.4,0.03508710861206055,0.6775426864624023,STABILIZE
0.075,0.001,0.065,-0.007530909767107717,-0.00022466567159916057,-7.530909767107718e-06,0.001987570268269719,0.0017553736869034507,0.09,0.001,0.07,-0.08876403713624985,-0.011535005749633198,-8.876403713624985e-05,0.001372198340911963,-0.010251571445857486,0.002,8e-05,0,-0.5489069492922156,-0.0014876730759916287,-4.3912555943377254e-05,0.0,-0.0015315856319350059,0.6,0,0.3,-0.003693875652740982,-0.0011919109977981894,-0.0,-0.004541039413073931,-0.005732950410872121,-0.12816673055147998,0.0,0.12816673055147998,-0.0029955422879888076,0.0,0.0029955422879888076,-0.7438365379958143,0.0,0.7438365379958143,-0.001986518329663649,0,0.001986518329663649,0.001755018250687994,0.010251632300758042,0.005732950410872121,0.4,0.033478736877441406,0.7110333442687988,STABILIZE
0.075,0.001,0.065,-0.007590935323347753,-0.00013465888362894674,-7.5909353233477536e-06,0.0021575800648697407,0.002015330245917446,0.09,0.001,0.07,-0.09304106757178102,-0.011513898674608575,-9.304106757178102e-05,0.0011365502372688906,-0.010470389504911467,0.002,8e-05,0,-0.5737732777691364,-0.00148757617805886,-4.590186222153092e-05,0.0,-0.0015334780402803908,0.6,0,0.3,-0.0037999025837370482,-0.0019028519259949412,-0.0,-0.0024163036040403246,-0.0043191555300352655,-0.12793220749565085,0.0,0.12793220749565085,-0.00179545178171929,0.0,0.00179545178171929,-0.7437880890294299,0.0,0.7437880890294299,-0.0031714198766582356,0,0.0031714198766582356,0.0020147506887747287,0.010470501040864838,0.0043191555300352655,0.4,0.0334320068359375,0.7444701194763184,STABILIZE
0.075,0.001,0.065,-0.007638256070042882,-0.00010613850926550213,-7.638256070042881e-06,0.0017319137515330355,0.0016181369861974905,0.09,0.001,0.07,-0.09729156451589592,-0.011440430021761327,-9.729156451589592e-05,0.001080302818301246,-0.010457418767975976,0.002,8e-05,0,-0.5987737600052481,-0.0014953350490178484,-4.7901900800419846e-05,0.0,-0.0015432369498182682,0.6,0,0.3,-0.003955572530674012,-0.0027932908517743207,-0.0,-0.010089717102781663,-0.012883007954555985,-0.12711588913068142,0.0,0.12711588913068142,-0.0014151801235400285,0.0,0.0014151801235400285,-0.7476675245089242,0.0,0.7476675245089242,-0.0046554847529572015,0,0.0046554847529572015,0.0016172872785918024,0.010457550212809003,0.012883007954555985,0.4,0.03343796730041504,0.7779388427734375,STABILIZE
0.075,0.001,0.065,-0.00769399511885531,-0.000125004374901169,-7.69399511885531e-06,0.0005994848675201404,0.0004667864975001161,0.09,0.001,0.07,-0.1016143084594199,-0.011633393451038797,-0.0001016143084594199,-0.0003415679748244773,-0.012076575734322694,0.002,8e-05,0,-0.6236745671422268,-0.001489182130905466,-4.989396537137815e-05,0.0,-0.0015390760962768443,0.6,0,0.3,-0.003984024734196095,-0.0005104715622697519,-0.0,-0.0011623981728115036,-0.0016728697350812554,-0.12925992723376442,0.0,0.12925992723376442,-0.0016667249986822537,0.0,0.0016667249986822537,-0.744591065452733,0.0,0.744591065452733,-0.0008507859371162533,0,0.0008507859371162533,0.0004666071721843816,0.012076582664311383,0.0016728697350812554,0.4,0.03344225883483887,0.8113532066345215,STABILIZE
0.075,0.001,0.065,-0.007701612096348978,-1.7070208366071753e-05,-7.701612096348978e-06,0.0014160378537239622,0.0013912660332615415,0.09,0.001,0.07,-0.10587789796189992,-0.011466022251774946,-0.00010587789796189992,0.0016087813353873953,-0.00996311881434945,0.002,8e-05,0,-0.6485728948402367,-0.001487973034360982,-5.188583158721894e-05,0.0,-0.001539858865948201,0.6,0,0.3,-0.003926429772801356,0.0010325964519771658,-0.0,0.0005174968458047418,0.0015500932977819074,-0.12740024724194385,0.0,0.12740024724194385,-0.00022760277821429003,0.0,0.00022760277821429003,-0.743986517180491,0.0,0.743986517180491,0.0017209940866286097,0,-0.0017209940866286097,0.0013915652949654104,0.009963077020378752,-0.0015500932977819074,0.4,0.03346610069274902,0.8448081016540527,STABILIZE
0.075,0.001,0.065,-0.0077484957433431095,-9.882813410766678e-05,-7.74849574334311e-06,0.0006774442126079922,0.0005708675827569823,0.09,0.001,0.07,-0.11024119099617871,-0.011037096389623491,-0.00011024119099617872,0.0021956719781681144,-0.008951665602451557,0.002,8e-05,0,-0.6749778886787576,-0.001484273765370481,-5.399823109430062e-05,0.0,-0.0015382719964647815,0.6,0,0.3,-0.003840856522381321,0.0014430694215573972,-0.0,0.007801177470468578,0.009244246892025975,-0.1226344043291499,0.0,0.1226344043291499,-0.0013177084547688904,0.0,0.0013177084547688904,-0.7421368826852405,0.0,0.7421368826852405,0.002405115702595662,0,-0.002405115702595662,0.000571243348002941,0.008951641631148982,-0.009244246892025975,0.4,0.035579681396484375,0.8803973197937012,STABILIZE
0.075,0.001,0.065,-0.00775702884725599,-1.9119909899180837e-05,-7.75702884725599e-06,0.0006235552129917927,0.0005966782742453559,0.09,0.001,0.07,-0.1144664711068348,-0.011360973803579092,-0.0001144664711068348,0.0005922993240998819,-0.010883140950586045,0.002,8e-05,0,-0.6997760502685937,-0.0014817230091300872,-5.59820840214875e-05,0.0,-0.0015377050931515747,0.6,0,0.3,-0.0037150679931458046,0.002254809382272396,-0.0,0.012352832201389139,0.014607641583661535,-0.12623304226198992,0.0,0.12623304226198992,-0.00025493213198907785,0.0,0.00025493213198907785,-0.7408615045650436,0.0,0.7408615045650436,0.00375801563712066,0,-0.00375801563712066,0.0005973920954142925,0.01088310179119978,-0.014607641583661535,0.4,0.03347206115722656,0.9139144420623779,STABILIZE
0.075,0.001,0.065,-0.0077862058733230025,-6.542189106856252e-05,-7.786205873323002e-06,0.00023577344683261466,0.00016256534989072914,0.09,0.001,0.07,-0.11870582096726844,-0.011406767124263754,-0.00011870582096726843,3.755335180609946e-05,-0.011487919593424923,0.002,8e-05,0,-0.7245126260346919,-0.0014790756366209353,-5.7961010082775356e-05,0.0,-0.0015370366467037106,0.6,0,0.3,-0.0036735099211505705,0.0007454653268218115,-0.0,0.01050337468358058,0.011248840010402392,-0.12674185693626394,0.0,0.12674185693626394,-0.0008722918809141669,0.0,0.0008722918809141669,-0.7395378183104676,0.0,0.7395378183104676,0.001242442211369686,0,-0.001242442211369686,0.00016281446202697988,0.011487916065541922,-0.011248840010402392,0.4,0.03344869613647461,0.9473347663879395,STABILIZE
0.075,0.001,0.065,-0.007802324009408697,-3.613840900948662e-05,-7.802324009408697e-06,0.0004852956034272802,0.0004413548704083849,0.09,0.001,0.07,-0.12287404608312892,-0.011214673206359584,-0.00012287404608312893,0.001828405539589902,-0.00950914171285281,0.002,8e-05,0,-0.7493022302084457,-0.0014821512860650444,-5.994417841667566e-05,0.0,-0.00154209546448172,0.6,0,0.3,-0.003471699564977085,0.003619825595204124,-0.0,0.012270012089260885,0.01588983768446501,-0.12460748007066204,0.0,0.12460748007066204,-0.0004818454534598216,0.0,0.0004818454534598216,-0.7410756430325222,0.0,0.7410756430325222,0.00603304265867354,0,-0.00603304265867354,0.0004423561469037119,0.009509095187032622,-0.01588983768446501,0.4,0.03345084190368652,0.9808032512664795,STABILIZE
0.075,0.001,0.065,-0.007805712787900353,-7.60810713052056e-06,-7.805712787900352e-06,7.42982818133573e-05,5.888446189493639e-05,0.09,0.001,0.07,-0.1269639693977217,-0.011018687049502375,-0.0001269639693977217,0.0019630441333615945,-0.009182606885538501,0.002,8e-05,0,-0.7741087992716216,-0.0014851450490729803,-6.192870394172973e-05,0.0,-0.00154707375301471,0.6,0,0.3,-0.003108725948339776,0.0065192627201304506,-0.0,0.016338496482354487,0.022857759202484937,-0.12242985610558195,0.0,0.12242985610558195,-0.0001014414284069408,0.0,0.0001014414284069408,-0.7425725245364901,0.0,0.7425725245364901,0.010865437866884084,0,-0.010865437866884084,6.062582895818472e-05,0.00918259555371219,-0.022857759202484937,0.4,0.03340625762939453,1.0141868591308594,STABILIZE
0.075,0.001,0.065,-0.007831917354248851,-5.8732223814475606e-05,-7.831917354248852e-06,0.0002077807556497055,0.00014121661448098104,0.09,0.001,0.07,-0.13103208361259527,-0.01094142408891225,-0.00013103208361259528,0.0004469318193012862,-0.01062552435322356,0.002,8e-05,0,-0.7990808498961415,-0.0014925277239906025,-6.392646799169132e-05,-0.0,-0.0015564541919822939,0.6,0,0.3,-0.0027266417966177047,0.006850913422176189,-0.0,0.016175927831673636,0.023026841253849826,-0.12157137876569167,0.0,0.12157137876569167,-0.0007830963175263414,0.0,0.0007830963175263414,-0.7462638619953013,0.0,0.7462638619953013,0.011418189036960315,0,-0.011418189036960315,0.0001433341192124391,0.010625495999877936,-0.023026841253849826,0.4,0.0334627628326416,1.0476653575897217,STABILIZE
0.075,0.001,0.065,-0.007958025525338594,-0.0002830088567882514,-7.958025525338595e-06,-0.001368203593961752,-0.001659170476275342,0.09,0.001,0.07,-0.135063506085755,-0.01085666302667224,-0.000135063506085755,0.002346623165577375,-0.008645103367180619,0.002,8e-05,0,-0.8239746422617752,-0.0014897609795659224,-6.591797138094202e-05,-0.0,-0.0015556789509468644,0.6,0,0.3,-0.0023430360680398166,0.006887028351239467,-0.0,0.01385886524127789,0.020745893592517356,-0.1206295891852471,0.0,0.1206295891852471,-0.0037734514238433525,0.0,0.0037734514238433525,-0.7448804897829612,0.0,0.7448804897829612,0.011478380585399113,0,-0.011478380585399113,-0.0016574385215924275,0.00864543558449908,-0.020745893592517356,0.4,0.03341984748840332,1.0810730457305908,STABILIZE
0.075,0.001,0.065,-0.008144633744717343,-0.00040843186691937646,-8.144633744717344e-06,-0.0017626983483543153,-0.002179274849018409,0.09,0.001,0.07,-0.13906918874354962,-0.010520748453565338,-0.00013906918874354962,0.00408449036866288,-0.006575327273646007,0.002,8e-05,0,-0.8494974166211668,-0.0014896541949792172,-6.795979332969335e-05,-0.0,-0.0015576139883089106,0.6,0,0.3,-0.0018598398655888828,0.008460623126351412,-0.0,0.022963477267711606,0.031424100394063015,-0.11689720503961487,0.0,0.11689720503961487,-0.005445758225591686,0.0,0.005445758225591686,-0.7448270974896086,0.0,0.7448270974896086,0.01410103854391902,0,-0.01410103854391902,-0.0021776565321955203,0.006575863414860699,-0.031424100394063015,0.4,0.03426671028137207,1.1153709888458252,STABILIZE
0.075,0.001,0.065,-0.008361880998331097,-0.0004985670180238877,-8.361880998331098e-06,-0.0023924995824138613,-0.00289942848143608,0.09,0.001,0.07,-0.14299546592030019,-0.010812632729128425,-0.00014299546592030018,0.0018018750026707216,-0.009153753192378005,0.002,8e-05,0,-0.8738191958515026,-0.0014884468263321635,-6.990553566812021e-05,-0.0,-0.0015583523620002837,0.6,0,0.3,-0.001477900790542743,0.007012184413658376,-0.0,0.009938602950851584,0.01695078736450996,-0.12014036365698251,0.0,0.12014036365698251,-0.006647560240318503,0.0,0.006647560240318503,-0.7442234131660818,0.0,0.7442234131660818,0.01168697402276396,0,-0.01168697402276396,-0.0028975612735569057,0.009154344416282168,-0.01695078736450996,0.4,0.03268074989318848,1.1480205059051514,STABILIZE
0.075,0.001,0.065,-0.008609548651522969,-0.0005557105460420007,-8.60954865152297e-06,-0.0028368575660231354,-0.0034011776607166594,0.09,0.001,0.07,-0.1469917565656406,-0.01076013356468887,-0.00014699175656564058,0.0011335877742699619,-0.009773537546984548,0.002,8e-05,0,-0.898577562213336,-0.0014813922461790223,-7.188620497706688e-05,0.0,-0.0015532784511560892,0.6,0,0.3,-0.0010426345587737588,0.007813116721951428,-0.0,0.0036554290171390644,0.011468545739090492,-0.11955703960765411,0.0,0.11955703960765411,-0.007409473947226676,0.0,0.007409473947226676,-0.7406961230895112,0.0,0.7406961230895112,0.01302186120325238,0,-0.01302186120325238,-0.0033989562984742773,0.009774310295009917,-0.011468545739090492,0.4,0.03342580795288086,1.181523323059082,STABILIZE
0.075,0.001,0.065,-0.00890941249832997,-0.0006721893944235342,-8.90941249832997e-06,-0.003175482285371552,-0.0038565810922934164,0.09,0.001,0.07,-0.15120145045272115,-0.011323985661344812,-0.00015120145045272116,-0.0018471212587777368,-0.01332230837057527,0.002,8e-05,0,-0.9240786966842778,-0.001524388913583018,-7.392629573474223e-05,-0.0,-0.0015983152093177603,0.6,0,0.3,-0.0003744964738424657,0.011981846814373143,-0.0,0.01512409629535959,0.02710594310973273,-0.12582206290383124,0.0,0.12582206290383124,-0.008962525258980456,0.0,0.008962525258980456,-0.762194456791509,0.0,0.762194456791509,0.019969744690621904,0,-0.019969744690621904,-0.0038519375301491665,0.013323651725633004,-0.02710594310973273,0.4,0.03345751762390137,1.2149157524108887,STABILIZE
0.075,0.001,0.065,-0.009236783344768169,-0.0007340962889740429,-9.236783344768169e-06,-0.002333091291351519,-0.0030764243636703303,0.09,0.001,0.07,-0.1554594520744312,-0.01145776988861912,-0.0001554594520744312,-0.0028638663916010112,-0.014477095732294564,0.002,8e-05,0,-0.9492565826038493,-0.001505570237860377,-7.594052660830795e-05,-0.0,-0.001581510764468685,0.6,0,0.3,0.0004794417086457695,0.015318965817469426,0.0,0.024993571531554692,0.04031253734902412,-0.12730855431799024,0.0,0.12730855431799024,-0.009787950519653905,0.0,0.009787950519653905,-0.7527851189301884,0.0,0.7527851189301884,0.025531609695782376,0,-0.025531609695782376,-0.0030699729103668633,0.014478465182367208,-0.04031253734902412,0.4,0.033446311950683594,1.2483696937561035,STABILIZE
0.075,0.001,0.065,-0.009565149926028933,-0.0007371962038954443,-9.565149926028932e-06,-0.0017147406640339717,-0.002461502017855445,0.09,0.001,0.07,-0.1596499159187428,-0.011289312182963293,-0.0001596499159187428,-0.003604365412054025,-0.01505332751093606,0.002,8e-05,0,-0.9742230890294826,-0.0014946883401545793,-7.793784712235861e-05,-0.0,-0.0015726261872769378,0.6,0,0.3,0.001169427119857009,0.012392360365910179,0.0,0.011640911867484642,0.02403327223339482,-0.12543680203292548,0.0,0.12543680203292548,-0.009829282718605925,0.0,0.009829282718605925,-0.7473441700772896,0.0,0.7473441700772896,0.02065393394318363,0,-0.02065393394318363,-0.002456075447324935,0.015054213853019974,-0.02403327223339482,0.4,0.033406972885131836,1.281792402267456,STABILIZE
0.075,0.001,0.065,-0.009870249304955819,-0.0006776862932383266,-9.870249304955818e-06,-0.0009311882628759169,-0.0016187448054191993,0.09,0.001,0.07,-0.16389206208091844,-0.011307178604420248,-0.00016389206208091846,-0.002297348613715323,-0.01376841928021649,0.002,8e-05,0,-0.9993470242786696,-0.001488139950592855,-7.994776194229357e-05,0.0,-0.0015680877125351486,0.6,0,0.3,0.001840292705528129,0.011921005243962017,0.0,0.014677032761865945,0.02659803800582796,-0.12563531782689163,0.0,0.12563531782689163,-0.009035817243177688,0.0,0.009035817243177688,-0.7440699752964275,0.0,0.7440699752964275,0.01986834207327003,0,-0.01986834207327003,-0.0016139702611639864,0.01376897978126873,-0.02659803800582796,0.4,0.033765554428100586,1.3155367374420166,STABILIZE
0.075,0.001,0.065,-0.010207160672206535,-0.0007557485392330519,-1.0207160672206535e-05,-0.0010395549673950252,-0.0018055106673002838,0.09,0.001,0.07,-0.16813404143127478,-0.011418562894980803,-0.0001681340414312748,-0.0030598817721346912,-0.01464657870854677,0.002,8e-05,0,-1.0240137250535544,-0.0014755075975769706,-8.192109800428435e-05,0.0,-0.001557428695581255,0.6,0,0.3,0.0025701841114214893,0.01309814787916431,0.0,0.0158015870433711,0.028899734922535412,-0.12687292105534226,0.0,0.12687292105534226,-0.010076647189774026,0.0,0.010076647189774026,-0.7377537987884852,0.0,0.7377537987884852,0.021830246465273852,0,-0.021830246465273852,-0.0017999300481558885,0.014647265562456914,-0.028899734922535412,0.4,0.03343486785888672,1.3489787578582764,STABILIZE
0.075,0.001,0.065,-0.010553294425891134,-0.0007758881538538126,-1.0553294425891135e-05,-0.0005404474063619593,-0.001326888854641663,0.09,0.001,0.07,-0.17240470865361204,-0.01148767517154402,-0.00017240470865361205,-0.0007596563080845559,-0.012419736188282187,0.002,8e-05,0,-1.0487904378959807,-0.0014810427303500902,-8.390323503167846e-05,0.0,-0.0015649459653817688,0.6,0,0.3,0.003233112721779497,0.01188808546181223,0.0,-0.0002747939946849581,0.011613291467127272,-0.127640835239378,0.0,0.127640835239378,-0.0103451753847175,0.0,0.0103451753847175,-0.7405213651750451,0.0,0.7405213651750451,0.01981347576968705,0,-0.01981347576968705,-0.0013225939015937224,0.012420194297617308,-0.011613291467127272,0.4,0.03345847129821777,1.3824546337127686,STABILIZE
0.075,0.001,0.065,-0.010927868154940226,-0.0007949127156493187,-1.0927868154940226e-05,-0.00031292668588490095,-0.0011187672696891598,0.09,0.001,0.07,-0.1769424729319717,-0.011555940779865883,-0.00017694247293197172,-0.00043791384134146086,-0.012170797094139317,0.002,8e-05,0,-1.0750616890902949,-0.0014867283357640035,-8.600493512722359e-05,0.0,-0.0015727332708912272,0.6,0,0.3,0.003860235100726989,0.010646930409329953,0.0,-0.013764272074503288,-0.0031173416651733357,-0.1283993419985098,0.0,0.1283993419985098,-0.010598836208657583,0.0,0.010598836208657583,-0.7433641678820018,0.0,0.7433641678820018,0.01774488401554992,0,-0.01774488401554992,-0.0011149978392807674,0.012171143000098101,0.0031173416651733357,0.4,0.03534102439880371,1.4178235530853271,STABILIZE
0.075,0.001,0.065,-0.01122940582067674,-0.0006760282213066448,-1.122940582067674e-05,0.0003191411497725012,-0.00036811647735482037,0.09,0.001,0.07,-0.18130130313655857,-0.011726663292907655,-0.00018130130313655858,-0.0020161666641660843,-0.013924131260210299,0.002,8e-05,0,-1.099793992760859,-0.0014786199456167633,-8.798351942086873e-05,0.0,-0.001566603465037632,0.6,0,0.3,0.004428018987847957,0.010183482195749603,0.0,-0.006389171012001437,0.003794311183748166,-0.13029625881008505,0.0,0.13029625881008505,-0.009013709617421931,0.0,0.009013709617421931,-0.7393099728083816,0.0,0.7393099728083816,0.01697247032624934,0,-0.01697247032624934,-0.0003639917786672302,0.013924239694774306,-0.003794311183748166,0.4,0.03345322608947754,1.451247215270996,STABILIZE
0.075,0.001,0.065,-0.01152141987504681,-0.0006542572361170723,-1.1521419875046812e-05,0.00012638188098484175,-0.0005393967750072774,0.09,0.001,0.07,-0.185720005833947,-0.011880119483643769,-0.000185720005833947,-0.002646962265287919,-0.014712801754765635,0.002,8e-05,0,-1.1242127851623507,-0.0014589408865158988,-8.993702281298806e-05,0.0,-0.0015488779093288869,0.6,0,0.3,0.004932485821897572,0.009042060041117232,0.0,-0.008403013737037198,0.0006390463040800345,-0.13200132759604188,0.0,0.13200132759604188,-0.008723429814894297,0.0,0.008723429814894297,-0.7294704432579494,0.0,0.7294704432579494,0.01507010006852872,0,-0.01507010006852872,-0.0005355269531271,0.01471294311952566,-0.0006390463040800345,0.4,0.03347468376159668,1.4847424030303955,STABILIZE
0.075,0.001,0.065,-0.011766051861104776,-0.000548093849347703,-1.1766051861104775e-05,0.0010807874644498969,0.0005209275632410891,0.09,0.001,0.07,-0.19002668209132062,-0.011578842844724189,-0.0001900266820913206,-0.0007287365397721335,-0.012497606066587643,0.002,8e-05,0,-1.1487055401717094,-0.001463349481592741,-9.189644321373676e-05,0.0,-0.0015552459248064777,0.6,0,0.3,0.005366110363073988,0.007772227917528306,0.0,-0.01571710080075347,-0.007944872883225165,-0.12865380938582432,0.0,0.12865380938582432,-0.007307917991302706,0.0,0.007307917991302706,-0.7316747407963705,0.0,0.7316747407963705,0.012953713195880512,0,-0.012953713195880512,0.0005237530704916018,0.012497487973305002,0.007944872883225165,0.4,0.03347492218017578,1.5181877613067627,STABILIZE
0.075,0.001,0.065,-0.012048464465164761,-0.0006333270856640637,-1.2048464465164762e-05,0.0007433745895002865,9.799903937105804e-05,0.09,0.001,0.07,-0.19430389536028836,-0.011510286618044731,-0.00019430389536028835,-8.854775690985061e-05,-0.011793138270314871,0.002,8e-05,0,-1.1729923972006249,-0.0014523926256299544,-9.383939177604999e-05,0.0,-0.0015462320174060044,0.6,0,0.3,0.005799338179724057,0.007772313462024257,0.0,-0.012100235020299702,-0.004327921558275445,-0.12789207353383036,0.0,0.12789207353383036,-0.008444361142187516,0.0,0.008444361142187516,-0.7261963128149772,0.0,0.7261963128149772,0.01295385577004043,0,-0.01295385577004043,0.00010066531721423452,0.01179311581255747,0.004327921558275445,0.4,0.03344392776489258,1.5516328811645508,STABILIZE
0.075,0.001,0.065,-0.012370353998509966,-0.0007217638339683992,-1.2370353998509966e-05,0.0003783907648995658,-0.00035574342306734326,0.09,0.001,0.07,-0.19857930725812828,-0.011503962807773651,-0.00019857930725812828,0.0002413370037573082,-0.011461205111274471,0.002,8e-05,0,-1.1972253702065754,-0.001448984341384408,-9.577802961652603e-05,0.0,-0.001544762371000934,0.6,0,0.3,0.0062343621076157004,0.007803535201657821,0.0,-0.008494952987935813,-0.0006914177862779921,-0.1278218089752628,0.0,0.1278218089752628,-0.009623517786245322,0.0,0.009623517786245322,-0.7244921706922041,0.0,0.7244921706922041,0.013005892002763036,0,-0.013005892002763036,-0.0003531417703625081,0.011461285568198053,0.0006914177862779921,0.4,0.033448219299316406,1.5850825309753418,STABILIZE
0.075,0.001,0.065,-0.012719071283138057,-0.0007686705390922532,-1.2719071283138056e-05,-0.0004765515632436557,-0.001257941173619047,0.09,0.001,0.07,-0.2029063451920715,-0.011445603856100349,-0.00020290634519207153,0.0013019945501991368,-0.010346515651093284,0.002,8e-05,0,-1.22171745901044,-0.00143966457905409,-9.773739672083521e-05,0.0,-0.0015374019757749254,0.6,0,0.3,0.006677381348880523,0.007812307654883371,0.0,-0.007083808601485702,0.0007284990533976687,-0.12717337617889277,0.0,0.12717337617889277,-0.010248940521230043,0.0,0.010248940521230043,-0.719832289527045,0.0,0.719832289527045,0.013020512758138952,0,-0.013020512758138952,-0.001255589887012988,0.01034680125208922,-0.0007284990533976687,0.4,0.034024715423583984,1.6191134452819824,STABILIZE
0.075,0.001,0.065,-0.013035633353519763,-0.0007092519932036882,-1.3035633353519764e-05,-0.0002816130873446832,-0.0010039007139018912,0.09,0.001,0.07,-0.20714590782887046,-0.011398402519300573,-0.00020714590782887048,0.002234440726525299,-0.009371107700604144,0.002,8e-05,0,-1.2457634531680242,-0.0014366572103235167,-9.966107625344194e-05,0.0,-0.0015363182865769586,0.6,0,0.3,0.007225600748493927,0.009826210737626129,0.0,0.002342153167762173,0.012168363905388302,-0.12664891688111748,0.0,0.12664891688111748,-0.009456693242715843,0.0,0.009456693242715843,-0.7183286051617583,0.0,0.7183286051617583,0.01637701789604355,0,-0.01637701789604355,-0.0010012221021889875,0.009371394265624687,-0.012168363905388302,0.4,0.03347492218017578,1.6525928974151611,STABILIZE
0.075,0.001,0.065,-0.013256166143835022,-0.0004911197920179243,-1.3256166143835023e-05,0.0002913494239300979,-0.0002130265342316614,0.09,0.001,0.07,-0.21132584058019052,-0.011170299167988201,-0.00021132584058019052,0.0018880163454008277,-0.009493608663167565,0.002,8e-05,0,-1.269830145946516,-0.001429221070787787,-0.00010158641167572129,0.0,-0.0015308074824635083,0.6,0,0.3,0.007642565176280551,0.007428536418940722,0.0,-0.000983860172655799,0.006444676246284923,-0.12411443519986891,0.0,0.12411443519986891,-0.006548263893572323,0.0,0.006548263893572323,-0.7146105353938934,0.0,0.7146105353938934,0.01238089403156787,0,-0.01238089403156787,-0.0002109750803919407,0.009493654473863612,-0.006444676246284923,0.4,0.03367805480957031,1.6862711906433105,STABILIZE
0.075,0.001,0.065,-0.01343937142893562,-0.0003936920594649368,-1.343937142893562e-05,0.0012169592355213853,0.0008098278046275128,0.09,0.001,0.07,-0.21562524883006412,-0.01108686064887598,-0.00021562524883006413,0.0019410309733078818,-0.009361454924398162,0.002,8e-05,0,-1.294673935142819,-0.0014236565323588828,-0.00010357391481142552,0.0,-0.0015272304471703082,0.6,0,0.3,0.0080020321374339,0.006179703305758048,0.0,-0.004562292791469722,0.001617410514288326,-0.12318734054306645,0.0,0.12318734054306645,-0.005249227459532491,0.0,0.005249227459532491,-0.7118282661794414,0.0,0.7118282661794414,0.010299505509596747,0,-0.010299505509596747,0.0008115106093156972,0.009361309198272135,-0.001617410514288326,0.4,0.03490138053894043,1.7211716175079346,STABILIZE
0.075,0.001,0.065,-0.01360668673195481,-0.00037499799332831176,-1.3606686731954812e-05,0.0017720825607578546,0.001383477880697588,0.09,0.001,0.07,-0.21964421988245228,-0.010809096736720671,-0.0002196442198824523,0.0032028207617424845,-0.007825920194860638,0.002,8e-05,0,-1.3185655363125308,-0.0014279311510459547,-0.00010548524290500248,0.0,-0.0015334163939509573,0.6,0,0.3,0.008383674818861644,0.00684290018289242,0.0,-0.002673769375336913,0.004169130807555507,-0.12010107485245192,0.0,0.12010107485245192,-0.00499997324437749,0.0,0.00499997324437749,-0.7139655755229773,0.0,0.7139655755229773,0.011404833638154033,0,-0.011404833638154033,0.0013850356175449296,0.007825644655927012,-0.004169130807555507,0.4,0.033463239669799805,1.75473952293396,STABILIZE
0.075,0.001,0.065,-0.013565500892414912,9.231036867602023e-05,-1.3565500892414912e-05,0.0044316628782542925,0.004510407746037897,0.09,0.001,0.07,-0.22350150588529524,-0.010374463562885773,-0.00022350150588529524,0.00495647036344697,-0.005641494705324098,0.002,8e-05,0,-1.3432715834464932,-0.0014766397674157454,-0.00010746172667571947,-0.0,-0.0015841014940914649,0.6,0,0.3,0.010664365601464394,0.04089394011727875,0.0,0.09905917822697655,0.1399531183442553,-0.11527181736539749,0.0,0.11527181736539749,0.0012308049156802697,0.0,-0.0012308049156802697,-0.7383198837078727,0.0,0.7383198837078727,0.06815656686213126,0,-0.06815656686213126,0.004517115429929905,0.005636125330260823,-0.1399531183442553,0.4,0.0334625244140625,1.7881484031677246,STABILIZE
0.075,0.001,0.065,-0.013573458523618477,-1.7850297563197156e-05,-1.3573458523618476e-05,0.003552897431036241,0.0035214736749494256,0.09,0.001,0.07,-0.2269619595528912,-0.009314851531583254,-0.0002269619595528912,0.009666968824575944,0.0001251553334397984,0.002,8e-05,0,-1.3676025000465033,-0.0014554217293574973,-0.00010940820000372027,-0.0,-0.0015648299293612175,0.6,0,0.3,0.012640732086280452,0.03546656430330271,0.0,0.07681034147904146,0.11227690578234417,-0.10349835035092506,0.0,0.10349835035092506,-0.00023800396750929542,0.0,0.00023800396750929542,-0.7277108646787487,0.0,0.7277108646787487,0.059110940505504514,0,-0.059110940505504514,0.0035213426805848543,-0.0001287883020375411,-0.11227690578234417,0.4,0.03343486785888672,1.8215453624725342,STABILIZE
0.075,0.001,0.065,-0.013535136629410596,8.598326387838058e-05,-1.3535136629410597e-05,0.0029686457067984273,0.0030410938340473975,0.09,0.001,0.07,-0.23006336821018403,-0.008350398470225916,-0.00023006336821018402,0.013101583538722766,0.004521121700286667,0.002,8e-05,0,-1.3928521079804255,-0.0015107420943450396,-0.00011142816863843405,-0.0,-0.0016221702629834736,0.6,0,0.3,0.015339215708481381,0.04843694376912676,0.0,0.12273211935631276,0.1711690631254395,-0.09278220522473239,0.0,0.09278220522473239,0.0011464435183784077,0.0,-0.0011464435183784077,-0.7553710471725198,0.0,0.7553710471725198,0.08072823961521126,0,-0.08072823961521126,0.003034720676525379,-0.004525402032057865,-0.1711690631254395,0.4,0.033426761627197266,1.8569715023040771,STABILIZE
0.075,0.001,0.065,-0.014121777308868457,-0.0013064586318942723,-1.4121777308868458e-05,-0.004681952726382429,-0.00600253313558557,0.09,0.001,0.07,-0.23348541419919036,-0.009145144571715915,-0.00023348541419919037,0.009058767361047554,-0.0003198626248675524,0.002,8e-05,0,-1.4171066807278652,-0.0014404090743966827,-0.00011336853445822922,-0.0,-0.001553777608854912,0.6,0,0.3,0.016811510289799325,0.02623059779941035,0.0,0.060371756317745606,0.08660235411715596,-0.10161271746351017,0.0,0.10161271746351017,-0.017419448425256966,0.0,0.017419448425256966,-0.7202045371983413,0.0,0.7202045371983413,0.04371766299901725,0,-0.04371766299901725,-0.006002287327614573,0.0003244425671014869,-0.08660235411715596,0.4,0.03367733955383301,1.888646125793457,STABILIZE
0.075,0.001,0.065,-0.015423146912472272,-0.0028796609480838055,-1.542314691247227e-05,-0.012824155964984579,-0.015719240059980856,0.09,0.001,0.07,-0.2372825124157569,-0.010082628719778327,-0.00023728251241575692,0.003464988416148634,-0.006854922816045451,0.002,8e-05,0,-1.4403994315502566,-0.001374454005604341,-0.00011523195452402054,0.0,-0.0014896859601283615,0.6,0,0.3,0.018356078962954887,0.0273424802755653,0.0,0.06167037639368224,0.08901285666924753,-0.11202920799753698,0.0,0.11202920799753698,-0.03839547930778407,0.0,0.03839547930778407,-0.6872270028021705,0.0,0.6872270028021705,0.0455708004592755,0,-0.0455708004592755,-0.015713782953661,0.006867423109324225,-0.08901285666924753,0.4,0.03389382362365723,1.9225976467132568,STABILIZE
0.075,0.001,0.065,-0.016972185045984144,-0.0034654846560056023,-1.6972185045984144e-05,-0.01827371057763161,-0.0217561674186832,0.09,0.001,0.07,-0.241088554882236,-0.010217784687677915,-0.000241088554882236,0.0008173955590634209,-0.00964147768349673,0.002,8e-05,0,-1.46269461913232,-0.001330092161441121,-0.0001170155695305856,0.0,-0.0014471077309717068,0.6,0,0.3,0.019443268718560593,0.01945795566788955,0.0,-0.06360720588098327,-0.044149250213093724,-0.11353094097419907,0.0,0.11353094097419907,-0.0462064620800747,0.0,0.0462064620800747,-0.6650460807205605,0.0,0.6650460807205605,0.03242992611314925,0,-0.03242992611314925,-0.021750706770989222,0.00965379032471606,0.044149250213093724,0.4,0.033524274826049805,1.9561021327972412,STABILIZE
0.075,0.001,0.065,-0.01892562252131654,-0.004382949574472852,-1.892562252131654e-05,-0.02246009776192196,-0.02686197295891613,0.09,0.001,0.07,-0.24445104026387177,-0.009053335400010597,-0.0002444510402638718,0.0013064641760504663,-0.007991322264224002,0.002,8e-05,0,-1.4853361991565248,-0.0013546977883602625,-0.000118826895932522,0.0,-0.0014735246842927845,0.6,0,0.3,0.02091855334508317,0.026480901314512556,0.0,-0.026364574540803754,0.00011632677370880182,-0.10059261555567331,0.0,0.10059261555567331,-0.058439327659638024,0.0,0.058439327659638024,-0.6773488941801312,0.0,0.6773488941801312,0.04413483552418759,0,-0.04413483552418759,-0.026855809289010844,0.008012011620592077,-0.00011632677370880182,0.4,0.033426761627197266,1.9895668029785156,STABILIZE
0.075,0.001,0.065,-0.019965834080439344,-0.002333751240937901,-1.9965834080439345e-05,-0.012373308663934974,-0.014727025738953315,0.09,0.001,0.07,-0.247471963035033,-0.008133055862505864,-0.000247471963035033,0.0011005612562674204,-0.007279966569273476,0.002,8e-05,0,-1.5074905676005408,-0.001325442807474487,-0.00012059924540804327,0.0,-0.0014460420528825302,0.6,0,0.3,0.021218508118753334,0.005383672728023235,0.0,-0.12827678880494545,-0.12289311607692222,-0.09036728736117626,0.0,0.09036728736117626,-0.031116683212505346,0.0,0.031116683212505346,-0.6627214037372435,0.0,0.6627214037372435,0.008972787880038725,0,-0.008972787880038725,-0.014725885481448242,0.007282272801317235,0.12289311607692222,0.4,0.03342938423156738,2.0230071544647217,STABILIZE
0.075,0.001,0.065,-0.020084417824780394,-0.00026604111151257783,-2.0084417824780392e-05,0.005514397005532409,0.00522827147619505,0.09,0.001,0.07,-0.2501535274995922,-0.007219266634308981,-0.0002501535274995922,0.009023497932148695,0.0015540777703401216,0.002,8e-05,0,-1.5291675195585503,-0.0012968523749826966,-0.00012233340156468403,0.0,-0.0014191857765473805,0.6,0,0.3,0.02033810593581707,-0.015801368164111,0.0,-0.12570940611420767,-0.14151077427831865,-0.08021407371454424,0.0,0.08021407371454424,-0.0035472148201677045,0.0,0.0035472148201677045,-0.6484261874913483,0.0,0.6484261874913483,-0.026335613606851663,0,0.026335613606851663,0.005228985245106269,-0.0015516744669939683,0.14151077427831865,0.4,0.03343009948730469,2.0563671588897705,STABILIZE
0.075,0.001,0.065,-0.020552699817584195,-0.001040698403833838,-2.0552699817584195e-05,0.009581007313282647,0.008519756209631225,0.09,0.001,0.07,-0.25314500739527046,-0.007977829770202812,-0.00025314500739527046,0.009829578188594881,0.0015986034109967996,0.002,8e-05,0,-1.550922957062157,-0.0012893000048482073,-0.00012407383656497256,0.0,-0.00141337384141318,0.6,0,0.3,0.020413015798621748,0.0013318227196475435,0.0,-0.07822138274084596,-0.07688956002119841,-0.08864255300225347,0.0,0.08864255300225347,-0.013875978717784506,0.0,0.013875978717784506,-0.6446500024241036,0.0,0.6446500024241036,0.002219704532745906,0,-0.002219704532745906,0.008519694271499128,-0.001598933474971796,0.07688956002119841,0.4,0.03374767303466797,2.0901243686676025,STABILIZE
0.075,0.001,0.065,-0.020281528181735505,0.0006075425069227543,-2.0281528181735505e-05,0.021144358379912576,0.021731619358653594,0.09,0.001,0.07,-0.25572138515363935,-0.006926649229521222,-0.00025572138515363933,0.015341369645565634,0.008158999030890773,0.002,8e-05,0,-1.5718971576447862,-0.001253102386640616,-0.0001257517726115829,0.0,-0.001378854159252199,0.6,0,0.3,0.021662218220035903,0.02239005767353656,0.0,0.008203620102219871,0.03059367777575643,-0.07696276921690247,0.0,0.07696276921690247,0.008100566758970057,0.0,-0.008100566758970057,-0.6265511933203081,0.0,0.6265511933203081,0.0373167627892276,0,-0.0373167627892276,0.02172630079069434,-0.008173151111276401,-0.03059367777575643,0.4,0.033475637435913086,2.1236424446105957,STABILIZE
0.075,0.001,0.065,-0.021310209168208947,-0.0023048081069922534,-2.131020916820895e-05,0.010821244129971638,0.008495125813811176,0.09,0.001,0.07,-0.2584686853175132,-0.007386546196497885,-0.0002584686853175132,0.00778529233857338,0.00014027745675798241,0.002,8e-05,0,-1.5920266512253867,-0.0012026953766821526,-0.00012736213209803095,0.0,-0.0013300575087801835,0.6,0,0.3,0.021371397462026428,-0.005212780635052026,0.0,-0.09526693819261796,-0.10047971882766998,-0.08207273551664317,0.0,0.08207273551664317,-0.030730774759896714,0.0,0.030730774759896714,-0.6013476883410763,0.0,0.6013476883410763,-0.00868796772508671,0,0.00868796772508671,0.008495146986929568,-0.00013898930828290683,0.10047971882766998,0.4,0.033473968505859375,2.1571145057678223,STABILIZE
0.075,0.001,0.065,-0.021632064066467543,-0.0007201359698061214,-2.1632064066467543e-05,0.008390381875159291,0.007648613841286702,0.09,0.001,0.07,-0.25896776362643525,-0.0013399985295833121,-0.0002589677636264353,0.03156289442333405,0.0299639281301243,0.002,8e-05,0,-1.6122764749192744,-0.0012082153792988056,-0.00012898211799354197,0.0,-0.0013371974972923475,0.6,0,0.3,0.021017197137042448,-0.00634005934768881,0.0,-0.03552008619344706,-0.041860145541135874,-0.014888872550925691,0.0,0.014888872550925691,-0.009601812930748285,0.0,0.009601812930748285,-0.6041076896494028,0.0,0.6041076896494028,-0.01056676557948135,0,0.01056676557948135,0.007654139804151276,-0.029962517026092518,0.041860145541135874,0.4,0.03352022171020508,2.1905949115753174,STABILIZE
0.075,0.001,0.065,-0.021259552358701375,0.0008352189289084516,-2.1259552358701375e-05,0.005728960797185879,0.006542920173735629,0.09,0.001,0.07,-0.2572337863087962,0.0046653589064614715,-0.0002572337863087962,0.055237839383628515,0.05964596450378119,0.002,8e-05,0,-1.6326605297877574,-0.0012187642692653362,-0.0001306128423830206,0.0,-0.0013493771116483567,0.6,0,0.3,0.020587220775856188,-0.007712496297085423,0.0,0.02374816524527733,0.01603566894819191,0.051837321182905245,0.0,-0.051837321182905245,0.011136252385446022,0.0,-0.011136252385446022,-0.6093821346326681,0.0,0.6093821346326681,-0.012854160495142373,0,0.012854160495142373,0.006556301427406909,-0.05964449511546883,-0.01603566894819191,0.4,0.03345036506652832,2.224074125289917,STABILIZE
0.075,0.001,0.065,-0.020620732452203992,0.001432795975035434,-2.0620732452203994e-05,0.01280528849793096,0.01421746374051419,0.09,0.001,0.07,-0.25740383374851217,-0.0004576750687548313,-0.0002574038337485122,0.03490250751110683,0.034187428608603486,0.002,8e-05,0,-1.6534523582863938,-0.0012435616729525672,-0.0001322761886629115,0.0,-0.0013758378616154786,0.6,0,0.3,0.02109616432252206,0.009131991758758519,0.0,0.023353194048902085,0.032485185807660605,-0.005085278541720348,0.0,0.005085278541720348,0.01910394633380579,0.0,-0.01910394633380579,-0.6217808364762836,0.0,0.6217808364762836,0.015219986264597533,0,-0.015219986264597533,0.014208381729013647,-0.034191204113394824,-0.032485185807660605,0.4,0.03343915939331055,2.25750994682312,STABILIZE
0.075,0.001,0.065,-0.01974841733404055,0.0019560512752734103,-1.974841733404055e-05,0.006982568097779499,0.008918870955718868,0.09,0.001,0.07,-0.2562775710521416,0.00303059415707484,-0.0002562775710521416,0.04624122234210716,0.04901553892812986,0.002,8e-05,0,-1.6741627006426218,-0.0012384054258599757,-0.00013393301605140975,0.0,-0.0013723384419113854,0.6,0,0.3,0.02300404466173968,0.03422535451136314,0.0,0.0354717726020619,0.06969712711342504,0.03367326841194267,0.0,-0.03367326841194267,0.026080683670312136,0.0,-0.026080683670312136,-0.6192027129299879,0.0,0.6192027129299879,0.05704225751893857,0,-0.05704225751893857,0.008870067888432996,-0.04902439404209265,-0.06969712711342504,0.4,0.0334467887878418,2.2909367084503174,STABILIZE
0.075,0.001,0.065,-0.018083485787608843,0.0037326171711460064,-1.8083485787608842e-05,0.03126806836377817,0.03498260204913657,0.09,0.001,0.07,-0.25112200470983964,0.013869943540323013,-0.00025112200470983967,0.09878001711334228,0.11239883864895545,0.002,8e-05,0,-1.695168701804217,-0.00125582517472947,-0.00013561349614433737,-0.0,-0.0013914386708738073,0.6,0,0.3,0.024055578669701202,0.0188595088011789,0.0,0.07200070784473118,0.09086021664591008,0.15411048378136682,0.0,-0.15411048378136682,0.04976822894861342,0.0,-0.04976822894861342,-0.627912587364735,0.0,0.627912587364735,0.031432514668631506,0,-0.031432514668631506,0.03492093468697296,-0.11241801322008117,-0.09086021664591008,0.4,0.03345370292663574,2.3244264125823975,STABILIZE
0.075,0.001,0.065,-0.016890359084247245,0.00267445654268815,-1.6890359084247247e-05,0.01759193862995651,0.02024950481356041,0.09,0.001,0.07,-0.24912610596442009,0.005368694985896401,-0.0002491261059644201,0.031196565781709405,0.03631613466164139,0.002,8e-05,0,-1.7157529831077376,-0.0012304201088591247,-0.000137260238648619,-0.0,-0.0013676803475077437,0.6,0,0.3,0.02883376050203432,0.08568437620334822,0.0,0.2750856500884383,0.36077002629178656,0.05965216650996001,0.0,-0.05965216650996001,0.035659420569175336,0.0,-0.035659420569175336,-0.6152100544295623,0.0,0.6152100544295623,0.14280729367224704,0,-0.14280729367224704,0.02015892558773046,-0.03636649283482287,-0.36077002629178656,0.4,0.03345894813537598,2.3579089641571045,STABILIZE
0.075,0.001,0.065,-0.01615914663702427,0.00163991606423493,-1.615914663702427e-05,0.004170148487492006,0.0057939054050899115,0.09,0.001,0.07,-0.2502143731231563,-0.002928834380599521,-0.0002502143731231563,-0.03532716815708694,-0.03850621691080962,0.002,8e-05,0,-1.7359282858340854,-0.0012066097677410573,-0.00013887426286672685,0.0,-0.0013454840306077842,0.6,0,0.3,0.03723346631484163,0.15070654280664586,0.0,0.4736252451030162,0.624331787909662,-0.03254260422888357,0.0,0.03254260422888357,0.0218655475231324,0.0,-0.0218655475231324,-0.6033048838705286,0.0,0.6033048838705286,0.25117757134440977,0,-0.25117757134440977,0.005962655655594293,0.0384804472187923,-0.624331787909662,0.4,0.03344130516052246,2.3913116455078125,STABILIZE
0.075,0.001,0.065,-0.013834907020670757,0.005211354146083692,-1.3834907020670758e-05,0.01957948025452575,0.02477699949358877,0.09,0.001,0.07,-0.24977321171132735,0.0011869938037975412,-0.00024977321171132735,0.007645070713194951,0.008582291305281166,0.002,8e-05,0,-1.7559686415391875,-0.0011982400903125117,-0.00014047749132313503,0.0,-0.0013387175816356469,0.6,0,0.3,0.04232840200050098,0.0913899376731119,0.0,0.24592068611727422,0.3373106237903861,0.013188820042194904,0.0,-0.013188820042194904,0.06948472194778256,0.0,-0.06948472194778256,-0.5991200451562558,0.0,0.5991200451562558,0.15231656278851985,0,-0.15231656278851985,0.024754096585905598,-0.008648128709128912,-0.3373106237903861,0.4,0.033449649810791016,2.4247937202453613,STABILIZE
0.075,0.001,0.065,-0.01001082911088524,0.008577862759285055,-1.001082911088524e-05,0.0343200923430715,0.042887944273245666,0.09,0.001,0.07,-0.24786143142786787,0.005146021378526469,-0.00024786143142786787,0.009840661860378125,0.014738821807476727,0.002,8e-05,0,-1.7758012223843933,-0.001186315834673231,-0.00014206409779075148,0.0,-0.0013283799324639825,0.6,0,0.3,0.04417809783004681,0.03319270652235418,0.0,-0.003161815575172469,0.030030890947181713,0.05717801531696077,0.0,-0.05717801531696077,0.11437150345713408,0.0,-0.11437150345713408,-0.5931579173366155,0.0,0.5931579173366155,0.055321177537256974,0,-0.055321177537256974,0.04287369341079415,-0.01478022481475852,-0.030030890947181713,0.4,0.03343558311462402,2.458211660385132,STABILIZE
0.075,0.001,0.065,-0.005817305118189892,0.009403691024146758,-5.817305118189892e-06,0.02939505161099347,0.038792925330022036,0.09,0.001,0.07,-0.24723298310985992,0.001691102896032771,-0.0002472329831098599,-0.05662968402865105,-0.05518581411572814,0.002,8e-05,0,-1.7957626058985139,-0.0011936543636219918,-0.00014366100847188113,0.0,-0.001337315372093873,0.6,0,0.3,0.045438529906237785,0.022611462477991957,0.0,0.01113290253050192,0.03374436500849388,0.018790032178141902,0.0,-0.018790032178141902,0.12538254698862344,0.0,-0.12538254698862344,-0.5968271818109959,0.0,0.5968271818109959,0.037685770796653265,0,-0.037685770796653265,0.03882921489655764,0.05516028649121858,-0.03374436500849388,0.4,0.03344583511352539,2.491628885269165,STABILIZE
0.075,0.001,0.065,-0.0011820029089309927,0.010402060200693104,-1.1820029089309928e-06,0.04005472481102839,0.05045560300881256,0.09,0.001,0.07,-0.24689776495083565,0.0009027138201010511,-0.0002468977649508357,-0.0207756269603391,-0.020119810905188884,0.002,8e-05,0,-1.8160259769354214,-0.001212611653662996,-0.00014528207815483373,0.0,-0.0013578937318178299,0.6,0,0.3,0.045602226727850304,0.0029388102284667087,0.0,-0.24745213559739543,-0.24451332536892872,0.010030153556678346,0.0,-0.010030153556678346,0.13869413600924138,0.0,-0.13869413600924138,-0.606305826831498,0.0,0.606305826831498,0.004898017047444515,0,-0.004898017047444515,0.05045732279715085,0.020115497557544375,0.24451332536892872,0.4,0.03342103958129883,2.5250964164733887,STABILIZE
0.075,0.001,0.065,0.0025186127602619623,0.008293057253454405,2.5186127602619623e-06,0.03449404768874411,0.04278962355495878,0.09,0.001,0.07,-0.24637249552722482,0.0014125507081724003,-0.0002463724955272248,0.020190871232778212,0.02135704944542339,0.002,8e-05,0,-1.8362807157461198,-0.0012104199129836064,-0.0001469024572596896,-0.0,-0.0013573223702432959,0.6,0,0.3,0.04611985150281281,0.009279951831380926,0.0,-0.4229415450768601,-0.4136615932454792,0.015695007868582227,0.0,-0.015695007868582227,0.11057409671272539,0.0,-0.11057409671272539,-0.6052099564918032,0.0,0.6052099564918032,0.015466586385634876,0,-0.015466586385634876,0.042783856813074006,-0.021368599420357987,0.4136615932454792,0.4,0.03346729278564453,2.5585427284240723,STABILIZE
0.075,0.001,0.065,0.0057143596488444595,0.007169105920675796,5.71435964884446e-06,0.010159935556195097,0.017334755836519736,0.09,0.001,0.07,-0.24668354815050145,-0.0008373513726539658,-0.0002466835481505014,-0.009417941284000584,-0.010501976204805051,0.002,8e-05,0,-1.8562702644033882,-0.001195815952696006,-0.00014850162115227108,0.0,-0.001344317573848277,0.6,0,0.3,0.04518288840921196,-0.016815318348989777,0.0,-0.3236641644590526,-0.3404794828080424,-0.00930390414059962,0.0,0.00930390414059962,0.09558807894234396,0.0,-0.09558807894234396,-0.5979079763480031,0.0,0.5979079763480031,-0.02802553058164963,0,0.02802553058164963,0.017329616849643674,0.010510454032181126,0.3404794828080424,0.4,0.0334324836730957,2.591965913772583,STABILIZE
0.075,0.001,0.065,0.008421726272585023,0.006071301064726332,8.421726272585023e-06,-0.0129819604557629,-0.006902237664763983,0.09,0.001,0.07,-0.24712553616075547,-0.0011893958891510481,-0.0002471255361607555,-0.029474309888118427,-0.03091083131343023,0.002,8e-05,0,-1.876092932764397,-0.0011854017008811478,-0.00015008743462115176,0.0,-0.0013354891355022995,0.6,0,0.3,0.04274492593232308,-0.04373727311818009,0.0,-0.23010345330767554,-0.2738407264258556,-0.013215509879456092,0.0,0.013215509879456092,0.08095068086301777,0.0,-0.08095068086301777,-0.5927008504405739,0.0,0.5927008504405739,-0.07289545519696682,0,0.07289545519696682,-0.006941558858496255,0.030902024818484915,0.2738407264258556,0.4,0.03344464302062988,2.625434160232544,STABILIZE
