Mode,Time,Freq,time2delay,actualDelay,North-Desired,East-Desired,Down-Desired,Roll-UAV,Pitch-UAV,Yaw-UAV,Roll-Control,Pitch-Control,Yaw-Control,Thrust-Control,North-Pos,East-Pos,Down-Pos,Yaw-Ang,North-Vel,East-Vel,Down-Vel,Yaw-Vel,North-Acc,East-Acc,Down-Acc,North-Avg,East-Avg,Down-Avg,Yaw-Avg,North-Dif,East-Dif,Down-Dif,Yaw-Dif,North-One,East-One,Down-One,Yaw-One,North-Two,East-Two,Down-Two,Yaw-Two,Landing-State,Q-Size,Kalman-Time,Kalman-Dt
STABILIZE,0.034349679946899414,29.12043767747669,0.03275898297627767,0.03290247917175293,-10.0,40.0,10.0,-0.6156410751906563,-1.3300068785834405,-72.72742398037806,3.999901669730747,4.000098327852102,0.0002826221700410331,0.5186563469647749,0.022317905950959865,0.02996072644087992,0.6841311022168438,0.0014084600452243278,0.0392570742405951,0.15910498332232237,1.3353988528251648,0.1616285826629768,1.7019201070070267,1.3873912394046783,18.581831455230713,0.0,0.0,0.0,0.0,0.0,0.0,0.0,0.0,0.0,0.0,0.0,0.0,0.0,0.0,0.0,0.0,False,0,3.5018956661224365,0.034921142578125
STABILIZE,0.06776905059814453,29.92212535848303,0.03232720692952474,0.03258848190307617,-10.0,40.0,10.0,-0.6141294155891149,-1.3303368620977167,-72.73348235817187,3.999782257329179,4.000217730818498,0.0006267927808808877,0.518688852402624,0.024663411272623517,0.030567322315248405,0.6803855814373025,0.003118849130019508,0.1726935850456357,0.08186442428268492,1.124038454145193,0.09677341519340665,1.9695023074746132,-0.7931787520647049,10.329341143369675,0.0,0.0,0.0,0.0,0.0,0.0,0.0,0.0,0.0,0.0,0.0,0.0,0.0,0.0,0.0,0.0,False,1,3.530550718307495,0.029931884765625
STABILIZE,0.10131239891052246,29.813653293906913,0.032532485326131184,0.0326693058013916,-10.0,40.0,10.0,-0.6136731802968992,-1.3310731351459029,-72.73604367911062,3.9996805830650026,4.000319391430239,0.0009211108798978324,0.518720354084192,0.020341973327640855,0.03001598621592109,0.6771152092492706,0.0045751279105727405,-0.32003368251025677,-0.006177210161695257,0.999681930989027,0.1750932734152388,-7.202127575874329,1.2708226218819618,14.265574514865875,0.0,0.0,0.0,0.0,0.0,0.0,0.0,0.0,0.0,0.0,0.0,0.0,0.0,0.0,0.0,0.0,False,0,3.588005542755127,0.029932861328125
STABILIZE,0.1348116397857666,29.851847634231053,0.03243687947591146,0.03259730339050293,-10.0,40.0,10.0,-0.6144702847173809,-1.3314617088766532,-72.73934266047974,3.9999462264440053,4.000053772833105,0.00016064996228427083,0.5187508001817701,0.018911502227983865,0.0313525936611479,0.6743823351814231,0.0007702442746834936,-0.03452334203757346,0.13714515371248126,1.3306722044944763,-0.21406777356235962,1.0145504027605057,1.4332887716591358,17.72666424512863,0.0,0.0,0.0,0.0,0.0,0.0,0.0,0.0,0.0,0.0,0.0,0.0,0.0,0.0,0.0,0.0,False,0,3.616711139678955,0.034919921875
STABILIZE,0.1681840419769287,29.962738598696994,0.032381327946980794,0.03249979019165039,-10.0,40.0,10.0,-0.615255436306815,-1.331984751956688,-72.7445882457623,4.000105049930288,3.7248835799729307,-0.00031764780314779805,0.518786107387447,0.01631877527906666,0.03130596886838395,0.6692057296024126,-0.0016158428508004311,-0.10638863313943148,0.04636095545720309,0.9824748151004314,-0.13437700832869864,-1.2088213115930557,1.3197490014135838,14.313441514968872,0.0,0.0,0.0,0.0,0.0,0.0,0.0,0.0,0.0,0.0,0.0,0.0,0.0,0.0,0.0,0.0,False,0,3.645265579223633,0.03492138671875
STABILIZE,0.20168662071228027,29.848873453934726,0.03248480161031087,0.032619476318359375,-10.0,40.0,10.0,-0.6158631630603875,-1.332121996070323,-72.74737496294367,4.000120961733791,1.7280622792574818,-0.0007992210960673056,0.5188214630331742,0.013728145271605154,0.03123873990728916,0.6640215410132664,-0.004010292636643835,-0.10638863313943148,0.04636095545720309,0.9824748151004314,-0.13437700832869864,-1.2088213115930557,1.3197490014135838,14.313441514968872,0.0,0.0,0.0,0.0,0.0,0.0,0.0,0.0,0.0,0.0,0.0,0.0,0.0,0.0,0.0,0.0,False,0,3.6739304065704346,0.03492138671875
STABILIZE,0.23561763763427734,29.471352885790974,0.032429011662801106,0.033106327056884766,-10.0,40.0,10.0,-0.6150303602293219,-1.3334538829584754,-72.75346749168332,4.000039364522703,1.733971485571656,-0.0002581847211950902,0.5188579855654363,0.016433274428265407,0.03383273647711023,0.6584559251876858,-0.001300691491709879,0.19761179573833942,0.2005079062655568,0.9598592296242714,0.15917332975955556,6.4891815185546875,1.2414555996656418,9.66048389673233,0.0,0.0,0.0,0.0,0.0,0.0,0.0,0.0,0.0,0.0,0.0,0.0,0.0,0.0,0.0,0.0,False,0,3.702982187271118,0.029932861328125
STABILIZE,0.26927614212036133,29.710383713599626,0.032502206166585286,0.03286910057067871,-10.0,40.0,10.0,-0.6143446732696761,-1.3337266636384528,-72.7560902843246,4.0000279260211205,1.7446878692032126,-0.0001820796864925153,0.5188961345744674,0.021952695058684073,0.03472701986606175,0.6519759560114097,-0.0009170773863817689,0.2756675239652395,0.1395243569277227,1.3098354451358318,-0.02063277751804534,5.0853535532951355,1.465837936848402,20.4335555434227,0.0,0.0,0.0,0.0,0.0,0.0,0.0,0.0,0.0,0.0,0.0,0.0,0.0,0.0,0.0,0.0,False,0,3.7603979110717773,0.034920166015625
STABILIZE,0.3029301166534424,29.716488125602222,0.03251603444417318,0.032656192779541016,-10.0,40.0,10.0,-0.614342325392149,-1.333376936608607,-72.75932096380203,4.0000974158762865,1.7493709696777673,-0.0006388779517181811,0.5189242915727317,0.020599987221545865,0.03552328378307697,0.6504235546325463,-0.003190382921400367,-0.04291023942641914,0.09864949388429523,1.1633521877229214,-0.13164299832977625,0.46703508123755455,1.3814430683851242,16.696594655513763,0.0,0.0,0.0,0.0,0.0,0.0,0.0,0.0,0.0,0.0,0.0,0.0,0.0,0.0,0.0,0.0,False,0,3.7891366481781006,0.02993310546875
STABILIZE,0.3362281322479248,30.02923951487034,0.03232291539510091,0.03244280815124512,-10.0,40.0,10.0,-0.6134787333489654,-1.3319096198758178,-72.76567303973013,4.000135125877771,1.7553885176574888,-0.0008857723067612449,0.5189560236620967,0.020350074262752506,0.03710834719901452,0.647062244016309,-0.004410114059780996,0.02849927404895425,0.1606033300049603,1.2285075150430202,-0.07356792752956767,0.8357200771570206,-0.5789168644696474,16.30953550338745,0.0,0.0,0.0,0.0,0.0,0.0,0.0,0.0,0.0,0.0,0.0,0.0,0.0,0.0,0.0,0.0,False,0,3.817742347717285,0.0349208984375
STABILIZE,0.3697166442871094,29.862474546826718,0.032482417424519856,0.03260922431945801,-10.0,40.0,10.0,-0.6130504591436645,-1.3307608674347864,-72.7690744739368,4.000174685969146,1.7614776938212704,-0.001143828416155998,0.5189811129654884,0.020213223856380767,0.03893985538072632,0.6470320000825426,-0.005681390149296826,0.02849927404895425,0.1606033300049603,1.2285075150430202,-0.07356792752956767,0.8357200771570206,-0.5789168644696474,16.30953550338745,0.0,0.0,0.0,0.0,0.0,0.0,0.0,0.0,0.0,0.0,0.0,0.0,0.0,0.0,0.0,0.0,False,0,3.8465402126312256,0.0349208984375
STABILIZE,0.40311598777770996,29.940280821477774,0.032427342732747395,0.03253793716430664,-10.0,40.0,10.0,-0.6109848605282645,-1.3318932914548334,-72.77520798381147,4.000125468557258,1.7654467925275268,-0.0008245964670454511,0.5190099734291864,0.020380738952791758,0.03921775048656312,0.6451041242224308,-0.004071626584500846,0.04665324522648007,0.07046167156659067,1.1156203225255013,0.09512285729179076,-7.580804824829102,-0.5411532707512379,17.507997155189514,0.0,0.0,0.0,0.0,0.0,0.0,0.0,0.0,0.0,0.0,0.0,0.0,0.0,0.0,0.0,0.0,False,0,3.875067710876465,0.034919921875
STABILIZE,0.4366021156311035,29.863112402190087,0.03245285352071126,0.03258323669433594,-10.0,40.0,10.0,-0.6109452667754196,-1.332739701303386,-72.77908070107087,4.000231072050943,1.767890481009909,-0.001512828614110859,0.5190346247918236,0.020805015558611983,0.03762074119092933,0.6452977582952121,-0.007487735394457093,0.06176231545396149,-0.037254762719385326,1.239645853638649,-0.20160061059403683,-3.3354319632053375,-0.5667392630130053,16.536062955856323,0.0,0.0,0.0,0.0,0.0,0.0,0.0,0.0,0.0,0.0,0.0,0.0,0.0,0.0,0.0,0.0,False,0,3.90397572517395,0.034921875
STABILIZE,0.47029638290405273,29.68241971324643,0.03242019017537435,0.03273415565490723,-10.0,40.0,10.0,-0.6108478298580411,-1.3322612678963677,-72.78181960692804,4.000366464124324,1.7724735061523735,-0.0023919087023012197,0.519066265819904,0.019545848179220605,0.03768023060984786,0.6420648742949201,-0.011843308889414393,-0.03674905747175217,0.06254460313357413,1.037350483238697,-0.25556780285615877,6.930879503488541,-0.6598925683647394,11.89379021525383,0.0,0.0,0.0,0.0,0.0,0.0,0.0,0.0,0.0,0.0,0.0,0.0,0.0,0.0,0.0,0.0,False,1,3.9325501918792725,0.02993212890625
STABILIZE,0.5037136077880859,29.92020430437357,0.03234079678853353,0.03248929977416992,-10.0,40.0,10.0,-0.6108015659985849,-1.331976427663637,-72.7879121356677,4.0002452589245445,1.7778962264260179,-0.0016090715637639855,0.5191174857103172,0.019540360103139164,0.037113687970942895,0.6290038255900684,-0.007902666632289732,-0.016567918646615,-0.03253226459491998,0.6281116977334023,-0.015758070173385916,-0.27894596569240093,1.1058853007853031,6.364519149065018,0.0,0.0,0.0,0.0,0.0,0.0,0.0,0.0,0.0,0.0,0.0,0.0,0.0,0.0,0.0,0.0,False,0,3.989853858947754,0.034921142578125
STABILIZE,0.5371377468109131,29.918070089091465,0.03241422971089681,0.032544851303100586,-10.0,40.0,10.0,-0.6115631854518943,-1.3325128109568947,-72.79176436235959,4.000251529638471,1.7823823060364972,-0.0016508042873218125,0.5191623499902991,0.018627108209483465,0.03550960275660895,0.6191199510317706,-0.008084295503529355,-0.016567918646615,-0.03253226459491998,0.6281116977334023,-0.015758070173385916,-0.27894596569240093,1.1058853007853031,6.364519149065018,0.0,0.0,0.0,0.0,0.0,0.0,0.0,0.0,0.0,0.0,0.0,0.0,0.0,0.0,0.0,0.0,False,0,4.018556594848633,0.034921142578125
STABILIZE,0.570584774017334,29.899088977915913,0.032436641057332356,0.03254222869873047,-10.0,40.0,10.0,-0.6102661965615322,-1.3317908386172832,-72.79756319296492,4.00018971621539,1.7872059270607326,-0.0012542819393551415,0.519181926040151,0.018230338165215215,0.03705832959222895,0.6218668579790162,-0.006081362697138717,0.014245940838009119,0.15456776600331068,1.3725711032748222,0.11149233278254529,9.400631487369537,-0.8243748918175697,11.312521249055862,0.0,0.0,0.0,0.0,0.0,0.0,0.0,0.0,0.0,0.0,0.0,0.0,0.0,0.0,0.0,0.0,False,0,4.047405004501343,0.039908935546875
STABILIZE,0.6043086051940918,29.654088984099378,0.03241995175679525,0.03254270553588867,-10.0,40.0,10.0,-0.6103673687386131,-1.3316515667912383,-72.80040455165965,4.000162282292135,1.7922683302270013,-0.001078953056986715,0.5191991845843109,0.01850155974426145,0.03703304508182469,0.6257809642545299,-0.005187365615879508,0.04903797525912523,0.05026612197980285,1.2732935138046741,0.04607529554235564,-1.770995557308197,1.1581966653466225,14.381055533885956,0.0,0.0,0.0,0.0,0.0,0.0,0.0,0.0,0.0,0.0,0.0,0.0,0.0,0.0,0.0,0.0,False,0,4.076038122177124,0.02494384765625
STABILIZE,0.6374759674072266,30.14882116158712,0.03211263020833333,0.03225970268249512,-10.0,40.0,10.0,-0.6105374831376287,-1.3315986328251708,-72.80328689148939,4.000162539004147,1.7970204100828369,-0.0010813140550727902,0.5192375139228967,0.01715256941274714,0.03791579926009909,0.6191702187581168,-0.005181834093481964,-0.03379184927325696,0.14106051530689,1.1537197045981884,-0.012080603609769154,1.1982334777712822,1.1400452814996243,11.801749467849731,0.0,0.0,0.0,0.0,0.0,0.0,0.0,0.0,0.0,0.0,0.0,0.0,0.0,0.0,0.0,0.0,False,0,4.1046462059021,0.034921142578125
STABILIZE,0.6712079048156738,29.64465742193574,0.0324132760365804,0.03286480903625488,-10.0,40.0,10.0,-0.61081421252072,-1.332334905873357,-72.80985070328178,4.000013365496964,1.804421071913128,-0.00013011195123263197,0.5192704979155657,0.020246642597722127,0.03699860594674302,0.6153486866635443,-0.00042439112028428306,0.16618596855551004,0.11172436643391848,1.1372937820851803,0.10244688781509395,2.9596081003546715,1.1169624514877796,13.18027675151825,0.0,0.0,0.0,0.0,0.0,0.0,0.0,0.0,0.0,0.0,0.0,0.0,0.0,0.0,0.0,0.0,False,0,4.162350416183472,0.0349208984375
STABILIZE,0.7047252655029297,29.83570920472329,0.032480510075887044,0.03261280059814453,-10.0,40.0,10.0,-0.61159504188107,-1.3324270067054464,-72.81205002419452,3.999885601841051,1.8090038488666016,0.0006818992065175028,0.519290345831707,0.01844580305424603,0.03561754673251561,0.6179864103205068,0.003623535688473922,-0.07340912707149982,-0.01884845842141658,1.3157902285456657,0.2305317978143299,2.298441529273987,-0.8350505493581295,12.11414784193039,0.0,0.0,0.0,0.0,0.0,0.0,0.0,0.0,0.0,0.0,0.0,0.0,0.0,0.0,0.0,0.0,False,0,4.191045522689819,0.03492138671875
STABILIZE,0.7381784915924072,29.893548479060353,0.032408984502156575,0.032553672790527344,-10.0,40.0,10.0,-0.611929987954665,-1.3325832472827104,-72.81577247729217,3.999953967798467,1.812704371819248,0.00024917040577598047,0.519326846611062,0.016337269017530853,0.03563308217645673,0.612303520693409,0.0014550220159134132,-0.08985573658719659,0.06584863876923919,0.8192476816475391,-0.14040275596095728,-0.34350426867604256,1.0545184835791588,9.149390459060669,0.0,0.0,0.0,0.0,0.0,0.0,0.0,0.0,0.0,0.0,0.0,0.0,0.0,0.0,0.0,0.0,False,0,4.219989061355591,0.029912353515625
STABILIZE,0.7717070579528809,29.824040957087497,0.03241160710652669,0.03258848190307617,-10.0,40.0,10.0,-0.6113582797767938,-1.3326205998797338,-72.82181036451847,3.9999567043427433,1.8188003235358903,0.00023186635147248136,0.5193518085289212,0.018188814526429595,0.03418287308847958,0.6123983504154344,0.001363933872654672,0.1504347426816821,-0.011595994874369353,1.3315137475728989,-0.01039476084417927,4.051240906119347,-0.8425087668001652,11.492573469877243,0.0,0.0,0.0,0.0,0.0,0.0,0.0,0.0,0.0,0.0,0.0,0.0,0.0,0.0,0.0,0.0,False,0,4.248963356018066,0.034921142578125
STABILIZE,0.8050615787506104,29.98008620258322,0.03236344655354818,0.03248405456542969,-10.0,40.0,10.0,-0.6114702308461586,-1.3330085332802495,-72.82459708169984,3.9999581585976216,1.8257234789598347,0.00022258111856501454,0.5193704908183583,0.020131240452250548,0.032901109079638835,0.6155971169132406,0.0013131210620675367,0.1504347426816821,-0.011595994874369353,1.3315137475728989,-0.01039476084417927,4.051240906119347,-0.8425087668001652,11.492573469877243,0.0,0.0,0.0,0.0,0.0,0.0,0.0,0.0,0.0,0.0,0.0,0.0,0.0,0.0,0.0,0.0,False,0,4.277695178985596,0.034921142578125
STABILIZE,0.838493824005127,29.9110293383538,0.03245356877644857,0.032569169998168945,-10.0,40.0,10.0,-0.6092482849317887,-1.3335402208184526,-72.83118138405972,3.999992252378421,1.8281833763600106,8.682031283498296e-06,0.5193962202572391,0.018553242130845648,0.03265272251672276,0.6152838252791935,0.00024281375791241895,-0.060620426665991545,0.05079517140984535,1.1211773380637169,-0.06980233885245518,2.8235841542482376,1.2717816978693008,17.88248121738434,0.0,0.0,0.0,0.0,0.0,0.0,0.0,0.0,0.0,0.0,0.0,0.0,0.0,0.0,0.0,0.0,False,0,4.30621337890625,0.0349208984375
STABILIZE,0.8721024990081787,29.75633358163953,0.03245428403218587,0.03276658058166504,-10.0,40.0,10.0,-0.609778478366111,-1.3342045634369422,-72.83476040318482,3.9999661064312217,1.8339467155066396,0.0001726147736974232,0.5194290092784585,0.018232732288382035,0.03217874693139468,0.6115158881834947,0.00105891712552934,0.015668501146137714,0.03713342593982816,0.9185988456010818,0.0439049462376779,-1.2805139645934105,-0.691613694652915,14.74267840385437,0.0,0.0,0.0,0.0,0.0,0.0,0.0,0.0,0.0,0.0,0.0,0.0,0.0,0.0,0.0,0.0,False,1,4.334958553314209,0.0349208984375
STABILIZE,0.9057023525238037,29.762879282450115,0.03246644337972005,0.032623291015625,-10.0,40.0,10.0,-0.6101802855883782,-1.333727090525276,-72.8370621769351,3.999968543857331,1.8405983565941693,0.00015732971420460968,0.5194603843272511,0.019184796602155225,0.03318659372764337,0.6084075281766924,0.0009792129165583365,0.06559728644788265,0.0985869555734098,1.1365214362740517,-0.005394648825120032,2.4143196642398834,1.373199187219143,20.226414501667023,0.0,0.0,0.0,0.0,0.0,0.0,0.0,0.0,0.0,0.0,0.0,0.0,0.0,0.0,0.0,0.0,False,0,4.392551422119141,0.02993212890625
STABILIZE,0.9391634464263916,29.883751086538325,0.03234151204427083,0.03248858451843262,-10.0,40.0,10.0,-0.6100057955994255,-1.3326741741760362,-72.84241021505522,3.9998795243251486,1.8415904324400845,0.0007136997159279691,0.5194829857334033,0.01402718864011258,0.03607342110160144,0.6096754255013161,0.003748519789165683,-0.27145184576511383,0.2457244787365198,1.3744967058300972,0.16551278584595877,-2.3598583415150642,1.1971155181527138,13.373391330242157,0.0,0.0,0.0,0.0,0.0,0.0,0.0,0.0,0.0,0.0,0.0,0.0,0.0,0.0,0.0,0.0,False,0,4.4210205078125,0.0349208984375
STABILIZE,0.9725768566131592,29.927676456317606,0.03235987027486165,0.03250598907470703,-10.0,40.0,10.0,-0.6097204217581659,-1.3324407738054922,-72.84504666807486,3.9998261203282235,1.8469331696031601,0.0010465401719019825,0.5195056829229675,0.015770370005744824,0.034283289778713914,0.6108971983979488,0.005394665782449586,0.14100128319114447,-0.047414060099981725,1.184924878180027,0.0945454795232999,4.875478148460388,-0.7849154993891716,15.641029179096222,0.0,0.0,0.0,0.0,0.0,0.0,0.0,0.0,0.0,0.0,0.0,0.0,0.0,0.0,0.0,0.0,False,0,4.4498817920684814,0.02993310546875
STABILIZE,1.0060083866119385,29.91166926966332,0.03240803082784017,0.03254342079162598,-10.0,40.0,10.0,-0.609242788763941,-1.3326304182766657,-72.85079085716683,3.999775699319852,1.8539317652876142,0.0013588284011298898,0.5195342337147629,0.0174831426595921,0.032314305396436725,0.6091848799902778,0.006932919695570842,0.14100128319114447,-0.047414060099981725,1.184924878180027,0.0945454795232999,4.875478148460388,-0.7849154993891716,15.641029179096222,0.0,0.0,0.0,0.0,0.0,0.0,0.0,0.0,0.0,0.0,0.0,0.0,0.0,0.0,0.0,0.0,False,0,4.4790873527526855,0.02993310546875
STABILIZE,1.0394883155822754,29.869067033178325,0.0324132760365804,0.0325467586517334,-10.0,40.0,10.0,-0.6093098099951718,-1.3326645692225159,-72.8536458762399,3.999845915827104,1.859948842362691,0.0009248175953313922,0.5195679369587881,0.019011770093481522,0.03284195367445794,0.604901170248668,0.004746990431953025,0.13056256575509906,0.10289024794474244,1.014226395636797,-0.13110195930210397,2.0721260458230972,-0.8386760018765926,12.428447604179382,0.0,0.0,0.0,0.0,0.0,0.0,0.0,0.0,0.0,0.0,0.0,0.0,0.0,0.0,0.0,0.0,False,0,4.50785756111145,0.069842041015625
STABILIZE,1.0728569030761719,29.967876536153188,0.03240493138631185,0.03252243995666504,-10.0,40.0,10.0,-0.6098726602714631,-1.3334910221120875,-72.85640527266459,3.9998393226587754,1.8637556936107813,0.0009667259894900753,0.5195483010830849,0.017816362697246655,0.033080434077683296,0.627252829842413,0.004940017286913437,-0.0760039605665952,0.017723125347401947,1.2414819560945034,-0.014767556006548535,-2.376358024775982,-0.8047265931963921,18.56216937303543,0.0,0.0,0.0,0.0,0.0,0.0,0.0,0.0,0.0,0.0,0.0,0.0,0.0,0.0,0.0,0.0,False,1,4.536531448364258,0.029931884765625
STABILIZE,1.1063637733459473,29.844413294530344,0.03247264226277669,0.032611846923828125,-10.0,40.0,10.0,-0.6096622584285151,-1.3326607272411077,-72.86324229202377,3.9998700561502165,1.8681949762126628,0.0007785005556675374,0.5195864819544027,0.013207950745946816,0.03363356497026767,0.6207177354755045,0.003985552218660098,-0.03363219439052045,0.0671996152959764,1.1186865158379078,0.02941215526782362,0.01762164756655693,1.101753581315279,14.831431210041046,0.0,0.0,0.0,0.0,0.0,0.0,0.0,0.0,0.0,0.0,0.0,0.0,0.0,0.0,0.0,0.0,False,0,4.594191074371338,0.034921142578125
STABILIZE,1.1397979259490967,29.90974955787552,0.03242638905843099,0.03255057334899902,-10.0,40.0,10.0,-0.61037617327934,-1.3326236948092016,-72.86695791493226,3.9998871801961973,1.8701411952515676,0.000675041927659101,0.5196137536048968,0.009807879781357772,0.03563671506137252,0.6196297620906118,0.0034566992603084386,-0.15414522495120764,0.17777063185349107,1.127666886895895,-0.025009231233890927,1.9012028351426125,1.0410312563180923,12.415140867233276,0.0,0.0,0.0,0.0,0.0,0.0,0.0,0.0,0.0,0.0,0.0,0.0,0.0,0.0,0.0,0.0,False,0,4.623196363449097,0.0349208984375
STABILIZE,1.1732888221740723,29.861198917841378,0.032434733708699544,0.03255820274353027,-10.0,40.0,10.0,-0.6097567071381316,-1.3347982562862044,-72.87266112288921,3.9999373076125138,1.8727436687276926,0.00036860786031715716,0.5196344147910705,0.007509694254069755,0.0325417959647915,0.6218429870535133,0.0019181149541614535,-0.09236902114935219,-0.10936006437987089,1.309028547257185,-0.08104777174331178,1.4530189335346222,-0.8716445416212082,16.666750609874725,0.0,0.0,0.0,0.0,0.0,0.0,0.0,0.0,0.0,0.0,0.0,0.0,0.0,0.0,0.0,0.0,False,0,4.651280164718628,0.02993212890625
STABILIZE,1.2067279815673828,29.903139102970847,0.03237632115681966,0.032538414001464844,-10.0,40.0,10.0,-0.6102009895992998,-1.33539034830988,-72.87552297215144,3.999987199488531,1.8755231053003572,6.345645992870457e-05,0.5196608873475305,0.0053364864592062656,0.02933108966748229,0.6211683340832179,0.0003910485659016428,-0.09236902114935219,-0.10936006437987089,1.309028547257185,-0.08104777174331178,1.4530189335346222,-0.8716445416212082,16.666750609874725,0.0,0.0,0.0,0.0,0.0,0.0,0.0,0.0,0.0,0.0,0.0,0.0,0.0,0.0,0.0,0.0,False,0,4.680061340332031,0.02993212890625
STABILIZE,1.2401771545410156,29.896105377202485,0.03242376645406087,0.03255200386047363,-10.0,40.0,10.0,-0.6101333280378344,-1.3345503417636742,-72.87926591581662,3.999866237648577,1.8779955123646552,0.0008042297027817655,0.5196915713153238,0.00013369449076040905,0.02946104067640576,0.618375968682213,0.004081266201403793,-0.27084259781986475,0.07795476703904569,1.171095110476017,0.2172899553239528,-8.813053369522095,-0.8737574331462383,16.725455224514008,0.0,0.0,0.0,0.0,0.0,0.0,0.0,0.0,0.0,0.0,0.0,0.0,0.0,0.0,0.0,0.0,False,0,4.708765268325806,0.0349208984375
STABILIZE,1.2759160995483398,27.98030713399421,0.03242042859395345,0.03492379188537598,-10.0,40.0,10.0,-0.6100187089258251,-1.3350289886141038,-72.88504425585444,3.999844021851024,1.8855185791475875,0.0009394036993440714,0.5197244914421297,-2.166919122271408e-05,0.026392266789265387,0.6153538161785995,0.004740167524026113,0.17980097327381372,-0.020651312661357224,1.0684700682759285,-0.07206026999199314,3.9244502782821655,1.1468339711427689,19.121868908405304,0.0,0.0,0.0,0.0,0.0,0.0,0.0,0.0,0.0,0.0,0.0,0.0,0.0,0.0,0.0,0.0,False,0,4.766510009765625,0.029931884765625
STABILIZE,1.3096060752868652,29.686621462848407,0.03251460393269857,0.03263998031616211,-10.0,40.0,10.0,-0.6100705756748348,-1.3350137274101772,-72.88752361452316,3.9998072475586492,1.8910180974294737,0.0011634436461120162,0.5197553403687489,-0.0019099325816707834,0.025959166038763082,0.6124974885127056,0.005840817811557807,-0.09113826672546566,0.04087732813786715,1.1520308442413807,0.07154657840142735,-0.957487802952528,-1.0540382005274296,8.496890217065811,0.0,0.0,0.0,0.0,0.0,0.0,0.0,0.0,0.0,0.0,0.0,0.0,0.0,0.0,0.0,0.0,False,0,4.794797658920288,0.034921142578125
STABILIZE,1.342984914779663,29.956104703067528,0.03220656712849935,0.032343387603759766,-10.0,40.0,10.0,-0.610415286784509,-1.3350340045342757,-72.89353418099277,3.9999239099843704,1.896393484785258,0.00045661929276809147,0.5197815104102743,-0.0026697469820035967,0.024785782431381163,0.6119723533321351,0.0022990066606307785,-0.019638870435301214,-0.007247162284329534,1.1017697863280773,-0.20035700923699204,1.6111349686980247,1.0325887240469456,16.55551642179489,0.0,0.0,0.0,0.0,0.0,0.0,0.0,0.0,0.0,0.0,0.0,0.0,0.0,0.0,0.0,0.0,False,0,4.823521375656128,0.034922119140625
STABILIZE,1.3763427734375,29.97965762481684,0.03233173688252767,0.03244185447692871,-10.0,40.0,10.0,-0.610935288295929,-1.3349367810603088,-72.89643018120086,4.000042668889284,1.9017341653963498,-0.00026114240759757924,0.5198077678549148,-0.0033774819545793226,0.023627141787751556,0.611395066642364,-0.001285505425830359,-0.019638870435301214,-0.007247162284329534,1.1017697863280773,-0.20035700923699204,1.6111349686980247,1.0325887240469456,16.55551642179489,0.0,0.0,0.0,0.0,0.0,0.0,0.0,0.0,0.0,0.0,0.0,0.0,0.0,0.0,0.0,0.0,False,0,4.852087020874023,0.034922119140625
STABILIZE,1.4098865985870361,29.809839234694604,0.03240636189778646,0.03268623352050781,-10.0,40.0,10.0,-0.6113756220539833,-1.3356128630664341,-72.90155965326754,4.0000877619579,1.9087377184662564,-0.0005326670597701629,0.5198319003021694,-0.0040407713960732726,0.023931470346665106,0.6119443650877889,-0.0026342789298114677,-0.01991606695810333,0.07626577280461788,1.1695632711052895,-0.0698239299875561,-1.7277782782912254,-0.8859210647642612,17.315374314785004,0.0,0.0,0.0,0.0,0.0,0.0,0.0,0.0,0.0,0.0,0.0,0.0,0.0,0.0,0.0,0.0,False,0,4.880801200866699,0.029931884765625
STABILIZE,1.4435455799102783,29.71080462701263,0.03246477444966634,0.03261137008666992,-10.0,40.0,10.0,-0.616151471748556,-1.3406141623644703,-72.90446248366479,3.999957711664218,1.9140272639233369,0.0002482197126887,0.5198636571330115,-0.004151921659646817,0.022670233261906536,0.6086426496218487,0.0012659167126841567,0.0017284808563999832,-0.01366456417599693,1.1155971325933933,0.23149936347937097,0.5537910852581263,-1.062148530036211,10.563302040100098,0.0,0.0,0.0,0.0,0.0,0.0,0.0,0.0,0.0,0.0,0.0,0.0,0.0,0.0,0.0,0.0,False,0,4.909505128860474,0.034921142578125
STABILIZE,1.4771373271942139,29.767948899929028,0.03226736386617025,0.03274703025817871,-10.0,40.0,10.0,-0.6199561005596647,-1.3374300135507748,-72.92415391904194,3.9998492075779715,1.9189817057173415,0.0008986051624942323,0.5198968673088185,-0.006073986846624286,0.02057191677271556,0.6047304259754751,0.004502636480649755,-0.141107605304569,-0.08123292936943471,0.9507298469543457,0.029507431070660006,-3.059627488255501,-0.9903441183269024,12.529879808425903,0.0,0.0,0.0,0.0,0.0,0.0,0.0,0.0,0.0,0.0,0.0,0.0,0.0,0.0,0.0,0.0,False,0,4.96727728843689,0.029931884765625
STABILIZE,1.5106546878814697,29.83570920472329,0.03248790105183919,0.03263235092163086,-10.0,40.0,10.0,-0.707557758976721,-1.4394026034249496,-72.99858932061674,3.9995720464715894,1.9234916388323537,0.0025567295842476995,0.5199627424559696,-0.008308569852792753,0.01711110200333353,0.5844035393403962,0.012750565227644308,-0.12920385925099254,-0.14885187847539783,0.0981292687356472,0.49269078658040383,-0.8072841912508011,-7.860894501209259,-27.245628833770752,0.0,0.0,0.0,0.0,0.0,0.0,0.0,0.0,0.0,0.0,0.0,0.0,0.0,0.0,0.0,0.0,False,0,4.995559930801392,0.034921142578125
STABILIZE,1.5442256927490234,29.788033095415646,0.03242615063985189,0.032562971115112305,-10.0,40.0,10.0,-0.7191088361628291,-1.4545537772730361,-72.9621297708272,3.99672626808897,1.9226706555014799,0.019618204349236182,0.5199883255759452,-0.026973966237998533,-0.016857909150053193,0.5842170792928479,0.09773085335399247,-1.0883503593504429,-1.9445287063717842,1.111963577568531,4.9988199393673405,-38.5369598865509,-31.695672869682312,-21.81815356016159,0.0,0.0,0.0,0.0,0.0,0.0,0.0,0.0,0.0,0.0,0.0,0.0,0.0,0.0,0.0,0.0,False,0,5.024360656738281,0.0349208984375
STABILIZE,1.5777132511138916,29.861624115393926,0.03230717976888021,0.03258824348449707,-10.0,40.0,10.0,-0.6979657187827902,-1.4206038951166646,-72.92820422121976,3.997675810201043,1.9434263046409384,0.013839279537126534,0.5200749047885451,-7.4201665342214784e-06,9.6414484449317e-07,0.5536134515103331,0.06860589441928311,1.5967588871717453,1.054831501096487,-0.6749303545802832,-1.742514445959068,28.577831387519836,72.75312542915344,-30.440127849578857,0.0,0.0,0.0,0.0,0.0,0.0,0.0,0.0,0.0,0.0,0.0,0.0,0.0,0.0,0.0,0.0,False,0,5.053077220916748,0.02993212890625
STABILIZE,1.6113555431365967,29.727861648593098,0.032424004872639973,0.03255748748779297,-10.0,40.0,10.0,-0.6738185454675621,-1.4084435970731033,-72.95835950640536,3.997941769059826,1.9415974137558438,0.012319601257715798,0.5201583935401186,-0.009808024513073842,0.031622987379359584,0.524552152650421,0.06080403447406095,-0.5851504392921925,1.9108757376670837,-0.4673830699175596,-0.4060527184448482,-42.94649362564087,33.0483078956604,-75.94766616821289,0.0,0.0,0.0,0.0,0.0,0.0,0.0,0.0,0.0,0.0,0.0,0.0,0.0,0.0,0.0,0.0,False,0,5.081688642501831,0.0349208984375
STABILIZE,1.644648551940918,30.03095957498604,0.03220823605855306,0.03233909606933594,-10.0,40.0,10.0,-0.5854239447765496,-1.3038295382591318,-72.92021973008,3.998184256563342,1.9405988761267872,0.010926927784072903,0.52023753849358,-0.019702911985638977,0.06344859790825025,0.4976896467400233,0.053661228468646086,-0.5851504392921925,1.9108757376670837,-0.4673830699175596,-0.4060527184448482,-42.94649362564087,33.0483078956604,-75.94766616821289,0.0,0.0,0.0,0.0,0.0,0.0,0.0,0.0,0.0,0.0,0.0,0.0,0.0,0.0,0.0,0.0,False,0,5.1104559898376465,0.0349208984375
STABILIZE,1.6781182289123535,29.877790599934464,0.03239038785298665,0.03261756896972656,-10.0,40.0,10.0,-0.6519156229032121,-1.3808746057054047,-72.99412237689955,4.0000617919346,1.9339848419114765,-0.00017266027406180533,0.5201813247319552,-0.03333641555804209,0.09287999511899017,0.5384885613102421,-0.0018305728208254102,1.5307598747313023,2.4357808753848076,2.8421957045793533,-4.345928133021346,99.9302864074707,38.584282994270325,117.04376935958862,0.0,0.0,0.0,0.0,0.0,0.0,0.0,0.0,0.0,0.0,0.0,0.0,0.0,0.0,0.0,0.0,False,0,5.16780686378479,0.02993212890625
STABILIZE,1.7116446495056152,29.828070774307335,0.03247860272725423,0.03261876106262207,-10.0,40.0,10.0,-0.5529026393737686,-1.2645924493549359,-73.03327985141124,3.9987606633063417,1.942969728743499,0.00753206359759144,0.5203259650672578,-0.045105164854551155,0.07491339852641311,0.47892697800133543,0.036570531928274724,-0.7340520620346069,-0.9788365103304386,-2.348003163933754,2.3393380831820747,-44.37294006347656,-164.0199899673462,-125.39280652999878,0.0,0.0,0.0,0.0,0.0,0.0,0.0,0.0,0.0,0.0,0.0,0.0,0.0,0.0,0.0,0.0,False,0,5.196516752243042,0.0349208984375
STABILIZE,1.7451121807098389,29.88077054599339,0.0324127991994222,0.032541513442993164,-10.0,40.0,10.0,-0.5674504620582197,-1.2958509168132049,-72.88884867122215,3.997101091472587,1.9424389706533158,0.01740326289528345,0.520260172830192,-0.039088607329647355,0.04296707974620729,0.5244894494057403,0.0856403299492815,0.3480973653495312,-1.8512703478336334,3.7723369896411896,2.96087505236948,88.64778876304626,96.71756029129028,153.00066471099854,0.0,0.0,0.0,0.0,0.0,0.0,0.0,0.0,0.0,0.0,0.0,0.0,0.0,0.0,0.0,0.0,False,0,5.2252020835876465,0.03488916015625
STABILIZE,1.7797682285308838,28.853206023375318,0.032380135854085286,0.03377270698547363,-10.0,40.0,10.0,-0.5592010876447253,-1.2398710065408978,-72.83791595058136,3.995386025973987,1.959712523539723,0.027413715879299905,0.5201935185894575,-0.03284303162869619,0.010453740028262777,0.5709027765108842,0.1352234190893104,0.3480973653495312,-1.8512703478336334,3.7723369896411896,2.96087505236948,88.64778876304626,96.71756029129028,153.00066471099854,0.0,0.0,0.0,0.0,0.0,0.0,0.0,0.0,0.0,0.0,0.0,0.0,0.0,0.0,0.0,0.0,False,0,5.253865957260132,0.03488916015625
STABILIZE,1.8132479190826416,29.87013061003575,0.03244784673055013,0.03259110450744629,-10.0,40.0,10.0,-0.5782050751540808,-1.2556062682847262,-72.9067369366584,4.0004442731244625,1.959481808419564,-0.002237195218546769,0.5202146993851409,-0.032269601852611386,0.1420128304567028,0.5729348299734067,-0.012987661542578854,0.0034981698263436556,7.837219536304474,1.1229397729039192,-8.707972097389337,28.01755666732788,152.55423784255981,55.15528917312622,0.0,0.0,0.0,0.0,0.0,0.0,0.0,0.0,0.0,0.0,0.0,0.0,0.0,0.0,0.0,0.0,False,0,5.28253173828125,0.02993212890625
STABILIZE,1.8467466831207275,29.851847634231053,0.03243211110432943,0.03257918357849121,-10.0,40.0,10.0,-0.5615532874010013,-1.265213462960878,-72.90683938949596,4.002091373092927,1.9644133920250921,-0.011867022219305648,0.5202258506825106,-0.03725158555806728,0.08732803357136379,0.5799741835887338,-0.060932798328625984,-0.34684028942137957,-3.134080395102501,1.6023416072130203,-2.7787083576765395,-25.280296802520752,-248.85475635528564,115.84805250167847,0.0,0.0,0.0,0.0,0.0,0.0,0.0,0.0,0.0,0.0,0.0,0.0,0.0,0.0,0.0,0.0,False,0,5.311350107192993,0.0349208984375
STABILIZE,1.8804991245269775,29.627067881613335,0.03236964543660482,0.03281569480895996,-10.0,40.0,10.0,-0.5977823183060414,-1.3237917266038461,-72.84232142259602,3.997501055048061,1.977540063117661,0.014867518316379169,0.5204227597578992,-0.04787736591537631,0.07963975094124023,0.4943483087041789,0.07249530832000158,-0.8905076421797276,1.723714917898178,2.528275176882744,0.5928390756159505,9.140124917030334,16.673237085342407,81.60287141799927,0.0,0.0,0.0,0.0,0.0,0.0,0.0,0.0,0.0,0.0,0.0,0.0,0.0,0.0,0.0,0.0,False,0,5.369600057601929,0.03492138671875
STABILIZE,1.915578842163086,28.506888325528603,0.03238490422566732,0.034214019775390625,-10.0,40.0,10.0,-0.6977736730732365,-1.3861719510152783,-72.96604346922163,3.9971904514512913,1.9714768002507663,0.016780022427784168,0.5203985126562449,-0.06238038290736915,0.10753171685118035,0.5197985107222927,0.08177045988023314,-0.8905076421797276,1.723714917898178,2.528275176882744,0.5928390756159505,9.140124917030334,16.673237085342407,81.60287141799927,0.0,0.0,0.0,0.0,0.0,0.0,0.0,0.0,0.0,0.0,0.0,0.0,0.0,0.0,0.0,0.0,False,0,5.398183584213257,0.03492138671875
STABILIZE,1.9492065906524658,29.73882216140331,0.03245690663655599,0.03266000747680664,-10.0,40.0,10.0,-0.7724156878704284,-1.4908246430867427,-72.99603482986716,3.9965451557109337,1.9911145100593766,0.020410568018547584,0.5204089322844117,-0.037255978296221584,0.030528701872041195,0.5272863622165322,0.09958945201002031,1.4415462501347065,-4.4516704976558685,1.44430510699749,1.1002469988670278,28.548336029052734,-123.56569766998291,21.91058099269867,0.0,0.0,0.0,0.0,0.0,0.0,0.0,0.0,0.0,0.0,0.0,0.0,0.0,0.0,0.0,0.0,False,0,5.426864385604858,0.064852783203125
STABILIZE,1.9826982021331787,29.859073111696446,0.03233960469563802,0.032532691955566406,-10.0,40.0,10.0,-0.7826246328846289,-1.4881077219009586,-72.96171312928784,3.9952360301907976,2.0525435962878005,0.027239164202748356,0.5204484991243953,0.0466087021857384,-0.01913569455039194,0.5202083777412639,0.1332858369839442,4.581353068351746,-2.5221629068255424,-0.14961159322410822,1.5529487354042995,73.4307587146759,0.4746061749756336,12.91462928056717,0.0,0.0,0.0,0.0,0.0,0.0,0.0,0.0,0.0,0.0,0.0,0.0,0.0,0.0,0.0,0.0,False,0,5.455533266067505,0.034921142578125
STABILIZE,2.01663875579834,29.464106833013705,0.032354148228963216,0.03246736526489258,-10.0,40.0,10.0,-0.8087608319913586,-1.498996003933311,-72.87258599080835,3.99411113230131,2.1175155745503584,0.03264105132361687,0.5205193874637379,0.13240364843366453,-0.06765536802256975,0.49746505448083705,0.15976143989990813,4.581353068351746,-2.5221629068255424,-0.14961159322410822,1.5529487354042995,73.4307587146759,0.4746061749756336,12.91462928056717,0.0,0.0,0.0,0.0,0.0,0.0,0.0,0.0,0.0,0.0,0.0,0.0,0.0,0.0,0.0,0.0,False,0,5.484647512435913,0.034921142578125
STABILIZE,2.049849033355713,30.108134493352857,0.03184679349263509,0.03231334686279297,-10.0,40.0,10.0,-0.8331473820926545,-1.5224407349810856,-72.7944691172709,3.998261389849496,2.160249011791101,0.009949382808865873,0.5205147150323116,0.19526736258530697,-0.09246719850204597,0.5126256239526819,0.04614715128419078,3.340861201286316,-1.2421471066772938,1.9047772511839867,-6.068307608194039,67.17281937599182,-28.995493054389954,68.09890270233154,0.0,0.0,0.0,0.0,0.0,0.0,0.0,0.0,0.0,0.0,0.0,0.0,0.0,0.0,0.0,0.0,False,1,5.513505935668945,0.034921142578125
STABILIZE,2.0833475589752197,29.85036046999879,0.032433303197224934,0.032567739486694336,-10.0,40.0,10.0,-0.7824998752105703,-1.490248345875523,-72.8733236512387,4.003836254346992,2.2101848118858314,-0.019205161241675223,0.520472972737815,0.2698244566473354,-0.11661183514593056,0.5461464357982271,-0.09929342174588526,0.6593549158424139,0.06911379168741405,2.0310811698436737,-1.5398944296314068,46.013230085372925,52.54439115524292,55.563199520111084,0.0,0.0,0.0,0.0,0.0,0.0,0.0,0.0,0.0,0.0,0.0,0.0,0.0,0.0,0.0,0.0,False,0,5.5705859661102295,0.0349208984375
STABILIZE,2.1167218685150146,29.963808857042842,0.03239277203877767,0.032514095306396484,-10.0,40.0,10.0,-0.7894877457008752,-1.4907757645454949,-72.85696534817653,4.003117599224333,2.1889748920915895,-0.01570023593249714,0.5205011618682055,0.24577351340802853,-0.11482862255271854,0.5446986931850387,-0.08149628430497965,-1.2782840058207512,0.12459922581911087,0.9579800069332123,1.1170116981848242,-67.63521432876587,-44.251036643981934,28.869393467903137,0.0,0.0,0.0,0.0,0.0,0.0,0.0,0.0,0.0,0.0,0.0,0.0,0.0,0.0,0.0,0.0,False,0,5.599398136138916,0.02993310546875
STABILIZE,2.150172233581543,29.89461380013257,0.03244927724202474,0.03258109092712402,-10.0,40.0,10.0,-0.8278228227478064,-1.5227568446736102,-72.80365572170457,4.002487775596759,2.150314732873024,-0.012688550044823698,0.5205421045587776,0.23833964690331727,-0.11113689202782415,0.536891381597911,-0.06621631939290505,-0.14381854562088847,0.11055320501327515,0.749473087489605,0.8575253410966349,59.63640809059143,19.26412731409073,10.99032312631607,0.0,0.0,0.0,0.0,0.0,0.0,0.0,0.0,0.0,0.0,0.0,0.0,0.0,0.0,0.0,0.0,False,0,5.628218650817871,0.0349208984375
STABILIZE,2.1836845874786377,29.841652911377995,0.03246787389119466,0.032611846923828125,-10.0,40.0,10.0,-0.8445425388666159,-1.5132214737054492,-72.80944772212075,4.004773317245488,2.1472236235865707,-0.024951688780946526,0.5205585560054875,0.2955431426596241,-0.11857118031700284,0.5413252917323887,-0.12710670921164152,3.312249109148979,-0.4289092496037483,1.2692426331341267,-3.318418166503311,61.590129137039185,-23.5831618309021,21.218745410442352,0.0,0.0,0.0,0.0,0.0,0.0,0.0,0.0,0.0,0.0,0.0,0.0,0.0,0.0,0.0,0.0,False,0,5.65720272064209,0.0349208984375
STABILIZE,2.224010467529297,24.797970899674233,0.032384665807088216,0.03946805000305176,-10.0,40.0,10.0,-0.8472009765576317,-1.5142249779049122,-72.918170673329,4.002923840999675,2.111616708141655,-0.015440438594038155,0.5206335331079243,0.26833229126209734,-0.1446839804874573,0.5191498484181808,-0.07923053293266726,-1.2562419287860394,-2.3577552288770676,0.8954165503382683,4.843742201809494,-16.06087237596512,-94.92020606994629,22.095006704330444,0.0,0.0,0.0,0.0,0.0,0.0,0.0,0.0,0.0,0.0,0.0,0.0,0.0,0.0,0.0,0.0,False,0,5.714186191558838,0.034933837890625
STABILIZE,2.257505416870117,29.853334946653664,0.032472880681355794,0.0326235294342041,-10.0,40.0,10.0,-0.8905555489534348,-1.5453650909914696,-72.81530802442862,3.9997872908359002,2.0702831241715165,0.0015870856970606568,0.5206628395759787,0.24246938849856364,-0.18514469565380087,0.5171932491964399,0.005887381821290616,-1.2562419287860394,-2.3577552288770676,0.8954165503382683,4.843742201809494,-16.06087237596512,-94.92020606994629,22.095006704330444,0.0,0.0,0.0,0.0,0.0,0.0,0.0,0.0,0.0,0.0,0.0,0.0,0.0,0.0,0.0,0.0,False,0,5.742871522903442,0.034933837890625
STABILIZE,2.2910592555999756,29.80242580131735,0.03244498570760091,0.03258490562438965,-10.0,40.0,10.0,-0.9105956975042224,-1.5596074227931214,-72.74440383065472,4.001487001470894,2.1177703262762204,-0.007658055539705676,0.5206859700866758,0.2949646440721156,-0.18613811672832922,0.5183158915841737,-0.040203827671796456,3.243725001811981,-0.1279063755646348,1.068516168743372,-2.660587493057162,106.81778192520142,50.075387954711914,12.132224440574646,0.0,0.0,0.0,0.0,0.0,0.0,0.0,0.0,0.0,0.0,0.0,0.0,0.0,0.0,0.0,0.0,False,0,5.771827459335327,0.03991015625
STABILIZE,2.3246521949768066,29.769427863697985,0.03234747250874837,0.03271365165710449,-10.0,40.0,10.0,-0.8867938756289032,-1.5375339589429327,-72.92798565516631,4.004229674991558,2.139223420149694,-0.022308754431799735,0.5207189031481889,0.32251847634052155,-0.15864343176290369,0.5146275878856547,-0.11307649440677506,1.6579177230596542,1.5586466528475285,0.6619531661272049,-4.090525161839766,-19.04735267162323,37.618255615234375,9.885911643505096,0.0,0.0,0.0,0.0,0.0,0.0,0.0,0.0,0.0,0.0,0.0,0.0,0.0,0.0,0.0,0.0,False,0,5.801088333129883,0.029931884765625
STABILIZE,2.35821533203125,29.795016054328986,0.03243854840596517,0.032579660415649414,-10.0,40.0,10.0,-0.9010761213485172,-1.5704498144919878,-72.93506173114645,4.00258846500593,2.1035764818052383,-0.01382470088660515,0.520757098960724,0.29714246599003347,-0.17425617695354242,0.5082379446978229,-0.07042051637666974,-0.9608698077499866,-1.1297311633825302,0.7809297181665897,2.3319631864257535,-36.58510744571686,-66.69911742210388,2.58108489215374,0.0,0.0,0.0,0.0,0.0,0.0,0.0,0.0,0.0,0.0,0.0,0.0,0.0,0.0,0.0,0.0,False,0,5.829156160354614,0.02993310546875
STABILIZE,2.391664981842041,29.894400729843767,0.032335551579793294,0.03247404098510742,-10.0,40.0,10.0,-0.8161184931921962,-1.486052688734431,-72.88378067085799,4.001055850385991,2.1063347694149113,-0.0055012727635866485,0.520794544180615,0.2722847174207203,-0.18942556356529372,0.5022415897343419,-0.028707212202102116,-0.9608698077499866,-1.1297311633825302,0.7809297181665897,2.3319631864257535,-36.58510744571686,-66.69911742210388,2.58108489215374,0.0,0.0,0.0,0.0,0.0,0.0,0.0,0.0,0.0,0.0,0.0,0.0,0.0,0.0,0.0,0.0,False,0,5.85854697227478,0.02993310546875
STABILIZE,2.425048828125,29.954821062554903,0.03233793576558431,0.032471418380737305,-10.0,40.0,10.0,-0.6021630308849584,-1.4230614825574,-72.86034629181567,4.003303336047445,2.206916008145491,-0.01694601818039228,0.5207797471303193,0.40630668939431813,-0.23294814735625827,0.5223030633516345,-0.08564486858645698,3.707970678806305,-1.109959278255701,1.2183149345219135,-1.5745566791738694,42.622923851013184,-1.678958721458912,27.07306444644928,0.0,0.0,0.0,0.0,0.0,0.0,0.0,0.0,0.0,0.0,0.0,0.0,0.0,0.0,0.0,0.0,False,0,5.915226221084595,0.06485302734375
STABILIZE,2.458498477935791,29.896744670083326,0.03240922292073568,0.03254866600036621,-10.0,40.0,10.0,-0.4978197783994074,-1.3567505910003312,-72.99403358444034,3.9969170883222147,2.087967050205613,0.017183206182131393,0.5205905260214931,0.23531849810628488,-0.11917057110034249,0.6294492280546217,0.08471792120261952,-9.21548455953598,6.0806754976511,5.719999596476555,8.777605875977617,26.802954077720642,145.50284147262573,144.4901466369629,0.0,0.0,0.0,0.0,0.0,0.0,0.0,0.0,0.0,0.0,0.0,0.0,0.0,0.0,0.0,0.0,False,0,5.9441258907318115,0.03991015625
STABILIZE,2.4918839931488037,29.952040218804004,0.03241089185078939,0.032529592514038086,-10.0,40.0,10.0,-0.5664067237756771,-1.3424864879707,-73.14228284037547,3.9909675654985213,1.964553326054125,0.05335094783580621,0.5204232843734398,0.03812721306938016,0.010051807143268324,0.7254718111856956,0.264671841492273,-9.21548455953598,6.0806754976511,5.719999596476555,8.777605875977617,26.802954077720642,145.50284147262573,144.4901466369629,0.0,0.0,0.0,0.0,0.0,0.0,0.0,0.0,0.0,0.0,0.0,0.0,0.0,0.0,0.0,0.0,False,0,5.972676515579224,0.03991015625
STABILIZE,2.525465965270996,29.781687790677033,0.03245595296223958,0.03258872032165527,-10.0,40.0,10.0,-0.685181739090642,-1.5446001098044282,-72.97969701737249,3.9907652799853577,1.892356158093007,0.05681647094506843,0.5205129061704352,-0.10140597088461996,0.11314439347680315,0.6931181830886652,0.2810589627981417,-6.214567273855209,4.69607301056385,-0.6954475305974483,0.5628997951628458,-10.85253655910492,-231.9662094116211,-45.9090381860733,0.0,0.0,0.0,0.0,0.0,0.0,0.0,0.0,0.0,0.0,0.0,0.0,0.0,0.0,0.0,0.0,False,0,6.001330852508545,0.029931884765625
STABILIZE,2.558905839920044,29.90079416000114,0.0323210080464681,0.032474517822265625,-10.0,40.0,10.0,-0.8258495384079074,-1.5588460701440765,-72.9439546374458,3.9887324080749464,1.8629963240582728,0.0705997093608009,0.5206859294587908,-0.18001254015750295,0.00192369509477755,0.6191830794942008,0.34880607392638896,-3.792521357536316,-5.714543908834457,-2.309523895382881,3.758863982348641,100.89081525802612,-324.6378421783447,-412.621545791626,0.0,0.0,0.0,0.0,0.0,0.0,0.0,0.0,0.0,0.0,0.0,0.0,0.0,0.0,0.0,0.0,False,0,6.030029535293579,0.029931884765625
STABILIZE,2.592315435409546,29.931093540376217,0.03237727483113607,0.03250598907470703,-10.0,40.0,10.0,-0.7498556264027291,-1.4358591226278883,-73.0404857009856,3.9942133685924364,1.8311759497733435,0.037297242161844775,0.5204834592096557,-0.11981698738352174,0.016630878195742535,0.7327988530549576,0.1816869198788837,3.25479656457901,0.6061691325157881,7.285737991333008,-8.330259221193046,-194.99930143356323,-14.973670244216919,42.00940132141113,0.0,0.0,0.0,0.0,0.0,0.0,0.0,0.0,0.0,0.0,0.0,0.0,0.0,0.0,0.0,0.0,False,0,6.058724403381348,0.069842041015625
STABILIZE,2.625714063644409,29.941776959209605,0.03240683873494466,0.032529354095458984,-10.0,40.0,10.0,-0.6980789505126243,-1.4386149972362825,-73.0262515867553,3.983858461105314,1.7221352719827558,0.10992135870863676,0.5206123127997153,-0.46019692868663,0.07267685487652413,0.6808329742615065,0.5429923772611516,-9.966085106134415,4.340361803770065,-1.0995513759553432,4.405780226944521,-168.53917837142944,257.12575912475586,-99.61707592010498,0.0,0.0,0.0,0.0,0.0,0.0,0.0,0.0,0.0,0.0,0.0,0.0,0.0,0.0,0.0,0.0,False,0,6.1161789894104,0.02993310546875
STABILIZE,2.6591804027557373,29.884176926584587,0.03246000607808431,0.03256583213806152,-10.0,40.0,10.0,-0.6283793246318772,-1.2196676271411173,-73.03386724767985,3.9819466321977,1.703472520921246,0.12472302508427009,0.5207437314690578,-0.649398550275281,0.15907310891315377,0.6276543217503496,0.6149452781695454,-9.966085106134415,4.340361803770065,-1.0995513759553432,4.405780226944521,-168.53917837142944,257.12575912475586,-99.61707592010498,0.0,0.0,0.0,0.0,0.0,0.0,0.0,0.0,0.0,0.0,0.0,0.0,0.0,0.0,0.0,0.0,False,0,6.145014762878418,0.02993310546875
STABILIZE,2.692627429962158,29.896744670083326,0.03240016301472982,0.03252911567687988,-10.0,40.0,10.0,-0.6008361065561247,-1.3305827489078372,-73.04139411614521,3.982811116768895,1.7407191195347866,0.11658130819019179,0.5209646702205212,-0.6974919134563762,0.2717391188875994,0.5298590229928326,0.5723218196719012,-3.169507160782814,5.903599411249161,-3.5451289266347885,-1.3177846819505257,-93.51184964179993,78.46069931983948,-266.9877052307129,0.0,0.0,0.0,0.0,0.0,0.0,0.0,0.0,0.0,0.0,0.0,0.0,0.0,0.0,0.0,0.0,False,0,6.1739630699157715,0.034921142578125
STABILIZE,2.72607684135437,29.894826873458683,0.032407553990681966,0.03254389762878418,-10.0,40.0,10.0,-0.6125044708968865,-1.4100938348096017,-73.0586403437995,3.986875116636052,1.7710193925933795,0.08804758729773932,0.520901145843897,-0.7003717124972588,0.1944040489671801,0.5742328456165061,0.42822082134847933,-0.3381711896508932,-4.031454026699066,3.59361469745636,-7.018938459518291,-40.36613702774048,-239.34500217437744,-21.233806014060974,0.0,0.0,0.0,0.0,0.0,0.0,0.0,0.0,0.0,0.0,0.0,0.0,0.0,0.0,0.0,0.0,False,0,6.208801984786987,0.0349208984375
STABILIZE,2.7595884799957275,29.8405913615117,0.032419713338216145,0.03256368637084961,-10.0,40.0,10.0,-0.8126451285558332,-1.5534199117353245,-73.05355185286783,3.977671131775165,1.8422814110970351,0.14363199187457468,0.5211133258584698,-0.582781053525228,0.09776418813293973,0.4808828242452214,0.7037880434681861,5.8561768382787704,-5.041423812508583,-3.618954122066498,14.924581468597747,266.98551177978516,-117.05793142318726,129.28181886672974,0.0,0.0,0.0,0.0,0.0,0.0,0.0,0.0,0.0,0.0,0.0,0.0,0.0,0.0,0.0,0.0,False,0,6.23768949508667,0.029931884765625
STABILIZE,2.7930562496185303,29.880344803020588,0.03237012227376302,0.03250479698181152,-10.0,40.0,10.0,-0.722933848819742,-1.4794841811869943,-73.08753204398865,3.9774725675625517,2.0911384529906454,0.128032811547031,0.5213705366371816,-0.449009710004796,0.10368046455861064,0.3651698971101594,0.6237056748755816,6.388717144727707,0.4279669839888811,-4.91923876106739,-3.271385697322015,163.15091848373413,173.08919429779053,-170.6268548965454,0.0,0.0,0.0,0.0,0.0,0.0,0.0,0.0,0.0,0.0,0.0,0.0,0.0,0.0,0.0,0.0,False,0,6.266192674636841,0.034921142578125
STABILIZE,2.82662296295166,29.7918415762819,0.03235748608907064,0.0325772762298584,-10.0,40.0,10.0,-0.7239314299645341,-1.4508401820769592,-73.11053612111324,3.9785629099861244,2.1935776880243782,0.1166693690379769,0.520984749725796,-0.43179582306684205,0.07996027604852333,0.5707112625484314,0.5649938361170024,0.5401813890784979,-1.2375800870358944,12.272464483976364,-2.580750265622529,-13.663195073604584,-103.07079553604126,489.2670154571533,0.0,0.0,0.0,0.0,0.0,0.0,0.0,0.0,0.0,0.0,0.0,0.0,0.0,0.0,0.0,0.0,False,0,6.299159049987793,0.0349208984375
STABILIZE,2.862051486968994,28.224514652939,0.0323214848836263,0.034406185150146484,-10.0,40.0,10.0,-0.5684664526972592,-1.2146048561405511,-73.02655211507877,3.970284082660445,2.2104902048281545,0.160181716699168,0.5210040994296058,-0.47374443639832275,0.058523764012668254,0.5744090828157693,0.7797897339131903,-2.711395174264908,-1.1076288297772408,1.3524660840630531,12.300618303643839,-2.8786681592464447,-45.96785306930542,126.05863809585571,0.0,0.0,0.0,0.0,0.0,0.0,0.0,0.0,0.0,0.0,0.0,0.0,0.0,0.0,0.0,0.0,False,1,6.3244030475616455,0.02993212890625
STABILIZE,2.895470380783081,29.921484979704232,0.03228309949239095,0.03243112564086914,-10.0,40.0,10.0,-0.5619518396112422,-1.25098596547633,-73.01871788810077,3.9693411851179285,2.191864208753768,0.16714064165545486,0.5210841936866866,-0.5153331912920454,0.10196016329785003,0.5469976784516917,0.8118713100800408,-1.1101286858320236,3.751779720187187,-0.31829397194087505,-8.207371311419823,109.30068492889404,103.29490900039673,67.23356246948242,0.0,0.0,0.0,0.0,0.0,0.0,0.0,0.0,0.0,0.0,0.0,0.0,0.0,0.0,0.0,0.0,False,0,6.382338762283325,0.0349208984375
STABILIZE,2.928889036178589,29.92596820685522,0.03235891660054525,0.03248143196105957,-10.0,40.0,10.0,-0.6308413943842552,-1.3784911898501875,-73.12449702777675,3.968862707362392,2.1501335748130095,0.17356065907385512,0.5210180423875498,-0.5034534656297668,0.11598344187485408,0.5926511677211479,0.8411597727247752,0.17283435445278883,0.8506895042955875,3.684406727552414,2.4304797005799017,45.416343212127686,-50.76895356178284,127.62055397033691,0.0,0.0,0.0,0.0,0.0,0.0,0.0,0.0,0.0,0.0,0.0,0.0,0.0,0.0,0.0,0.0,False,0,6.411118984222412,0.034921875
STABILIZE,2.9622802734375,29.94690770966314,0.03237155278523763,0.03249645233154297,-10.0,40.0,10.0,-0.665884426972946,-1.404134814923883,-73.11369849869897,3.970156279131266,2.115365247904365,0.1697479125845897,0.5212436237734072,-0.46345723018364576,0.09459030601853793,0.4925776459325569,0.8193561042017324,1.7143864184617996,-1.1417627334594727,-4.583211988210678,-0.38148655571272216,19.547268748283386,-67.2902762889862,-215.15116691589355,0.0,0.0,0.0,0.0,0.0,0.0,0.0,0.0,0.0,0.0,0.0,0.0,0.0,0.0,0.0,0.0,False,0,6.440385580062866,0.02993212890625
STABILIZE,2.995669364929199,29.94904604135725,0.03243234952290853,0.03252863883972168,-10.0,40.0,10.0,-0.7749542237249988,-1.4527121875180715,-73.08062672273776,3.9711811673232664,2.139872433338943,0.1627088935959221,0.5212694760047015,-0.4163926503925076,0.029772528926745936,0.4923573900316589,0.7815498827147576,1.896071434020996,-3.5905078053474426,1.189895160496235,-0.8285728095351855,88.19423317909241,58.33933353424072,63.12583684921265,0.0,0.0,0.0,0.0,0.0,0.0,0.0,0.0,0.0,0.0,0.0,0.0,0.0,0.0,0.0,0.0,False,0,6.468973636627197,0.0349208984375
STABILIZE,3.029139518737793,29.876513662136365,0.032456191380818684,0.03258466720581055,-10.0,40.0,10.0,-0.666297546696026,-1.3532343242382439,-73.10905397006336,3.973672857048669,2.1718798119013862,0.14735376461036268,0.5213565061394839,-0.3951773502800413,0.06261139018991123,0.46160501634500817,0.7024245684680515,0.6059203762561083,2.0014550536870956,-0.694088963791728,-3.5987656288640113,-37.377768754959106,103.73655557632446,-63.87512683868408,0.0,0.0,0.0,0.0,0.0,0.0,0.0,0.0,0.0,0.0,0.0,0.0,0.0,0.0,0.0,0.0,False,0,6.497678756713867,0.0349208984375
STABILIZE,3.0632808208465576,29.292082492370223,0.03244498570760091,0.03322315216064453,-10.0,40.0,10.0,-0.6458570850268522,-1.356420500764349,-73.10590525285598,3.9706495324086872,2.211783975606153,0.16131755943781648,0.5212963930625865,-0.3788849867623194,0.051721730590638185,0.5046099374541659,0.7696198136734796,0.2985413186252117,-0.5339192226529121,3.5499047487974167,4.916850412251194,-87.40535974502563,-20.62128484249115,-315.3541326522827,0.0,0.0,0.0,0.0,0.0,0.0,0.0,0.0,0.0,0.0,0.0,0.0,0.0,0.0,0.0,0.0,False,1,6.5263543128967285,0.02993212890625
STABILIZE,3.096708059310913,29.915296064362437,0.03240063985188802,0.03252434730529785,-10.0,40.0,10.0,-0.5947364808230389,-1.2690914095838586,-73.07398094867534,3.969589565724081,2.211539487714334,0.16749930671746932,0.5212112523341681,-0.3809540818518475,0.05222477239247635,0.5598115916628484,0.7978596423958324,-1.9843034446239471,0.7930472493171692,2.014830522239208,-0.4804699773296643,-71.1214005947113,87.88991570472717,-92.20507740974426,0.0,0.0,0.0,0.0,0.0,0.0,0.0,0.0,0.0,0.0,0.0,0.0,0.0,0.0,0.0,0.0,False,0,6.58410382270813,0.034921142578125
STABILIZE,3.130152702331543,29.900367846245974,0.03241089185078939,0.032540082931518555,-10.0,40.0,10.0,-0.6082354425830699,-1.329769742953194,-73.09271615756869,3.9746819635958146,2.1852559156842495,0.14257248205663875,0.521161131348061,-0.38585137255764357,0.02937490866719221,0.5974511286842863,0.6709813658789361,-0.9267373941838741,-1.2586144730448723,3.205161541700363,-6.444694573917701,-24.759194254875183,-120.95084190368652,66.84516668319702,0.0,0.0,0.0,0.0,0.0,0.0,0.0,0.0,0.0,0.0,0.0,0.0,0.0,0.0,0.0,0.0,False,0,6.612586975097656,0.029932861328125
STABILIZE,3.163609027862549,29.88907495955932,0.03241685231526693,0.03254389762878418,-10.0,40.0,10.0,-0.6733779449052434,-1.367064923698991,-73.1343256699924,3.9798401990292653,2.1568462720474817,0.11678678043592325,0.5211187085568317,-0.3883520243032488,0.006706708945881424,0.631203293274744,0.5402449715572208,-0.9267373941838741,-1.2586144730448723,3.205161541700363,-6.444694573917701,-24.759194254875183,-120.95084190368652,66.84516668319702,0.0,0.0,0.0,0.0,0.0,0.0,0.0,0.0,0.0,0.0,0.0,0.0,0.0,0.0,0.0,0.0,False,0,6.64124870300293,0.029932861328125
STABILIZE,3.197141408920288,29.821284341049996,0.03240946133931478,0.03257894515991211,-10.0,40.0,10.0,-0.7710419127127566,-1.4745452073651346,-73.12468827307352,3.9748569280237556,2.2043002562883087,0.14126284454767613,0.5213249324621748,-0.3198350446359095,-0.04495263014817824,0.5407553453330347,0.6604148890700371,3.3758558332920074,-3.042144328355789,-4.284777492284775,8.591712886205611,145.16247510910034,-66.0812258720398,-9.031161665916443,0.0,0.0,0.0,0.0,0.0,0.0,0.0,0.0,0.0,0.0,0.0,0.0,0.0,0.0,0.0,0.0,False,0,6.669909477233887,0.03492138671875
STABILIZE,3.230506420135498,29.97130280683702,0.03236988385518392,0.0325009822845459,-10.0,40.0,10.0,-0.7648634729999512,-1.4810228947409512,-73.1228919333218,3.9781165551817734,2.2477467132673943,0.12209936177520853,0.5213884598853517,-0.2381282175533771,-0.046252171825122305,0.521671515855565,0.5627155066995085,4.260934144258499,0.04989291192032397,-0.1573618734255433,-4.776468253579453,95.73511481285095,82.48286843299866,-80.7948887348175,0.0,0.0,0.0,0.0,0.0,0.0,0.0,0.0,0.0,0.0,0.0,0.0,0.0,0.0,0.0,0.0,False,0,6.6988959312438965,0.0349208984375
STABILIZE,3.2647335529327393,29.217197469976874,0.032445700963338216,0.03331494331359863,-10.0,40.0,10.0,-0.7309456073553141,-1.4343617103740687,-73.10983261162873,3.980360566003472,2.245553517425248,0.11091288593009149,0.5213034015248005,-0.24468037430793318,-0.03662195850823842,0.5770854742266204,0.5050566069033018,-1.0955143719911575,0.6815060507506132,4.33577261865139,-2.2822219069083123,-83.92118215560913,-19.26753520965576,114.52511548995972,0.0,0.0,0.0,0.0,0.0,0.0,0.0,0.0,0.0,0.0,0.0,0.0,0.0,0.0,0.0,0.0,False,1,6.727541923522949,0.029931884765625
STABILIZE,3.2981741428375244,29.905271188495078,0.03241685231526693,0.03253531455993652,-10.0,40.0,10.0,-0.68349212104471,-1.4070417007459581,-73.10171151670559,3.9841821677186613,2.215339209122096,0.09252985503219621,0.5213199522059371,-0.29240031516886306,-0.023284421266858354,0.5814092915914864,0.4117644191852883,-3.992750495672226,1.9599489867687225,0.9202765300869942,-0.5991047603232322,-41.808536648750305,48.71284365653992,57.20564126968384,0.0,0.0,0.0,0.0,0.0,0.0,0.0,0.0,0.0,0.0,0.0,0.0,0.0,0.0,0.0,0.0,False,0,6.785064697265625,0.0349208984375
STABILIZE,3.3315863609313965,29.928317100146277,0.032413514455159505,0.0325312614440918,-10.0,40.0,10.0,-0.6066714893456957,-1.3177939667389287,-73.14626484066159,3.9855210111514037,2.182659207041251,0.08691542550762398,0.5213470521580373,-0.34897439208441533,0.008723292478330022,0.5804630630084897,0.382413058568581,-3.992750495672226,1.9599489867687225,0.9202765300869942,-0.5991047603232322,-41.808536648750305,48.71284365653992,57.20564126968384,0.0,0.0,0.0,0.0,0.0,0.0,0.0,0.0,0.0,0.0,0.0,0.0,0.0,0.0,0.0,0.0,False,0,6.8139238357543945,0.0349208984375
STABILIZE,3.365150213241577,29.794592751502407,0.03243544896443685,0.032584428787231445,-10.0,40.0,10.0,-0.643156332179494,-1.3485986535042152,-73.15414687896377,3.9854331994906866,2.176694547704158,0.08785377030048719,0.5213745944585891,-0.3155124991469925,0.013958616329036125,0.5792977584844239,0.38581413737187276,1.4511150307953358,0.32075128983706236,0.9216282516717911,1.3368460323767388,18.570908904075623,-89.77583050727844,69.53080296516418,0.0,0.0,0.0,0.0,0.0,0.0,0.0,0.0,0.0,0.0,0.0,0.0,0.0,0.0,0.0,0.0,False,0,6.842477321624756,0.0349208984375
STABILIZE,3.3986620903015137,29.84313920808282,0.03233483632405599,0.03247332572937012,-10.0,40.0,10.0,-0.6029255574727668,-1.3168408351845946,-73.13451008509999,3.986095096868284,2.1413212874864382,0.08580859124240586,0.5213793787161305,-0.3160497833840082,-0.014169651329955318,0.5895041005386006,0.3743353715347426,-0.6155480165034533,-1.6723273321986198,1.6126113012433052,0.39446818400397765,1.3177501037716866,-48.87447655200958,-32.66611695289612,0.0,0.0,0.0,0.0,0.0,0.0,0.0,0.0,0.0,0.0,0.0,0.0,0.0,0.0,0.0,0.0,False,0,6.871182680130005,0.02993310546875
STABILIZE,3.4320671558380127,29.962952644249658,0.032250197728474934,0.032379150390625,-10.0,40.0,10.0,-0.7646045127808725,-1.4654584944480789,-73.15506895450173,3.9867128929304596,2.172457738325455,0.08166143029847836,0.5214486611721331,-0.27794059870530974,-0.025175713732035192,0.5674742843494444,0.3524215859946851,1.62192452698946,-0.6573525257408619,-0.12930468656122684,-0.2650632065455045,114.93887901306152,-45.46305239200592,165.97931385040283,0.0,0.0,0.0,0.0,0.0,0.0,0.0,0.0,0.0,0.0,0.0,0.0,0.0,0.0,0.0,0.0,False,0,6.899886131286621,0.0349208984375
STABILIZE,3.4654221534729004,29.9492598913222,0.03229978879292806,0.032434701919555664,-10.0,40.0,10.0,-0.7306801904730357,-1.4514820064155287,-73.15954272840808,3.988782044727328,2.2202024356018852,0.06953645363600404,0.5215571854723821,-0.24045577810038182,-0.006857439873091901,0.5258861070996144,0.29082407966483964,1.6517478972673416,1.1240903288125992,-1.4839164912700653,-2.681063973302037,28.457218408584595,69.19217705726624,-20.433178544044495,0.0,0.0,0.0,0.0,0.0,0.0,0.0,0.0,0.0,0.0,0.0,0.0,0.0,0.0,0.0,0.0,False,0,6.932911157608032,0.0399091796875
STABILIZE,3.500821590423584,28.249036881381503,0.03242305119832357,0.03458428382873535,-10.0,40.0,10.0,-0.7497285208511434,-1.47171420067587,-73.14167495353934,3.9910937451944157,2.247843713625506,0.05709688316029275,0.5216176922547552,-0.24081411975116934,-0.02606217749774617,0.5090968739189339,0.22781824809604026,-0.4841425456106663,-0.3424256108701229,2.0714644342660904,0.273429761391947,-44.737422466278076,43.63264441490173,-36.67585551738739,0.0,0.0,0.0,0.0,0.0,0.0,0.0,0.0,0.0,0.0,0.0,0.0,0.0,0.0,0.0,0.0,False,0,6.990210771560669,0.0349208984375
STABILIZE,3.534292459487915,29.875662430907745,0.03251031239827474,0.03262066841125488,-10.0,40.0,10.0,-0.7220913343134504,-1.4436157629257897,-73.14580038779802,3.9915628920847923,2.236884439854326,0.0550466009012496,0.5216079560817547,-0.23940555947419262,-0.031962398259866444,0.5266379275478208,0.2168416383617529,-0.4841425456106663,-0.3424256108701229,2.0714644342660904,0.273429761391947,-44.737422466278076,43.63264441490173,-36.67585551738739,0.0,0.0,0.0,0.0,0.0,0.0,0.0,0.0,0.0,0.0,0.0,0.0,0.0,0.0,0.0,0.0,False,0,7.0188515186309814,0.0349208984375
STABILIZE,3.5677666664123535,29.874172892969323,0.03247073491414388,0.03258967399597168,-10.0,40.0,10.0,-0.6611869110104169,-1.393752180333523,-73.16702861573842,3.9922390124425324,2.2722825637685014,0.051066557068506796,0.5214887953304066,-0.19059102253791557,-0.01397232108569894,0.5987942950605476,0.19628499316356296,2.365504764020443,1.0841667652130127,5.315042659640312,-0.35421190280956877,-24.85358864068985,42.0284777879715,-68.70459914207458,0.0,0.0,0.0,0.0,0.0,0.0,0.0,0.0,0.0,0.0,0.0,0.0,0.0,0.0,0.0,0.0,False,0,7.048833847045898,0.034921142578125
