E-kp,E-ki,E-kd,E-I-Tot,E-P,E-I,E-D,E-PID,N-kp,N-ki,N-kd,N-I-Tot,N-P,N-I,N-D,N-PID,Y-kp,Y-ki,Y-kd,Y-I-Tot,Y-P,Y-I,Y-D,Y-PID,D-kp,D-ki,D-kd,D-I-Tot,D-P,D-I,D-D,D-PID,errorN,desiredN,actualN,errorE,desiredE,actualE,errorD,desiredD,actualD,errorY,desiredY,actualY,roll,pitch,yaw-rate,thrust,dt,Time,Mode
0.025,0.004,0,-0.000978809391920694,-0.0007291272950965323,-3.915237567682776e-06,-0.0,-0.0007330425326642151,0.025,0.004,0,-0.0009974294265970877,-0.0007429975906109245,-3.989717706388351e-06,-0.0,-0.0007469873083173129,0.2,0.005,0,-0.0009917220775685124,-0.005909968922436575,-4.958610387842562e-06,-0.0,-0.005914927532824418,0.002,8e-05,0,-0.0011292675972509028,-6.729643874855043e-05,-9.034140778007224e-08,-0.0,-6.738678015633051e-05,-0.02971990362443698,0.0,0.02971990362443698,-0.02916509180386129,0.0,0.02916509180386129,-0.033648219374275215,0.0,0.033648219374275215,-0.029549844612182873,0,0.029549844612182873,-0.000733427687945756,0.0007466091481065939,0.005914927532824418,0.4,0.033560991287231445,0.03379964828491211,STABILIZE
0.025,0.004,0,-0.0027766806454460062,-0.0013447593231541404,-1.1106722581784026e-05,-0.0,-0.0013558660457359244,0.025,0.004,0,-0.002845208710348138,-0.0013820891869109142,-1.1380834841392552e-05,-0.0,-0.0013934700217523067,0.2,0.005,0,-0.0028093290460741664,-0.010876168855518106,-1.4046645230370832e-05,-0.0,-0.010890215500748477,0.002,8e-05,0,-0.003334921647712134,-0.00013198159065926348,-2.6679373181697075e-07,-0.0,-0.00013224838439108045,-0.05528356747643657,0.0,0.05528356747643657,-0.05379037292616561,0.0,0.05379037292616561,-0.06599079532963174,0.0,0.06599079532963174,-0.05438084427759053,0,0.05438084427759053,-0.0013571880117612066,0.0013921825082343223,0.010890215500748477,0.4,0.033423662185668945,0.06719350814819336,STABILIZE
0.025,0.004,0,-0.005271368198110217,-0.0018648949484365237,-2.1085472792440867e-05,-0.0,-0.0018859804212289647,0.025,0.004,0,-0.005409804784059134,-0.0019171548186609885,-2.163921913623654e-05,-0.0,-0.001938794037797225,0.2,0.005,0,-0.005332627105523492,-0.015090261061161837,-2.666313552761746e-05,-0.0,-0.015116924196689453,0.002,8e-05,0,-0.006598779676535166,-0.00019519085165966194,-5.279023741228133e-07,-0.0,-0.00019571875403378474,-0.07668619274643954,0.0,0.07668619274643954,-0.07459579793746095,0.0,0.07459579793746095,-0.09759542582983097,0.0,0.09759542582983097,-0.07545130530580918,0,0.07545130530580918,-0.0018885319320817806,0.0019363087594091255,0.015116924196689453,0.4,0.03344273567199707,0.10062217712402344,STABILIZE
0.025,0.004,0,-0.008356785664947233,-0.002305851915575798,-3.3427142659788934e-05,-0.0,-0.002339279058235587,0.025,0.004,0,-0.008567952007246003,-0.0023602056780086624,-3.427180802898401e-05,-0.0,-0.0023944774860376467,0.2,0.005,0,-0.008487091287144899,-0.018859625587751797,-4.243545643572449e-05,-0.0,-0.01890206104418752,0.002,8e-05,0,-0.01093800787520399,-0.00025942985703722443,-8.750406300163193e-07,-0.0,-0.00026030489766724077,-0.0944082271203465,0.0,0.0944082271203465,-0.09223407662303193,0.0,0.09223407662303193,-0.12971492851861222,0.0,0.12971492851861222,-0.09429812793875897,0,0.09429812793875897,-0.0023432167499769993,0.0023906242293735697,0.01890206104418752,0.4,0.03345203399658203,0.1340785026550293,STABILIZE
0.025,0.004,0,-0.012382623393844001,-0.0030116049842090426,-4.953049357537601e-05,-0.0,-0.003061135477784419,0.025,0.004,0,-0.012634364934836412,-0.003041958038368166,-5.053745973934565e-05,-0.0,-0.0030924954981075116,0.2,0.005,0,-0.012643650668583094,-0.024875150551545974,-6.321825334291547e-05,-0.0,-0.02493836880488889,0.002,8e-05,0,-0.017457755860552787,-0.0003901777836205835,-1.3966204688442232e-06,-0.0,-0.0003915744040894277,-0.12167832153472663,0.0,0.12167832153472663,-0.1204641993683617,0.0,0.1204641993683617,-0.19508889181029174,0.0,0.19508889181029174,-0.12437575275772986,0,0.12437575275772986,-0.0030678413454375696,0.0030858432070326367,0.02493836880488889,0.4,0.03341937065124512,0.16748952865600586,STABILIZE
0.025,0.004,0,-0.017006382051114183,-0.003286512854135109,-6.802552820445674e-05,-0.0,-0.003354538382339566,0.025,0.004,0,-0.01731804954719598,-0.003329107512787531,-6.927219818878393e-05,-0.0,-0.003398379710976315,0.2,0.005,0,-0.017410396040730178,-0.02710516893145883,-8.705198020365089e-05,-0.0,-0.02719222091166248,0.002,8e-05,0,-0.025390132795317898,-0.0004510591610392013,-2.031210623625432e-06,-0.0,-0.0004530903716628267,-0.13316430051150124,0.0,0.13316430051150124,-0.13146051416540436,0.0,0.13146051416540436,-0.22552958051960065,0.0,0.22552958051960065,-0.13552584465729414,0,0.13552584465729414,-0.0033625674234811363,0.003390435479567226,0.02719222091166248,0.4,0.035172224044799805,0.2027122974395752,STABILIZE
0.025,0.004,0,-0.02148951595612221,-0.0033488442429350854,-8.595806382448885e-05,-0.0,-0.003434802306759574,0.025,0.004,0,-0.02185864411281071,-0.003391766628602184,-8.743457645124284e-05,-0.0,-0.003479201205053427,0.2,0.005,0,-0.021987937860900718,-0.027354926078203348,-0.00010993968930450359,-0.0,-0.02746486576750785,0.002,8e-05,0,-0.03363554143480786,-0.0004927372652805695,-2.690843314784629e-06,-0.0,-0.0004954281085953541,-0.13567066514408735,0.0,0.13567066514408735,-0.13395376971740341,0.0,0.13395376971740341,-0.24636863264028472,0.0,0.24636863264028472,-0.13677463039101673,0,0.13677463039101673,-0.003443097948653746,0.003470991850716806,0.02746486576750785,0.4,0.033467769622802734,0.23614168167114258,STABILIZE
0.025,0.004,0,-0.026224219748721682,-0.003537822281467367,-0.00010489687899488673,-0.0,-0.0036427191604622537,0.025,0.004,0,-0.026633929494799567,-0.0035681452873930035,-0.00010653571797919827,-0.0,-0.0036746810053722018,0.2,0.005,0,-0.02683373799133285,-0.02896667740824903,-0.00013416868995666425,-0.0,-0.029100846098205697,0.002,8e-05,0,-0.042983365351673165,-0.0005587836736568112,-3.4386692281338536e-06,-0.0,-0.0005622223428849451,-0.14272581149572014,0.0,0.14272581149572014,-0.14151289125869468,0.0,0.14151289125869468,-0.27939183682840557,0.0,0.27939183682840557,-0.14483338704124515,0,0.14483338704124515,-0.003651996442516613,0.003665461138395561,0.029100846098205697,0.4,0.03345775604248047,0.269620418548584,STABILIZE
0.025,0.004,0,-0.03116158154615279,-0.003691881370944665,-0.00012464632618461115,-0.0,-0.003816527697129276,0.025,0.004,0,-0.0316217284411248,-0.0037295954332405793,-0.0001264869137644992,-0.0,-0.0038560823470050786,0.2,0.005,0,-0.03187668348231242,-0.030166647333843333,-0.0001593834174115621,-0.0,-0.030326030751254895,0.002,8e-05,0,-0.05326924604445202,-0.0006152962310064052,-4.261539683556162e-06,-0.0,-0.0006195577706899614,-0.14918381732962316,0.0,0.14918381732962316,-0.1476752548377866,0.0,0.1476752548377866,-0.3076481155032026,0.0,0.3076481155032026,-0.15083323666921666,0,0.15083323666921666,-0.0038266657385844093,0.003846021847959697,0.030326030751254895,0.4,0.03343391418457031,0.30303478240966797,STABILIZE
0.025,0.004,0,-0.036809490586977925,-0.00375075959998243,-0.0001472379623479117,-0.0,-0.0038979975623303414,0.025,0.004,0,-0.03733832265567966,-0.0037963732196213164,-0.00014935329062271862,-0.0,-0.003945726510244035,0.2,0.005,0,-0.03763284045247073,-0.030581173823823266,-0.00018816420226235364,-0.0,-0.03076933802608562,0.002,8e-05,0,-0.06564985698834461,-0.0006577541531323027,-5.251988559067569e-06,-0.0,-0.0006630061416913703,-0.15185492878485266,0.0,0.15185492878485266,-0.1500303839992972,0.0,0.1500303839992972,-0.32887707656615134,0.0,0.32887707656615134,-0.15290586911911633,0,0.15290586911911633,-0.003908513672231085,0.003935309843399694,0.03076933802608562,0.4,0.03764510154724121,0.34070849418640137,STABILIZE
0.025,0.004,0,-0.04197436968356347,-0.0038540632813467606,-0.00016789747873425387,-0.0,-0.004021960760081014,0.025,0.004,0,-0.042583720959764544,-0.003914147189462154,-0.0001703348838390582,-0.0,-0.004084482073301212,0.2,0.005,0,-0.04294768739147931,-0.03172776136758416,-0.00021473843695739658,-0.0,-0.03194249980454156,0.002,8e-05,0,-0.07846298280797703,-0.0007648984120208019,-6.277038624638163e-06,-0.0,-0.00077117545064544,-0.15656588757848616,0.0,0.15656588757848616,-0.15416253125387042,0.0,0.15416253125387042,-0.38244920601040094,0.0,0.38244920601040094,-0.15863880683792078,0,0.15863880683792078,-0.004033254318686917,0.004073330549261102,0.03194249980454156,0.4,0.033502817153930664,0.37421107292175293,STABILIZE
0.025,0.004,0,-0.04722300396778892,-0.003924017812836702,-0.00018889201587115567,-0.0,-0.004112909828707857,0.025,0.004,0,-0.04781862710167157,-0.003913754290541659,-0.00019127450840668628,0.0,-0.004105028798948345,0.2,0.005,0,-0.04833180632654732,-0.032202477770090686,-0.0002416590316327366,-0.0,-0.03244413680172342,0.002,8e-05,0,-0.0923140335262533,-0.0008284329492473513,-7.385122682100264e-06,-0.0,-0.0008358180719294517,-0.15655017162166635,0.0,0.15655017162166635,-0.15696071251346808,0.0,0.15696071251346808,-0.41421647462367567,0.0,0.41421647462367567,-0.16101238885045344,0,0.16101238885045344,-0.004124429510124539,0.004093454520975022,0.03244413680172342,0.4,0.03343915939331055,0.40769529342651367,STABILIZE
0.025,0.004,0,-0.052528933887247574,-0.0039647334273217065,-0.0002101157355489903,-0.0,-0.0041748491628706965,0.025,0.004,0,-0.05306554988176417,-0.003920641707030179,-0.0002122621995270567,-0.0,-0.004132903906557236,0.2,0.005,0,-0.05369429064087589,-0.03205593912808556,-0.00026847145320437946,0.0,-0.03232441058128994,0.002,8e-05,0,-0.10726492156147877,-0.000893736426393665,-8.581193724918302e-06,-0.0,-0.0009023176201185832,-0.15682566828120714,0.0,0.15682566828120714,-0.15858933709286827,0.0,0.15858933709286827,-0.44686821319683245,0.0,0.44686821319683245,-0.1602796956404278,0,0.1602796956404278,-0.0041863942328326095,0.004121208992621471,0.03232441058128994,0.4,0.033457040786743164,0.4410989284515381,STABILIZE
0.025,0.004,0,-0.05791905128578137,-0.004029736867788169,-0.0002316762051431255,-0.0,-0.004261413072931295,0.025,0.004,0,-0.058345577128584444,-0.003947431732233782,-0.00023338230851433777,-0.0,-0.00418081404074812,0.2,0.005,0,-0.05905195219558821,-0.032043778932204094,-0.00029525976097794106,0.0,-0.03233903869318203,0.002,8e-05,0,-0.12350304037604973,-0.0009711899198099227,-9.88024323008398e-06,-0.0,-0.0009810701630400067,-0.15789726928935127,0.0,0.15789726928935127,-0.16118947471152678,0.0,0.16118947471152678,-0.4855949599049613,0.0,0.4855949599049613,-0.16021889466102046,0,0.16021889466102046,-0.004273087404308681,0.004168881319563423,0.03233903869318203,0.4,0.03343963623046875,0.47454047203063965,STABILIZE
0.025,0.004,0,-0.06335557034200986,-0.004053560644735092,-0.0002534222813680395,-0.0,-0.004306982926103132,0.025,0.004,0,-0.0635662518997554,-0.0038926234917055534,-0.0002542650075990216,0.0,-0.004146888499304575,0.2,0.005,0,-0.06434634219871735,-0.03158069453280129,-0.0003217317109935868,0.0,-0.03190242624379488,0.002,8e-05,0,-0.14095073625708754,-0.0010407437940812955,-1.1276058900567004e-05,-0.0,-0.0010520198529818626,-0.15570493966822213,0.0,0.15570493966822213,-0.1621424257894037,0.0,0.1621424257894037,-0.5203718970406478,0.0,0.5203718970406478,-0.15790347266400642,0,0.15790347266400642,-0.004318395112713,0.0041350029990200625,0.03190242624379488,0.4,0.03352928161621094,0.5080785751342773,STABILIZE
0.025,0.004,0,-0.06874557427938721,-0.003966167794358911,-0.00027498229711754883,0.0,-0.004241150091476459,0.025,0.004,0,-0.06859841417033594,-0.0037028544256084207,-0.00027439365668134374,0.0,-0.0039772480822897645,0.2,0.005,0,-0.06967448915610668,-0.03136520879989037,-0.00034837244578053337,0.0,-0.0317135812456709,0.002,8e-05,0,-0.15972351788949182,-0.0011050975514827232,-1.2777881431159347e-05,-0.0,-0.0011178754329138826,-0.14811417702433682,0.0,0.14811417702433682,-0.15864671177435644,0.0,0.15864671177435644,-0.5525487757413616,0.0,0.5525487757413616,-0.15682604399945183,0,0.15682604399945183,-0.004252020439096124,0.003965624615620748,0.0317135812456709,0.4,0.03397488594055176,0.5420718193054199,STABILIZE
0.025,0.004,0,-0.07393774994347509,-0.003880590449718894,-0.00029575099977390034,0.0,-0.004176341449492794,0.025,0.004,0,-0.0733782463317976,-0.0035724082228804537,-0.0002935129853271904,0.0,-0.0038659212082076443,0.2,0.005,0,-0.07479189539360975,-0.030597667039564503,-0.00037395947696804876,0.0,-0.03097162651653255,0.002,8e-05,0,-0.17877403827566654,-0.0011390564920072154,-1.4301923062053324e-05,-0.0,-0.0011533584150692688,-0.14289632891521814,0.0,0.14289632891521814,-0.15522361798875575,0.0,0.15522361798875575,-0.5695282460036077,0.0,0.5695282460036077,-0.1529883351978225,0,0.1529883351978225,-0.004186649139357851,0.0038547559812179273,0.03097162651653255,0.4,0.033449649810791016,0.5755186080932617,STABILIZE
0.025,0.004,0,-0.0790450192924951,-0.003820536098191535,-0.0003161800771699804,0.0,-0.004136716175361516,0.025,0.004,0,-0.07800613792716905,-0.003461933508955519,-0.00031202455170867624,0.0,-0.0037739580606641955,0.2,0.005,0,-0.07980885370226588,-0.03002382527566599,-0.0003990442685113294,0.0,-0.03042286954417732,0.002,8e-05,0,-0.19856865115893493,-0.0011846022271727668,-1.5885492092714797e-05,-0.0,-0.0012004877192654817,-0.13847734035822076,0.0,0.13847734035822076,-0.1528214439276614,0.0,0.1528214439276614,-0.5923011135863834,0.0,0.5923011135863834,-0.15011912637832994,0,0.15011912637832994,-0.004146590010941882,0.003763106620906038,0.03042286954417732,0.4,0.03341984748840332,0.60892653465271,STABILIZE
0.025,0.004,0,-0.08409801917314527,-0.0037721890082319113,-0.0003363920766925811,0.0,-0.004108581084924492,0.025,0.004,0,-0.08251619048162498,-0.0033668654411838036,-0.00033006476192649995,0.0,-0.0036969302031103035,0.2,0.005,0,-0.08482068675148828,-0.02993165562780516,-0.0004241034337574414,0.0,-0.030355759061562602,0.002,8e-05,0,-0.21914666385269366,-0.0012289595112306324,-1.7531733108215493e-05,-0.0,-0.001246491244338848,-0.13467461764735214,0.0,0.13467461764735214,-0.15088756032927644,0.0,0.15088756032927644,-0.6144797556153162,0.0,0.6144797556153162,-0.1496582781390258,0,0.1496582781390258,-0.004118223549658474,0.0036861858679544173,0.030355759061562602,0.4,0.03348851203918457,0.6424248218536377,STABILIZE
0.025,0.004,0,-0.0890958980146639,-0.00373271400171245,-0.0003563835920586556,0.0,-0.004089097593771105,0.025,0.004,0,-0.08698237129666882,-0.003335610204073706,-0.00034792948518667526,0.0,-0.0036835396892603814,0.2,0.005,0,-0.08968076505508109,-0.02903837073045559,-0.00044840382527540546,0.0,-0.029486774555730996,0.002,8e-05,0,-0.24028368626434127,-0.0012629111190937655,-1.9222694901147302e-05,-0.0,-0.0012821338139949127,-0.13342440816294823,0.0,0.13342440816294823,-0.149308560068498,0.0,0.149308560068498,-0.6314555595468827,0.0,0.6314555595468827,-0.14519185365227794,0,0.14519185365227794,-0.004098418823763377,0.003673165789719152,0.029486774555730996,0.4,0.03347349166870117,0.6758971214294434,STABILIZE
0.025,0.004,0,-0.09404141302574727,-0.0036445949343306854,-0.0003761656521029891,0.0,-0.004020760586433674,0.025,0.004,0,-0.09131774797675608,-0.0031949537816082967,-0.00036527099190702435,0.0,-0.003560224773515321,0.2,0.005,0,-0.09447659641428385,-0.028274285106376685,-0.0004723829820714193,0.0,-0.028746668088448103,0.002,8e-05,0,-0.26218891927689036,-0.0012914440836830979,-2.097511354215123e-05,-0.0,-0.0013124191972252492,-0.12779815126433186,0.0,0.12779815126433186,-0.14578379737322741,0.0,0.14578379737322741,-0.6457220418415489,0.0,0.6457220418415489,-0.14137142553188342,0,0.14137142553188342,-0.004029532825605688,0.0035502931341984886,0.028746668088448103,0.4,0.03392362594604492,0.7098207473754883,STABILIZE
0.025,0.004,0,-0.09874843833792055,-0.0035180180429641413,-0.0003949937533516822,0.0,-0.003913011796315823,0.025,0.004,0,-0.0953350982962298,-0.0030025568106178146,-0.0003813403931849192,0.0,-0.0033838972038027337,0.2,0.005,0,-0.09889985738372649,-0.026447466698756417,-0.0004944992869186324,0.0,-0.02694196598567505,0.002,8e-05,0,-0.28505423569114463,-0.0013671580731957544,-2.280433885529157e-05,-0.0,-0.001389962412051046,-0.12010227242471258,0.0,0.12010227242471258,-0.14072072171856564,0.0,0.14072072171856564,-0.6835790365978772,0.0,0.6835790365978772,-0.13223733349378208,0,0.13223733349378208,-0.003920811324009864,0.0033748570585325184,0.02694196598567505,0.4,0.033449411392211914,0.7432975769042969,STABILIZE
0.025,0.004,0,-0.10346607133468601,-0.0034323199031502994,-0.000413864285338744,0.0,-0.0038461841884890433,0.025,0.004,0,-0.09932566537430054,-0.002903342166783539,-0.00039730266149720216,0.0,-0.003300644828280741,0.2,0.005,0,-0.1033142168134671,-0.02569338266159525,-0.0005165710840673355,0.0,-0.02620995374566259,0.002,8e-05,0,-0.30899431565900704,-0.0013934108568944116,-2.4719545252720566e-05,-0.0,-0.0014181304021471323,-0.11613368667134155,0.0,0.11613368667134155,-0.13729279612601197,0.0,0.13729279612601197,-0.6967054284472058,0.0,0.6967054284472058,-0.12846691330797624,0,0.12846691330797624,-0.003853575123126859,0.00329201273762076,0.02620995374566259,0.4,0.034361839294433594,0.7776668071746826,STABILIZE
0.025,0.004,0,-0.1080591517119486,-0.0033253887977494527,-0.0004322366068477944,0.0,-0.0037576254045972473,0.025,0.004,0,-0.10320929216269675,-0.0028117446149438664,-0.000412837168650787,0.0,-0.0032245817835946534,0.2,0.005,0,-0.10769739944886429,-0.02538738317125059,-0.0005384869972443214,0.0,-0.025925870168494913,0.002,8e-05,0,-0.333711301828898,-0.0014316072382337826,-2.6696904146311843e-05,-0.0,-0.0014583041423800944,-0.11246978459775464,0.0,0.11246978459775464,-0.1330155519099781,0.0,0.1330155519099781,-0.7158036191168913,0.0,0.7158036191168913,-0.12693691585625294,0,0.12693691585625294,-0.003764760131920979,0.003216248981261158,0.025925870168494913,0.4,0.0345304012298584,0.8121922016143799,STABILIZE
0.025,0.004,0,-0.1124078503391993,-0.0032517121710936357,-0.0004496314013567972,0.0,-0.0037013435724504327,0.025,0.004,0,-0.10670159232075616,-0.0026113455777121443,-0.00042680636928302463,0.0,-0.003038151946995169,0.2,0.005,0,-0.11182876271977263,-0.02471360815309477,-0.0005591438135988632,0.0,-0.025272751966693634,0.002,8e-05,0,-0.358232286433,-0.0014668330168424208,-2.865858291464e-05,-0.0,-0.0014954915997570607,-0.10445382310848576,0.0,0.10445382310848576,-0.13006848684374542,0.0,0.13006848684374542,-0.7334165084212103,0.0,0.7334165084212103,-0.12356804076547384,0,0.12356804076547384,-0.003707887248101649,0.003030162314087457,0.025272751966693634,0.4,0.03343391418457031,0.8456370830535889,STABILIZE
0.025,0.004,0,-0.11667556410783281,-0.0031813783529845425,-0.00046670225643133124,0.0,-0.003648080609415874,0.025,0.004,0,-0.10999578137926941,-0.0024556618202509544,-0.00043998312551707765,0.0,-0.002895644945768032,0.2,0.005,0,-0.11574989016182292,-0.023384117379412244,-0.0005787494508091147,0.0,-0.02396286683022136,0.002,8e-05,0,-0.3830826065552054,-0.0014819788727646432,-3.0646608524416435e-05,-0.0,-0.0015126254812890597,-0.09822647281003817,0.0,0.09822647281003817,-0.1272551341193817,0.0,0.1272551341193817,-0.7409894363823216,0.0,0.7409894363823216,-0.11692058689706121,0,0.11692058689706121,-0.0036539820051148123,0.0028881944690489912,0.02396286683022136,0.4,0.033536672592163086,0.8791611194610596,STABILIZE
0.025,0.004,0,-0.12075447039864028,-0.003051521637823454,-0.0004830178815945611,0.0,-0.0035345395194180153,0.025,0.004,0,-0.11301300877103518,-0.0022572557484237294,-0.0004520520350841407,0.0,-0.00270930778350787,0.2,0.005,0,-0.11940333188143448,-0.021865776097963953,-0.0005970166594071724,0.0,-0.022462792757371126,0.002,8e-05,0,-0.4086038306115749,-0.0015274401887048039,-3.2688306448926e-05,-0.0,-0.00156012849515373,-0.09029022993694917,0.0,0.09029022993694917,-0.12206086551293815,0.0,0.12206086551293815,-0.763720094352402,0.0,0.763720094352402,-0.10932888048981976,0,0.10932888048981976,-0.003539702844350136,0.0027025584274541813,0.022462792757371126,0.4,0.0334169864654541,0.9125707149505615,STABILIZE
0.025,0.004,0,-0.12473185463481054,-0.002940348034987644,-0.0004989274185392421,0.0,-0.003439275453526886,0.025,0.004,0,-0.11589327364812017,-0.0021292841397026804,-0.0004635730945924807,0.0,-0.002592857234295161,0.2,0.005,0,-0.1230235847515618,-0.02141066144132335,-0.0006151179237578091,0.0,-0.02202577936508116,0.002,8e-05,0,-0.4349151955531809,-0.0015560894419069061,-3.479321564425448e-05,-0.0,-0.0015908826575511605,-0.08517136558810721,0.0,0.08517136558810721,-0.11761392139950576,0.0,0.11761392139950576,-0.778044720953453,0.0,0.778044720953453,-0.10705330720661674,0,0.10705330720661674,-0.0034441140265910066,0.0025864266574771454,0.02202577936508116,0.4,0.033817291259765625,0.946422815322876,STABILIZE
0.025,0.004,0,-0.12858433791204218,-0.002846969177195644,-0.0005143373516481687,0.0,-0.0033613065288438126,0.025,0.004,0,-0.11866617579990012,-0.00204916319926762,-0.00047466470319960046,0.0,-0.0025238279024672205,0.2,0.005,0,-0.12662177706058944,-0.021272393643790855,-0.0006331088853029472,0.0,-0.0219055025290938,0.002,8e-05,0,-0.4612884730598862,-0.0015591794229341171,-3.69030778447909e-05,-0.0,-0.0015960825007789081,-0.08196652797070479,0.0,0.08196652797070479,-0.11387876708782575,0.0,0.11387876708782575,-0.7795897114670586,0.0,0.7795897114670586,-0.10636196821895427,0,0.10636196821895427,-0.0033659858841425835,0.0025175837403893842,0.0219055025290938,0.4,0.033829689025878906,0.9802346229553223,STABILIZE
0.025,0.004,0,-0.1328896718534906,-0.0027118982170783903,-0.0005315586874139625,0.0,-0.003243456904492353,0.025,0.004,0,-0.12173729062583726,-0.0019344726644131135,-0.000486949162503349,0.0,-0.0024214218269164624,0.2,0.005,0,-0.1307567755432168,-0.0208368413046007,-0.000653783877716084,0.0,-0.021490625182316786,0.002,8e-05,0,-0.49272568273363176,-0.0015841653915555415,-3.9418054618690546e-05,-0.0,-0.001623583446174232,-0.07737890657652453,0.0,0.07737890657652453,-0.1084759286831356,0.0,0.1084759286831356,-0.7920826957777707,0.0,0.7920826957777707,-0.1041842065230035,0,0.1041842065230035,-0.0032478545503219465,0.002415520063075362,0.021490625182316786,0.4,0.03968930244445801,1.0199222564697266,STABILIZE
0.025,0.004,0,-0.136415855034269,-0.002635666463487371,-0.000545663420137076,0.0,-0.003181329883624447,0.025,0.004,0,-0.12432165359993794,-0.0019316973824405838,-0.0004972866143997518,0.0,-0.0024289839968403355,0.2,0.005,0,-0.13409892809108082,-0.019984893432154597,-0.0006704946404554041,0.0,-0.02065538807261,0.002,8e-05,0,-0.5194069467581838,-0.001595445481705013,-4.1552555740654706e-05,-0.0,-0.0016369980374456676,-0.07726789529762335,0.0,0.07726789529762335,-0.10542665853949483,0.0,0.10542665853949483,-0.7977227408525065,0.0,0.7977227408525065,-0.09992446716077298,0,0.09992446716077298,-0.003185561218053399,0.0024234320315169836,0.02065538807261,0.4,0.0334467887878418,1.053370714187622,STABILIZE
0.025,0.004,0,-0.13974518821127146,-0.002488405597861998,-0.0005589807528450859,0.0,-0.003047386350707084,0.025,0.004,0,-0.12664053700227076,-0.001733176624980957,-0.0005065621480090831,0.0,-0.0022397387729900403,0.2,0.005,0,-0.13701775419325896,-0.017452679742638873,-0.0006850887709662947,0.0,-0.018137768513605167,0.002,8e-05,0,-0.5466198073302615,-0.0016271518885319722,-4.3729584586420925e-05,-0.0,-0.0016708814731183931,-0.06932706499923828,0.0,0.06932706499923828,-0.09953622391447992,0.0,0.09953622391447992,-0.8135759442659861,0.0,0.8135759442659861,-0.08726339871319436,0,0.08726339871319436,-0.0030507940124427147,0.002235094905223143,0.018137768513605167,0.4,0.03344845771789551,1.086822271347046,STABILIZE
0.025,0.004,0,-0.14296530546981495,-0.0024008715101853694,-0.0005718612218792599,0.0,-0.002972732732064629,0.025,0.004,0,-0.12898940505323966,-0.0017512810658661044,-0.0005159576202129586,-0.0,-0.002267238686079063,0.2,0.005,0,-0.13975668559356605,-0.01633685195755577,-0.0006987834279678302,0.0,-0.0170356353855236,0.002,8e-05,0,-0.574000755673446,-0.0016331862108336622,-4.5920060453875684e-05,-0.0,-0.0016791062712875379,-0.07005124263464417,0.0,0.07005124263464417,-0.09603486040741477,0.0,0.09603486040741477,-0.816593105416831,0.0,0.816593105416831,-0.08168425978777885,0,0.08168425978777885,-0.002975962019797619,0.002262998279421358,0.0170356353855236,0.4,0.03353071212768555,1.1203720569610596,STABILIZE
0.025,0.004,0,-0.1460920506787601,-0.002339121738105002,-0.0005843682027150404,0.0,-0.0029234899408200426,0.025,0.004,0,-0.13113156455687397,-0.0016025520234600927,-0.0005245262582274959,0.0,-0.0021270782816875887,0.2,0.005,0,-0.14244605757962572,-0.016095378559009717,-0.0007122302878981286,0.0,-0.016807608846907848,0.002,8e-05,0,-0.6015216806743088,-0.0016470748876655208,-4.8121734453944706e-05,-0.0,-0.0016951966221194655,-0.06410208093840371,0.0,0.06410208093840371,-0.09356486952420008,0.0,0.09356486952420008,-0.8235374438327604,0.0,0.8235374438327604,-0.08047689279504859,0,0.08047689279504859,-0.0029264747219870974,0.002122969889582408,0.016807608846907848,0.4,0.03341794013977051,1.153780221939087,STABILIZE
0.025,0.004,0,-0.14910779457510107,-0.0022537821591424798,-0.0005964311783004043,0.0,-0.0028502133374428843,0.025,0.004,0,-0.1331619653062257,-0.001517397080816661,-0.0005326478612249028,0.0,-0.0020500449420415637,0.2,0.005,0,-0.1448938713160728,-0.014634767719638017,-0.0007244693565803639,0.0,-0.015359237076218382,0.002,8e-05,0,-0.6294206689553661,-0.0016679995173930434,-5.035365351642929e-05,-0.0,-0.0017183531709094727,-0.06069588323266644,0.0,0.06069588323266644,-0.09015128636569919,0.0,0.09015128636569919,-0.8339997586965217,0.0,0.8339997586965217,-0.07317383859819009,0,0.07317383859819009,-0.002852829174752658,0.0020464031941451744,0.015359237076218382,0.4,0.03345203399658203,1.1872403621673584,STABILIZE
0.025,0.004,0,-0.15204205886223454,-0.0021944533187444938,-0.0006081682354489382,0.0,-0.002802621554193432,0.025,0.004,0,-0.13519873941119728,-0.0015232457804794809,-0.0005407949576447891,-0.0,-0.00206404073812427,0.2,0.005,0,-0.1472421221548067,-0.014049523402238124,-0.0007362106107740335,0.0,-0.014785734013012157,0.002,8e-05,0,-0.6573495342904472,-0.0016709767144584024,-5.2587962743235776e-05,-0.0,-0.0017235646772016382,-0.06092983121917923,0.0,0.06092983121917923,-0.08777813274977975,0.0,0.08777813274977975,-0.8354883572292012,0.0,0.8354883572292012,-0.07024761701119062,0,0.07024761701119062,-0.002805150068809162,0.0020606030273019947,0.014785734013012157,0.4,0.033428192138671875,1.2206649780273438,STABILIZE
0.025,0.004,0,-0.1549725727390017,-0.002141609182100444,-0.0006198902909560068,0.0,-0.002761499473056451,0.025,0.004,0,-0.13729503169514354,-0.0015319629909475744,-0.0005491801267805741,-0.0,-0.0020811431177281486,0.2,0.005,0,-0.14954864050923156,-0.013484763681020365,-0.0007477432025461578,0.0,-0.014232506883566523,0.002,8e-05,0,-0.6861544314335949,-0.0016840413608080734,-5.4892354514687594e-05,-0.0,-0.001738933715322761,-0.06127851963790298,0.0,0.06127851963790298,-0.08566436728401776,0.0,0.08566436728401776,-0.8420206804040367,0.0,0.8420206804040367,-0.06742381840510182,0,0.06742381840510182,-0.002763946582298843,0.0020778920343359616,0.014232506883566523,0.4,0.034209251403808594,1.2549045085906982,STABILIZE
0.025,0.004,0,-0.1575465322317803,-0.0019232083606007117,-0.0006301861289271213,0.0,-0.002553394489527833,0.025,0.004,0,-0.13904514627304784,-0.0013076487791193912,-0.0005561805850921914,0.0,-0.0018638293642115826,0.2,0.005,0,-0.15154730575836303,-0.011946884876645143,-0.0007577365287918152,0.0,-0.012704621405436958,0.002,8e-05,0,-0.7147807875172805,-0.0017111208628771534,-5.718246300138244e-05,-0.0,-0.001768303325878536,-0.05230595116477564,0.0,0.05230595116477564,-0.07692833442402847,0.0,0.07692833442402847,-0.8555604314385767,0.0,0.8555604314385767,-0.059734424383225716,0,0.059734424383225716,-0.0025553362598694364,0.0018611662787201295,0.012704621405436958,0.4,0.03345918655395508,1.2883367538452148,STABILIZE
0.025,0.004,0,-0.1600724768153598,-0.0018881129652633664,-0.0006402899072614392,0.0,-0.002528402872524806,0.025,0.004,0,-0.14065020003822526,-0.0011997582384336233,-0.0005626008001529011,0.0,-0.0017623590385865244,0.2,0.005,0,-0.1534208181735957,-0.011203422608012607,-0.0007671040908679785,0.0,-0.011970526698880586,0.002,8e-05,0,-0.7434847856245003,-0.0017164712585843252,-5.947878284996002e-05,-0.0,-0.0017759500414342851,-0.04799032953734493,0.0,0.04799032953734493,-0.07552451861053465,0.0,0.07552451861053465,-0.8582356292921626,0.0,0.8582356292921626,-0.05601711304006303,0,0.05601711304006303,-0.002530124692423237,0.001759886220035127,0.011970526698880586,0.4,0.03344535827636719,1.321791410446167,STABILIZE
0.025,0.004,0,-0.16255468612232846,-0.0018555007387427284,-0.0006502187444893139,0.0,-0.002505719483232042,0.025,0.004,0,-0.14211298200126446,-0.0010934585594449364,-0.0005684519280050579,0.0,-0.0016619104874499944,0.2,0.005,0,-0.15517331925761407,-0.010480234835682379,-0.0007758665962880704,0.0,-0.01125610143197045,0.002,8e-05,0,-0.7722601947995824,-0.0017208151732278762,-6.17808155839666e-05,-0.0,-0.0017825959888118428,-0.04373834237779745,0.0,0.04373834237779745,-0.07422002954970913,0.0,0.07422002954970913,-0.860407586613938,0.0,0.860407586613938,-0.05240117417841189,0,0.05240117417841189,-0.002507238373569125,0.0016596181292837756,0.01125610143197045,0.4,0.03344392776489258,1.3552587032318115,STABILIZE
0.025,0.004,0,-0.16494712930068575,-0.001788411524804613,-0.000659788517202743,0.0,-0.002448200042007356,0.025,0.004,0,-0.14336668881774406,-0.0009371774174623109,-0.0005734667552709762,0.0,-0.001510644172733287,0.2,0.005,0,-0.15676953411943206,-0.009545686453961477,-0.0007838476705971603,0.0,-0.010329534124558637,0.002,8e-05,0,-0.8013656111062892,-0.0017405625321606534,-6.410924888850314e-05,-0.0,-0.0018046717810491567,-0.037487096698492435,0.0,0.037487096698492435,-0.07153646099218451,0.0,0.07153646099218451,-0.8702812660803266,0.0,0.8702812660803266,-0.04772843226980738,0,0.04772843226980738,-0.0024494575866604814,0.0015086042534240942,0.010329534124558637,0.4,0.03344368934631348,1.3886864185333252,STABILIZE
0.025,0.004,0,-0.16722018670164762,-0.0016997977744210848,-0.0006688807468065905,0.0,-0.0023686785212276755,0.025,0.004,0,-0.1444841704464442,-0.0008356554412647763,-0.0005779366817857768,0.0,-0.0014135921230505532,0.2,0.005,0,-0.15836583794298884,-0.009549758612988768,-0.0007918291897149442,-0.0,-0.010341587802703712,0.002,8e-05,0,-0.8303289220735759,-0.0017327066708030048,-6.642631376588608e-05,0.0,-0.001799132984568891,-0.03342621765059105,0.0,0.03342621765059105,-0.06799191097684339,0.0,0.06799191097684339,-0.8663533354015024,0.0,0.8663533354015024,-0.04774879306494383,0,0.04774879306494383,-0.002369855748985161,0.0014116176381293484,0.010341587802703712,0.4,0.033431291580200195,1.4221162796020508,STABILIZE
0.025,0.004,0,-0.169560960264653,-0.0016924639918923338,-0.000678243841058612,0.0,-0.0023707078329509457,0.025,0.004,0,-0.14571455638535677,-0.0008896135579498443,-0.0005828582255414271,-0.0,-0.0014724717834912714,0.2,0.005,0,-0.15989952751359218,-0.008871304474762597,-0.0007994976375679609,0.0,-0.009670802112330559,0.002,8e-05,0,-0.8601730067524155,-0.001726268255527301,-6.881384054019324e-05,0.0,-0.0017950820960674942,-0.035584542317993774,0.0,0.035584542317993774,-0.06769855967569335,0.0,0.06769855967569335,-0.8631341277636504,0.0,0.8631341277636504,-0.04435652237381298,0,0.04435652237381298,-0.002371847062006436,0.001470636017797869,0.009670802112330559,0.4,0.034576416015625,1.4567224979400635,STABILIZE
0.025,0.004,0,-0.17169406278718952,-0.001594422821327616,-0.0006867762511487581,0.0,-0.002281199072476374,0.025,0.004,0,-0.14665107781361778,-0.0007000184576717328,-0.0005866043112544711,0.0,-0.0012866227689262038,0.2,0.005,0,-0.16117208406864075,-0.007609547844467646,-0.0008058604203432038,0.0,-0.00841540826481085,0.002,8e-05,0,-0.8893475721843712,-0.001744560983284103,-7.11478057747497e-05,-0.0,-0.0018157087890588528,-0.028000738306869312,0.0,0.028000738306869312,-0.06377691285310463,0.0,0.06377691285310463,-0.8722804916420515,0.0,0.8722804916420515,-0.03804773922233823,0,0.03804773922233823,-0.002282052961996936,0.001285107636125244,0.00841540826481085,0.4,0.033446311950683594,1.4901528358459473,STABILIZE
0.025,0.004,0,-0.17390241013780033,-0.0016494664934637996,-0.0006956096405512013,-0.0,-0.002345076134015001,0.025,0.004,0,-0.14733178956693302,-0.000508439593295823,-0.0005893271582677321,0.0,-0.0010977667515635551,0.2,0.005,0,-0.16265654827679749,-0.00887024940681914,-0.0008132827413839874,-0.0,-0.009683532148203127,0.002,8e-05,0,-0.9184701365646718,-0.00174018617626476,-7.347761092517375e-05,0.0,-0.0018136637871899338,-0.02033758373183292,0.0,0.02033758373183292,-0.06597865973855198,0.0,0.06597865973855198,-0.8700930881323801,0.0,0.8700930881323801,-0.044351247034095695,0,0.044351247034095695,-0.002345925185468593,0.001095951157373945,0.009683532148203127,0.4,0.03347063064575195,1.5236783027648926,STABILIZE
0.025,0.004,0,-0.17599159521010863,-0.001562654221358834,-0.0007039663808404345,0.0,-0.0022666206021992683,0.025,0.004,0,-0.14795716962968372,-0.0004677674601280214,-0.0005918286785187349,0.0,-0.0010595961386467563,0.2,0.005,0,-0.1632523342327013,-0.003565054915851065,-0.0008162616711635065,0.0,-0.004381316587014571,0.002,8e-05,0,-0.9475450006249194,-0.0017397772810613227,-7.580360004999356e-05,0.0,-0.0018155808811113163,-0.018710698405120855,0.0,0.018710698405120855,-0.06250616885435335,0.0,0.06250616885435335,-0.8698886405306614,0.0,0.8698886405306614,-0.017825274579255323,0,0.017825274579255323,-0.002266950143171852,0.001058890919652449,0.004381316587014571,0.4,0.033423662185668945,1.5570628643035889,STABILIZE
0.025,0.004,0,-0.17797451899047778,-0.0014803963531486762,-0.0007118980759619111,0.0,-0.0021922944291105874,0.025,0.004,0,-0.1485243183438627,-0.00042341763030710224,-0.0005940972733754508,0.0,-0.001017514903682553,0.2,0.005,0,-0.16295402828407043,0.0017816561295905032,-0.0008147701414203522,0.0,0.000966885988170151,0.002,8e-05,0,-0.9768264394579694,-0.0017488573466126099,-7.814611515663756e-05,-0.0,-0.0018270034617692474,-0.01693670521228409,0.0,0.01693670521228409,-0.05921585412594705,0.0,0.05921585412594705,-0.8744286733063049,0.0,0.8744286733063049,0.008908280647952516,0,-0.008908280647952516,-0.0021921362005886324,0.0010178557467511128,-0.000966885988170151,0.4,0.033486366271972656,1.590541124343872,STABILIZE
0.025,0.004,0,-0.17936710819121263,-0.0010389956196678266,-0.0007174684327648505,0.0,-0.0017564640524326772,0.025,0.004,0,-0.1492031153195161,-0.0005064430228063586,-0.0005968124612780644,-0.0,-0.001103255484084423,0.2,0.005,0,-0.16314893387556187,-0.0011633354944961076,-0.0008157446693778093,-0.0,-0.001979080163873917,0.002,8e-05,0,-1.005961726781394,-0.0017390016174663912,-8.047693814251153e-05,0.0,-0.0018194785556089027,-0.02025772091225434,0.0,0.02025772091225434,-0.041559824786713065,0.0,0.041559824786713065,-0.8695008087331956,0.0,0.8695008087331956,-0.005816677472480538,0,0.005816677472480538,-0.0017565760460691944,0.0011030771618642519,0.001979080163873917,0.4,0.0335080623626709,1.6240417957305908,STABILIZE
0.025,0.004,0,-0.1805978234783383,-0.0009153770129898455,-0.0007223912939133533,0.0,-0.0016377683069031988,0.025,0.004,0,-0.14964462570286516,-0.0003283850132860067,-0.0005985785028114607,0.0,-0.0009269635160974673,0.2,0.005,0,-0.16422444203271455,-0.0063995008732843405,-0.0008211222101635728,-0.0,-0.007220623083447913,0.002,8e-05,0,-1.0343505953847258,-0.0016891976895790752,-8.274804763077808e-05,0.0,-0.0017719457372098533,-0.013135400531440267,0.0,0.013135400531440267,-0.03661508051959382,0.0,0.03661508051959382,-0.8445988447895376,0.0,0.8445988447895376,-0.0319975043664217,0,0.0319975043664217,-0.0016382857252001315,0.0009260487405519375,0.007220623083447913,0.4,0.03361225128173828,1.6577019691467285,STABILIZE
0.025,0.004,0,-0.18173889159906456,-0.0008531352868572256,-0.0007269555663962583,0.0,-0.0015800908532534839,0.025,0.004,0,-0.14962207601320926,1.6859585859684695e-05,-0.000598488304052837,0.0,-0.0005816287181931524,0.2,0.005,0,-0.1644986242534885,-0.0016399688910579858,-0.0008224931212674425,0.0,-0.0024624620123254283,0.002,8e-05,0,-1.0621050841944988,-0.0016600820471423358,-8.496840673555991e-05,0.0,-0.0017450504538778957,0.0006743834343873878,0.0,-0.0006743834343873878,-0.03412541147428902,0.0,0.03412541147428902,-0.8300410235711679,0.0,0.8300410235711679,-0.008199844455289929,0,0.008199844455289929,-0.0015801740764492254,0.0005814025786665981,0.0024624620123254283,0.4,0.033437490463256836,1.6911125183105469,STABILIZE
0.025,0.004,0,-0.18285849979539207,-0.0008371740489558796,-0.0007314339991815683,0.0,-0.001568608048137448,0.025,0.004,0,-0.14911058668584193,0.0003824602147379953,-0.0005964423467433677,0.0,-0.00021398213200537244,0.2,0.005,0,-0.16496976434981675,-0.0028183163600436103,-0.0008248488217490838,-0.0,-0.003643165181792694,0.002,8e-05,0,-1.0896453298448312,-0.0016474319524244895,-8.71716263875865e-05,0.0,-0.001734603578812076,0.015298408589519811,0.0,-0.015298408589519811,-0.03348696195823518,0.0,0.03348696195823518,-0.8237159762122448,0.0,0.8237159762122448,-0.01409158180021805,0,0.01409158180021805,-0.001568660628423689,0.00021359633501662762,0.003643165181792694,0.4,0.033434152603149414,1.724543571472168,STABILIZE
0.025,0.004,0,-0.1839617922400118,-0.0008245801699284291,-0.0007358471689600472,0.0,-0.0015604273388884764,0.025,0.004,0,-0.14810935021225824,0.0007483054429967839,-0.000592437400849033,0.0,0.00015586804214775087,0.2,0.005,0,-0.16564548901891513,-0.004040191992156802,-0.0008282274450945756,-0.0,-0.004868419437251378,0.002,8e-05,0,-1.1169816220435875,-0.00163445074432519,-8.9358529763487e-05,0.0,-0.001723809274088677,0.029932217719871354,0.0,-0.029932217719871354,-0.03298320679713716,0.0,0.03298320679713716,-0.8172253721625949,0.0,0.8172253721625949,-0.020200959960784012,0,0.020200959960784012,-0.0015603722869986117,-0.00015641819740767576,0.004868419437251378,0.4,0.03345012664794922,1.758005142211914,STABILIZE
0.025,0.004,0,-0.1847991339713405,-0.0006259384932629035,-0.000739196535885362,0.0,-0.0013651350291482656,0.025,0.004,0,-0.14713304758316043,0.0007298160043407508,-0.0005885321903326417,-0.0,0.00014128381400810915,0.2,0.005,0,-0.16655514199204893,-0.005439946823068,-0.0008327757099602447,-0.0,-0.0062727225330282445,0.002,8e-05,0,-1.1444405419871428,-0.0016421104390745645,-9.155524335897143e-05,-0.0,-0.001733665682433536,0.029192640173630033,0.0,-0.029192640173630033,-0.025037539730516138,0.0,0.025037539730516138,-0.8210552195372822,0.0,0.8210552195372822,-0.02719973411534,0,0.02719973411534,-0.0013650678043780815,-0.00014193186167565637,0.0062727225330282445,0.4,0.033443450927734375,1.7914495468139648,STABILIZE
0.025,0.004,0,-0.18523359361877986,-0.0003247324874176584,-0.0007409343744751195,0.0,-0.001065666861892778,0.025,0.004,0,-0.14707134035794592,4.612244394538532e-05,-0.0005882853614317837,-0.0,-0.0005421629174863984,0.2,0.005,0,-0.16722084873629173,-0.003980606405640588,-0.0008361042436814586,0.0,-0.004816710649322047,0.002,8e-05,0,-1.1714449096545287,-0.001614731409088195,-9.37155927723623e-05,0.0,-0.0017084470018605574,0.0018448977578154127,0.0,-0.0018448977578154127,-0.012989299496706335,0.0,0.012989299496706335,-0.8073657045440975,0.0,0.8073657045440975,-0.01990303202820294,0,0.01990303202820294,-0.0010658551305905825,0.0005417927004191699,0.004816710649322047,0.4,0.0334475040435791,1.8248953819274902,STABILIZE
0.025,0.004,0,-0.1861434008542013,-0.0006740063244049623,-0.0007445736034168052,-0.0,-0.0014185799278217674,0.025,0.004,0,-0.14666952814174455,0.0002976718192589904,-0.0005866781125669782,0.0,-0.0002890062933079878,0.2,0.005,0,-0.16763369909042106,-0.0024467930250047336,-0.0008381684954521053,0.0,-0.003284961520456839,0.002,8e-05,0,-1.1990449079990886,-0.0016357375684472523,-9.592359263992709e-05,-0.0,-0.0017316611610871794,0.011906872770359615,0.0,-0.011906872770359615,-0.02696025297619849,0.0,0.02696025297619849,-0.8178687842236262,0.0,0.8178687842236262,-0.012233965125023666,0,0.012233965125023666,-0.001418641604965984,0.00028870338731987703,0.003284961520456839,0.4,0.03374624252319336,1.8586597442626953,STABILIZE
0.025,0.004,0,-0.186724091716434,-0.0004344341080890419,-0.0007468963668657361,0.0,-0.001181330474954778,0.025,0.004,0,-0.14596469483894572,0.0005273091883614844,-0.000583858779355783,0.0,-5.654959099429856e-05,0.2,0.005,0,-0.16838403315280906,-0.004490798534821499,-0.0008419201657640453,-0.0,-0.005332718700585545,0.002,8e-05,0,-1.226939438916155,-0.0016695059554302676,-9.815515511329241e-05,-0.0,-0.00176766111054356,0.021092367534459377,0.0,-0.021092367534459377,-0.017377364323561673,0.0,0.017377364323561673,-0.8347529777151338,0.0,0.8347529777151338,-0.022453992674107498,0,0.022453992674107498,-0.0011813525458026376,5.608662785487399e-05,0.005332718700585545,0.4,0.0334165096282959,1.892071008682251,STABILIZE
0.025,0.004,0,-0.18626899453057666,0.0003396348790132429,-0.0007450759781223067,0.0,-0.00040544109910906377,0.025,0.004,0,-0.14538387400099786,0.000433461293884216,-0.0005815354960039915,-0.0,-0.00014807420211977544,0.2,0.005,0,-0.1698444008330793,-0.008718872642010132,-0.0008492220041653965,-0.0,-0.009568094646175529,0.002,8e-05,0,-1.254958210191624,-0.0016728122762290922,-0.00010039665681532991,-0.0,-0.0017732089330444222,0.01733845175536864,0.0,-0.01733845175536864,0.013585395160529715,0.0,-0.013585395160529715,-0.8364061381145461,0.0,0.8364061381145461,-0.043594363210050655,0,0.043594363210050655,-0.00040555364624352827,0.00014776567327614665,0.009568094646175529,0.4,0.03349900245666504,1.9255621433258057,STABILIZE
0.025,0.004,0,-0.18590038371171094,0.0002751868613679388,-0.0007436015348468438,-0.0,-0.000468414673478905,0.025,0.004,0,-0.14455653249093992,0.0006176528245504115,-0.0005782261299637596,0.0,3.9426694586651824e-05,0.2,0.005,0,-0.17045199671498068,-0.0036288116390079082,-0.0008522599835749034,0.0,-0.004481071622582811,0.002,8e-05,0,-1.2826579889477197,-0.0016543443190153123,-0.00010261263911581759,0.0,-0.0017569569581311298,0.024706112982016457,0.0,-0.024706112982016457,0.011007474454717552,0.0,-0.011007474454717552,-0.8271721595076561,0.0,0.8271721595076561,-0.01814405819503954,0,0.01814405819503954,-0.00046840216460075716,-3.957502714722355e-05,0.004481071622582811,0.4,0.03348731994628906,1.959080457687378,STABILIZE
0.025,0.004,0,-0.18547300304405168,0.00031843356637852293,-0.0007418920121762067,0.0,-0.0004234584457976838,0.025,0.004,0,-0.14464199513188628,-6.367666019552353e-05,-0.0005785679805275451,-0.0,-0.0006422446407230686,0.2,0.005,0,-0.169807590565589,0.003841082461140132,-0.000849037952827945,0.0,0.002992044508312187,0.002,8e-05,0,-1.3104621075709117,-0.00165730746815216,-0.00010483696860567295,-0.0,-0.001762144436757833,-0.002547066407820941,0.0,0.002547066407820941,0.012737342655140916,0.0,-0.012737342655140916,-0.82865373407608,0.0,0.82865373407608,0.01920541230570066,0,-0.01920541230570066,-0.0004232431430994722,0.0006423865469280728,-0.002992044508312187,0.4,0.033553361892700195,1.9926345348358154,STABILIZE
0.025,0.004,0,-0.18516318385529884,0.0002316653585955393,-0.0007406527354211954,-0.0,-0.0005089873768256561,0.025,0.004,0,-0.1453366068537376,-0.0005193915660134305,-0.0005813464274149504,-0.0,-0.0011007379934283809,0.2,0.005,0,-0.16935514185633987,0.0027065255162850273,-0.0008467757092816994,-0.0,0.0018597498070033278,0.002,8e-05,0,-1.3376816341492999,-0.0016282584460870493,-0.00010701453073194399,0.0,-0.0017352729768189933,-0.020775662640537217,0.0,0.020775662640537217,0.009266614343821571,0.0,-0.009266614343821571,-0.8141292230435246,0.0,0.8141292230435246,0.013532627581425136,0,-0.013532627581425136,-0.000508727380526714,0.0011008581798974057,-0.0018597498070033278,0.4,0.03343391418457031,2.026054620742798,STABILIZE
0.025,0.004,0,-0.18395710690631964,0.0009017850419657802,-0.0007358284276252786,0.0,0.00016595661434050163,0.025,0.004,0,-0.14557883558638282,-0.00018111468593995936,-0.0005823153423455313,0.0,-0.0007634300282854906,0.2,0.005,0,-0.16878659364025944,0.0034008329391030435,-0.0008439329682012973,0.0,0.0025568999709017462,0.002,8e-05,0,-1.364817836579089,-0.001623181437479677,-0.00010918542692632713,0.0,-0.0017323668644060042,-0.0072445874375983745,0.0,0.0072445874375983745,0.03607140167863121,0.0,-0.03607140167863121,-0.8115907187398386,0.0,0.8115907187398386,0.017004164695515217,0,-0.017004164695515217,0.00016618317676981879,0.0007633807422839788,-0.0025568999709017462,0.4,0.033435821533203125,2.0595157146453857,STABILIZE
0.025,0.004,0,-0.18184691453428997,0.0015776468786360175,-0.0007273876581371599,0.0,0.0008502592204988576,0.025,0.004,0,-0.14578016585406633,-0.000150520906338203,-0.0005831206634162654,0.0,-0.0007336415697544684,0.2,0.005,0,-0.16811974570348617,0.003988453678138542,-0.0008405987285174309,0.0,0.003147854949621111,0.002,8e-05,0,-1.392344778659293,-0.0016464013357969987,-0.00011138758229274345,-0.0,-0.0017577889180897422,-0.006020836253528119,0.0,0.006020836253528119,0.06310587514544069,0.0,-0.06310587514544069,-0.8232006678984993,0.0,0.8232006678984993,0.01994226839069271,0,-0.01994226839069271,0.0008505145189878698,0.000733345585591103,-0.003147854949621111,0.4,0.033438920974731445,2.0929338932037354,STABILIZE
0.025,0.004,0,-0.17949221649812752,0.001759857339962277,-0.00071796886599251,0.0,0.001041888473969767,0.025,0.004,0,-0.1460687980711599,-0.00021571832905995715,-0.0005842751922846397,-0.0,-0.0007999935213445969,0.2,0.005,0,-0.16748157961479676,0.003815627339207882,-0.0008374078980739839,-0.0,0.0029782194411338983,0.002,8e-05,0,-1.419487949441219,-0.001622903917082173,-0.00011355903595529752,0.0,-0.0017364629530374706,-0.008628733162398285,0.0,0.008628733162398285,0.07039429359849107,0.0,-0.07039429359849107,-0.8114519585410864,0.0,0.8114519585410864,0.01907813669603941,0,-0.01907813669603941,0.0010421547950892362,0.0007996465528324934,-0.0029782194411338983,0.4,0.03345012664794922,2.1263904571533203,STABILIZE
0.025,0.004,0,-0.17706321161438265,0.0018153152573501176,-0.0007082528464575306,0.0,0.0011070624108925871,0.025,0.004,0,-0.1462000238098133,-9.80714724489617e-05,-0.0005848000952392532,0.0,-0.000682871567688215,0.2,0.005,0,-0.16678915328166571,0.0041398750427734665,-0.0008339457664083286,0.0,0.003305929276365138,0.002,8e-05,0,-1.4466760760963282,-0.0016255223352106287,-0.00011573408608770626,-0.0,-0.001741256421298335,-0.0039228588979584676,0.0,0.0039228588979584676,0.0726126102940047,0.0,-0.0726126102940047,-0.8127611676053144,0.0,0.8127611676053144,0.020699375213867333,0,-0.020699375213867333,0.0011073090411897566,0.0006824715722047989,-0.003305929276365138,0.4,0.03345155715942383,2.1598682403564453,STABILIZE
0.025,0.004,0,-0.17489910403999887,0.0016181978891530097,-0.0006995964161599955,-0.0,0.0009186014729930142,0.025,0.004,0,-0.1460284204674013,0.0001283153248709469,-0.0005841136818696052,0.0,-0.00045579835699865827,0.2,0.005,0,-0.16591691246943902,0.005217700849571713,-0.0008295845623471951,0.0,0.004388116287224518,0.002,8e-05,0,-1.4741731232420128,-0.001644859587417043,-0.00011793384985936104,-0.0,-0.001762793437276404,0.005132612994837875,0.0,-0.005132612994837875,0.06472791556612038,0.0,-0.06472791556612038,-0.8224297937085214,0.0,0.8224297937085214,0.026088504247858562,0,-0.026088504247858562,0.000918808916561837,0.00045538004268311433,-0.004388116287224518,0.4,0.03343391418457031,2.1932878494262695,STABILIZE
0.025,0.004,0,-0.1720281452664605,0.002145043548250883,-0.0006881125810658421,0.0,0.0014569309671850412,0.025,0.004,0,-0.14578357879428375,0.0001829340275118223,-0.000583134315177135,0.0,-0.00040020028766531266,0.2,0.005,0,-0.16597626394118803,-0.00035475672511320474,-0.0008298813197059402,-0.0,-0.001184638044819145,0.002,8e-05,0,-1.5015711446766011,-0.0016376396527818264,-0.0001201256915741281,0.0,-0.0017577653443559545,0.007317361100472892,0.0,-0.007317361100472892,0.08580174193003533,0.0,-0.08580174193003533,-0.8188198263909132,0.0,0.8188198263909132,-0.0017737836255660236,0,0.0017737836255660236,0.001456918576940495,0.0004002453916734357,0.001184638044819145,0.4,0.033460378646850586,2.2267463207244873,STABILIZE
0.025,0.004,0,-0.1691432012773567,0.0021572757231621224,-0.0006765728051094268,0.0,0.0014807029180526955,0.025,0.004,0,-0.14604697711248055,-0.0001969614659812562,-0.0005841879084499222,-0.0,-0.0007811493744311784,0.2,0.005,0,-0.16296155816817098,0.018034461954671285,-0.0008148077908408549,0.0,0.01721965416383043,0.002,8e-05,0,-1.5281627464757592,-0.0015907530189281068,-0.00012225301971806074,0.0,-0.0017130060386461674,-0.007878458639250248,0.0,0.007878458639250248,0.0862910289264849,0.0,-0.0862910289264849,-0.7953765094640534,0.0,0.7953765094640534,0.09017230977335641,0,-0.09017230977335641,0.001481930459575556,0.0007788180722647428,-0.01721965416383043,0.4,0.033432722091674805,2.260209321975708,STABILIZE
0.025,0.004,0,-0.16606926207004727,0.0022871184325972817,-0.0006642770482801891,0.0,0.0016228413843170926,0.025,0.004,0,-0.14107759048254973,0.0036973977016173452,-0.0005643103619301989,0.0,0.003133087339687146,0.2,0.005,0,-0.15641928854838544,0.038941421880700426,-0.0007820964427419272,0.0,0.0381593254379585,0.002,8e-05,0,-1.557116917037526,-0.0017234333596426743,-0.0001245693533630021,-0.0,-0.0018480027130056763,0.1478959080646938,0.0,-0.1478959080646938,0.09148473730389126,0.0,-0.09148473730389126,-0.8617166798213372,0.0,0.8617166798213372,0.1947071094035021,0,-0.1947071094035021,0.0016121849258115782,-0.0031385841078017986,-0.0381593254379585,0.4,0.033600568771362305,2.2937793731689453,STABILIZE
0.025,0.004,0,-0.16013592795637213,0.004430799731925866,-0.0006405437118254886,0.0,0.0037902560201003776,0.025,0.004,0,-0.13475483499221688,0.004721605558505619,-0.0005390193399688676,0.0,0.0041825862185367515,0.2,0.005,0,-0.14725910260976383,0.05472396952356484,-0.0007362955130488191,0.0,0.053987674010516025,0.002,8e-05,0,-1.5842777926826983,-0.0016226209173035582,-0.00012674222341461588,0.0,-0.001749363140718174,0.18886422234022474,0.0,-0.18886422234022474,0.17723198927703465,0.0,-0.17723198927703465,-0.8113104586517791,0.0,0.8113104586517791,0.2736198476178242,0,-0.2736198476178242,0.0037702386540121066,-0.0042006390781872335,-0.053987674010516025,0.4,0.033477783203125,2.3272767066955566,STABILIZE
0.025,0.004,0,-0.15590404270754285,0.0030806662686413823,-0.0006236161708301714,-0.0,0.002457050097811211,0.025,0.004,0,-0.12879693105251822,0.004337148249450481,-0.0005151877242100728,-0.0,0.003821960525240408,0.2,0.005,0,-0.13819725148697637,0.052773716571155586,-0.0006909862574348819,-0.0,0.0520827303137207,0.002,8e-05,0,-1.6132140801806112,-0.001685169414443655,-0.00012905712641444892,-0.0,-0.001814226540858104,0.17348592997801923,0.0,-0.17348592997801923,0.12322665074565528,0.0,-0.12322665074565528,-0.8425847072218274,0.0,0.8425847072218274,0.2638685828557779,0,-0.2638685828557779,0.002439422540087506,-0.003833235592885342,-0.0520827303137207,0.4,0.034342288970947266,2.361616849899292,STABILIZE
0.025,0.004,0,-0.15025621142093254,0.004222498156323714,-0.0006010248456837302,0.0,0.0036214733106399843,0.025,0.004,0,-0.12233507534582891,0.004831088682236705,-0.0004893403013833157,0.0,0.00434174838085339,0.2,0.005,0,-0.12990738450853762,0.0495821440213523,-0.0006495369225426881,-0.0,0.04893260709880961,0.002,8e-05,0,-1.64329159469278,-0.0017989524563246065,-0.00013146332757542242,-0.0,-0.0019304157839000289,0.19324354728946821,0.0,-0.19324354728946821,0.16889992625294856,0.0,-0.16889992625294856,-0.8994762281623032,0.0,0.8994762281623032,0.24791072010676146,0,-0.24791072010676146,0.003602653339145817,-0.004357377291475029,-0.04893260709880961,0.4,0.033438920974731445,2.3950603008270264,STABILIZE
0.025,0.004,0,-0.1430620773157487,0.005381632956045209,-0.0005722483092629948,0.0,0.0048093846467822145,0.025,0.004,0,-0.11441419119708866,0.005925284482139539,-0.0004576567647883547,0.0,0.005467627717351184,0.2,0.005,0,-0.12371354600505362,0.037066826864684245,-0.0006185677300252681,-0.0,0.036448259134658975,0.002,8e-05,0,-1.67384635163665,-0.0018285395799291135,-0.00013390770813093202,-0.0,-0.0019624472880600454,0.23701137928558152,0.0,-0.23701137928558152,0.21526531824180833,0.0,-0.21526531824180833,-0.9142697899645568,0.0,0.9142697899645568,0.18533413432342122,0,-0.18533413432342122,0.004791673431404929,-0.00548315595829806,-0.036448259134658975,0.4,0.03341984748840332,2.4284777641296387,STABILIZE
0.025,0.004,0,-0.1382388522921823,0.0036042745170404376,-0.0005529554091687292,-0.0,0.0030513191078717083,0.025,0.004,0,-0.10771155361093458,0.005008712164722851,-0.00043084621444373835,-0.0,0.004577865950279113,0.2,0.005,0,-0.11462812437233508,0.05431445310119431,-0.0005731406218616754,0.0,0.053741312479332635,0.002,8e-05,0,-1.7041554146385482,-0.0018119359205403976,-0.00013633243317108388,0.0,-0.0019482683537114815,0.20034848658891402,0.0,-0.20034848658891402,0.1441709806816175,0.0,-0.1441709806816175,-0.9059679602701988,0.0,0.9059679602701988,0.2715722655059715,0,-0.2715722655059715,0.003029586606491083,-0.004592277207503672,-0.053741312479332635,0.4,0.03345489501953125,2.461940288543701,STABILIZE
0.025,0.004,0,-0.1311478393130825,0.005286427512991326,-0.00052459135725233,0.0,0.0047618361557389965,0.025,0.004,0,-0.10042645893374712,0.005431117535638689,-0.00040170583573498846,0.0,0.0050294116999037,0.2,0.005,0,-0.10788319550396405,0.040227344271427455,-0.0005394159775198203,-0.0,0.03968792829390763,0.002,8e-05,0,-1.7341947983776766,-0.0017915750558052674,-0.00013873558387021413,0.0,-0.0019303106396754816,0.21724470142554755,0.0,-0.21724470142554755,0.21145710051965305,0.0,-0.21145710051965305,-0.8957875279026337,0.0,0.8957875279026337,0.20113672135713725,0,-0.20113672135713725,0.0047441511106727985,-0.00504609709184568,-0.03968792829390763,0.4,0.03353404998779297,2.495471239089966,STABILIZE
0.025,0.004,0,-0.12606277769756513,0.003798341324950838,-0.0005042511107902606,-0.0,0.0032940902141605777,0.025,0.004,0,-0.0931981437756104,0.00539926755088607,-0.0003727925751024416,-0.0,0.005026474975783629,0.2,0.005,0,-0.09864308801280028,0.055215979328273025,-0.0004932154400640014,0.0,0.05472276388820902,0.002,8e-05,0,-1.76399343413895,-0.00178067285232196,-0.000141119474731116,0.0,-0.001921792327053076,0.2159707020354428,0.0,-0.2159707020354428,0.15193365299803352,0.0,-0.15193365299803352,-0.89033642616098,0.0,0.89033642616098,0.2760798966413651,0,-0.2760798966413651,0.0032698319811789297,-0.005042289146416237,-0.05472276388820902,0.4,0.03346896171569824,2.5289523601531982,STABILIZE
0.025,0.004,0,-0.11900353352822142,0.00527839270803562,-0.0004760141341128857,0.0,0.004802378573922734,0.025,0.004,0,-0.08698068809976414,0.00464896409794714,-0.0003479227523990566,-0.0,0.0043010413455480834,0.2,0.005,0,-0.09136299978384828,0.04354819150575291,-0.0004568149989192414,-0.0,0.04309137650683367,0.002,8e-05,0,-1.7936578144138355,-0.0017744704081644879,-0.00014349262515310685,0.0,-0.0019179630333175947,0.1859585639178856,0.0,-0.1859585639178856,0.2111357083214248,0.0,-0.2111357083214248,-0.8872352040822439,0.0,0.8872352040822439,0.21774095752876454,0,-0.21774095752876454,0.004785998701810612,-0.0043192607063771175,-0.04309137650683367,0.4,0.03343462944030762,2.5624003410339355,STABILIZE
0.025,0.004,0,-0.11231554741566672,0.004992426657619526,-0.0004492621896626669,-0.0,0.004543164467956859,0.025,0.004,0,-0.08094123966136296,0.004508308311913548,-0.00032376495864545185,-0.0,0.004184543353268096,0.2,0.005,0,-0.08376696546176675,0.04536210883639762,-0.0004188348273088337,0.0,0.04494327400908879,0.002,8e-05,0,-1.8231031185593576,-0.0017584189785545686,-0.0001458482494847486,0.0,-0.0019042672280393173,0.1803323324765419,0.0,-0.1803323324765419,0.19969706630478104,0.0,-0.19969706630478104,-0.8792094892772843,0.0,0.8792094892772843,0.2268105441819881,0,-0.2268105441819881,0.00452656401985877,-0.004202495048468939,-0.04494327400908879,0.4,0.033490657806396484,2.595879316329956,STABILIZE
0.025,0.004,0,-0.10603815569423118,0.004691471591469945,-0.0004241526227769247,-0.0,0.004267318968693021,0.025,0.004,0,-0.07510929674646111,0.004358560963291226,-0.0003004371869858444,-0.0,0.004058123776305382,0.2,0.005,0,-0.07588206056007737,0.04714290136956234,-0.00037941030280038687,0.0,0.046763491066761954,0.002,8e-05,0,-1.8522339577454612,-0.0017416979604520288,-0.0001481787166196369,0.0,-0.0018898766770716656,0.17434243853164905,0.0,-0.17434243853164905,0.1876588636587978,0.0,-0.1876588636587978,-0.8708489802260144,0.0,0.8708489802260144,0.2357145068478117,0,-0.2357145068478117,0.004250587805923039,-0.004075645110718141,-0.046763491066761954,0.4,0.033451080322265625,2.629335403442383,STABILIZE
0.025,0.004,0,-0.1012824918267113,0.003555257301014197,-0.0004051299673068452,-0.0,0.003150127333707352,0.025,0.004,0,-0.0684243477539696,0.004997559620389531,-0.0002736973910158784,0.0,0.0047238622293736526,0.2,0.005,0,-0.06617341876148776,0.0580641872073571,-0.0003308670938074388,0.0,0.05773332011354966,0.002,8e-05,0,-1.8813642813318598,-0.0017421886575084728,-0.0001505091425065488,-0.0,-0.0018926978000150215,0.19990238481558123,0.0,-0.19990238481558123,0.14221029204056787,0.0,-0.14221029204056787,-0.8710943287542364,0.0,0.8710943287542364,0.2903209360367855,0,-0.2903209360367855,0.003126150920870278,-0.004739763390783882,-0.05773332011354966,0.4,0.03344106674194336,2.6627774238586426,STABILIZE
0.025,0.004,0,-0.09470928044250994,0.0048141478085102695,-0.0003788371217700398,0.0,0.004435310686740229,0.025,0.004,0,-0.06185354192222126,0.004812386008319611,-0.0002474141676888851,-0.0,0.004564971840630726,0.2,0.005,0,-0.05821392867351546,0.046635544818739105,-0.0002910696433675773,-0.0,0.046344475175371526,0.002,8e-05,0,-1.9109714930702761,-0.001734719730440122,-0.0001528777194456221,0.0,-0.001887597449885744,0.1924954403327844,0.0,-0.1924954403327844,0.19256591234041076,0.0,-0.19256591234041076,-0.867359865220061,0.0,0.867359865220061,0.2331777240936955,0,-0.2331777240936955,0.004416695855146612,-0.004582984455220669,-0.046344475175371526,0.4,0.034134864807128906,2.6969194412231445,STABILIZE
0.025,0.004,0,-0.0894760754247383,0.003908970782671968,-0.00035790430169895324,-0.0,0.003551066480973015,0.025,0.004,0,-0.05605386321452954,0.004332101368141155,-0.00022421545285811819,-0.0,0.004107885915283037,0.2,0.005,0,-0.049140322395092015,0.054220634147338034,-0.0002457016119754601,0.0,0.05397493253536258,0.002,8e-05,0,-1.9401623861768584,-0.0017443436347130746,-0.0001552129908941487,-0.0,-0.0018995566256072233,0.1732840547256462,0.0,-0.1732840547256462,0.15635883130687872,0.0,-0.15635883130687872,-0.8721718173565373,0.0,0.8721718173565373,0.27110317073669016,0,-0.27110317073669016,0.003531589752749082,-0.004124642246734679,-0.05397493253536258,0.4,0.033469200134277344,2.7303919792175293,STABILIZE
0.025,0.004,0,-0.0851235802392482,0.0032518147428717303,-0.0003404943209569928,-0.0,0.0029113204219147373,0.025,0.004,0,-0.04947895582612548,0.004912212390240957,-0.00019791582330450192,0.0,0.004714296566936455,0.2,0.005,0,-0.03941792698053216,0.0581099850044461,-0.0001970896349026608,0.0,0.057912895369543436,0.002,8e-05,0,-1.9694092027087307,-0.0017480589891969735,-0.00015755273621669846,-0.0,-0.001905611725413672,0.19648849560963824,0.0,-0.19648849560963824,0.1300725897148692,0.0,-0.1300725897148692,-0.8740294945984868,0.0,0.8740294945984868,0.2905499250222305,0,-0.2905499250222305,0.0028873766443525163,-0.0047289993480369875,-0.057912895369543436,0.4,0.0334620475769043,2.7638566493988037,STABILIZE
0.025,0.004,0,-0.07986589518616269,0.0038803755470481873,-0.00031946358074465075,0.0,0.0035609119663035367,0.025,0.004,0,-0.04272762239783036,0.004982745995740294,-0.00017091048959132145,0.0,0.004811835506148973,0.2,0.005,0,-0.031016301048298653,0.0496058071089709,-0.00015508150524149326,-0.0,0.0494507256037294,0.002,8e-05,0,-1.9986853878140325,-0.0017285568328487286,-0.0001598948310251226,0.0,-0.0018884516638738513,0.19930983982961176,0.0,-0.19930983982961176,0.15521502188192748,0.0,-0.15521502188192748,-0.8642784164243643,0.0,0.8642784164243643,0.24802903554485448,0,-0.24802903554485448,0.0035400485995309857,-0.0048272052870121825,-0.0494507256037294,0.4,0.033873558044433594,2.7977240085601807,STABILIZE
