Mode,Time,Freq,North-Vision,East-Vision,Down-Vision,Yaw-Vision,North-Desired,East-Desired,Down-Desired,Roll-UAV,Pitch-UAV,Yaw-UAV,Roll-Control,Pitch-Control,Yaw-Control,Thrust-Control
GUIDED_NOGPS,0.03399324417114258,29.43619111784852,298.3641005774472,45.14806838958486,13.16307623173051,0.05776643522442808,300,0,50,0.7173000099715393,-0.8772186441036329,85.5165092389309,0.4106719208325715,0.037869686765030865,-0.02888321761221404,0.5048315320330741
GUIDED_NOGPS,0.063079833984375,34.38658741545399,298.84153529386083,45.00179826750894,12.97795168317243,0.5928844303674161,300,0,50,0.711748506919347,-1.0149319597180448,85.70590355442617,0.2762673198706143,0.021892129822708377,-0.29644221518370806,0.5037776944728889
GUIDED_NOGPS,0.10154008865356445,26.00941331134,299.78681052881706,44.84685268112212,12.69167663807444,1.1498831123781568,300,0,50,0.7700619940102713,-1.1739479416626388,85.96017783684741,0.2795535296082428,0.0021803665955400335,-0.5749415561890784,0.5038503347085541
GUIDED_NOGPS,0.13176774978637695,33.09193905970161,302.73308228803927,44.92470469349914,12.275367789623829,1.5855190731366893,300,0,50,0.8910329151433952,-1.1941661553795229,86.1151070177908,0.2839358301579973,-0.06437307833889148,-0.7927595365683446,0.5039324294701604
GUIDED_NOGPS,0.16474103927612305,30.353256189256275,303.33095540309176,44.675565022981694,11.830896722635181,2.027576880618878,300,0,50,0.995422164684138,-1.2575140254972754,86.3330378636384,0.28492638406081555,-0.06882787037812672,-1.013788440309439,0.504014107804253
GUIDED_NOGPS,0.1983954906463623,29.712698884969043,304.53394089830243,44.235390259364614,11.604750682042871,3.050969982173732,300,0,50,1.069286711854712,-1.2534557191915243,86.56584486149829,0.2853809190695433,-0.09520267493524297,-1.525484991086866,0.5040690654344145
GUIDED_NOGPS,0.23081111907958984,30.859984990508703,305.97922774545674,43.336287395178864,11.121558621299277,3.3685113391640855,300,0,50,1.0455615161641438,-1.2834265892695402,86.77027925354594,0.2818527331499855,-0.12583015286411386,-1.6842556695820428,0.5041633943072215
GUIDED_NOGPS,0.2617359161376953,32.34648486905019,307.9347535074401,42.99632269142245,10.773126120704326,3.6239185658426494,300,0,50,1.0010962376154202,-1.3139425938206877,86.93232549160449,0.2846871340455973,-0.16777280403835376,-1.8119592829213247,0.5042309346947699
GUIDED_NOGPS,0.29166436195373535,33.42687504482893,307.8083403493026,42.67256924311971,10.399068289530701,3.559941329461155,300,0,50,0.9036700991292411,-1.316887579291727,87.14873320526718,0.28581781429925623,-0.15942899656247037,-1.7799706647305775,0.5043050716123968
GUIDED_NOGPS,0.325542688369751,29.52591601844356,309.389920483931,42.51312412674553,10.48984969393055,3.530696982975634,300,0,50,0.7899374176081854,-1.318496515728088,87.31082725464992,0.28893493074583126,-0.1974218364789156,-1.765348491487817,0.5043209803098456
GUIDED_NOGPS,0.3553304672241211,33.58425481827863,310.4765241603621,41.86793343756906,10.491656084024406,3.282529432012672,300,0,50,0.6369481704716284,-1.3790419805737255,87.52024768479168,0.28636146676450436,-0.21938562447912946,-1.641264716006336,0.5043587239583565
GUIDED_NOGPS,0.39458131790161133,25.56084124053117,313.0881335863382,41.67740093067826,10.624539067313066,3.2348261441803046,300,0,50,0.4546049047164723,-1.3726845685603246,87.7676917780429,0.29074607475396236,-0.2767627412509895,-1.6174130720901523,0.5043875892868988
GUIDED_NOGPS,0.427415132522583,30.395930110371115,314.39068686654065,41.21383395815024,10.899818124155603,2.9500852362009296,300,0,50,0.35213280389838747,-1.3391834511767642,87.95571322551501,0.290400393910179,-0.3018512370269778,-1.4750426181004648,0.5043947048854585
GUIDED_NOGPS,0.4582979679107666,32.38744749196936,313.6393709273885,40.47357306190307,11.342464593484065,3.143292408324931,300,0,50,0.3176478457896542,-1.2961423737916942,88.13906282359483,0.28793665195424784,-0.2821943477272555,-1.5716462041624655,0.5043800696983624
GUIDED_NOGPS,0.4908120632171631,30.75859843651457,313.72227829542436,39.66467684306385,11.804974243961565,3.2168081888382525,300,0,50,0.3518638651998182,-1.1698148234411347,88.22394841459975,0.286114409276361,-0.28833407502680786,-1.6084040944191262,0.5043714226126629
GUIDED_NOGPS,0.5248432159423828,29.390812007736077,315.75765144942517,39.23570263650618,12.387658550955585,3.221821643115473,300,0,50,0.3627813356187018,-1.1369524354666762,88.32970706370823,0.28795034781429507,-0.3369232619241374,-1.6109108215577366,0.5043484549805245
GUIDED_NOGPS,0.5587375164031982,29.51116614834724,315.1373262199928,39.19177786855776,13.03811579696304,3.68715609034289,300,0,50,0.41347523976237444,-0.9550045202705876,88.38425978460911,0.2920092117288624,-0.31874308431296167,-1.843578045171445,0.5043189708692604
GUIDED_NOGPS,0.5892288684844971,32.80259648848395,316.2427570350666,39.24199827997796,14.12916876211077,4.080089099396692,300,0,50,0.41895756046879395,-0.8654794165502321,88.3942865023107,0.29548077876504664,-0.3482856436243364,-2.040044549698346,0.5042261930988571
GUIDED_NOGPS,0.6266822814941406,26.706126555197574,319.1055272326316,39.10335125119166,15.127268958774161,4.216393726565876,300,0,50,0.3739051524557138,-0.7445254108074746,88.33073159208374,0.2976213540408719,-0.4124368431838258,-2.108196863282938,0.5041745103215626
GUIDED_NOGPS,0.6572480201721191,32.7301557574055,319.9877772482699,39.17039309352182,16.28931547573028,4.273091077304059,300,0,50,0.26777994096830354,-0.6011822050479739,88.22562181094641,0.30148298132269574,-0.42775373776925574,-2.1365455386520296,0.5040777894710688
GUIDED_NOGPS,0.6909751892089844,29.655137305919286,319.93746391671607,39.24773060712265,17.363007413065123,4.474896483493903,300,0,50,0.1436093163328667,-0.4951669969587979,88.05433432694082,0.30513592527797545,-0.42639920076725074,-2.2374482417469514,0.504009741272853
GUIDED_NOGPS,0.7234220504760742,30.83162916516587,320.9406104687206,39.747118179532066,18.500790760528,4.530468025491588,300,0,50,-0.05274398809109462,-0.34286031517199267,87.87004899294472,0.3125352639304584,-0.45242120411932146,-2.265234012745794,0.5039232753390278
GUIDED_NOGPS,0.754549503326416,32.13410457766712,320.8051631627062,40.68741929227196,19.884933026045356,4.725872949051803,300,0,50,-0.2729650950849746,-0.1462817612477664,87.60100101134874,0.32269622010990423,-0.4487708202848744,-2.3629364745259016,0.5038036130691683
GUIDED_NOGPS,0.7854712009429932,32.34798167543305,323.0098732438956,42.284324160809064,21.431007905374823,4.830755750368395,300,0,50,-0.4867478816722581,0.043758674134744505,87.29802064995614,0.3375613505565628,-0.5032824230221781,-2.4153778751841974,0.5036698763123261
GUIDED_NOGPS,0.8159756660461426,32.788236489708495,324.7499397792802,43.86132029465656,23.08788493661125,4.967978925545337,300,0,50,-0.7454504211923353,0.288346841178402,86.94347236032995,0.350226026843611,-0.5396590213977633,-2.4839894627726684,0.5035248309630156
GUIDED_NOGPS,0.8474295139312744,31.806837140170472,326.93152313129445,45.85775116204449,24.7991246262105,5.02904193068904,300,0,50,-1.0817401744240551,0.6842868775876645,86.38397741446836,0.36685941374054637,-0.5879276361598099,-2.51452096534452,0.5033772564559593
GUIDED_NOGPS,0.8810527324676514,29.74725882636633,329.25010051606813,47.85369206398269,26.57236567045108,5.042532010429055,300,0,50,-1.3430318358872433,0.961433435826862,85.93076021209217,0.38229143934536464,-0.6382003039488433,-2.5212660052145277,0.5032251007030988
GUIDED_NOGPS,0.9151749610900879,29.312758582131277,331.3086547476081,49.54253699788174,27.861627596148338,5.037489558801281,300,0,50,-1.6048325598870088,1.2685128712168174,85.43609059164315,0.3954880830121604,-0.6827748755112298,-2.5187447794006403,0.5031337787105634
GUIDED_NOGPS,0.9479196071624756,30.54379155409588,331.46186580461,52.16745399549918,30.086025135802785,5.068741861010464,300,0,50,-1.9133323544592094,1.643565602174799,84.6958073686405,0.4183896861937855,-0.6843935325554911,-2.534370930505232,0.5029009755767171
GUIDED_NOGPS,0.9815864562988281,29.71206743881274,330.924359082541,54.48054083333975,32.21630908483477,5.169484187195103,300,0,50,-2.1104686893787026,1.835237252149753,84.13437264905461,0.43559209878061933,-0.6756285390877864,-2.5847420935975514,0.5027087838484338
GUIDED_NOGPS,1.0153069496154785,29.667513103262905,331.00395415306645,58.24898729600136,35.20962523441195,5.245987166780444,300,0,50,-2.3487310873947234,2.0380597195532815,83.55231758836447,0.4670075886196506,-0.6833136776396782,-2.622993583390222,0.5024014139382529
GUIDED_NOGPS,1.0485093593597412,30.123703639863255,331.2433311054348,61.57575157038527,37.686138264630266,5.365480109729201,300,0,50,-2.6329083648890967,2.234114750149797,82.75891598418661,0.49081162435497483,-0.6927632334480118,-2.6827400548646003,0.5021798087704301
GUIDED_NOGPS,1.0861115455627441,26.601957264903056,330.7100587345275,65.15910315479276,39.945359610553766,5.44896327456427,300,0,50,-2.803841105944659,2.2857006076299644,82.16137005445889,0.5177792784895632,-0.6845746966589774,-2.724481637282135,0.5019790999581356
GUIDED_NOGPS,1.1182904243469238,31.08434556409477,333.0130515112822,69.55481470045152,42.54852877127875,5.324249179845693,300,0,50,-2.906388285482761,2.322151192796207,81.7681902148871,0.5536312919978417,-0.7434567545851921,-2.6621245899228465,0.5017053666284487
GUIDED_NOGPS,1.150921106338501,30.65473893468982,333.6568429526718,72.63539147224047,43.92026665772588,5.09959841827001,300,0,50,-3.0553369954775795,2.4271640706246838,80.76569602964764,0.5736077013907008,-0.7555484772312713,-2.549799209135005,0.5016128259417472
GUIDED_NOGPS,1.1836457252502441,30.562932196597078,333.0274321434968,76.10239914168105,45.27112006913486,4.858720300859557,300,0,50,-3.1041344282290892,2.473777550389082,80.15406624985134,0.6015124904900623,-0.7434056047106059,-2.4293601504297784,0.5014833523991298
GUIDED_NOGPS,1.2147016525268555,32.21134764845022,333.54582369328546,79.31160880587889,46.201204438050155,4.534467232021607,300,0,50,-3.146174669457341,2.4736298475482803,79.53769631877105,0.6264728745656812,-0.761516175607694,-2.2672336160108033,0.5014049327181074
GUIDED_NOGPS,1.2484080791473389,29.676749237616125,332.5950051110195,82.78874310082414,47.019512171711646,4.263963864024585,300,0,50,-3.1762723249218254,2.500860104221829,78.73113977025176,0.6539701769143053,-0.7423993355176027,-2.1319819320122924,0.5013319223523734
GUIDED_NOGPS,1.2798678874969482,31.79309456130377,329.71071568670004,86.71660207373621,47.88024417224799,4.166711534150474,300,0,50,-3.219946048578768,2.549374511009606,78.12840972694399,0.6862742757903578,-0.6820670648727136,-2.083355767075237,0.5012446759346785
GUIDED_NOGPS,1.312544345855713,30.61178256553979,330.2491824450747,88.63453946581872,47.95476519993133,3.9933166315938267,300,0,50,-3.282492865572925,2.59771090599214,77.55394300642172,0.6980842696943317,-0.7076392252988408,-1.9966583157969133,0.5012643990052006
GUIDED_NOGPS,1.3460516929626465,29.85078535894498,332.26661688901356,92.14427246171176,48.92184359441592,3.224061112658288,300,0,50,-3.3617371472102358,2.680046702002528,76.99746700417327,0.7311794475000452,-0.7566930300317424,-1.612030556329144,0.5011421393044331
GUIDED_NOGPS,1.383049488067627,27.037175032714288,332.26254321421374,96.55875813071258,49.881822284721885,2.41045347146756,300,0,50,-3.4825269082477956,2.7979699180227984,76.27515400887691,0.7676797134041226,-0.7553460098194478,-1.20522673573378,0.5010492413793085
GUIDED_NOGPS,1.4171414375305176,29.33510515530253,334.50032899474434,100.97324379971337,50.841800975027844,1.4992836500905367,300,0,50,-3.6260274751624713,2.942406647740589,75.60217546995555,0.8035002784665061,-0.811401993238823,-0.7496418250452683,0.5009498692891173
GUIDED_NOGPS,1.4505083560943604,29.97644368210406,334.15474518634466,104.85860665999981,51.346723907608016,0.5479947473681639,300,0,50,-3.7817984769210744,3.0331649207712488,75.12940343598562,0.833723212834258,-0.8014554409671073,-0.27399737368408195,0.5009115452925238
GUIDED_NOGPS,1.4793996810913086,34.622465825794094,334.32812397476334,107.48604632395251,51.983228267410084,-0.41489166239960495,300,0,50,-3.957032956493275,3.1087396832769705,74.67843336584636,0.854581234871035,-0.8104520394239701,0.20744583119980248,0.5008387022682469
GUIDED_NOGPS,1.5124588012695312,30.259968688901875,332.9808767003435,110.11348598790518,52.61973262721216,-0.8640183260015876,300,0,50,-4.163740093987249,3.1823827829080478,74.24906035386267,0.8777817117111623,-0.7832850484532045,0.4320091630007938,0.5007758327053485
GUIDED_NOGPS,1.543588638305664,32.16416800226989,334.1068533888904,113.60350147115632,54.114769125683985,-1.373107066053698,300,0,50,-4.369591750287678,3.242182369751979,73.84770477785439,0.910570138865496,-0.8176941987134898,0.686553533026849,0.5005934642595765
GUIDED_NOGPS,1.573207139968872,33.73091213227607,335.2055619887176,116.60466093259326,55.620183191409126,-1.9608783962249476,300,0,50,-4.541592562174701,3.3005821947028804,73.47042561867039,0.9357745081626491,-0.8439328361812101,0.9804391981124738,0.5004353691653259
GUIDED_NOGPS,1.6102287769317627,27.02236882795588,335.26208772384405,118.94379766201796,56.601778546654124,-2.4188089694912938,300,0,50,-4.690421530415633,3.3604099560771377,73.10173883746226,0.9565742035140739,-0.8466998645020143,1.2094044847456469,0.5003537635970277
GUIDED_NOGPS,1.64715576171875,27.080642037163777,336.0379805071774,120.34480255935291,57.43888589450265,-3.326974742342901,300,0,50,-4.827434271392442,3.4818579765959576,72.50613268145882,0.97313082777168,-0.8695197751334807,1.6634873711714504,0.5002660425525506
GUIDED_NOGPS,1.6831247806549072,27.811105069821103,337.2280974754667,122.47693624912819,58.62204340662969,-4.340484561582992,300,0,50,-4.85982943173899,3.5724484831051293,72.15820284513836,0.9986371625176966,-0.8998931813813609,2.170242280791496,0.5001278223151728
GUIDED_NOGPS,1.715954065322876,30.467468129154106,336.5882895131233,126.03311811144437,60.72424988633554,-5.677028381311091,300,0,50,-4.837053739064759,3.664810569930273,71.80478153672523,1.0347701476221405,-0.8866225434007965,2.8385141906555456,0.5
GUIDED_NOGPS,1.748155117034912,31.061555779370817,337.02535129966367,129.46595217412604,62.58276616649804,-7.263819449323785,300,0,50,-4.762919719587087,3.772824889012147,71.33194803105276,1.0651990774668678,-0.9034506648581615,3.6319097246618925,0.5
GUIDED_NOGPS,1.7801709175109863,31.243884270432943,340.14991846514965,131.36220647953616,63.554990759277366,-9.28781057542833,300,0,50,-4.684243624311356,3.818867621094026,70.98168910022534,1.081958823146845,-0.9795018481885098,4.643905287714165,0.5
GUIDED_NOGPS,1.8134300708770752,30.074887783052013,341.1066523271709,132.92013922427608,64.27704738108746,-11.268914372220783,300,0,50,-4.6001631418548525,3.841870844444983,70.62690858416737,1.1006707444972772,-0.9972018161792744,5.634457186110391,0.5
GUIDED_NOGPS,1.8458611965179443,30.847048267645306,341.649162004236,133.34384310413455,64.4221096672169,-13.530807779434264,300,0,50,-4.490078421680819,3.824496550743763,70.27962761581806,1.1102194987148475,-1.01225458912732,6.765403889717132,0.5
GUIDED_NOGPS,1.8777709007263184,31.342644278551198,342.85352519446553,135.59795064164726,65.0336416233029,-15.679474920098494,300,0,50,-4.347530239268536,3.737335226084761,69.89516992781638,1.1398983450274796,-1.0439192510205535,7.839737460049247,0.5
GUIDED_NOGPS,1.917933464050293,24.903539917587963,343.0082867245309,137.4283542993015,65.50011129325948,-17.753295412682725,300,0,50,-4.115254288616621,3.6327061195102743,69.32170041491294,1.1614549586206655,-1.0504030877931976,8.876647706341362,0.5
GUIDED_NOGPS,1.9501194953918457,31.08204204738297,341.99599408760287,139.68201057549618,65.36702278875568,-19.372927531147866,300,0,50,-3.9641056173788236,3.5196596585573934,68.9759357485594,1.1881965322249108,-1.0322167228875432,9.686463765573933,0.5
GUIDED_NOGPS,1.984398603439331,29.177969933703885,342.0765699933107,140.64238927307198,64.49204045479196,-20.88472411059366,300,0,50,-3.7987488720069305,3.3804710754431113,68.63238406349691,1.2015073626448212,-1.042922864681914,10.0,0.5
STABILIZE,2.0157861709594727,31.866767968393862,342.0231716238903,142.1266702862366,63.28351708404264,-21.821158599462144,300,0,50,-3.699994155005478,3.192071406245711,68.30309381342143,1.2230396143292022,-1.0467131158857372,10.0,0.5
STABILIZE,2.04878306388855,30.31333068333755,341.92472726886893,144.30684544886864,62.47623578109553,-22.777178600307415,300,0,50,-3.38381680091936,2.9778826502896347,67.91395061564913,0.8838888264629836,-0.8437448274979297,10.0,0.5
STABILIZE,2.083867311477661,28.512120511739834,341.362718172564,146.2115274745557,61.29766198954917,-23.248087448227018,300,0,50,-3.098035923073914,2.6773765249238766,67.6908356562215,0.8949893589832542,-0.8314355921875172,10.0,0.5
STABILIZE,2.120952606201172,26.969720741517115,341.39431678364565,147.55395666037327,59.614925889030125,-24.203989015278903,300,0,50,-2.8508994017787543,2.417582595879625,67.527225304843,0.9020888780593672,-0.8341198475099914,10.0,0.5
STABILIZE,2.155111789703369,29.28287976318472,342.4527501751513,149.0986327777301,57.794200605363926,-24.593593792909196,300,0,50,-1.9664278971893614,1.6058283801236555,67.2647001539044,0.9112822834013581,-0.8579349513244114,10.0,0.5
STABILIZE,2.186208963394165,32.167868208730866,342.6358352732428,149.79303206774497,55.28508807983034,-25.568274972134308,300,0,50,-1.2607783223120126,0.70366743263587,67.13030935179522,0.912216397833753,-0.8586329257879436,10.0,0.5
STABILIZE,2.220628023147583,29.063534629109935,341.7797011684302,150.52578188204052,53.61367890005505,-26.579137579138376,300,0,50,-0.6542906611045255,0.020740296301566843,67.05788885602557,0.9177097559962865,-0.8388522037182964,10.0,0.5
STABILIZE,2.252431869506836,31.44957485416073,341.3871318049013,149.93713799678892,52.27857501008507,-28.127752653103347,300,0,50,-0.32315978176942806,-0.7434007774719497,67.04423530787473,0.9092520262090207,-0.8317907071445102,10.0,0.5
STABILIZE,2.283482074737549,32.26065085799112,341.568008900979,149.93713799678892,52.27857501008507,-29.6213419048943,300,0,50,-0.02186647710182559,-1.401999847199725,67.00594526738763,0.9107241497927662,-0.8370759720376013,10.0,0.5
STABILIZE,2.314624786376953,32.109012684973244,340.5586863324364,149.93713799678892,52.27857501008507,-31.672549599129002,300,0,50,0.23098531170304817,-2.046716984326273,67.08673274489054,0.9108698292248637,-0.8130149965745924,10.0,0.5
STABILIZE,2.3451926708221436,32.71611428749717,340.5586863324364,149.93713799678892,52.27857501008507,-33.59968195386023,300,0,50,0.34760689643875486,-2.542097798222604,67.034604741145,0.910631748880888,-0.816136999653374,10.0,0.5
STABILIZE,2.3825371265411377,26.786116166938086,340.5586863324364,149.93713799678892,52.27857501008507,-35.405922929054704,300,0,50,0.4157193037502674,-3.1142209100859057,67.1278778044507,0.9130469560027834,-0.8172258740687187,10.0,0.5
STABILIZE,2.416482925415039,29.473838067263504,342.9678780705025,150.46905338001133,37.89049412114107,-36.45352225045813,300,0,50,0.3417372559816281,-3.4912682697249426,67.18383754432061,0.9166581537480322,-0.8722869232193498,10.0,0.5016464388932786
STABILIZE,2.4482827186584473,31.46042604260426,344.94405271410113,150.2288252837814,22.02893404637018,-36.69226132577023,300,0,50,0.3495864239984421,-3.678788125179881,67.23863615203163,0.9120370785097704,-0.9108142796534778,10.0,0.5033243621155574
STABILIZE,2.4807331562042236,30.82324583321085,346.9202273576998,149.98859718755148,6.167373971599285,-36.15782870758129,300,0,50,0.34375477646857344,-3.810624009652644,67.34060404615074,0.9109172696737459,-0.9505847795801343,10.0,0.5049131278767274
STABILIZE,2.514437437057495,29.676119318503424,349.9731168939676,149.45594885023252,3.6217883162978963,-34.97501178817385,300,0,50,0.35785210015249463,-3.8745904387771057,67.34940815999089,0.9072454478363124,-1.0152573400583558,10.0,0.5047602413536627
STABILIZE,2.549511194229126,28.518518014863368,353.77240344081764,149.182982596142,1.0908699752899773,-33.219231402667276,300,0,50,0.42708249737334725,-3.8091743020013085,67.43520216615542,0.9069041502297753,-1.0938177962291251,10.0,0.5050144944832905
STABILIZE,2.5833544731140137,29.557334536024353,355.1624982496016,148.91001634205148,-1.4400483657179415,-31.56074780705834,300,0,50,0.41377782247869127,-3.782967719929616,67.49808771784373,0.9047050409821737,-1.1148136399643722,10.0,0.5052710922889259
STABILIZE,2.6220827102661133,25.823973796169167,357.68086014778527,147.96072252733396,-3.3351801547688544,-30.141841156905308,300,0,50,0.4151625366112056,-3.7428706675202332,67.52583877644149,0.8990584048479766,-1.1690542585966925,10.0,0.5054444135226939
STABILIZE,2.6570334434509277,28.623027788393294,360.8288484782103,147.3906390457939,-3.888840905057467,-28.986649744972105,300,0,50,0.5177063544155756,-3.3511695639037566,67.72726788525434,0.8950674266236633,-1.2340882673561082,10.0,0.5054612036668935
STABILIZE,2.691624641418457,28.909885444093685,361.84982663737645,145.621481177126,-4.28533024352039,-28.360892752307286,300,0,50,0.49466791290171097,-3.073187267986585,67.80860177789084,0.8807719643349169,-1.248528229537507,10.0,0.5054965073310628
STABILIZE,2.727937698364258,27.5487947454844,363.0464851395926,144.4706253018266,-3.93167915171183,-27.774808173675915,300,0,50,0.5507790375112764,-2.670784965487991,68.04558202133362,0.8761617042537548,-1.2733517718080811,10.0,0.5054418185117577
STABILIZE,2.762073040008545,29.300062871114214,364.6213595947819,143.12458002839364,-3.023513215820138,-27.380394088380378,300,0,50,0.6266399742710511,-2.335188316374469,68.15307553849127,0.8665913378535673,-1.305880954294611,10.0,0.5053303640265963
STABILIZE,2.7978532314300537,27.95401318288757,366.36932582782055,143.0069781297935,-1.5781781115641922,-27.161614148386427,300,0,50,0.7705589969940956,-1.8640350372378192,68.43253955857152,0.8699962395233976,-1.341771619585899,10.0,0.5051728077006771
STABILIZE,2.827932834625244,33.257508960005076,366.9605960268149,141.7793954763181,0.17722507739307622,-26.865582479495185,300,0,50,0.7624987868040987,-1.6496828903501917,68.66255300906086,0.8567792333092504,-1.349212449799636,10.0,0.5049685082989066
STABILIZE,2.8652918338775635,26.769533194623506,368.0772718981473,139.86276818687793,2.2570602995180074,-26.381256665768166,300,0,50,0.9437102688694425,-1.4082149991793194,68.78487486690662,0.8466564701995158,-1.3747361465176489,10.0,0.504772562354155
STABILIZE,2.900724172592163,28.231923858756378,368.8606911198409,137.61487738912055,4.532498221328155,-26.0053554134494,300,0,50,1.059659987106402,-1.1238283336982025,69.26271490124071,0.8310209189699806,-1.3891733136865527,10.0,0.5045306955390034
STABILIZE,2.9363465309143066,28.07845867530694,369.88256805506273,135.83762401109712,6.879788101709487,-25.651022151118468,300,0,50,1.0777480355758884,-1.0118284925139203,69.52147661794665,0.821569726207459,-1.4104434339575098,10.0,0.5042916676374978
STABILIZE,2.967726230621338,31.886633520351534,369.69046906910455,134.07263969114055,8.96048561999523,-25.301790126944265,300,0,50,1.0581901090526742,-1.108980462937947,70.0193017857922,0.8089326500324535,-1.4019591038971064,10.0,0.504076440247426
STABILIZE,2.9993579387664795,31.621236109226338,370.6270463230186,132.0285940578302,10.627772620209713,-25.220433986663654,300,0,50,1.1441141022548462,-1.068861425857173,70.29938052289774,0.7957819165560508,-1.4244559305263753,10.0,0.5039221447577416
STABILIZE,3.0319149494171143,30.724350616054032,370.43014567054905,128.55593252057142,11.67578128608792,-25.24039077834773,300,0,50,1.1193470892724395,-1.108480365024655,70.73104847844255,0.7706649441316871,-1.4171469055338708,10.0,0.5038374982055863
STABILIZE,3.0630369186401367,32.13902915597104,369.4398837244006,125.0569353228734,12.352244133418862,-25.547142390653057,300,0,50,1.1799827339594624,-1.1847219247480991,71.0889982022754,0.7484284034102906,-1.3942537904181398,10.0,0.5037781589454013
STABILIZE,3.096122980117798,30.232050570503905,367.2847304850595,120.73474446439354,12.34995284557379,-26.06829119135723,300,0,50,1.2406162442123696,-1.1660046451013255,71.45136705850126,0.7209761367130824,-1.3481155507042246,10.0,0.503802517295982
STABILIZE,3.1305158138275146,29.082275935710225,365.8939978357556,117.48937803707304,12.264246065317918,-26.720069993486977,300,0,50,1.2478890082962582,-1.199933609803364,72.04685027109966,0.705186191374596,-1.3228933228613602,10.0,0.5038149800907693
STABILIZE,3.164837121963501,29.146947227974593,363.95597404272775,114.23876682765336,11.904922259746735,-26.906476980309026,300,0,50,1.2943616154090247,-1.1398435264762958,72.44306271466291,0.6851499392043824,-1.2820839395494055,10.0,0.503858867431039
STABILIZE,3.1975903511047363,30.541789849268188,363.14452048549566,110.99482730359955,11.551635500039135,-26.51363238427651,300,0,50,1.3777392287112513,-0.9413724231825942,73.02653845470043,0.6650006547109515,-1.2688077518975867,10.0,0.5038937107006658
STABILIZE,3.2294464111328125,31.39801624433881,362.66601584576006,107.39123067295161,11.28337538375218,-25.52122019522672,300,0,50,1.3270743795519777,-0.8531323555215531,73.43792074841029,0.6412666899509725,-1.2598135547943652,10.0,0.503917114839579
STABILIZE,3.2618112564086914,30.900453822125304,364.46114840914026,104.41524447256126,11.357149848296906,-24.460590099558708,300,0,50,1.4024645135066975,-0.7338513192386256,73.83310866359807,0.6254648961840016,-1.3031240824647596,10.0,0.5038996593159114
STABILIZE,3.2953579425811768,29.815348744633056,367.86957750890963,102.55776008845332,11.926974350364484,-23.025551573893946,300,0,50,1.3386606215401409,-0.6174004358713163,74.26134103399035,0.618046082781794,-1.3766605979032602,10.0,0.5038285506892802
STABILIZE,3.3281514644622803,30.503585402394148,367.3891603128967,99.06041168672691,12.580276248992382,-21.54716089290749,300,0,50,1.298381822065812,-0.49994679535648456,74.8061100920014,0.5914498579779921,-1.3551332105277556,10.0,0.5037587282011774
STABILIZE,3.363088369369507,28.62908433159278,367.97960811272344,94.97058377437325,13.299546822994126,-20.731862797867418,300,0,50,1.2836034271360202,-0.4385908858771427,75.02027750361633,0.5661033960456787,-1.370791360481565,10.0,0.5036879929106721
STABILIZE,3.397547960281372,29.02893685937143,369.0611671409042,90.33301472024232,14.065343981124862,-20.475337315117475,300,0,50,1.2464752658597713,-0.36374255134224887,75.74823223516711,0.5359872892355958,-1.3938740591426833,10.0,0.5036083243741871
STABILIZE,3.4285106658935547,32.304879269842495,368.366793832745,87.29658301124796,14.932880479452587,-20.22513688745742,300,0,50,1.2832290473921388,-0.305636611288643,76.1241453565171,0.520436831651799,-1.373545452302705,10.0,0.5035111809449762
STABILIZE,3.4627432823181152,29.220250660090148,364.99918283669246,83.96529449296038,15.59168834186155,-20.347730890648513,300,0,50,1.2631825488998571,-0.2440183798564903,76.50789953503427,0.5009240933241325,-1.299007397489278,10.0,0.5034568086010307
STABILIZE,3.4962971210479736,29.810898597695758,364.26218473951275,80.10386015784566,15.94195376902021,-20.41678065566589,300,0,50,1.3517443825038291,-0.2306822487390553,76.96506458675073,0.47558379578751353,-1.291683118869661,10.0,0.5034296941746925
STABILIZE,3.530750274658203,29.031950827842074,362.36131662783407,75.90852922633708,16.071584412289525,-20.269186164607795,300,0,50,1.299023006074147,-0.258026350792246,77.43930511139223,0.44956039958702154,-1.2503104791232407,10.0,0.5034241671509354
STABILIZE,3.564829111099243,29.356047509396195,362.2044051569756,73.00871841513744,16.405626025405372,-19.537751585678997,300,0,50,1.3606528701722298,-0.24374730672380543,77.86729842516357,0.43555516875458566,-1.2521322204899443,9.768875792839498,0.5033841051725745
STABILIZE,3.5997300148010254,28.656468417996106,362.513004798111,70.5311582545281,16.762367178146338,-18.27994019068929,300,0,50,1.3996361748600776,-0.3668590119140523,78.39084608542339,0.42199123976824193,-1.2598685147190174,9.139970095344646,0.5033483261379518
STABILIZE,3.6330556869506836,30.0178490914426,363.2152179295971,68.41870276689035,17.05241222761569,-16.52208773779011,300,0,50,1.3890037047564834,-0.421702336019787,78.68696210670012,0.40960728675684166,-1.274817781982254,8.261043868895054,0.5033188603889063
STABILIZE,3.6679203510284424,28.68979103252505,363.1130285198873,64.69138282137855,16.87730896741202,-14.839379064624268,300,0,50,1.3333040456835583,-0.557035063904185,79.24109535406325,0.3828794535542955,-1.2707741630494063,7.419689532312134,0.5033519522281045
STABILIZE,3.6996514797210693,31.524742949912813,363.61645699520614,60.76766939745469,16.450621245996757,-13.404284891004503,300,0,50,1.251581686038002,-0.7411336882760343,79.63048443864568,0.3568311716070997,-1.281976042806285,6.702142445502251,0.5034002814160131
STABILIZE,3.7314844131469727,31.41471306379855,364.5943778026968,57.820213054374356,16.024456565406826,-12.481622915394908,300,0,50,1.2584977861811688,-0.8465397288686098,79.94562936695007,0.34218673484939033,-1.3032253007616237,6.240811457697454,0.5034435391110453
STABILIZE,3.765012502670288,29.8371949094065,363.8382333948406,55.18967852829513,15.318044225959474,-12.064607201217493,300,0,50,1.1378664001549885,-0.9685562559141275,80.25178576630672,0.3276018512426658,-1.282955734625591,6.0323036006087465,0.5035240050696554
STABILIZE,3.7990059852600098,29.425452504560123,362.4702356613283,52.56992936118119,14.493435536619103,-12.081372379064085,300,0,50,1.2698455051569104,-1.0074070122433947,80.66476632428237,0.31206004438025603,-1.2539355817432298,6.0406861895320425,0.5036111827940336
STABILIZE,3.830806255340576,31.453584203856046,362.33764822710765,49.2026057762892,13.259038934793134,-12.097661724687722,300,0,50,1.2337338681282297,-1.0695858527960174,80.9402005327523,0.28839773489526177,-1.2542747033644814,6.048830862343861,0.5037479603235353
STABILIZE,3.8627920150756836,31.267175572519083,363.94833991086296,46.51892757941522,12.408562667544615,-11.844240028784622,300,0,50,1.3229760526065586,-1.0978764963382102,81.07955688238808,0.2743257272616032,-1.292192484784395,5.922120014392311,0.5038218297319925
STABILIZE,3.9004034996032715,26.598077264541004,361.94643994404254,44.11481106973192,11.56074099798847,-11.220796472712351,300,0,50,1.36698424208942,-1.1741909469867031,81.41367607620676,0.26221724941487734,-1.2428387481437353,5.6103982363561755,0.5039097173926098
STABILIZE,3.9365053176879883,27.705107965466905,360.2628819066799,41.788243600189595,10.9044036152656,-10.187471986938885,300,0,50,1.49473834148116,-1.0984297416609812,81.63190745037784,0.2478218491605557,-1.2091855760156809,5.093735993469442,0.5039698834753384
STABILIZE,3.969985246658325,29.878003433513083,359.4401078492909,39.56714913682767,10.2350529404294,-8.727954753403584,300,0,50,1.5644783081666924,-1.107663943975427,81.82010648276837,0.2340517432257007,-1.1944154052096256,4.363977376701792,0.5040366415898632
STABILIZE,4.000091791152954,33.22694720831485,359.80121198558106,37.74136577016697,9.862747965222052,-7.327710426687469,300,0,50,1.5744048141865425,-1.194624098219031,81.9535273980154,0.223107961671037,-1.204423343136362,3.6638552133437345,0.50406233551573
STABILIZE,4.033076286315918,30.324727249065525,359.21007279997775,36.47744066142465,9.659309681558609,-5.656008426524232,300,0,50,1.4588414285245117,-1.2034873358841802,82.0233592520896,0.21792561812917127,-1.1902287675419476,2.828004213262116,0.5040801813524778
STABILIZE,4.066640377044678,29.801367040400166,359.34938503068946,35.320059999019456,9.57503957378308,-4.012671132992461,300,0,50,1.4609267706554812,-1.1928342684913702,82.11751340979824,0.21133230086706956,-1.1953888794857768,2.0063355664962303,0.5040858030208962
STABILIZE,4.10039496421814,29.631253973860826,359.36635264709787,34.17141156801207,9.320259163754221,-2.4260598386098176,300,0,50,1.4201672966183128,-1.1782698505816702,82.16957311165207,0.20439235107973952,-1.1953910108172192,1.2130299193049088,0.5041167081006104
STABILIZE,4.133004426956177,30.671775821218592,359.3543536148551,33.055297141287475,9.072371872869693,-1.0463681474689828,300,0,50,1.3571353227496732,-1.1980469834885594,82.16393137539764,0.19750475843443133,-1.1948035345134904,0.5231840737344914,0.5041404500857491
STABILIZE,4.164903163909912,31.360923562354664,359.78328653635674,32.36574636387889,8.714070725383404,0.054259059842481604,300,0,50,1.357644705451368,-1.1900571562635254,82.13271058070151,0.19449794168502058,-1.2046213149949696,-0.027129529921240802,0.5041792573955655
STABILIZE,4.198483228683472,29.786552282475924,359.1157554764126,31.963264985336078,8.506994652231883,0.9324110639802516,300,0,50,1.2882431532948686,-1.1109332567103358,82.06433355692052,0.19315925668471595,-1.1882735946560214,-0.4662055319901258,0.504197288560111
STABILIZE,4.23117995262146,30.59347328188595,357.9428561919323,31.77825170776431,8.425366298575879,1.5298532271406386,300,0,50,1.3184402733891412,-0.9973325899393317,82.00030053345164,0.19260753804656458,-1.1628851688922572,-0.7649266135703193,0.5042008678546088
STABILIZE,4.26243257522583,32.00854720422476,358.15845324256645,31.65726211093323,8.56718334935738,1.9689376411455506,300,0,50,1.1704582486052912,-1.0548650875873473,81.90234196037532,0.1919170388597457,-1.1710962690111184,-0.9844688205727753,0.5041773722024903
STABILIZE,4.292733192443848,33.01327834142732,357.54811971198984,31.73768630406522,8.892896650655262,2.456124856266855,300,0,50,1.0704309819841007,-1.0784544265464557,81.79148799014601,0.1929975737522304,-1.1559144055447552,-1.2280624281334276,0.504137281479994
STABILIZE,4.323326349258423,32.69239882771092,356.07102531751633,32.067699006031496,9.223567504819698,3.029158254688479,300,0,50,0.8622197621296964,-1.069633877563619,81.61908718530572,0.19584340082196103,-1.1234900911206025,-1.5145791273442395,0.5041044084895531
STABILIZE,4.361171722412109,26.428970201826075,355.88789497921925,32.80254756556813,9.306230124085289,3.5974155257560283,300,0,50,0.849329914505413,-1.0073677386556672,81.48708011921688,0.201735217377383,-1.1257240330398945,-1.7987077628780141,0.5041133388041343
STABILIZE,4.399459362030029,26.125084866113973,354.761516291668,33.61080712626508,9.206594314477629,4.294432821631622,300,0,50,0.7143878947858809,-0.8997654720798152,81.22519017587109,0.2068612636949156,-1.1006389069013858,-2.147216410815811,0.504128657744462
STABILIZE,4.435773134231567,27.543548355321484,354.8471273593558,34.78562070350304,9.123183049020561,4.70764740162913,300,0,50,0.7874213466726818,-0.8858218543326457,81.04085020036162,0.21498048331723815,-1.1051484753614003,-2.353823700814565,0.5041345286989825
STABILIZE,4.465528726577759,33.61062897164058,354.8616103161751,35.68741409258289,9.205480017309347,4.649450995993126,300,0,50,0.7654318728049432,-0.8270023996346115,80.81154025935678,0.21970071845906322,-1.1038525997880073,-2.324725497996563,0.5041133557399171
STABILIZE,4.499056339263916,29.83698265682132,354.39951895578685,36.948816458957594,9.398057647837271,4.549973228302692,300,0,50,0.9450652076460438,-0.7201307498565394,80.58084378995042,0.22843136823945462,-1.0938746629976976,-2.274986614151346,0.5040951116658297
STABILIZE,4.530517101287842,31.78731176439382,353.7680606333386,38.205557077346576,9.668067208110045,4.21647865865167,300,0,50,0.9163587763381265,-0.7003301381743782,80.31811373333672,0.23610815642494642,-1.0801569531057091,-2.108239329325835,0.5040628713422003
STABILIZE,4.568093776702881,26.621712196608105,354.187650711322,39.781631913834865,10.019422777942568,3.677547504636871,300,0,50,0.9336791755779268,-0.724631737797872,80.00821439031489,0.24647513110556635,-1.0929766675442538,-1.8387737523184355,0.5040334847418171
STABILIZE,4.602390766143799,29.159105129239027,352.31012072054557,41.250119643182536,10.347792203937752,3.0001760523287793,300,0,50,0.9105137352341823,-0.6422150467345016,79.7592608252571,0.255173323413607,-1.0479699500794872,-1.5000880261643896,0.5039967063482426
STABILIZE,4.638750791549683,27.513014273719563,350.1630497398209,42.64847923348835,10.462662725254155,2.772759404994507,300,0,50,0.7856937356994917,-0.6268804182741767,79.42500502765502,0.2634589257520825,-1.0046038238073833,-1.3863797024972535,0.503993534253652
STABILIZE,4.678211688995361,25.34429855039186,350.9646433272507,44.72165706300135,10.625873247312391,2.4214366489950967,300,0,50,0.780101411594838,-0.5240098186067039,79.09051700362114,0.27781866274571887,-1.0293713230904555,-1.2107183244975483,0.5039799112023536
STABILIZE,4.710819244384766,30.678506122090727,351.2832212864307,47.106198759083576,10.690434843143182,2.0485385877360183,300,0,50,0.6176730031078822,-0.4525470434247415,78.82467238074591,0.2936419114087005,-1.0333217965659787,-1.0242692938680091,0.5039673699070525
STABILIZE,4.74640417098999,28.103480853629936,351.2231747851113,49.52638755506121,10.877748205316479,1.6191054715615834,300,0,50,0.5085983505182164,-0.3847378057989276,78.43111005058061,0.3081796277963313,-1.0316139827624422,-0.8095527357807917,0.5039489035352474
STABILIZE,4.783127307891846,27.24033927805993,350.6757562770998,51.918059977224544,11.097722768218103,1.5502636525476905,300,0,50,0.5026288185444782,-0.3580435055318137,78.24903086768641,0.32260507205554845,-1.019431144885811,-0.7751318262738452,0.5039268926606773
STABILIZE,4.818560361862183,28.22603417296446,351.17737559850895,54.39801999156686,11.48605409666421,1.3421575070352798,300,0,50,0.45078560167081866,-0.3203526807422586,77.84243653658471,0.33800568913059786,-1.0322350741165034,-0.6710787535176399,0.5038815383389827
STABILIZE,4.848579406738281,33.323831088865056,348.7819091879605,56.95409259154974,11.86757010668603,1.1523076688297345,300,0,50,0.36682507441161377,-0.4056821273215221,77.67488516605513,0.35435984557721173,-0.9734623762018622,-0.5761538344148672,0.5038346930306209
STABILIZE,4.889370441436768,24.521640503960946,346.0694739073791,58.32540815987908,12.057791680518788,1.192418800785531,300,0,50,0.2795256518653305,-0.49566250583874116,77.3322350659631,0.3590251443116276,-0.9222623239963503,-0.5962094003927655,0.5038360085800356
STABILIZE,4.929578065872192,24.873264661056652,343.73181543128374,60.25072977106303,11.940764520376428,1.4643583187493887,300,0,50,0.20753236308392845,-0.6556896225847616,77.12103878663714,0.3721092869651647,-0.8758850495443944,-0.7321791593746944,0.5038548404382565
STABILIZE,4.963361501693726,29.60845410457507,341.66781825257056,61.972231788565715,11.524389761346137,1.8557270552518976,300,0,50,0.24205598113058102,-0.7417087048267849,76.84645835181347,0.38195391494075154,-0.8328621773773213,-0.9278635276259488,0.5038988460053838
STABILIZE,4.998417139053345,28.534039035872457,340.7837119297664,64.71204672755253,10.85042055281113,2.2233386867809424,300,0,50,0.09411581126571718,-0.872599088347177,76.67187871662793,0.4015276578058068,-0.8188874374329633,-1.1116693433904712,0.5039753998598809
STABILIZE,5.030038118362427,31.638171244088074,340.34250731163365,66.79880936564744,10.10851086397721,2.5648572864024093,300,0,50,0.03592071189703753,-0.8714503892669985,76.3997229989596,0.4124691122964274,-0.8105259977160507,-1.2824286432012046,0.5040503845694917
STABILIZE,5.065375089645386,28.301455455766156,339.5022250071012,68.94794844965293,9.24682512740336,2.9275917047537114,300,0,50,-0.17850388568860237,-0.9586992257247413,76.30827359616231,0.42562014679076937,-0.7931644042795521,-1.4637958523768557,0.5041427059608519
STABILIZE,5.097370862960815,31.265077933404395,338.5418759025135,70.614733163589,8.282940595453598,3.2858958583463656,300,0,50,-0.38160501680613956,-0.864467214531748,76.01874187724546,0.4343239146526654,-0.7728711721647559,-1.6429479291731828,0.5042420080679674
STABILIZE,5.1361963748931885,25.763379831819215,339.08597441067195,72.3363819670504,7.4857232849914155,3.4696453476390294,300,0,50,-0.4685324074860687,-0.8391326555179955,75.93193700308377,0.4451850189220318,-0.7891747471176823,-1.7348226738195147,0.5043213793143325
STABILIZE,5.169095277786255,30.40342140553079,338.1396115483959,74.10827766088339,6.933251794440011,3.635550436145236,300,0,50,-0.5224621937903142,-0.7412275500162692,75.6883997780378,0.4558859066898047,-0.7649166185648096,-1.817775218072618,0.5043659146812142
STABILIZE,5.203962802886963,28.68547432925036,337.8044969598181,76.10576703757671,6.793646950851515,3.662175288478329,300,0,50,-0.5454752888990557,-0.7149638184711306,75.64025377457838,0.4687310169728781,-0.7603908543500361,-1.8310876442391646,0.5043697642876471
STABILIZE,5.241413354873657,26.70833731318573,337.8461992886214,77.95044215499139,6.866336410176988,3.563834806530708,300,0,50,-0.4039995529081718,-0.657905378640196,75.45055210057045,0.4796365220491034,-0.7627099845828097,-1.781917403265354,0.5043599339659213
STABILIZE,5.274001359939575,30.696018735362998,338.90129002177093,80.07876964048602,7.220244880394492,3.2892989972697655,300,0,50,-0.38302201425465277,-0.7399674868361076,75.47551644198684,0.4932687684503606,-0.7863222546221525,-1.6446494986348827,0.5043085870140884
STABILIZE,5.308847904205322,28.703731077714817,339.3274398147199,81.89775828546038,7.651116654751623,2.9185586150353013,300,0,50,-0.17163132800139438,-0.8677079792103604,75.47354934750588,0.5034759954861749,-0.7933044784687902,-1.4592793075176507,0.5042674697021711
STABILIZE,5.3433778285980225,28.999633555274386,340.2876167272162,83.68333348579706,7.941950050110001,2.388868051054615,300,0,50,0.1955746361781534,-1.0201462755408206,75.52868263448622,0.5141889039489771,-0.8140698928714745,-1.1944340255273076,0.5042404273734702
STABILIZE,5.377200603485107,29.552128176764437,339.5878055629431,84.622480312008,7.912911819283406,1.9279608638343195,300,0,50,0.6185191461521704,-1.3879785360507468,75.83026963728814,0.5174233674630235,-0.795119497868359,-0.9639804319171598,0.5042527052463063
STABILIZE,5.417382001876831,24.892011869436203,338.9825329077123,85.42792748332909,7.561741142684272,1.3923968831388218,300,0,50,1.4435141638618858,-2.052362989448935,76.21565623101694,0.5228178765127485,-0.7844191575870928,-0.6961984415694109,0.5043037734810634
STABILIZE,5.4474828243255615,33.23036943724796,336.8650478855899,85.24421616917101,5.843620804531187,0.903290258222451,300,0,50,2.034005575394056,-2.5929344693281857,76.67702184907296,0.5170195131345876,-0.7347157062730073,-0.4516451291112255,0.5045125750395177
STABILIZE,5.481690168380737,29.24184473803465,335.3052829992633,84.9082688177576,2.9995498599102235,0.5478978077156815,300,0,50,2.5167255664467105,-3.339412673908049,77.1206836168003,0.5154063453695779,-0.706338949827797,-0.27394890385784076,0.504831561438984
STABILIZE,5.516116142272949,29.0546761892227,332.17852648529094,83.04334612752099,-1.1073313807742302,0.39955515590193363,300,0,50,2.955411327920293,-4.141741335331107,77.607949312189,0.49971771444015833,-0.6389340506806532,-0.19977757795096682,0.5052827381789476
STABILIZE,5.548924207687378,30.485848439476094,330.1381615872061,80.67832096230431,-5.851461728027393,0.44427530223439415,300,0,50,3.0342588182555086,-5.519438729133692,78.21697678991154,0.4832400024319167,-0.6005188793611411,-0.22213765111719708,0.5057845473666005
STABILIZE,5.58376145362854,28.709232285620413,326.6421644404081,77.07894998547252,-11.371314924413126,0.7621736163433752,300,0,50,2.682685076012857,-6.743421008117847,78.65018836820877,0.45860312933111885,-0.5265344397214192,-0.3810868081716876,0.5063596238922107
STABILIZE,5.614312648773193,32.77491345830761,324.2106455906864,74.69004060859896,-15.436262085184742,1.2489445589571482,300,0,50,2.287164189103051,-7.617057698249485,78.94492469127316,0.4456690152547382,-0.47910719940018626,-0.6244722794785741,0.5067373683587894
STABILIZE,5.6398725509643555,39.103354403236935,321.37931416845356,73.24384995099216,-17.49052824514062,1.8371171123375731,300,0,50,1.3034228218383987,-8.971732658794073,79.3701381180523,0.4383457068501251,-0.41875696617868,-0.9185585561687866,0.5068810422445934
STABILIZE,5.668810129165649,34.566255428915206,320.03665683529977,73.24384995099216,-17.49052824514062,2.4881492080698813,300,0,50,-0.46340672403994443,-10.536312139137847,79.97234223679399,0.4445554729238095,-0.3984201661600875,-1.2440746040349406,0.5068077074007558
STABILIZE,5.695223331451416,37.86840014445648,318.6533023266103,73.24384995099216,-17.49052824514062,3.106813997826355,300,0,50,-1.4456955555280586,-11.10751232168955,80.2985520715538,0.44410677946282506,-0.36980043612324015,-1.5534069989131776,0.5068025392947095
STABILIZE,5.726445198059082,32.03739716924205,318.6533023266103,73.24384995099216,-17.49052824514062,3.692547471809892,300,0,50,-2.816748669372102,-11.604693744205825,80.82691501517847,0.44491020311751134,-0.3753781056518018,-1.846273735904946,0.5068117932264212
STABILIZE,5.756673097610474,33.0961169721694,316.4951988872077,69.43793616731371,-30.372121538121537,4.325103148378437,300,0,50,-4.291153004085605,-11.491326264361954,81.53543785854058,0.40918926371322695,-0.3248184875860484,-2.1625515741892185,0.5085339511943929
STABILIZE,5.788527250289917,31.39778120461725,317.67057904029997,66.49392565806174,-45.669056323328164,4.760001428348995,300,0,50,-4.878279053347663,-10.876830366435186,82.02452721443768,0.39484894444484914,-0.35934858608229936,-2.3800007141744977,0.5101373528792928
STABILIZE,5.8183910846710205,33.50778915749277,319.64618442429213,63.4083650070232,-61.379286263177164,5.080155441697037,300,0,50,-5.006580741811768,-9.885637582951166,82.49415736138941,0.3746025061226299,-0.4019032594260287,-2.5400777208485184,0.511765507682477
STABILIZE,5.849778175354004,31.86773644541697,323.5540075750582,63.849411328801146,-63.84491170188803,5.125189356199206,300,0,50,-4.721326001975824,-8.673486472269943,82.91889267492665,0.38932659943651493,-0.48644557969812174,-2.562594678099603,0.5115703738776682
STABILIZE,5.882657051086426,30.44402668195774,324.56671707086696,61.44722267061138,-61.38141039871196,4.583911484380036,300,0,50,-3.989507944675747,-7.260762587743062,83.34423587530003,0.3660645699497455,-0.4976439232714762,-2.291955742190018,0.511170630757721
STABILIZE,5.915547132492065,30.396590958503037,327.73753000607826,59.18658415420819,-58.50461394089351,3.403960338545862,300,0,50,-2.944872559474375,-5.889419404302704,83.80921466342699,0.35306747896043134,-0.5679639203529934,-1.701980169272931,0.510872576915883
STABILIZE,5.945246934890747,33.68323669712982,327.5748593487948,57.205252448666954,-55.99082869123231,1.8570707759258185,300,0,50,-1.7548335459008322,-4.686174433412354,84.27950050853904,0.34059541213137134,-0.5542102627366875,-0.9285353879629092,0.5106081731093438
STABILIZE,5.9744956493377686,34.19734203016714,326.61196346061143,57.205252448666954,-55.99082869123231,-0.11264118882494056,300,0,50,-0.5869128726547596,-3.8573296969708375,84.78672401668254,0.34725546112641537,-0.5320738840254879,0.05632059441247028,0.5106922782923877
STABILIZE,6.004944324493408,32.89598594531851,324.4222389333051,51.372142816546564,-46.20716951355151,-1.66055178190079,300,0,50,0.22412294593874232,-3.5641459612821556,85.33170481055785,0.2925305338715194,-0.4840951923931482,0.830275890950395,0.5093819408718296
STABILIZE,6.034581899642944,33.72603004084783,325.1276280609561,45.53903318442618,-36.42351033587071,-2.478833110808723,300,0,50,0.6245525510668188,-3.606565704896166,85.81612231706266,0.257027327674345,-0.5079179567644132,1.2394165554043615,0.5083932640186448
STABILIZE,6.068563461303711,29.43061432129951,326.4887758410347,38.09452351607667,-25.0491645129605,-2.657727042813188,300,0,50,0.5412474551636708,-4.004855806627589,86.41622956772916,0.20987382553390357,-0.537379913944832,1.328863521406594,0.507248469331521
STABILIZE,6.100322246551514,31.498937344638286,326.96194597652345,34.8201334338222,-22.810207781101525,-2.214837718118461,300,0,50,0.12548733036094192,-4.403684212642974,86.84398382487954,0.20119613058777483,-0.5441437788218957,1.1074188590592304,0.5072791548447284
STABILIZE,6.1344153881073,29.339414373452342,326.84759915178216,30.192008979239063,-20.67757182505289,-1.1674913950916672,300,0,50,-0.5317553064863513,-4.7778035555621905,87.2658709495329,0.17006983122448133,-0.5402834249093833,0.5837456975458336,0.5070776801012927
STABILIZE,6.170762300491333,27.518971229865826,325.6373652089548,25.864484512096805,-20.769744465766774,-0.1911899067583299,300,0,50,-1.602794175306583,-4.9766538410765335,87.80477970523607,0.14553975149218787,-0.5131463743503201,0.09559495337916495,0.5071566928981391
STABILIZE,6.204103946685791,29.997882992418823,323.9393927807174,22.125405293605564,-22.35980402798673,0.7131709436065657,300,0,50,-2.490872446664566,-4.925724535530334,88.17996882653404,0.12324983274543974,-0.47685055371981616,-0.35658547180328287,0.507355938072772
STABILIZE,6.237239837646484,30.18853149269093,321.65148421063566,18.663121163629828,-24.74979830782448,1.5771236802009727,300,0,50,-3.613524813886763,-4.4218401361173365,88.6651718047934,0.10306960078823303,-0.4290402488583008,-0.7885618401004864,0.5076214256470375
STABILIZE,6.268157243728638,32.34947862034923,319.212112010384,15.513318537979616,-26.781543712778074,2.4067968448604384,300,0,50,-4.266023884355482,-3.7393834290621184,88.97667624227017,0.08403859380654546,-0.37872403383344055,-1.2033984224302192,0.5078150839796555
STABILIZE,6.296001195907593,35.92028569715759,317.77886597911163,12.59641471876506,-27.99691255003097,3.169151886964523,300,0,50,-4.581957699509007,-3.240034702144833,89.15481440601327,0.065970558756726,-0.35242654377157534,-1.5845759434822615,0.5079085429492628
STABILIZE,6.330185890197754,29.263674927439162,318.01997053050036,9.881441384997144,-27.92204144248195,3.66528322782557,300,0,50,-4.903613078752887,-2.0810591754730967,89.47565571208546,0.052129732163628845,-0.3635632262734744,-1.832641613912785,0.5078696684859552
STABILIZE,6.360715866088867,32.765952127992,316.2311141941741,7.119135356163658,-25.916358868244036,4.192475258012261,300,0,50,-4.910672506146918,-1.482342401911233,89.59596949431523,0.034195616166342965,-0.3207508349971163,-2.0962376290061306,0.507595571339029
STABILIZE,6.397785425186157,26.97700624529673,314.9446614042269,4.289687422664356,-22.51708910389964,4.334042242906872,300,0,50,-4.7298850827794965,-0.23389523909373805,89.88608860950069,0.018508449094101903,-0.29765408323762566,-2.167021121453436,0.5072411171203811
STABILIZE,6.432356357574463,28.934415938299797,313.3850431275283,1.3388581973956593,-17.627175325112606,4.039060156452735,300,0,50,-4.628742787776302,0.2727707548587466,90.1103032293847,-0.0004393110411755989,-0.2650051988113739,-2.0195300782263677,0.5066902380700422
STABILIZE,6.461421012878418,34.409437708172675,312.2445105095127,-1.442615626198359,-12.819963312750389,3.4242907216358973,300,0,50,-4.741494696821226,0.5263947819266549,90.35737849242075,-0.018259257881884816,-0.2424275402504513,-1.7121453608179487,0.5061729355104159
STABILIZE,6.492699384689331,31.98291927833951,309.35245683907937,-4.179022315159679,-7.744301326307082,3.085438575029479,300,0,50,-5.143601593638217,0.5131413334507741,90.61154349181525,-0.03417509929786892,-0.178925325102485,-1.5427192875147395,0.5056653489918492
STABILIZE,6.522587060928345,33.4679508150938,310.37271782957686,-6.891757791233,-3.613159743820058,2.5231656204857176,300,0,50,-5.856352324096557,0.23765248346747975,90.9008224937328,-0.05093312268276165,-0.21211106217382403,-1.2615828102428588,0.5052709090481229
STABILIZE,6.559250116348267,27.27718741464303,308.9617165209653,-9.533728140557013,-0.6280158314220922,2.3332535570026764,300,0,50,-7.241746487320101,-0.44658474184656993,91.34082328006502,-0.06521932212266897,-0.17672277678133066,-1.1666267785013382,0.5050376705823111
STABILIZE,6.600417852401733,24.298465959123142,308.25282448634164,-12.107602104354518,0.5116566675793597,2.703589962573136,300,0,50,-8.913896324449697,-1.29448797390867,91.82837584339887,-0.080114193871058,-0.16468128021450212,-1.351794981286568,0.5049819176623372
STABILIZE,6.6370673179626465,27.291386333172834,306.00274228629297,-14.472789170874792,-0.07020772067790713,3.520741164618177,300,0,50,-10.582730104737253,-2.138843002738228,92.35662267380766,-0.09455846696323818,-0.1148018916148563,-1.7603705823090885,0.5050779850963623
STABILIZE,6.6714465618133545,29.09498539806741,303.49480426933,-16.683923949423843,-2.471370053026043,4.441307246360099,300,0,50,-11.659397583042104,-2.6337734510361615,92.76854455246196,-0.10790613431801739,-0.06309037991126695,-2.2206536231800493,0.5053710807954133
STABILIZE,6.704278945922852,30.46547641529991,298.6659683995759,-18.79096615348086,-6.355493285596517,5.707974684564526,300,0,50,-12.540791660523583,-2.921425587270779,93.16021492022718,-0.12065077103048531,0.041583130431284386,-2.853987342282263,0.5058094449616499
STABILIZE,6.738309383392334,29.4198797758247,294.1233906215022,-20.629786567687074,-11.12582732448171,7.250824172510507,300,0,50,-13.208616821716165,-2.918073245048772,93.64366937005902,-0.13086525268064075,0.13167454396438805,-3.6254120862552535,0.5063151272350106
STABILIZE,6.773611068725586,28.333765672287072,292.35645728702724,-22.946196636383984,-16.053131912701936,8.244102836926114,300,0,50,-13.342869312494644,-2.63386480481631,93.96064478906096,-0.14625353307057198,0.15901522389549733,-4.122051418463057,0.5068159160798957
STABILIZE,6.804795026779175,32.07316494995144,292.546217066665,-25.520894837927315,-20.675218326878497,9.15769742455357,300,0,50,-13.188885258977644,-2.142620951122891,94.25391262145381,-0.16317048277178012,0.1494268440329108,-4.578848712276785,0.507280305061583
STABILIZE,6.838740825653076,29.468661078753048,292.99843349327887,-28.39068593506849,-24.03078909040472,9.97952765645545,300,0,50,-12.665451150612778,-1.235087846409479,94.59771702351557,-0.18113808784188018,0.13963987080889076,-4.989763828227725,0.5075774249892521
STABILIZE,6.875089168548584,27.52023515825941,295.0803374777946,-31.379586140693846,-25.806016621398978,10.478672750738749,300,0,50,-12.099836355254853,-0.4131787135028607,94.87895689278001,-0.1992433222187401,0.0933745049065208,-5.2393363753693745,0.5077120701997615
STABILIZE,6.905201196670532,33.21063550129064,298.4724325702833,-34.570312469592274,-25.439009324712952,10.440808439121975,300,0,50,-11.653755846787673,0.2433626283353162,95.10914792818778,-0.22046889114994783,0.019537747060234104,-5.220404219560987,0.5076003362470732
STABILIZE,6.938050031661987,30.45353159851301,298.7247741647664,-38.035306930956075,-23.35629228848534,10.521642486621076,300,0,50,-11.19177807302729,1.0103767571501752,95.47186512406131,-0.24178246196357692,0.02490095027347275,-5.260821243310538,0.5073440911190265
STABILIZE,6.967769384384155,33.659719602917924,297.383146511161,-41.339390360785366,-19.891164903771312,10.22957347945979,300,0,50,-11.092590065900364,1.3608277870480057,95.7706995606277,-0.26213225188555844,0.05717774473901759,-5.114786739729895,0.5069341862781044
STABILIZE,6.997990369796753,33.09167797519488,295.9179019643738,-44.48203406443563,-15.692543501684552,9.552017240543497,300,0,50,-11.256664016368765,1.4574096501197478,96.08876780989686,-0.2804701921864413,0.08695513867525272,-4.776008620271749,0.5064911949064781
STABILIZE,7.030340909957886,30.926655901372207,295.8542082069901,-48.308057781554304,-11.703451783487163,8.788877394865882,300,0,50,-11.672340791519279,1.2736617666339491,96.43662251413645,-0.30545122825211324,0.08364813478548225,-4.394438697432941,0.5061063460219346
STABILIZE,7.0702526569366455,25.06171762498581,295.45159089783135,-51.86112866072122,-8.422274475511076,8.176364521916867,300,0,50,-12.580957441711488,0.5800205180911291,96.95678923075711,-0.3250489873277267,0.09270397159222386,-4.088182260958433,0.5058294988717246
STABILIZE,7.101025104522705,32.49786152606459,295.29833489102674,-55.10332316847964,-6.454496957734251,8.002205983433011,300,0,50,-13.387812811006974,-0.1875450417775026,97.37336929842535,-0.34518544350740343,0.09511058435731806,-4.001102991716506,0.505634345887819
STABILIZE,7.1405298709869385,25.321653455364313,294.9123029153467,-57.230996271987316,-6.11900238442816,7.895240326177148,300,0,50,-14.486781710725563,-1.4149848905855655,97.96558768060048,-0.35419792572904313,0.10353554642627126,-3.947620163088574,0.5056697148294204
STABILIZE,7.179479360580444,25.678364148402107,295.0160276879011,-59.249197721388896,-8.1081265014097,7.83545022895535,300,0,50,-15.381072039133672,-2.733807120959699,98.57444440359376,-0.3662153151364747,0.100189633094524,-3.917725114477675,0.5059297804305363
STABILIZE,7.213186264038086,29.67632928856971,291.16545217184114,-60.7879320797364,-14.633653282277303,7.639444827187401,300,0,50,-15.827313910819992,-3.6469731040259616,99.02060602055732,-0.3742100111172875,0.18931043204643666,-3.8197224135937007,0.5067223775807013
STABILIZE,7.249077081680298,27.870055483570884,288.00772807868964,-62.02674681099753,-23.102374511613675,7.2017884913369885,300,0,50,-16.02285710411558,-4.629751948226171,99.56316209727729,-0.38095450662113267,0.2503669201986562,-3.6008942456684943,0.5076249440686793
STABILIZE,7.283944606781006,28.686455284108007,286.2169461087377,-62.951057304306595,-32.529802818253614,6.96317400879776,300,0,50,-15.882766509144034,-5.154383901016728,99.92659646301367,-0.3856216006394688,0.28272372158546355,-3.48158700439888,0.5086099367376208
STABILIZE,7.32029390335083,27.518249037193527,285.8698712609852,-64.49328847437425,-39.70344287990829,6.7651430311943725,300,0,50,-15.37637116143741,-5.522490116145395,100.33860030393801,-0.3968268018142443,0.28561027452363197,-3.3825715155971863,0.5092656635907614
STABILIZE,7.359797954559326,25.319666292392576,286.5811113203358,-66.49796952027756,-46.22288238448535,6.932672311124515,300,0,50,-14.83560459427999,-5.551629410691962,100.59857096412703,-0.4103682252644005,0.2687013476785944,-3.4663361555622574,0.5099013095804441
STABILIZE,7.398114442825317,26.10573487856796,289.55255429079926,-68.92892569911508,-51.07810249473092,7.483786801638186,300,0,50,-13.870044656977383,-5.241727079462382,100.97759865173855,-0.42625664342953734,0.20280608806121903,-3.741893400819093,0.5103507004470205
STABILIZE,7.437507152557373,25.39293844142006,293.1322307736169,-71.57714467704261,-54.17918767975252,8.338993713629947,300,0,50,-13.2763816897928,-4.830151832908461,101.26099686078072,-0.44295259110748336,0.1293564185001514,-4.169496856814973,0.5106197844544951
STABILIZE,7.477040529251099,25.298438414167062,295.67109561463747,-73.8943960408893,-55.002393772584504,8.865422749354462,300,0,50,-13.03213497884679,-4.549760187761567,101.47464517801872,-0.4562360083556827,0.08082182220208961,-4.432711374677231,0.510645322864108
STABILIZE,7.51495885848999,26.37943634865628,297.71123255289,-76.26711573034967,-54.345157339804665,9.622475323920773,300,0,50,-13.041551248391299,-4.361205558647372,101.78665504949407,-0.4708027460882497,0.04075838326329749,-4.811237661960386,0.5105362670713209
STABILIZE,7.551319599151611,27.50832273043273,299.22460088420985,-78.98374682705422,-52.0208476168956,10.272737842666189,300,0,50,-13.389984811163037,-4.489925596198139,102.13211235733498,-0.4882672793627312,0.011452207825820838,-5.136368921333094,0.5102491833782065
STABILIZE,7.588162183761597,27.148301574150786,300.1576007960617,-81.62616302397443,-49.79841057690962,10.86758428169561,300,0,50,-13.97545752775913,-5.0196059125589825,102.52254646086041,-0.5041466814760969,-0.005710384162713056,-5.433792140847805,0.5100296368147919
STABILIZE,7.624574899673462,27.46599087152689,300.5851809173725,-83.71794163302,-48.42765839852752,11.583087597226461,300,0,50,-14.508568306630611,-5.743762205157598,102.87990195823548,-0.5153766916217297,-0.012957530139432204,-5.7915437986132305,0.5099133885604028
STABILIZE,7.6623215675354,26.50228102766299,301.8946286799158,-84.79989758993197,-49.35062579104804,12.169109865646462,300,0,50,-15.021327683096393,-6.794850625020751,103.3079225927635,-0.5193317593356541,-0.04165843447377403,-6.084554932823231,0.510071722697657
STABILIZE,7.698597192764282,27.575600583818755,302.55194962881114,-85.29683442180526,-51.93083456444695,12.653431174146355,300,0,50,-15.270942068956385,-7.765295001353564,103.66559227884039,-0.520560977258596,-0.05322512697719233,-6.326715587073178,0.5103750348327297
