Mode,Time,Freq,time2delay,actualDelay,North-Desired,East-Desired,Down-Desired,Roll-UAV,Pitch-UAV,Yaw-UAV,Roll-Control,Pitch-Control,Yaw-Control,Thrust-Control,North-Pos,East-Pos,Down-Pos,Yaw-Ang,North-Vel,East-Vel,Down-Vel,Yaw-Vel,North-Acc,East-Acc,Down-Acc,North-Avg,East-Avg,Down-Avg,Yaw-Avg,North-Dif,East-Dif,Down-Dif,Yaw-Dif,North-One,East-One,Down-One,Yaw-One,North-Two,East-Two,Down-Two,Yaw-Two,Landing-State,Q-Size,Kalman-Time,Kalman-Dt
STABILIZE,0.03435182571411133,29.11942681792305,0.032735617955525716,0.03287148475646973,-10.0,40.0,10.0,0.23042667693413518,-1.6411219952775213,3.7002951102157815,4.000377818925428,3.999622145384415,-0.0010859939907940184,0.5187829476518716,0.042417345304902515,0.00756507188120383,0.6209044306488581,-0.005412113081765327,0.009442451118957251,0.04130312299821526,1.2490112334489822,0.07432817961102166,0.41939415968954563,-0.20935300271958113,16.957132518291473,0.0,0.0,0.0,0.0,0.0,0.0,0.0,0.0,0.0,0.0,0.0,0.0,0.0,0.0,0.0,0.0,False,0,3.5215768814086914,0.03491796875
STABILIZE,0.0679466724395752,29.788879340345595,0.03234294255574544,0.03276515007019043,-10.0,40.0,10.0,0.2299485636922343,-1.642101166928066,3.7007194357179687,4.000347653508443,3.99965231627319,-0.0010029258206262408,0.5188234691198601,0.04425879093550364,0.005783694977452772,0.6132996502720975,-0.004979986121054041,0.18763196421787143,-0.06512234103865921,1.0561944916844368,0.005012985324819124,0.8946073241531849,-2.228490263223648,16.51083379983902,0.0,0.0,0.0,0.0,0.0,0.0,0.0,0.0,0.0,0.0,0.0,0.0,0.0,0.0,0.0,0.0,False,1,3.550305128097534,0.064845947265625
STABILIZE,0.10146498680114746,29.81005110127149,0.03251484235127767,0.03267168998718262,-10.0,40.0,10.0,0.22977951651027648,-1.642026461734019,3.701782810794375,4.000465302096384,3.9995346437708084,-0.0013444639153763933,0.5188431286655839,0.04930362648950603,0.0007093987459977392,0.6160434677729935,-0.006665349293056406,0.1923103118315339,-0.09915158152580261,1.1016923002898693,-0.05202743854815813,-4.082942008972168,-0.25869556702673435,16.01780205965042,0.0,0.0,0.0,0.0,0.0,0.0,0.0,0.0,0.0,0.0,0.0,0.0,0.0,0.0,0.0,0.0,False,0,3.6076369285583496,0.0349169921875
STABILIZE,0.1350088119506836,29.814500995166334,0.032476218541463216,0.0326237678527832,-10.0,40.0,10.0,0.22985742335549691,-1.642535310827185,3.702781299073666,4.000353018168096,3.999646950673697,-0.0010261479221867487,0.5188759620509038,0.04894404960360499,-2.245917820118266e-05,0.6122012163263046,-0.0050568359416207085,0.09151806589215994,-0.023750445689074695,1.2369624339044094,0.059301890169019225,-3.580233082175255,1.8282756209373474,16.85948669910431,0.0,0.0,0.0,0.0,0.0,0.0,0.0,0.0,0.0,0.0,0.0,0.0,0.0,0.0,0.0,0.0,False,0,3.63631272315979,0.029929931640625
STABILIZE,0.16903090476989746,29.394107588372158,0.032395156224568684,0.0331416130065918,-10.0,40.0,10.0,0.22916245160744814,-1.641171407427298,3.705095452541831,4.0003683758652215,3.736109692087498,-0.0011484245643676933,0.518926623247033,0.04862683748541096,0.0028830266690580836,0.5996661585867438,-0.005648995911044048,0.10387171059846878,0.14506367733702064,0.9255196899175644,-0.04228814241056869,2.064706012606621,-0.16727892216295004,15.103919804096222,0.0,0.0,0.0,0.0,0.0,0.0,0.0,0.0,0.0,0.0,0.0,0.0,0.0,0.0,0.0,0.0,False,0,3.665390968322754,0.034869140625
STABILIZE,0.20252084732055664,29.85737268469084,0.032434972127278645,0.032555580139160156,-10.0,40.0,10.0,0.230105444599733,-1.6413400277224328,3.706630964444615,3.999925046217969,1.7401213252582008,0.0004766407186194183,0.5189521648532913,0.04616447519640018,0.003499584907031319,0.5994746507530843,0.0024680738828437455,-0.016850052634254098,0.04105855186935514,1.3387501239776611,0.38358240993171117,0.8380159735679626,-0.0840029795654118,19.370758533477783,0.0,0.0,0.0,0.0,0.0,0.0,0.0,0.0,0.0,0.0,0.0,0.0,0.0,0.0,0.0,0.0,False,0,3.694328784942627,0.0349169921875
STABILIZE,0.23591184616088867,29.94669389328783,0.03238728841145833,0.032508134841918945,-10.0,40.0,10.0,0.23066562683337985,-1.6424182371159428,3.707510351300254,3.9996856810886636,1.7433034044906026,0.002056457851007881,0.5189768079278126,0.04380444828419469,0.004105740438288277,0.5997260659413319,0.01033260964479162,-0.016850052634254098,0.04105855186935514,1.3387501239776611,0.38358240993171117,0.8380159735679626,-0.0840029795654118,19.370758533477783,0.0,0.0,0.0,0.0,0.0,0.0,0.0,0.0,0.0,0.0,0.0,0.0,0.0,0.0,0.0,0.0,False,0,3.7228012084960938,0.0349169921875
STABILIZE,0.2693147659301758,29.93771636176758,0.03241422971089681,0.032524824142456055,-10.0,40.0,10.0,0.23068985266059222,-1.6427007294711462,3.7082591107880165,3.999535447130737,1.7443637142187545,0.0030528341937746672,0.5190313712090678,0.04086254397347194,0.005862898017426833,0.5850320030708518,0.01526347414653147,0.026053079636767507,0.056657218374311924,0.9939634241163731,0.13144421581254506,5.2193425595760345,-0.26716890279203653,13.719108700752258,0.0,0.0,0.0,0.0,0.0,0.0,0.0,0.0,0.0,0.0,0.0,0.0,0.0,0.0,0.0,0.0,False,0,3.7800707817077637,0.029929931640625
STABILIZE,0.303286075592041,29.44156336426556,0.03246024449666341,0.03297162055969238,-10.0,40.0,10.0,0.23069091987765003,-1.6423674375839907,3.7085668961874902,3.9995019871947224,1.74924284655268,0.0032746875788756884,0.5190687191641811,0.040144229695718146,0.004520423843812585,0.5791080561989691,0.016317531589297593,0.06334441713988781,-0.058713724138215184,1.0868087410926819,0.07152943622743621,4.289576411247253,-0.29161570128053427,13.24252337217331,0.0,0.0,0.0,0.0,0.0,0.0,0.0,0.0,0.0,0.0,0.0,0.0,0.0,0.0,0.0,0.0,False,0,3.8087563514709473,0.034917236328125
STABILIZE,0.3367137908935547,29.91209590574878,0.03230479558308919,0.03246736526489258,-10.0,40.0,10.0,0.23079742814001994,-1.6430081947055026,3.70954745522021,3.9995344099173606,1.7551223114784464,0.0030621190683343545,0.5190939374826494,0.04131843058028279,0.003883668374391941,0.5791281495347234,0.015203735203723373,0.15357055235654116,-0.02388801221968606,1.220056414604187,-0.057528268800424096,3.0212201178073883,-0.11350457789376378,19.51994001865387,0.0,0.0,0.0,0.0,0.0,0.0,0.0,0.0,0.0,0.0,0.0,0.0,0.0,0.0,0.0,0.0,False,0,3.837477922439575,0.034916748046875
STABILIZE,0.3701348304748535,29.919777436958306,0.032386096318562825,0.032520294189453125,-10.0,40.0,10.0,0.22987631309742024,-1.6421460967662,3.7101792477184365,3.9995221239974867,1.7619829433465892,0.00314061596339119,0.51912867574237,0.042279611682925496,0.004766953737727197,0.574363108724591,0.015544254710261635,0.1412463723681867,0.05825738189741969,0.945359468460083,0.02359171351706205,3.8027890026569366,1.7305178567767143,13.343311846256256,0.0,0.0,0.0,0.0,0.0,0.0,0.0,0.0,0.0,0.0,0.0,0.0,0.0,0.0,0.0,0.0,False,0,3.8692564964294434,0.029928955078125
STABILIZE,0.40364670753479004,29.841440595362602,0.03241542180379232,0.03255295753479004,-10.0,40.0,10.0,0.23009050356092361,-1.6434437259867967,3.711103884577327,3.9996013158474604,1.7686662620739544,0.002624135036230216,0.5191598300697724,0.04335512219407233,0.006238052521516943,0.5714036127884251,0.012918629702391259,0.1591679872944951,0.09312985930591822,1.1830619536340237,-0.1272455704636913,3.7496160715818405,-0.2353001618757844,14.85472321510315,0.0,0.0,0.0,0.0,0.0,0.0,0.0,0.0,0.0,0.0,0.0,0.0,0.0,0.0,0.0,0.0,False,0,3.8980836868286133,0.034918212890625
STABILIZE,0.43703293800354004,29.952254111530852,0.03236082394917806,0.032477617263793945,-10.0,40.0,10.0,0.2309955036259503,-1.6435190715110783,3.711748483680247,3.999674507761846,1.7757929975027889,0.0021482599956701167,0.5191842996198978,0.04466645282689558,0.007726220539790182,0.5717750388594459,0.010504142552670143,0.1591679872944951,0.09312985930591822,1.1830619536340237,-0.1272455704636913,3.7496160715818405,-0.2353001618757844,14.85472321510315,0.0,0.0,0.0,0.0,0.0,0.0,0.0,0.0,0.0,0.0,0.0,0.0,0.0,0.0,0.0,0.0,False,0,3.9286837577819824,0.034918212890625
STABILIZE,0.4704771041870117,29.899302115040527,0.03240826924641927,0.032536983489990234,-10.0,40.0,10.0,0.23070650124669415,-1.6437925992429963,3.7122970332479635,3.999707045007902,1.7803849348012657,0.001939645130429844,0.5192159711698233,0.04356831201701722,0.007561814665668744,0.56855822099497,0.009429527237705421,0.02346838009543717,0.0007855037438275758,0.9708749130368233,-0.0508803236182997,1.8155507743358612,1.7333775758743286,11.635632812976837,0.0,0.0,0.0,0.0,0.0,0.0,0.0,0.0,0.0,0.0,0.0,0.0,0.0,0.0,0.0,0.0,False,0,3.9574532508850098,0.0349169921875
STABILIZE,0.5042533874511719,29.60845410457507,0.032422812779744466,0.03256058692932129,-10.0,40.0,10.0,0.23282994302662763,-1.644136456579024,3.713761255051285,3.999761920587169,1.7863085654005864,0.001586355712595258,0.5192123890001006,0.04598688671313682,0.010482588713779646,0.5829516095080919,0.007637527968428955,0.04704381572082639,0.10284828022122383,1.10289566218853,-0.057033440271355186,2.3946454748511314,-0.10503057856112719,15.153567492961884,0.0,0.0,0.0,0.0,0.0,0.0,0.0,0.0,0.0,0.0,0.0,0.0,0.0,0.0,0.0,0.0,False,0,4.014715909957886,0.0349169921875
STABILIZE,0.5374090671539307,30.15966060257424,0.032097609837849934,0.03222942352294922,-10.0,40.0,10.0,0.23390217600461385,-1.644296645859402,3.714121547530003,3.999767764322669,1.7909881035120045,0.0015499349046673187,0.5192445389876739,0.046160226314982934,0.009147747357174841,0.5794837399092074,0.007430563815441978,0.10290568461641669,-0.0564208603464067,1.0403012856841087,0.003682983992429331,2.3593440651893616,-0.21711941808462143,13.834652304649353,0.0,0.0,0.0,0.0,0.0,0.0,0.0,0.0,0.0,0.0,0.0,0.0,0.0,0.0,0.0,0.0,False,0,4.043381452560425,0.0349169921875
STABILIZE,0.5708003044128418,29.94669389328783,0.03239897092183431,0.032524824142456055,-10.0,40.0,10.0,0.2338076205732915,-1.6444217236985779,3.715682245755351,3.99984509694192,1.7957054820950926,0.0010557245381958996,0.5192840645565601,0.046725374492380324,0.011364307954087835,0.5723300109337514,0.004942984472717897,0.12288213474676013,0.13304223539307714,0.8254249580204487,-0.11816536757068825,-0.9296759963035583,-0.07880436023697257,15.724056959152222,0.0,0.0,0.0,0.0,0.0,0.0,0.0,0.0,0.0,0.0,0.0,0.0,0.0,0.0,0.0,0.0,False,0,4.072059392929077,0.029928955078125
STABILIZE,0.6043157577514648,29.837831685281355,0.0324590524037679,0.03258967399597168,-10.0,40.0,10.0,0.23422543605142584,-1.6443315438571926,3.7162585429665707,3.999921133862084,1.8001545827139747,0.0005708660275610591,0.519328219565536,0.047041250187894595,0.013427161235931398,0.5628812191698052,0.0025102937581290554,0.12288213474676013,0.13304223539307714,0.8254249580204487,-0.11816536757068825,-0.9296759963035583,-0.07880436023697257,15.724056959152222,0.0,0.0,0.0,0.0,0.0,0.0,0.0,0.0,0.0,0.0,0.0,0.0,0.0,0.0,0.0,0.0,False,0,4.1008429527282715,0.029928955078125
STABILIZE,0.639411211013794,28.49275165414453,0.03238967259724935,0.034275054931640625,-10.0,40.0,10.0,0.2330268445737944,-1.6452052744624253,3.717815826097334,4.00002933656937,1.8049233476153401,-0.00011809771626273987,0.5193603638390452,0.04573075884096073,0.010972433120816964,0.5600961007752283,-0.0009312480447204383,0.03152930876240134,-0.11404434917494655,1.1550667695701122,-0.1791872914717871,1.584291085600853,1.8555663526058197,17.095114290714264,0.0,0.0,0.0,0.0,0.0,0.0,0.0,0.0,0.0,0.0,0.0,0.0,0.0,0.0,0.0,0.0,False,0,4.129729509353638,0.034918212890625
STABILIZE,0.6755495071411133,27.675675675675677,0.03246286710103353,0.034993648529052734,-10.0,40.0,10.0,0.23280721130329618,-1.644849357573644,3.7186269110612726,4.000061187558386,1.80839999378187,-0.00032094749767536585,0.519393140795294,0.044589881288499424,0.013073614711608363,0.5572605962099513,-0.001938541079427776,0.024512832169421017,0.1325406599789858,0.976073369383812,-0.04273135765467905,0.9205774404108524,1.8534336239099503,12.1171735227108,0.0,0.0,0.0,0.0,0.0,0.0,0.0,0.0,0.0,0.0,0.0,0.0,0.0,0.0,0.0,0.0,False,1,4.159239292144775,0.0349169921875
STABILIZE,0.7089967727661133,29.897597103122838,0.032182963689168294,0.03236246109008789,-10.0,40.0,10.0,0.23253186930238004,-1.6450898015767697,3.7204616706270675,4.0000632174734685,1.8146133810692693,-0.0003337745390995968,0.5194348881071742,0.0465260062389523,0.013137570764366259,0.5490452543771279,-0.0019959928600437674,0.19122809171676636,-0.0008922326742322184,0.9086919948458672,0.01124613325205078,3.9312195032835007,-0.07859846809878945,13.934102654457092,0.0,0.0,0.0,0.0,0.0,0.0,0.0,0.0,0.0,0.0,0.0,0.0,0.0,0.0,0.0,0.0,False,0,4.216651678085327,0.0349169921875
STABILIZE,0.7423403263092041,29.98780269827765,0.0322447141011556,0.03240633010864258,-10.0,40.0,10.0,0.23318991534022845,-1.6453380362644174,3.720857821598928,3.999993255539734,1.8201917609971867,0.0001080266173408064,0.519453248940429,0.04752783244198432,0.014160457746315571,0.5525160705019967,0.00021230218151760882,0.14221949968487024,0.07516976329497993,1.288329716771841,0.13494804949590872,4.872152209281921,0.027112802490592003,17.510873079299927,0.0,0.0,0.0,0.0,0.0,0.0,0.0,0.0,0.0,0.0,0.0,0.0,0.0,0.0,0.0,0.0,False,0,4.245737075805664,0.03491796875
STABILIZE,0.7758297920227051,29.860135976933755,0.03240207036336263,0.03254890441894531,-10.0,40.0,10.0,0.23276836460239173,-1.6457733541022999,3.7214029560720596,3.999984133897792,1.823523566629402,0.00016560455579781014,0.5194772525160662,0.045090450176305946,0.013928762744127144,0.5531602383111339,0.0004985235100042768,-0.05387405399233103,0.004364789856481366,1.1191110126674175,0.023581041346483905,-0.8435741066932678,-0.006688239227514714,17.87002384662628,0.0,0.0,0.0,0.0,0.0,0.0,0.0,0.0,0.0,0.0,0.0,0.0,0.0,0.0,0.0,0.0,False,0,4.274049520492554,0.029928955078125
STABILIZE,0.8096463680267334,29.57171361088589,0.032361539204915364,0.03284621238708496,-10.0,40.0,10.0,0.23213251667934587,-1.6459396265199073,3.7227766778688784,3.9999738904638495,1.827524964289995,0.0002301701814434994,0.5195067052999066,0.04244576796255477,0.01357370955627848,0.5511948912315145,0.0008185877873172688,-0.05387405399233103,0.004364789856481366,1.1191110126674175,0.023581041346483905,-0.8435741066932678,-0.006688239227514714,17.87002384662628,0.0,0.0,0.0,0.0,0.0,0.0,0.0,0.0,0.0,0.0,0.0,0.0,0.0,0.0,0.0,0.0,False,0,4.302725315093994,0.029928955078125
STABILIZE,0.843076229095459,29.915082699151966,0.03234365781148275,0.03248429298400879,-10.0,40.0,10.0,0.2322214158602618,-1.6460445339566905,3.7229914019409107,4.000106906542996,1.833366662687169,-0.0006039427674732375,0.519540895410367,0.04334294088251631,0.012323908304930662,0.5467549970392495,-0.003340796057983878,0.1490623690187931,-0.04871051351074129,0.9538899175822735,-0.23931702191255302,4.620721191167831,-0.29226229526102543,7.5658343732357025,0.0,0.0,0.0,0.0,0.0,0.0,0.0,0.0,0.0,0.0,0.0,0.0,0.0,0.0,0.0,0.0,False,0,4.3314032554626465,0.034918212890625
STABILIZE,0.87715744972229,29.34085106085302,0.03236344655354818,0.03302884101867676,-10.0,40.0,10.0,0.2318411664225625,-1.6452798729347664,3.7240590458855487,3.999943035318048,1.8399447867556595,0.000420210231905144,0.5195718012321582,0.04649942623666005,0.014706755463931222,0.5441637065826536,0.0017739367645343614,0.268142344430089,0.15906766057014465,0.8840823546051979,0.30706788276530445,4.444734752178192,-0.06061912281438708,11.392799019813538,0.0,0.0,0.0,0.0,0.0,0.0,0.0,0.0,0.0,0.0,0.0,0.0,0.0,0.0,0.0,0.0,False,1,4.361036777496338,0.034916748046875
STABILIZE,0.9128544330596924,28.0163784408419,0.03228286107381185,0.034329891204833984,-10.0,40.0,10.0,0.2314982695818867,-1.645300576945688,3.724027029373814,3.9997853552705167,1.8401700290522325,0.0014069584368400431,0.5196032498316461,0.038533237470045265,0.013974510757162543,0.5418106125177519,0.006684054381428957,0.1212746137753129,0.09624583180993795,0.9760810993611813,0.17731200433822192,-1.1790333315730095,-0.2062142826616764,7.175161689519882,0.0,0.0,0.0,0.0,0.0,0.0,0.0,0.0,0.0,0.0,0.0,0.0,0.0,0.0,0.0,0.0,False,0,4.4183900356292725,0.034917236328125
STABILIZE,0.9471487998962402,29.1570781080555,0.031874688466389973,0.032941341400146484,-10.0,40.0,10.0,0.23272055327820165,-1.6457122025648871,3.7252402417251376,3.9998855344188464,1.8434892837338257,0.00078416451380472,0.5196303383553519,0.03410898455161604,0.014328733286736919,0.5412896493876722,0.0035578381735288517,-0.17924560233950615,0.040893323603086174,0.9842846542596817,-0.18327954862019,-5.106914043426514,0.04195943765807897,17.246948182582855,0.0,0.0,0.0,0.0,0.0,0.0,0.0,0.0,0.0,0.0,0.0,0.0,0.0,0.0,0.0,0.0,False,0,4.4470648765563965,0.034917724609375
STABILIZE,0.980445384979248,30.031604648332056,0.03203872044881185,0.03229570388793945,-10.0,40.0,10.0,0.23258992591032515,-1.6457223411269364,3.7271471451640403,3.9997142612863863,1.850925987584764,0.0018478466324678901,0.5196549489567347,0.03529128088285305,0.013104110359613978,0.5416749945023283,0.008846574184003406,0.15313957119360566,-0.05182612803764641,1.0377932339906693,0.31687568756789897,0.22033648565411568,-0.13310470385476947,12.796376645565033,0.0,0.0,0.0,0.0,0.0,0.0,0.0,0.0,0.0,0.0,0.0,0.0,0.0,0.0,0.0,0.0,False,0,4.47576904296875,0.02992919921875
STABILIZE,1.0138535499572754,29.934084129091193,0.03232291539510091,0.032454729080200195,-10.0,40.0,10.0,0.2330032590768167,-1.6459137998671083,3.7278929164440413,3.9995464304411548,1.8566119870097315,0.0028881032020456727,0.5196847482813747,0.03640043284712956,0.011796412777021797,0.5394342486449992,0.01400102110231253,0.15313957119360566,-0.05182612803764641,1.0377932339906693,0.31687568756789897,0.22033648565411568,-0.13310470385476947,12.796376645565033,0.0,0.0,0.0,0.0,0.0,0.0,0.0,0.0,0.0,0.0,0.0,0.0,0.0,0.0,0.0,0.0,False,0,4.5043723583221436,0.02992919921875
STABILIZE,1.0474746227264404,29.74240715921742,0.03234055836995443,0.03245997428894043,-10.0,40.0,10.0,0.23405286705317727,-1.6457996076419221,3.729164612290133,3.9996398915578073,1.8586945092068596,0.0023159117121743645,0.5197113705097232,0.034456616770107966,0.012381756904303156,0.538772650060236,0.011102952460864384,-0.031813891837373376,0.060944765573367476,1.1167465709149837,-0.16350652449897332,-1.2720787897706032,1.8841981887817383,18.329443037509918,0.0,0.0,0.0,0.0,0.0,0.0,0.0,0.0,0.0,0.0,0.0,0.0,0.0,0.0,0.0,0.0,False,0,4.533080339431763,0.034918212890625
STABILIZE,1.08121919631958,29.632928741998843,0.03167465527852376,0.03232693672180176,-10.0,40.0,10.0,0.2328306900785681,-1.6468307527631825,3.7298732444165217,3.9995666861196897,1.8689763159970187,0.0027617662438204496,0.519739365910546,0.0366517401046858,0.01384635045325235,0.5376378662224182,0.013287069779533242,0.1460229163058102,0.0679831427987665,1.0285564698278904,0.07477599722869384,4.292489588260651,-0.28369666542857885,10.413835942745209,0.0,0.0,0.0,0.0,0.0,0.0,0.0,0.0,0.0,0.0,0.0,0.0,0.0,0.0,0.0,0.0,False,0,4.591522216796875,0.029928955078125
STABILIZE,1.118638277053833,26.723652604953138,0.032413514455159505,0.03512072563171387,-10.0,40.0,10.0,0.23364775145803088,-1.6466687492138063,3.730283909540369,3.999633553884342,1.8768140938631501,0.0023502684616170354,0.5197700967196399,0.0374723006657434,0.013205155172925285,0.5359096020496222,0.011189273325843496,0.1319563016295433,-0.013304963067639619,1.0261498391628265,-0.11405132585409272,2.4209365248680115,-2.16055940836668,16.25419706106186,0.0,0.0,0.0,0.0,0.0,0.0,0.0,0.0,0.0,0.0,0.0,0.0,0.0,0.0,0.0,0.0,False,0,4.620137691497803,0.034916748046875
STABILIZE,1.151646375656128,30.297783813458928,0.031020196278889973,0.03195333480834961,-10.0,40.0,10.0,0.23235983391266035,-1.6457081471400674,3.7335534357186893,3.999665636448284,1.8809955014942963,0.0021567431420825324,0.51979168273008,0.03693664544549483,0.011266265868815196,0.5380797963928777,0.010186756095685826,0.03746053553186357,-0.09713222389109433,1.0890224948525429,-0.052759165918688726,0.22654510103166103,-2.2507721558213234,13.872876763343811,0.0,0.0,0.0,0.0,0.0,0.0,0.0,0.0,0.0,0.0,0.0,0.0,0.0,0.0,0.0,0.0,False,0,4.648999929428101,0.034917236328125
STABILIZE,1.1850218772888184,29.962952644249658,0.03226784070332845,0.03240013122558594,-10.0,40.0,10.0,0.23283570599873982,-1.6453561789544002,3.734546801356103,3.999691508901937,1.8836294926499504,0.0020027183702641875,0.5198078451670085,0.03413842773176435,0.01007934760284878,0.5426524666460908,0.009385238717981857,-0.09933671681210399,-0.049235502956435084,1.238168589770794,-0.0380414322734736,-3.857223317027092,-2.031877264380455,20.91953754425049,0.0,0.0,0.0,0.0,0.0,0.0,0.0,0.0,0.0,0.0,0.0,0.0,0.0,0.0,0.0,0.0,False,0,4.677648544311523,0.034917724609375
STABILIZE,1.218665361404419,29.72196317975028,0.0323365052541097,0.03268122673034668,-10.0,40.0,10.0,0.2348131524851643,-1.6455990775567588,3.7371004383320416,3.9997182167512073,1.8877335244605906,0.0018422137591062385,0.5198241880336821,0.0313009122516056,0.008878086758502927,0.5472041963013349,0.00855393235884867,-0.09933671681210399,-0.049235502956435084,1.238168589770794,-0.0380414322734736,-3.857223317027092,-2.031877264380455,20.91953754425049,0.0,0.0,0.0,0.0,0.0,0.0,0.0,0.0,0.0,0.0,0.0,0.0,0.0,0.0,0.0,0.0,False,0,4.706267595291138,0.034917724609375
STABILIZE,1.252197265625,29.824040957087497,0.03236988385518392,0.03250479698181152,-10.0,40.0,10.0,0.2335491406018888,-1.6464333211308524,3.738164240295271,3.99981698718809,1.8898792357925995,0.0012449408120405235,0.5198421660125676,0.028762573926275757,0.0074583511295629725,0.5508636060614456,0.005548998216304014,-0.04511351871769875,-0.01318186114076525,1.223976258188486,-0.16084588567277566,0.20486107096076012,-0.06931974203325808,19.66511160135269,0.0,0.0,0.0,0.0,0.0,0.0,0.0,0.0,0.0,0.0,0.0,0.0,0.0,0.0,0.0,0.0,False,0,4.763565540313721,0.034917236328125
STABILIZE,1.2855122089385986,30.013338294644647,0.03227856953938802,0.032404422760009766,-10.0,40.0,10.0,0.23350058222575826,-1.6458603322925118,3.7381932685992436,3.99981200440301,1.8922931240897265,0.001277513579298135,0.5198624082575714,0.025274401935576597,0.00737867306850126,0.5533812964309918,0.005692820716742962,-0.14015978667885065,0.017666720668785274,1.1111199855804443,0.02407225467776947,-2.057396247982979,0.06095346761867404,21.121980249881744,0.0,0.0,0.0,0.0,0.0,0.0,0.0,0.0,0.0,0.0,0.0,0.0,0.0,0.0,0.0,0.0,False,0,4.792237758636475,0.064846923828125
STABILIZE,1.3190219402313232,29.8437762377083,0.032433541615804036,0.03256392478942871,-10.0,40.0,10.0,0.23429341777800863,-1.6465995935484599,3.7388536625146194,3.9998045223028296,1.8951931078339397,0.001324974384165081,0.5198491612690879,0.02158304488097702,0.007311677360063974,0.5726175972076917,0.005910356215649374,-0.14015978667885065,0.017666720668785274,1.1111199855804443,0.02407225467776947,-2.057396247982979,0.06095346761867404,21.121980249881744,0.0,0.0,0.0,0.0,0.0,0.0,0.0,0.0,0.0,0.0,0.0,0.0,0.0,0.0,0.0,0.0,False,0,4.8267576694488525,0.064846923828125
STABILIZE,1.3526291847229004,29.754644835878917,0.03236416180928548,0.03249645233154297,-10.0,40.0,10.0,0.2349230758421192,-1.64612980459961,3.7397373182384896,3.99983849472864,1.9010924425844526,0.001119752680060586,0.5198538930895499,0.020960723770702766,0.008092047297092227,0.5828733144720653,0.004867936646895344,0.0458590395282954,0.05872169276699424,0.7485401816666126,-0.043425949206651,5.593181774020195,-0.10906015522778034,16.36098623275757,0.0,0.0,0.0,0.0,0.0,0.0,0.0,0.0,0.0,0.0,0.0,0.0,0.0,0.0,0.0,0.0,False,0,4.858907222747803,0.0349169921875
STABILIZE,1.388883113861084,27.58285436203654,0.03221753438313802,0.0353398323059082,-10.0,40.0,10.0,0.2339282161008245,-1.6453471076094088,3.741017124934221,3.999914710272649,1.9090857508557042,0.0006599982792106595,0.519887601999399,0.023148144777077256,0.007742029112114349,0.5797323736093927,0.002559848421832935,0.17399739008396864,0.0009417361070518382,1.0169285349547863,-0.10463412249465831,2.402224577963352,-0.24395713116973639,11.586586385965347,0.0,0.0,0.0,0.0,0.0,0.0,0.0,0.0,0.0,0.0,0.0,0.0,0.0,0.0,0.0,0.0,False,0,4.887482166290283,0.03491796875
STABILIZE,1.4224274158477783,29.814924863873525,0.03240660031636556,0.03255915641784668,-10.0,40.0,10.0,0.2347106996476141,-1.6449736883608794,3.7421044056727224,4.00003638237795,1.9095968202292992,-7.102205417238407e-05,0.5199123927376521,0.014698524063817612,0.007202822134059272,0.5799488066491515,-0.001091599592405238,-0.3779726102948189,-0.009398675319971517,1.1785021983087063,-0.1753441894857442,-2.1371208131313324,-0.27808076702058315,12.207495421171188,0.0,0.0,0.0,0.0,0.0,0.0,0.0,0.0,0.0,0.0,0.0,0.0,0.0,0.0,0.0,0.0,False,0,4.916528224945068,0.039906005859375
STABILIZE,1.4620611667633057,25.228440990538516,0.03231862386067708,0.038722991943359375,-10.0,40.0,10.0,0.23463332641092255,-1.6456690869957515,3.742874082614818,4.000073379693365,1.9164370737429237,-0.0002931939120240924,0.5199389880663058,0.013448755034287179,0.007905003569175768,0.5816115968248106,-0.0021937473442095513,-0.00269212614512071,0.05332838627509773,1.1025872081518173,-0.03959798836261587,-0.38953437469899654,-0.14608415076509118,16.402505338191986,0.0,0.0,0.0,0.0,0.0,0.0,0.0,0.0,0.0,0.0,0.0,0.0,0.0,0.0,0.0,0.0,False,0,4.945147514343262,0.02493994140625
STABILIZE,1.495513916015625,29.89312237189081,0.03242209752400716,0.03254508972167969,-10.0,40.0,10.0,0.2341261848650491,-1.6468200805926043,3.744722929445776,4.000166445638192,1.9241244817257281,-0.0008489389505373921,0.5199940027856641,0.015132305810529949,0.009425277561918374,0.5667195368739151,-0.004955903484227968,0.1819179393351078,0.0711207976564765,0.9837664663791656,-0.11258175462526894,4.020287841558456,1.800377480685711,14.124923944473267,0.0,0.0,0.0,0.0,0.0,0.0,0.0,0.0,0.0,0.0,0.0,0.0,0.0,0.0,0.0,0.0,False,0,5.0061211585998535,0.034918212890625
STABILIZE,1.5288984775543213,29.95375144616,0.03241613705952962,0.03252387046813965,-10.0,40.0,10.0,0.23255993711100056,-1.645215626467886,3.756230517536778,4.000134250966371,1.9284719616097494,-0.000658098511261739,0.5200207374943092,0.013531964741498675,0.006360182108217306,0.5659662404278809,-0.0039883693655532095,-0.03859953430946916,-0.1527319080196321,1.0489247739315033,0.06353087116274138,-3.8308363407850266,-0.21077224519103765,13.978604972362518,0.0,0.0,0.0,0.0,0.0,0.0,0.0,0.0,0.0,0.0,0.0,0.0,0.0,0.0,0.0,0.0,False,0,5.034597396850586,0.034916748046875
STABILIZE,1.562359094619751,29.88609335698966,0.03246143658955892,0.03257298469543457,-10.0,40.0,10.0,0.23546639604625255,-1.6474024609410538,3.7411042098461387,4.001080566186757,1.9285531765160078,-0.0062987091376785305,0.5200473199558078,0.010421516786031752,0.023496321114829268,0.5652957225775807,-0.03208412593324226,-0.1245015999302268,0.9644110687077045,1.0508575476706028,-1.5456289070481615,-7.557494938373566,31.315091252326965,18.28056573867798,0.0,0.0,0.0,0.0,0.0,0.0,0.0,0.0,0.0,0.0,0.0,0.0,0.0,0.0,0.0,0.0,False,0,5.063278436660767,0.03491796875
STABILIZE,1.595876932144165,29.834860297046607,0.03243401845296224,0.0325779914855957,-10.0,40.0,10.0,0.2308575124603749,-1.6498300595824644,3.7443220827188606,4.002032290187218,1.9336686662301499,-0.011952675540890904,0.5200738379128312,0.007355854607066871,0.04064533178129688,0.5646670262536108,-0.06015265477160501,-0.1245015999302268,0.9644110687077045,1.0508575476706028,-1.5456289070481615,-7.557494938373566,31.315091252326965,18.28056573867798,0.0,0.0,0.0,0.0,0.0,0.0,0.0,0.0,0.0,0.0,0.0,0.0,0.0,0.0,0.0,0.0,False,0,5.092401027679443,0.03491796875
STABILIZE,1.6292550563812256,29.959314285714285,0.032340081532796223,0.03246569633483887,-10.0,40.0,10.0,0.22355358563839828,-1.6511766740660148,3.7666883909297137,4.0006440917442765,1.9420950185487291,-0.0037339554877994113,0.5200996543970926,0.007400989287819253,0.02864088284435536,0.5643787439832191,-0.018995539096188105,0.045400531962513924,-0.6517562083899975,1.0678093880414963,2.2921771210670174,19.234414398670197,-41.219669580459595,12.295028567314148,0.0,0.0,0.0,0.0,0.0,0.0,0.0,0.0,0.0,0.0,0.0,0.0,0.0,0.0,0.0,0.0,False,0,5.121143579483032,0.029928955078125
STABILIZE,1.6628544330596924,29.764357742500906,0.03244808514912923,0.03258991241455078,-10.0,40.0,10.0,0.2250071352711416,-1.6457594802805484,3.755361802851717,4.002005319649005,1.948524954085554,-0.01175501212257208,0.5201450104310852,0.015107792596132798,0.037385474990756604,0.5543490547654664,-0.05890363298641213,0.46964026987552643,0.5342725664377213,0.669521652162075,-2.2789101189345025,-4.272390902042389,44.70873177051544,7.539154589176178,0.0,0.0,0.0,0.0,0.0,0.0,0.0,0.0,0.0,0.0,0.0,0.0,0.0,0.0,0.0,0.0,False,0,5.154777765274048,0.0349169921875
STABILIZE,1.696521282196045,29.702178285131577,0.03230145772298177,0.032430171966552734,-10.0,40.0,10.0,0.23339151264244962,-1.6423318992559655,3.8030318275033514,4.002896690188479,1.9512358698213934,-0.017016823356468917,0.5201824238166003,0.013170577879789494,0.06589148171242615,0.5482776372185703,-0.08492885215268067,-0.0734774861484766,1.635231263935566,0.7223094347864389,-1.4780627547876912,3.5493507981300354,17.16272234916687,0.6955421064049006,0.0,0.0,0.0,0.0,0.0,0.0,0.0,0.0,0.0,0.0,0.0,0.0,0.0,0.0,0.0,0.0,False,0,5.183487176895142,0.03491796875
STABILIZE,1.7296690940856934,30.168120778819112,0.03208950360616048,0.032210350036621094,-10.0,40.0,10.0,0.23569542082685954,-1.6497075430642272,3.77615076425112,4.0021462805318775,1.9605870121673754,-0.012603485434604742,0.520218235144096,0.015145933246183515,0.045401419731746454,0.5430286957773937,-0.06265253524438347,0.1474610879085958,-1.1373589746654034,0.7677544374018908,1.248295831438697,-7.120770215988159,-37.87197768688202,-11.828598380088806,0.0,0.0,0.0,0.0,0.0,0.0,0.0,0.0,0.0,0.0,0.0,0.0,0.0,0.0,0.0,0.0,False,0,5.212042808532715,0.029928955078125
STABILIZE,1.7630815505981445,29.928530654184268,0.03211978276570638,0.03224062919616699,-10.0,40.0,10.0,0.23081300950906403,-1.6486850424011352,3.7454610167629605,4.004045024948638,1.9807821056560013,-0.023504103865072134,0.520253288637796,0.04208675823304845,0.05795927962336973,0.5381537357589686,-0.11676529932671645,1.5853865072131157,0.7864152081310749,0.9243144653737545,-3.186044618076821,14.264589548110962,35.072168707847595,13.910284638404846,0.0,0.0,0.0,0.0,0.0,0.0,0.0,0.0,0.0,0.0,0.0,0.0,0.0,0.0,0.0,0.0,False,1,5.246734619140625,0.03491796875
STABILIZE,1.796717643737793,29.729968812021546,0.03241613705952962,0.03274250030517578,-10.0,40.0,10.0,0.21480880906666633,-1.6410194357182653,3.7919250861392646,4.002678751934641,1.966518762344163,-0.015791385975365103,0.5202639607921047,0.007972842933242519,0.03951669977157364,0.5455516115645915,-0.07793927387807734,-0.9009631350636482,-0.2655541291460395,1.564568281173706,-1.1800655500031487,-6.7352838814258575,33.4709107875824,56.77703619003296,0.0,0.0,0.0,0.0,0.0,0.0,0.0,0.0,0.0,0.0,0.0,0.0,0.0,0.0,0.0,0.0,False,0,5.308566331863403,0.029928955078125
STABILIZE,1.8301692008972168,29.893335423957122,0.03243091901143392,0.032546281814575195,-10.0,40.0,10.0,0.2112662887649569,-1.6449398575801468,3.7600157229974345,4.0032944861378335,1.9561160243544917,-0.01953424962295073,0.5202762597211612,-0.00811953645972373,0.03373785762304395,0.5520289834536969,-0.09633173331789013,-0.9009631350636482,-0.2655541291460395,1.564568281173706,-1.1800655500031487,-6.7352838814258575,33.4709107875824,56.77703619003296,0.0,0.0,0.0,0.0,0.0,0.0,0.0,0.0,0.0,0.0,0.0,0.0,0.0,0.0,0.0,0.0,False,0,5.337397813796997,0.029928955078125
STABILIZE,1.8642778396606445,29.31870067594489,0.03241160710652669,0.03319692611694336,-10.0,40.0,10.0,0.21386688329143927,-1.656374127859277,3.7928330744120533,4.003340440613522,1.9648943695706338,-0.01978186778984486,0.5202671517076902,-0.0037369883994860693,0.036255629484336964,0.5694454781352528,-0.09723826200243552,0.2857442479580641,0.21696595940738916,2.2058289498090744,-0.1736633226196864,22.94369488954544,7.119074463844299,26.098057627677917,0.0,0.0,0.0,0.0,0.0,0.0,0.0,0.0,0.0,0.0,0.0,0.0,0.0,0.0,0.0,0.0,False,0,5.365994215011597,0.03491796875
STABILIZE,1.8976616859436035,29.952895808041134,0.03241542180379232,0.03252243995666504,-10.0,40.0,10.0,0.21217790557574204,-1.6653267983138713,3.838586804114676,4.002361975365438,1.9753189528476174,-0.014065627607948557,0.5202907273674066,0.002954833036115544,0.019868219544117386,0.5702676634566626,-0.06842829483380383,0.43396269902586937,-0.9102165699005127,1.0431159287691116,1.6315419079146378,12.22875490784645,-45.56879699230194,22.5517138838768,0.0,0.0,0.0,0.0,0.0,0.0,0.0,0.0,0.0,0.0,0.0,0.0,0.0,0.0,0.0,0.0,False,0,5.394683837890625,0.0349169921875
STABILIZE,1.931276559829712,29.750845858661805,0.03246453603108724,0.032592058181762695,-10.0,40.0,10.0,0.20809281212183972,-1.6719773748530538,3.8059513064867088,4.003490512494261,1.9703557842495307,-0.020711460324732145,0.5203197688765171,0.010984107303744182,0.015963331933222556,0.5683757344872267,-0.1013182986171745,0.5035761278122663,-0.16597036737948656,0.8925121277570724,-2.0264979168357424,6.023171544075012,26.03314518928528,7.614348828792572,0.0,0.0,0.0,0.0,0.0,0.0,0.0,0.0,0.0,0.0,0.0,0.0,0.0,0.0,0.0,0.0,False,0,5.423377275466919,0.0349169921875
STABILIZE,1.9646401405334473,29.972159496927254,0.03228453000386556,0.03241872787475586,-10.0,40.0,10.0,0.19132448426604687,-1.6807174556697313,3.8520811234805055,4.004690511667463,1.9945641564151555,-0.027422264999017013,0.5203491017617051,0.019136746190223108,0.012077609975885892,0.5663226932307067,-0.134422992660206,0.5035761278122663,-0.16597036737948656,0.8925121277570724,-2.0264979168357424,6.023171544075012,26.03314518928528,7.614348828792572,0.0,0.0,0.0,0.0,0.0,0.0,0.0,0.0,0.0,0.0,0.0,0.0,0.0,0.0,0.0,0.0,False,0,5.452122211456299,0.0349169921875
STABILIZE,1.9980249404907227,29.952895808041134,0.032381327946980794,0.03250908851623535,-10.0,40.0,10.0,0.18722434305162935,-1.6761712177251475,3.861791518046148,4.006346267413563,2.0269351788952457,-0.036425210969931926,0.5203407128073493,0.05417964036605116,0.01787169510455716,0.5831103707598538,-0.17883981658995624,-0.41094995103776455,1.5004104934632778,0.9887964464724064,-3.7427498585492884,-13.710518181324005,80.41746616363525,21.77606225013733,0.0,0.0,0.0,0.0,0.0,0.0,0.0,0.0,0.0,0.0,0.0,0.0,0.0,0.0,0.0,0.0,False,0,5.509476661682129,0.034917236328125
STABILIZE,2.0318729877471924,29.54442613020019,0.032449992497762044,0.03299403190612793,-10.0,40.0,10.0,0.1850885215538252,-1.6785609301610056,3.7795965946873915,4.008672385313904,2.0198624776180383,-0.049815957322435045,0.5203716966538536,0.04562659981762816,0.04491763430636956,0.5803794239337705,-0.24496390278357374,-0.41094995103776455,1.5004104934632778,0.9887964464724064,-3.7427498585492884,-13.710518181324005,80.41746616363525,21.77606225013733,0.0,0.0,0.0,0.0,0.0,0.0,0.0,0.0,0.0,0.0,0.0,0.0,0.0,0.0,0.0,0.0,False,0,5.538179636001587,0.034917236328125
STABILIZE,2.0654211044311523,29.810686719072056,0.03239181836446126,0.03250908851623535,-10.0,40.0,10.0,0.19135041764055175,-1.6820390972741288,3.828640341135845,4.00773907508885,2.01688537259775,-0.04477383458821832,0.5204257988851673,0.035409854382234776,0.02403028248005835,0.5659499454306061,-0.21902072988137883,-0.49522765912115574,-1.1112703941762447,0.3457724582403898,1.2530355558358626,-0.8590789511799812,-88.34735751152039,23.71586710214615,0.0,0.0,0.0,0.0,0.0,0.0,0.0,0.0,0.0,0.0,0.0,0.0,0.0,0.0,0.0,0.0,False,0,5.5667405128479,0.029928955078125
STABILIZE,2.0988264083862305,29.932375148081015,0.032332452138264973,0.03247404098510742,-10.0,40.0,10.0,0.19482111423427026,-1.681088313597322,3.8152693920618987,4.008602266795657,2.01876501933618,-0.04975689878128632,0.5204267097276158,0.03905843235301809,0.06221327931484709,0.5781046620668743,-0.2431225709081819,0.2778897760435939,2.1598905324935913,1.943921484053135,-1.6576683419852887,-22.668379545211792,64.0523612499237,40.829190611839294,0.0,0.0,0.0,0.0,0.0,0.0,0.0,0.0,0.0,0.0,0.0,0.0,0.0,0.0,0.0,0.0,False,0,5.595625877380371,0.0698349609375
STABILIZE,2.1331710815429688,29.1170010413051,0.03241589864095052,0.033448219299316406,-10.0,40.0,10.0,0.21621358687986755,-1.681801748200471,3.816294774211047,4.0102554338319205,2.020572654465283,-0.05920239945179626,0.520380268454249,0.044988225560833796,0.10953918684395461,0.6142190933233761,-0.28935631016725427,0.2778897760435939,2.1598905324935913,1.943921484053135,-1.6576683419852887,-22.668379545211792,64.0523612499237,40.829190611839294,0.0,0.0,0.0,0.0,0.0,0.0,0.0,0.0,0.0,0.0,0.0,0.0,0.0,0.0,0.0,0.0,False,0,5.62421441078186,0.0698349609375
STABILIZE,2.166717290878296,29.80962737112926,0.03240350087483724,0.03255462646484375,-10.0,40.0,10.0,0.22036548812158904,-1.6522872201363765,3.7913261639264193,4.008792516537005,1.9886096237763244,-0.05194241215595291,0.5203976539161518,0.009753111958833466,0.0742830369132346,0.61809621804787,-0.25221159223752115,-1.659049279987812,-2.007538266479969,0.39942990988492966,2.2713783412706827,-51.03275775909424,-97.48983979225159,9.903854131698608,0.0,0.0,0.0,0.0,0.0,0.0,0.0,0.0,0.0,0.0,0.0,0.0,0.0,0.0,0.0,0.0,False,0,5.652797222137451,0.029928955078125
STABILIZE,2.2005386352539062,29.567335889916535,0.03231671651204427,0.032865285873413086,-10.0,40.0,10.0,0.23370431396209504,-1.6597643562868363,3.7659622564435766,4.0072911900137385,2.06301433678403,-0.041998084690855704,0.5204621064760171,0.1057398363215339,0.08556008071942628,0.5985933288784034,-0.20180716575119734,5.036362633109093,-0.27109284419566393,0.34965069498866796,-6.227099687999904,25.31712055206299,-206.15289211273193,-63.14727067947388,0.0,0.0,0.0,0.0,0.0,0.0,0.0,0.0,0.0,0.0,0.0,0.0,0.0,0.0,0.0,0.0,False,0,5.712199449539185,0.034917236328125
STABILIZE,2.233963966369629,29.917003095621904,0.032396586736043294,0.03251838684082031,-10.0,40.0,10.0,0.22150954480756618,-1.651526614539272,3.836000296853357,4.011951329654298,2.1298050322352613,-0.06581736323409706,0.5205249385424527,0.20607984267615276,0.07714076638609645,0.5797845563060708,-0.31983345985457656,5.036362633109093,-0.27109284419566393,0.34965069498866796,-6.227099687999904,25.31712055206299,-206.15289211273193,-63.14727067947388,0.0,0.0,0.0,0.0,0.0,0.0,0.0,0.0,0.0,0.0,0.0,0.0,0.0,0.0,0.0,0.0,False,0,5.739760398864746,0.034917236328125
STABILIZE,2.2674007415771484,29.907616833758787,0.032412083943684895,0.03254246711730957,-10.0,40.0,10.0,0.226074885937485,-1.6435213126668997,3.7580819256886744,4.000325589904766,2.090566895176788,-0.0036410503501667327,0.5205984929959098,0.1069005501657833,0.02892716331426056,0.5556431163165926,-0.00892205296921178,-4.789603874087334,-2.2598272189497948,0.05040371906943619,15.019741371661658,41.05086326599121,157.83356428146362,-148.78861904144287,0.0,0.0,0.0,0.0,0.0,0.0,0.0,0.0,0.0,0.0,0.0,0.0,0.0,0.0,0.0,0.0,False,0,5.768513441085815,0.029929931640625
STABILIZE,2.300954580307007,29.80242580131735,0.03242662747701009,0.032564401626586914,-10.0,40.0,10.0,0.22670774565276902,-1.6609600662784116,3.8099947784753563,4.008959013039799,2.0981835340009627,-0.050751275359674664,0.520685663068453,0.14038131141583624,0.09378972972982774,0.5247458676490387,-0.2436575073607614,1.9022637978196144,3.4277673810720444,-0.24059005081653595,-12.259158201608216,-24.59946870803833,-31.27262592315674,34.242796897888184,0.0,0.0,0.0,0.0,0.0,0.0,0.0,0.0,0.0,0.0,0.0,0.0,0.0,0.0,0.0,0.0,False,0,5.79713249206543,0.034917236328125
STABILIZE,2.3343400955200195,29.953109712988024,0.03232768376668294,0.032479047775268555,-10.0,40.0,10.0,0.22430778793315578,-1.6474816484467436,3.8248414752968487,4.001404477430934,2.1718497168684405,-0.009450472028059619,0.5207719580357589,0.19787810325184663,0.028248018943239417,0.4943183939386436,-0.037029612935622486,3.1148636713624,-3.248986229300499,-0.37971262354403734,10.265121185689782,12.303338944911957,-85.85408329963684,-56.73919320106506,0.0,0.0,0.0,0.0,0.0,0.0,0.0,0.0,0.0,0.0,0.0,0.0,0.0,0.0,0.0,0.0,False,0,5.826586961746216,0.034916748046875
STABILIZE,2.368424415588379,29.337362206927423,0.03241613705952962,0.03320503234863281,-10.0,40.0,10.0,0.22996574588686508,-1.6516236245698275,3.7415357924243184,4.003216883304989,2.097369915676681,-0.01965444461012377,0.5207973720140058,0.1498055934060326,0.05547337420811714,0.4945731115836408,-0.08775033250076317,-2.3378806188702583,1.5454286709427834,1.1783896945416927,-3.010598189196938,-132.8058123588562,160.92441082000732,-33.31875503063202,0.0,0.0,0.0,0.0,0.0,0.0,0.0,0.0,0.0,0.0,0.0,0.0,0.0,0.0,0.0,0.0,False,0,5.854484796524048,0.029929931640625
STABILIZE,2.4019227027893066,29.852909985124448,0.032446893056233723,0.03260183334350586,-10.0,40.0,10.0,0.2284953342246083,-1.6561264267801583,3.818979038554862,4.003170266791189,2.0324189301617235,-0.020011332483135105,0.5208702623635331,0.11592785903669114,0.056632495190910306,0.47089265274151154,-0.08923593188035911,-0.6908072624355555,0.1591710839420557,0.536069693043828,-0.36592466337993573,-11.924641579389572,-98.39399456977844,-1.6949696466326714,0.0,0.0,0.0,0.0,0.0,0.0,0.0,0.0,0.0,0.0,0.0,0.0,0.0,0.0,0.0,0.0,False,0,5.912018299102783,0.034917236328125
STABILIZE,2.435340166091919,29.925327663582074,0.03242448170979818,0.032535552978515625,-10.0,40.0,10.0,0.22114829183349596,-1.6492080854811701,3.788095484449003,4.006262008008903,2.0768119429760246,-0.036731125134209876,0.5209018103911188,0.11235585122163362,0.10461702839475302,0.46786350440943436,-0.17225910106572007,-0.010336458217352629,2.718663774430752,0.9273067116737366,-4.814102595906223,-40.570247173309326,95.24191617965698,-0.8525065146386623,0.0,0.0,0.0,0.0,0.0,0.0,0.0,0.0,0.0,0.0,0.0,0.0,0.0,0.0,0.0,0.0,False,0,5.9407267570495605,0.064846923828125
STABILIZE,2.46882700920105,29.862474546826718,0.03243759473164876,0.03256344795227051,-10.0,40.0,10.0,0.2261111713174507,-1.6498074345808387,3.7767723114655913,4.00370573025271,2.051374746413975,-0.023012603775027764,0.5209350474304789,0.08256641119647709,0.0634818931791403,0.4640044678869601,-0.10332087723682959,-1.5446266159415245,-2.2506069391965866,0.418709684163332,3.4860583294921037,-15.994228422641754,-125.99818706512451,-9.950695931911469,0.0,0.0,0.0,0.0,0.0,0.0,0.0,0.0,0.0,0.0,0.0,0.0,0.0,0.0,0.0,0.0,False,0,5.970901012420654,0.0349169921875
STABILIZE,2.50225567817688,29.914442621781614,0.03237608273824056,0.03251385688781738,-10.0,40.0,10.0,0.22510062348540616,-1.6547979549865908,3.8052742639852313,4.001008458198965,2.011897549915002,-0.008108644201938839,0.5209869966083315,0.048273211654133175,0.016390240292443972,0.4508073845329732,-0.028705055805498897,-1.5446266159415245,-2.2506069391965866,0.418709684163332,3.4860583294921037,-15.994228422641754,-125.99818706512451,-9.950695931911469,0.0,0.0,0.0,0.0,0.0,0.0,0.0,0.0,0.0,0.0,0.0,0.0,0.0,0.0,0.0,0.0,False,0,5.9990246295928955,0.0349169921875
STABILIZE,2.5369110107421875,28.85538952640414,0.03240779240926107,0.0337986946105957,-10.0,40.0,10.0,0.22997695166597215,-1.64507208577361,3.763070951990546,4.00228251143325,2.0545159216634397,-0.015128827973936628,0.521034303287076,0.07560280395313174,0.01798397539956349,0.4404225245629991,-0.06358533710649167,1.60545464605093,0.22355597466230392,0.530897406861186,-2.0970520634146816,59.12542939186096,87.47085928916931,-12.588988244533539,0.0,0.0,0.0,0.0,0.0,0.0,0.0,0.0,0.0,0.0,0.0,0.0,0.0,0.0,0.0,0.0,False,0,6.027499675750732,0.03491796875
STABILIZE,2.5705652236938477,29.714382872607224,0.03248623212178548,0.03261971473693848,-10.0,40.0,10.0,0.22546892009205796,-1.64991821171144,3.8033758982827908,4.003261831769411,2.070844668859785,-0.020494269026111463,0.5210752267462349,0.07087784626574885,0.04968222558608306,0.43277274234380064,-0.09011086258154913,-0.055779144167900085,1.7824294045567513,0.6434551905840635,-1.6624359207476633,-47.777435183525085,-6.208102032542229,-1.2272225692868233,0.0,0.0,0.0,0.0,0.0,0.0,0.0,0.0,0.0,0.0,0.0,0.0,0.0,0.0,0.0,0.0,False,0,6.056131839752197,0.029928955078125
STABILIZE,2.6038718223571777,30.029884514322944,0.03228143056233724,0.03238940238952637,-10.0,40.0,10.0,0.2283267139294736,-1.6541813169705857,3.780925493367782,3.9996855633064174,2.0316500665124355,-0.0006923776364932007,0.5211276289498018,-0.010513766689999753,-0.06997246146647164,0.4193727515970065,0.008868968786901563,-1.9956376403570175,-3.077595680952072,0.6823047064244747,2.387982477007494,-44.45939660072327,-65.0825023651123,-2.482408657670021,0.0,0.0,0.0,0.0,0.0,0.0,0.0,0.0,0.0,0.0,0.0,0.0,0.0,0.0,0.0,0.0,False,0,6.114783525466919,0.0349169921875
STABILIZE,2.6373233795166016,29.889500951349348,0.032340081532796223,0.032471418380737305,-10.0,40.0,10.0,0.22784091672475643,-1.646788490967693,3.7942861971579736,3.998335547160676,2.053135664269546,0.0068620927039631,0.5211460740826347,-0.011135995810890822,-0.09878275838681017,0.42297123953693927,0.046485740865965464,0.12432236690074205,-1.461496576666832,1.1656831949949265,1.802797482130189,-44.880059361457825,-87.87851929664612,20.853762328624725,0.0,0.0,0.0,0.0,0.0,0.0,0.0,0.0,0.0,0.0,0.0,0.0,0.0,0.0,0.0,0.0,False,0,6.143128871917725,0.069835205078125
STABILIZE,2.670790433883667,29.880131936083664,0.03240516980489095,0.03254270553588867,-10.0,40.0,10.0,0.22605845079479467,-1.6479988218329604,3.8073805235705342,3.996413771813915,2.0738767352089718,0.01748009612965096,0.5211426006446229,-0.017847425575794017,-0.1427903898596622,0.4375033570544932,0.09924376740628238,0.12432236690074205,-1.461496576666832,1.1656831949949265,1.802797482130189,-44.880059361457825,-87.87851929664612,20.853762328624725,0.0,0.0,0.0,0.0,0.0,0.0,0.0,0.0,0.0,0.0,0.0,0.0,0.0,0.0,0.0,0.0,False,0,6.171645641326904,0.069835205078125
STABILIZE,2.704216957092285,29.915082699151966,0.03239491780598958,0.032529592514038086,-10.0,40.0,10.0,0.23189324661498384,-1.6531152738515347,3.761453050930899,3.996406119066015,2.0494845369959003,0.017827384936581186,0.5211264938228471,-0.04388325202359533,-0.15381870147928942,0.45832067133206367,0.10064363399558637,-0.8686138316988945,0.13654489303007722,1.4190230518579483,-0.7155840850251323,-0.8206449449062347,94.39423084259033,26.61740481853485,0.0,0.0,0.0,0.0,0.0,0.0,0.0,0.0,0.0,0.0,0.0,0.0,0.0,0.0,0.0,0.0,False,0,6.200315237045288,0.029928955078125
STABILIZE,2.73764705657959,29.911882586184763,0.03243258794148763,0.0325474739074707,-10.0,40.0,10.0,0.22694872326442353,-1.6490297535108094,3.8145680170115033,3.997043254213291,2.0743037415022156,0.014109928068658602,0.5211714800049646,-0.014784348832346673,-0.1276548297661298,0.4486057545548329,0.08178282018407389,1.344898995012045,0.9682637639343739,0.6676573771983385,-0.7554182818731756,45.6058531999588,-52.46291160583496,14.563751220703125,0.0,0.0,0.0,0.0,0.0,0.0,0.0,0.0,0.0,0.0,0.0,0.0,0.0,0.0,0.0,0.0,False,0,6.228942632675171,0.034917724609375
STABILIZE,2.771117687225342,29.877577769388033,0.03244045575459798,0.032575368881225586,-10.0,40.0,10.0,0.2283818890513626,-1.648192415007248,3.7967770817709123,3.9955054817973905,2.120527409630704,0.022171485869854773,0.521202590785516,-0.015639573079133853,-0.17074699117669986,0.4458333409757203,0.12168359343589158,-0.016599649097770452,-2.2492915391921997,0.872044637799263,1.9762648636980606,-23.457686603069305,-21.32149636745453,13.022898137569427,0.0,0.0,0.0,0.0,0.0,0.0,0.0,0.0,0.0,0.0,0.0,0.0,0.0,0.0,0.0,0.0,False,0,6.2588043212890625,0.034917236328125
STABILIZE,2.8045833110809326,29.88162206833661,0.032402785619099934,0.03252005577087402,-10.0,40.0,10.0,0.23092047826678594,-1.6538670215470592,3.7822902505413154,3.997287447045329,2.104266488515651,0.01267403959157106,0.5212189935028616,-0.04373715136044301,-0.10984483648040975,0.4504037440040303,0.07394911064403809,-1.3586015440523624,2.793266251683235,1.2123862281441689,-2.2646328891350604,-24.372373521327972,76.73836946487427,15.161547064781189,0.0,0.0,0.0,0.0,0.0,0.0,0.0,0.0,0.0,0.0,0.0,0.0,0.0,0.0,0.0,0.0,False,0,6.291682243347168,0.039906005859375
STABILIZE,2.837961196899414,29.95995628477753,0.032396586736043294,0.032527923583984375,-10.0,40.0,10.0,0.2280500912680881,-1.6518480603170858,3.817985246030625,3.9962184378125354,2.1281072356355213,0.018348968682950266,0.5212410542014377,-0.022657977145920258,-0.13149698052940925,0.45214119372926304,0.10198281680391975,0.5632645450532436,-0.36163602489978075,1.2434503994882107,-0.1045127799151848,7.162495702505112,45.63387632369995,14.082829654216766,0.0,0.0,0.0,0.0,0.0,0.0,0.0,0.0,0.0,0.0,0.0,0.0,0.0,0.0,0.0,0.0,False,0,6.349658250808716,0.034917724609375
STABILIZE,2.871865749359131,29.495601296756,0.03247669537862142,0.03298044204711914,-10.0,40.0,10.0,0.23247135809520195,-1.6510337737019734,3.7650282280745775,3.997363156716809,2.13570041075524,0.012164773678245453,0.5212639349896215,-0.03470979763377652,-0.0979625614217586,0.45362175325718657,0.07082219845236906,-0.6238025613129139,1.5543434768915176,1.016643550246954,-1.5300969501538466,-33.83218050003052,16.120995581150055,10.296179354190826,0.0,0.0,0.0,0.0,0.0,0.0,0.0,0.0,0.0,0.0,0.0,0.0,0.0,0.0,0.0,0.0,False,0,6.3778393268585205,0.029928955078125
STABILIZE,2.905496120452881,29.734816421730223,0.03225830396016439,0.03262972831726074,-10.0,40.0,10.0,0.2279590576530565,-1.654332434905972,3.8070253537336933,3.995898292849602,2.124260303039321,0.020241716289694123,0.5212965391528779,-0.04299750263494124,-0.13782286690300127,0.4501926257413226,0.1108334083268824,-0.47601391561329365,-2.3301852867007256,0.8697441779077053,2.248854725265508,15.312512218952179,-64.18365240097046,2.0249640569090843,0.0,0.0,0.0,0.0,0.0,0.0,0.0,0.0,0.0,0.0,0.0,0.0,0.0,0.0,0.0,0.0,False,0,6.406581401824951,0.034917236328125
STABILIZE,2.9390358924865723,29.816196542311193,0.032460959752400716,0.032595157623291016,-10.0,40.0,10.0,0.2288633106661427,-1.6533801571252842,3.804285594102872,3.997207152846789,2.1416412492717853,0.01308686452526382,0.5213116321420109,-0.020662839171973705,-0.11528860500054952,0.45542255866687403,0.07480880075318311,1.1863136664032936,1.0225338861346245,1.1895006522536278,-1.8356709691620487,25.76795220375061,71.10434174537659,9.629065543413162,0.0,0.0,0.0,0.0,0.0,0.0,0.0,0.0,0.0,0.0,0.0,0.0,0.0,0.0,0.0,0.0,False,0,6.43516206741333,0.034916748046875
STABILIZE,2.9724395275115967,29.93472504728259,0.03236344655354818,0.03248786926269531,-10.0,40.0,10.0,0.23140211332497762,-1.6500335778753896,3.7892779609490614,3.9971110645116026,2.155512883892352,0.013553833352199632,0.5213394732829286,-0.02793963133033155,-0.10619831304125103,0.45426703549134817,0.07688660304336678,-0.4063134081661701,0.3021461656317115,0.8410739712417126,0.2118992552019467,-43.581318855285645,-40.58431088924408,7.250843942165375,0.0,0.0,0.0,0.0,0.0,0.0,0.0,0.0,0.0,0.0,0.0,0.0,0.0,0.0,0.0,0.0,False,0,6.463826894760132,0.029929931640625
STABILIZE,3.005889892578125,29.896105377202485,0.03242448170979818,0.03254079818725586,-10.0,40.0,10.0,0.22983938738721985,-1.6537256152868989,3.8123575970413577,3.9969179449694856,2.1480889611827148,0.014695051077871302,0.5213811094643068,-0.03212506231629187,-0.1268645370674742,0.4462278403163318,0.08231742715238514,-0.2668612403795123,-1.3649596832692623,0.5843172781169415,0.43934524825445886,6.517258286476135,-5.200425162911415,4.684756323695183,0.0,0.0,0.0,0.0,0.0,0.0,0.0,0.0,0.0,0.0,0.0,0.0,0.0,0.0,0.0,0.0,False,0,6.492726564407349,0.034917236328125
STABILIZE,3.039947986602783,29.38381135194967,0.03239634831746419,0.03319501876831055,-10.0,40.0,10.0,0.23425478452051576,-1.6488514215404484,3.779116347011375,3.997740940832563,2.1633997766798747,0.010249827119402461,0.5214074936642162,-0.022623395309873222,-0.12591139314856134,0.4460679627383125,0.05988708208186806,0.7559740450233221,1.04350121691823,1.1622076854109764,-1.4762538218746957,0.3421926870942116,-24.365659058094025,21.796925365924835,0.0,0.0,0.0,0.0,0.0,0.0,0.0,0.0,0.0,0.0,0.0,0.0,0.0,0.0,0.0,0.0,False,0,6.549920082092285,0.03491796875
STABILIZE,3.07346510887146,29.811534251638307,0.032469781239827473,0.03260064125061035,-10.0,40.0,10.0,0.23099849183371218,-1.6482495111198412,3.8131785004022287,3.996666104725923,2.1809687302719833,0.01587255322091717,0.5214224355262159,-0.012317055744017176,-0.12701437670225524,0.4513820550675778,0.08770712621358201,0.54802680388093,-0.26425900869071484,1.166568323969841,1.6714418453334425,1.1976197361946106,-24.45776015520096,16.556337475776672,0.0,0.0,0.0,0.0,0.0,0.0,0.0,0.0,0.0,0.0,0.0,0.0,0.0,0.0,0.0,0.0,False,0,6.578670024871826,0.029928955078125
STABILIZE,3.106894016265869,29.914015918751605,0.032404216130574544,0.03253912925720215,-10.0,40.0,10.0,0.23333655096397216,-1.6506170254408967,3.805167969166273,3.9978146623884343,2.1722196704415855,0.009908782012641443,0.5214505699755395,-0.013841082143593052,-0.1094169244043142,0.45009401911225594,0.057695258169495584,-0.11872902978211641,0.746998330578208,0.9255592711269855,-1.5521980549258327,22.417032718658447,51.951760053634644,18.65975856781006,0.0,0.0,0.0,0.0,0.0,0.0,0.0,0.0,0.0,0.0,0.0,0.0,0.0,0.0,0.0,0.0,False,0,6.607355833053589,0.0349169921875
STABILIZE,3.140491485595703,29.764780186637335,0.032433303197224934,0.032541513442993164,-10.0,40.0,10.0,0.23516394673206792,-1.6499128756261507,3.7987151479479033,3.9976191608045157,2.1903916814017377,0.010879277488063497,0.5214673493966269,0.0005747075660391329,-0.11055153136793869,0.45446644921980933,0.062339370083094175,0.7930118590593338,-0.27119675651192665,1.0985900647938251,0.38371349086683726,14.152780175209045,-57.552528381347656,21.261009573936462,0.0,0.0,0.0,0.0,0.0,0.0,0.0,0.0,0.0,0.0,0.0,0.0,0.0,0.0,0.0,0.0,False,0,6.636434316635132,0.03491796875
STABILIZE,3.1738057136535645,30.01827876185364,0.032259734471639,0.03238344192504883,-10.0,40.0,10.0,0.23287572663840786,-1.6491164115359038,3.8202870197809196,3.9974214999190183,2.207095817854636,0.011857889215302168,0.5214841030068894,0.014996826807141726,-0.11168954693558888,0.4588522903826065,0.06700834566332807,0.7930118590593338,-0.27119675651192665,1.0985900647938251,0.38371349086683726,14.152780175209045,-57.552528381347656,21.261009573936462,0.0,0.0,0.0,0.0,0.0,0.0,0.0,0.0,0.0,0.0,0.0,0.0,0.0,0.0,0.0,0.0,False,0,6.664782285690308,0.03491796875
STABILIZE,3.207209587097168,29.935365992919948,0.03238704999287923,0.032505035400390625,-10.0,40.0,10.0,0.2357818654085425,-1.6499691179650975,3.7936083008828496,3.997173597659253,2.2023672166068224,0.013228697721978395,0.521503941013121,0.006130565001772316,-0.12157197688332345,0.46169013632003697,0.0736162462296214,-0.5376800894737244,-0.7717836648225784,1.010128390043974,0.49429865579970717,-28.037625551223755,26.367270946502686,13.223972916603088,0.0,0.0,0.0,0.0,0.0,0.0,0.0,0.0,0.0,0.0,0.0,0.0,0.0,0.0,0.0,0.0,False,0,6.693682909011841,0.034918212890625
STABILIZE,3.2407021522521973,29.8582228739838,0.03243401845296224,0.03255748748779297,-10.0,40.0,10.0,0.23501592372614905,-1.6504691091566837,3.8111085261968918,3.9992980865496977,2.1978370819664335,0.0021784258031719308,0.5215240334193859,0.004946247445311187,-0.07332732674771286,0.46441142004460834,0.018303618469945278,-0.04930105060338974,1.174209825694561,0.999629870057106,-1.4755345175777286,7.653895020484924,16.698890924453735,12.618988752365112,0.0,0.0,0.0,0.0,0.0,0.0,0.0,0.0,0.0,0.0,0.0,0.0,0.0,0.0,0.0,0.0,False,0,6.750818729400635,0.029928955078125
STABILIZE,3.2741122245788574,29.930666362196185,0.03236511548360189,0.0324857234954834,-10.0,40.0,10.0,0.23507995674961793,-1.6483644503969677,3.8127601513155653,4.0001999632334515,2.203104586583641,-0.0025257681963009627,0.5215427803855432,0.006742340309158321,-0.06168286144959341,0.467773740898619,-0.005199982563291836,0.09841823484748602,0.4718733485788107,1.1817671358585358,-1.278420914381567,-10.725467652082443,52.17851400375366,21.75097018480301,0.0,0.0,0.0,0.0,0.0,0.0,0.0,0.0,0.0,0.0,0.0,0.0,0.0,0.0,0.0,0.0,False,0,6.7795250415802,0.069833984375
STABILIZE,3.3076553344726562,29.814289065332204,0.0324127991994222,0.03253769874572754,-10.0,40.0,10.0,0.23780306779433738,-1.6494875896286116,3.796542720905016,4.00137335597442,2.2011576459480042,-0.008655277957278398,0.5215195687080605,0.009922841084759555,-0.04822550851477088,0.4921047279800142,-0.03572798757620644,0.09841823484748602,0.4718733485788107,1.1817671358585358,-1.278420914381567,-10.725467652082443,52.17851400375366,21.75097018480301,0.0,0.0,0.0,0.0,0.0,0.0,0.0,0.0,0.0,0.0,0.0,0.0,0.0,0.0,0.0,0.0,False,0,6.80837607383728,0.069833984375
STABILIZE,3.341055154800415,29.941776959209605,0.03230455716451009,0.03242850303649902,-10.0,40.0,10.0,0.23645848102319691,-1.6490645447868941,3.8179626210289994,4.001782577383153,2.1859629656044284,-0.010878485918635446,0.5215024482789611,-0.009413828515118428,-0.02877707715259175,0.5133534191844199,-0.04668791360327918,-1.0158256627619267,0.6778378039598465,1.0899577289819717,-0.12191356727986498,-15.981236100196838,-24.257026612758636,15.68373441696167,0.0,0.0,0.0,0.0,0.0,0.0,0.0,0.0,0.0,0.0,0.0,0.0,0.0,0.0,0.0,0.0,False,0,6.8369669914245605,0.029929931640625
STABILIZE,3.3744773864746094,29.917429883876856,0.032341750462849934,0.03248143196105957,-10.0,40.0,10.0,0.23835962148998763,-1.6470920074989355,3.8029016270222984,4.001843407784141,2.182143767711995,-0.011246118581704843,0.5215314678540343,-0.029387340520426544,-0.012770607178950068,0.5115406861015345,-0.04836427934219443,-1.0158256627619267,0.6778378039598465,1.0899577289819717,-0.12191356727986498,-15.981236100196838,-24.257026612758636,15.68373441696167,0.0,0.0,0.0,0.0,0.0,0.0,0.0,0.0,0.0,0.0,0.0,0.0,0.0,0.0,0.0,0.0,False,0,6.865839004516602,0.029929931640625
STABILIZE,3.4078893661499023,29.92895777140329,0.03239253362019857,0.0325314998626709,-10.0,40.0,10.0,0.23747810020023286,-1.6477342587243282,3.812632939042274,4.0027787961434305,2.1923678722068325,-0.016129363691448354,0.521561862521204,-0.01961005745846505,0.012934752462830563,0.5090458272791014,-0.0725377975912941,0.4793906584382057,1.2182519771158695,1.0316597297787666,-1.2905462077056322,-1.4426789246499538,38.492605090141296,14.25350308418274,0.0,0.0,0.0,0.0,0.0,0.0,0.0,0.0,0.0,0.0,0.0,0.0,0.0,0.0,0.0,0.0,False,0,6.894346714019775,0.0698349609375
STABILIZE,3.441291332244873,29.937288994525456,0.03239444096883138,0.03250575065612793,-10.0,40.0,10.0,0.2376483213209543,-1.647882388451953,3.814966729304303,4.002609772644491,2.1973313742621667,-0.01526259859340365,0.5215821333530716,-0.018836081545181523,0.01727306457739516,0.5115932792154734,-0.0679768156887805,0.8688200265169144,0.24796556681394577,0.4260270856320858,-0.6146193215795047,29.11820113658905,40.59114158153534,12.589946389198303,0.0,0.0,0.0,0.0,0.0,0.0,0.0,0.0,0.0,0.0,0.0,0.0,0.0,0.0,0.0,0.0,False,0,6.952439546585083,0.034917236328125
STABILIZE,3.4748079776763916,29.836770407255912,0.03247502644856771,0.03260660171508789,-10.0,40.0,10.0,0.23864040629789862,-1.6447539483686755,3.8045485563859174,4.002669505556732,2.203423282435164,-0.01558145929011163,0.5216017878682546,-0.01467543068477652,0.025537292460713616,0.5144592610254811,-0.06933915073099804,0.1841072691604495,0.3443456720560789,1.210223138332367,-0.1349433804212808,-23.15911203622818,-35.7651561498642,14.509402215480804,0.0,0.0,0.0,0.0,0.0,0.0,0.0,0.0,0.0,0.0,0.0,0.0,0.0,0.0,0.0,0.0,False,0,6.981151342391968,0.034917724609375
STABILIZE,3.5083446502685547,29.819164213908913,0.032412322362264,0.03255176544189453,-10.0,40.0,10.0,0.23736828356498377,-1.6463001324420372,3.8225332982442075,4.002056738950783,2.213648524726113,-0.012387215158882171,0.5216273933695292,-0.022647783888070667,0.01947351156978648,0.5143584785555737,-0.053189867262948574,-0.419910391792655,-0.3548107109963894,1.0524780489504337,0.7334967897320196,-10.66528856754303,13.31218034029007,15.7918781042099,0.0,0.0,0.0,0.0,0.0,0.0,0.0,0.0,0.0,0.0,0.0,0.0,0.0,0.0,0.0,0.0,False,0,7.011046886444092,0.029928955078125
STABILIZE,3.541699171066284,29.981586321267226,0.03233531316121419,0.03245735168457031,-10.0,40.0,10.0,0.23927657438606184,-1.6470104721157184,3.8077890542602653,4.003023258782588,2.2312620736809055,-0.017308899164608534,0.5216469804271676,-0.015316760035953062,0.03304532860194142,0.5172453270216413,-0.07753907339779621,0.3386849770322442,0.6847030017524958,1.331507507711649,-1.3486146617600823,27.791830897331238,15.538598597049713,20.564506947994232,0.0,0.0,0.0,0.0,0.0,0.0,0.0,0.0,0.0,0.0,0.0,0.0,0.0,0.0,0.0,0.0,False,0,7.0396809577941895,0.034918212890625
