Mode,Time,Freq,North-Vision,East-Vision,Down-Vision,Yaw-Vision,North-Desired,East-Desired,Down-Desired,Roll-UAV,Pitch-UAV,Yaw-UAV,Roll-Control,Pitch-Control,Yaw-Control,Thrust-Control,northVraw,eastVraw,downVraw,N-Velocity,E-Velocity,D-Velocity,N-Acceleration,E-Acceleration,D-Acceleration,yawVraw,yawRate,Landing-State,Q-Size
GUIDED_NOGPS,0.014762639999389648,67.81851696148497,1.6021124986966033,60.267521642509564,53.40607944933567,5.5392252487859075,1.4161859256870215,60.27474881633534,52.737316979094544,-1.8054087488272494,0.6284506147313391,-17.282770873889056,-0.0799782123261493,0.8276882701758533,10.0,0.4986617442383475,2.364950000673904,60.81279527298439,55.276309385968645,5.845734849572182,-3.775586187839508,20.257313549518585,30.188223719596863,-36.23984158039093,7.314041256904602,6.034044274809281,2.824758560277823,False,3
GUIDED_NOGPS,0.046533823013305664,31.479079262389206,2.2304221301914415,60.38370943868868,55.940898681818105,5.89540639059281,1.6209396672024754,60.18407378348857,53.389199326962725,-2.0749222505038403,0.718746569332554,-17.26675066519079,-0.10736787681645674,0.9617308083413854,8.688644630222166,0.49489022467465943,1.8902076005483417,60.86367423305683,55.63644897426879,8.328015357255936,-5.26450015604496,22.266899049282074,-6.899441033601761,-29.168447852134705,210.68522930145264,6.255065790261966,1.4974487526428915,False,3
GUIDED_NOGPS,0.05088520050048828,229.90046042534533,2.3255292035838755,60.310299435263396,56.48762779434111,5.95146238246993,1.8251659121449433,60.0931835159734,54.04021144831816,-2.0749222505038403,0.718746569332554,-17.26675066519079,0.06341601714990243,-0.6925045991876468,6.0895262881233165,0.4950970476326632,2.196591119411033,60.2993787367072,56.79584939352664,4.2749181389808655,-4.067856818437576,23.427864909172058,-48.29455018043518,-11.165504157543182,33.48183333873749,6.475778391586264,0.8483487685033112,False,2
GUIDED_NOGPS,0.09099769592285156,24.933888964848975,2.3404996762874566,60.22323774009326,56.665749966732385,5.961041129247202,2.0283554445552037,60.00187139862232,54.689504589651165,-2.157089853105917,0.7588790533482564,-17.262705485654852,0.017795072066121423,-0.25662240266458014,3.672343772973715,0.4960330610681043,2.284518980270895,59.98792818376906,56.87906500938824,4.2749181389808655,-4.067856818437576,23.427864909172058,-48.29455018043518,-11.165504157543182,33.48183333873749,6.4370797713894845,0.8483487685033112,False,2
GUIDED_NOGPS,0.10958170890808105,53.81797651889395,2.3321476586203658,60.17347036844295,56.76637171530253,5.962974747277806,2.2300187531983755,59.90994009884085,55.33625322414599,-2.3029197279709783,0.8476941375600479,-17.279596543472294,0.058695655015165736,-0.6646346054952845,3.6192399980196566,0.49712318025128244,2.205982309087192,60.45799618659068,57.45912152753327,4.280754178762436,-4.140087217092514,23.653171956539154,-20.454491674900055,-26.54082179069519,81.22970461845398,6.3466998250655475,1.161221805135024,False,2
GUIDED_NOGPS,0.13519787788391113,39.05238263719484,2.378309500885757,60.15131379725169,56.9266146354062,5.966970922944799,2.4296857700241707,59.817201434036875,55.979654833440435,-2.3367255358245447,0.9668960930589913,-17.268451382294124,0.1382570015238878,-1.4526641919266956,3.8327239969606524,0.49808901812433826,3.408777611068154,60.8171139942428,59.118352695375876,4.280754178762436,-4.140087217092514,23.653171956539154,-20.454491674900055,-26.54082179069519,81.22970461845398,6.343200714283078,1.161221805135024,False,1
GUIDED_NOGPS,0.14180493354797363,151.39158996571015,2.48896846436985,60.09844170288878,57.11112140194076,5.963576996146184,2.626905608627151,59.7234762390499,56.61892968938547,-2.3367255358245447,0.9668960930589913,-17.268451382294124,0.006900941667859924,-0.21232586158695393,3.525625681353823,0.49899753651414425,3.408777611068154,60.8171139942428,59.118352695375876,10.329096019268036,-7.496382296085358,27.62313485145569,19.653891026973724,-47.08299934864044,118.88291835784912,6.343200714283078,0.4195923945356349,False,1
GUIDED_NOGPS,0.14808106422424316,159.49136816487945,2.6180935511375587,60.00826784674557,57.66360378182178,5.998542109788031,2.8212463027069865,59.62859423358039,57.25332063580487,-2.3367255358245447,0.9668960930589913,-17.268451382294124,0.05377141337261417,-0.6590748154201587,5.904195264826841,0.4991611544953086,3.31126986411226,60.58960869180073,59.383393287838054,4.735192283987999,-8.952078968286514,24.92600679397583,-39.237090945243835,-47.15510308742523,-31.359070539474487,6.509105159063067,-0.40008942969089817,False,0
GUIDED_NOGPS,0.17739105224609375,34.12777868185517,2.638372443779012,59.91692869833248,57.816847375877025,5.994969673884287,3.0122945445287055,59.53239388961901,57.882092870254866,-2.3990826016258224,0.9826763913626595,-17.27580920357752,0.024411196650760785,-0.38239259966283196,3.547753443917218,0.5001123632889869,3.1241551007557242,60.001352577938086,59.52662149052821,4.713316261768341,-10.064765065908432,27.609211206436157,-34.581002593040466,-63.321858644485474,-17.9742693901062,6.625201026028405,-0.8581848812383643,False,0
GUIDED_NOGPS,0.21307706832885742,28.026113045163275,2.836262127827669,59.749836003548495,58.70863353858268,6.017760601039098,3.199655423382952,59.43472229887598,58.50453372578373,-2.499753827019698,1.1417533114012548,-17.227092879322406,-0.011704994332680185,-0.012489616016844007,3.8683759916147356,0.4995730951013753,3.7696831588428417,59.735061909081026,61.714112008007135,7.843779027462006,-12.350793182849884,40.620994567871094,5.238422751426697,-60.23157238960266,138.8871431350708,6.54053860682362,-2.160468021980723,False,0
GUIDED_NOGPS,0.2452991008758545,31.040177613321,3.082100913104901,59.56432112412315,59.75663016898655,6.036753125519652,3.3829521640462445,59.335435040210335,59.119952452691436,-2.3641231321327583,0.9839781827297817,-17.088125850469325,-0.019033015157753543,0.08920925163929531,3.8544351960737147,0.49870627416735774,4.474020152873132,59.76870677813448,63.17889254704582,7.843779027462006,-12.350793182849884,40.620994567871094,5.238422751426697,-60.23157238960266,138.8871431350708,6.406628926248073,-2.160468021980723,False,0
GUIDED_NOGPS,0.2772200107574463,31.32742781172042,3.2400420690600082,59.35635203111402,60.72926884221996,6.031673995764264,3.561825865241226,59.234396047059214,59.72768000028927,-2.1294305751751272,0.8559415909828383,-16.966688502121084,0.0015451893230179654,-0.06498621029470235,3.5558775587779663,0.4979738731335359,4.588777050046819,59.32769042025346,64.02756016003326,1.3219347223639488,-12.72771805524826,36.487168073654175,-28.36679518222809,-48.84612560272217,-49.21351671218872,6.388170352676677,-3.4057737246668354,False,0
GUIDED_NOGPS,0.3112640380859375,29.37969487678794,3.36472717251859,59.11398272828648,61.70619736735355,6.020312144123712,3.735935238096923,59.13147747486719,60.32706879865947,-1.7879860034716049,0.7646313532898765,-16.810762113558862,0.01252210775795581,-0.11597364891747125,3.479001909365212,0.4972150288332595,4.588777050046819,59.32769042025346,64.02756016003326,-0.8256292901933193,-14.96758759021759,37.02605366706848,-37.27697134017944,-67.43220686912537,214.05348777770996,6.388170352676677,-3.508697204939523,False,0
GUIDED_NOGPS,0.3522064685821533,24.43136820890393,3.4686583022058115,58.833026231193294,62.73050064529173,6.012347690216412,3.904956344609001,59.026559568515516,60.91749254041484,-1.4653714095361612,0.5860833248357203,-16.683502028943185,0.023170302233166525,-0.14963023369872716,3.5125757774598143,0.4963423973154442,3.9149248671631485,58.945587091714984,64.52606042747297,-0.010922364890575409,-15.957306325435638,38.041821122169495,82.54655599594116,-27.345091104507446,-91.08035564422607,6.566822903838231,-3.450404955468049,False,0
GUIDED_NOGPS,0.3782157897949219,38.44704976487951,3.5821012912582866,58.52735250758139,63.81143543565554,5.991958780953701,4.068582336100017,58.91953052975149,61.49834596245841,-1.229864352520006,0.5539469646256929,-16.57219214358678,0.02880825752481307,-0.12699085984346417,3.350649791804664,0.4953360627724779,4.464553519880884,58.374492266712465,66.79811725458075,-0.010922364890575409,-15.957306325435638,38.041821122169495,82.54655599594116,-27.345091104507446,-91.08035564422607,6.378659957513628,-3.450404955468049,False,0
GUIDED_NOGPS,0.41204047203063965,29.56858653507226,3.6726350810830857,58.18978704049328,64.9713603718768,5.964908830359212,4.226523191679678,58.81028638461768,62.06904462774301,-1.0276928875217441,0.5316188627855097,-16.434454548784302,0.04159010140761562,-0.160816657753665,3.2584172347678173,0.49414977241480584,4.154436528001336,57.528459806349346,68.67156979630036,-0.11604137253016233,-15.755924582481384,40.42307138442993,26.930516958236694,-26.826122403144836,22.71956354379654,6.286437555319966,-3.3865563471067697,False,0
GUIDED_NOGPS,0.4454224109649658,29.961240365452063,3.744652995506025,57.85931612554301,66.14202536403941,5.929021570565472,4.378505456705094,58.69873085088126,62.62902470703095,-0.81991527795793,0.517756406895587,-16.259231168269505,0.05346855384954412,-0.18978833245993493,3.128370372731498,0.4929189995525346,3.8831468255064645,57.71339087149097,69.53792377533736,-0.11604137253016233,-15.755924582481384,40.42307138442993,26.930516958236694,-26.826122403144836,22.71956354379654,6.140414351830695,-3.3865563471067697,False,0
GUIDED_NOGPS,0.48325443267822266,26.43446693725263,3.8267079214880466,57.53691299664598,67.27046137250882,5.897341638758651,4.524271981241036,58.5847752054633,63.177742760653615,-0.6884821612027862,0.46935085624770667,-16.066645446884532,0.05807900698798714,-0.15200505395977484,3.2031936341578313,0.49174718630090425,3.8831468255064645,57.71339087149097,69.53792377533736,1.2265349738299847,-15.471044182777405,40.109044313430786,22.172728180885315,-17.986175417900085,14.541050791740417,6.140414351830695,-2.9074864518352523,False,0
GUIDED_NOGPS,0.5144035816192627,32.11073342520288,3.869829636493142,57.18420814264574,68.41912324630724,5.808465549412849,4.663581658520189,58.468338151868046,63.714675520271115,-0.5487400126006161,0.3549050602886193,-15.959194618409184,0.0771115834864668,-0.2457970341166101,2.323637901896515,0.49051220823778724,3.8831468255064645,57.71339087149097,69.53792377533736,-2.0431816577911377,-15.835168957710266,35.64821183681488,-62.449151277542114,-11.999096721410751,-113.46839666366577,6.140414351830695,-6.723531924141594,False,0
GUIDED_NOGPS,0.5775279998779297,15.843345823764052,3.8826417876703805,56.8551468029413,69.47423661478163,5.700987839498857,4.796209163403408,58.34934568761224,64.2393196706319,-0.25328748016872654,0.32777069306771556,-15.627454037968956,0.08073666322956509,-0.1973284247723526,2.6378042206266397,0.4894282694883193,3.9150583348578767,56.870394774960005,73.28874466121553,-2.0431816577911377,-15.835168957710266,35.64821183681488,-62.449151277542114,-11.999096721410751,-113.46839666366577,5.674542230927164,-6.723531924141594,False,1
GUIDED_NOGPS,0.596498966217041,52.724717476838755,3.929011583385919,56.31514339584819,71.12547900620658,5.567145438806957,4.921944690839975,58.227730971654395,64.75119163133239,-0.1405267665830753,0.26983121219470235,-15.474688319445159,0.11940201455499391,-0.42483125076673756,-0.6459068472862843,0.4871426797888958,4.499078794700539,55.45432425223257,74.12274542557074,-5.0451502203941345,-15.012411773204803,33.37852358818054,-34.185004234313965,-11.19868978857994,-52.53491401672363,5.506386134709259,-6.528682421933586,False,0
GUIDED_NOGPS,0.6146438121795654,55.117862727834215,3.9281255700028814,56.06815210873,71.60569176430155,5.480674697229627,5.040593694327854,58.10343419182411,65.24982733857661,-0.1405267665830753,0.26983121219470235,-15.474688319445159,0.11233583116969122,-0.30254097642605,2.215849510690993,0.48716312832120034,4.655145939702509,54.105933283529566,75.70559499837844,-1.11081562936306,-14.084760844707489,31.653127074241638,-12.734831869602203,-0.4372160881757736,-97.76397347450256,5.3128486221470475,-5.717169717397799,False,0
GUIDED_NOGPS,0.647273063659668,30.6518266258395,4.0189661981445655,55.66799047730217,72.68066670157224,5.383452378450537,5.151976624373942,57.97640243225133,65.73478202693578,0.0258992235590421,0.20263431703623594,-15.238717236452265,0.10597007271478064,-0.11933618006047005,2.045353354599622,0.4859648476690727,5.202629213856984,53.98599181827686,76.36213708487662,0.6424856372177601,-14.342387020587921,34.95853245258331,7.608833909034729,-16.508692502975464,-34.670910239219666,5.207103504941492,-4.749869362517308,False,0
GUIDED_NOGPS,0.680983304977417,29.66961171984975,4.055733121158949,55.220474797609704,73.77089433217104,5.279396282204996,5.255928666954333,57.84658954079568,66.20563001110801,0.11961582227396393,0.015569522934749848,-15.048095194453673,0.1270773869328009,-0.20646295239781945,1.9221881768022124,0.48470586212213,5.032239733251748,52.795375741029446,77.43437098357532,-2.5353988632559776,-14.150626957416534,32.60037899017334,-76.8650233745575,-12.463109940290451,55.65311908721924,4.771944641972124,-3.9454553589632804,False,0
GUIDED_NOGPS,0.7151882648468018,29.241437007187823,4.031429975278572,54.78249918861404,74.829854542248,5.188412116959871,5.352299481974561,57.713955996475754,66.66196446767792,0.4151670722837013,0.0026821299096993823,-14.837091867971761,0.14850979291384703,-0.30455227247857614,2.055831497833122,0.48347811685580006,5.032239733251748,52.795375741029446,77.43437098357532,-6.448402255773544,-13.837574422359467,31.638425588607788,9.80377197265625,-10.486594587564468,-61.44411563873291,4.771944641972124,-3.090651207920661,False,0
GUIDED_NOGPS,0.7476661205291748,30.79405308175177,4.018578984774004,54.32434654868479,75.90181679103009,5.036868674259538,5.440952941729875,57.5784687768984,67.10339721687615,0.48704435457091894,-0.0768036629477951,-14.726483784552574,0.15993818509657962,-0.2895396928224022,1.152446555464203,0.4821942373250583,5.133691643823325,51.85246656189945,79.74527245890218,-5.591029673814774,-13.224342465400696,28.2080739736557,2.2978637367486954,-13.143959641456604,-68.95473003387451,4.444265646115244,-6.378652621059201,False,0
GUIDED_NOGPS,0.7921159267425537,22.502596677969013,4.044259076354928,53.87516118394038,76.88511461385625,4.907591395814773,5.521766869365467,57.44010122568801,67.52955850433916,0.5769961316709886,-0.13071712083105605,-14.571228462076308,0.16526260917319466,-0.20593993031847896,1.378258764319916,0.4810552545284426,4.918258099969072,51.20072588504274,81.43296611029895,-1.9636036828160286,-12.731213867664337,23.466959595680237,-66.54383540153503,-4.82657365500927,-140.12296199798584,4.1437818199348015,-4.392122836812257,False,0
GUIDED_NOGPS,0.8254687786102295,29.987373899863442,4.055623727279657,53.4149109352366,77.90399502419322,4.7718281106010085,5.5946327773367575,57.298832919915824,67.94009678286875,0.5402086260795941,-0.19835008087934544,-14.478682813917219,0.17746073860071732,-0.19236474705663104,1.6522468525915697,0.47980282065968377,4.605196678647985,50.88240538389421,82.45315289153727,-1.9636036828160286,-12.731213867664337,23.466959595680237,-66.54383540153503,-4.82657365500927,-140.12296199798584,3.9797053822347213,-4.392122836812257,False,0
GUIDED_NOGPS,0.8511502742767334,38.94143424815241,4.084519937697843,52.89390478741687,79.19009295636717,4.657394848234237,5.659455605869625,57.15464953752924,68.33467849419172,0.598164915621268,-0.2930968642201756,-14.309179716832306,0.19359013991071686,-0.20226956988977576,0.8793148513314097,0.47799903180950015,4.605196678647985,50.88240538389421,82.45315289153727,-1.3240214437246323,-10.48387885093689,23.45069944858551,-1.4479413628578186,-12.277989089488983,-131.3755750656128,3.9797053822347213,-1.5478275876306709,False,0
GUIDED_NOGPS,0.8831136226654053,31.292135753560583,4.114014288132025,52.605541411333974,79.83716899903492,4.590537538445565,5.716153461420679,57.007542724781075,68.71298785071947,0.598164915621268,-0.2930968642201756,-14.309179716832306,0.19673514050515745,-0.16296380444274505,1.9552347354321884,0.4774317151633747,5.192724475775423,50.75240164661093,83.39424389931861,-1.3240214437246323,-10.48387885093689,23.45069944858551,-1.4479413628578186,-12.277989089488983,-131.3755750656128,3.8280851632348396,-1.5478275876306709,False,0
GUIDED_NOGPS,0.916804313659668,29.685360813067973,4.144367573803539,52.23482681251599,80.70746376516368,4.4799851208725014,5.764657355137506,56.857509963658906,69.07472661730769,0.6579319523449356,-0.3184254468184043,-14.138592327216653,0.2049874636593453,-0.14769876827596795,1.3771497725775799,0.47638320892086256,4.885386360376726,50.46776886995972,84.24106157845853,-0.8828898891806602,-9.474390000104904,19.6052223443985,3.5430938005447388,-2.0110949873924255,-135.26232242584229,3.689673883929286,-2.8235135448581765,False,0
GUIDED_NOGPS,0.9482662677764893,31.787070860174307,4.154410243573273,51.88194495392624,81.5483629743037,4.385008724347561,5.804910941318927,56.704554439314315,69.41961389301592,0.7003112484324548,-0.276736640167291,-14.028818380649854,0.2157228476524826,-0.17462686021346904,1.4340463696400996,0.47536038847668466,4.885386360376726,50.46776886995972,84.24106157845853,-2.1131055429577827,-8.988150954246521,19.553573429584503,-82.80953168869019,0.38052969612181187,-34.79166626930237,3.689673883929286,-1.970673500088759,False,0
GUIDED_NOGPS,0.9844310283660889,27.657790966040224,4.205525346961153,51.55502151529466,82.33616956101974,4.242593146925861,5.836870255875259,56.54868490749223,69.74738589286721,0.6332775307621283,-0.2592403635563629,-13.941844459306203,0.2164241550147411,-0.08370718733800381,0.930145802110329,0.47440480457815554,4.721366770110627,50.03333721373826,85.16708967685169,1.2142742052674294,-7.475563138723373,17.283564805984497,-7.098302245140076,6.386861205101013,-37.086546421051025,3.5587459866433884,-5.093642174954159,False,0
GUIDED_NOGPS,1.016247034072876,31.436610428643167,4.244866118225548,51.18926980894886,83.1727205757034,4.11632996392549,5.8605034547885575,56.38991556196019,70.05779572960776,0.5886125759018878,-0.24904299784723963,-13.866084001032423,0.22567663047731834,-0.08588464819947463,0.9121343186290143,0.47331850343480053,4.85050852616682,49.27601615671104,86.71937310272673,0.0620394479483366,-7.377355545759201,14.621904492378235,-104.05253171920776,-12.981727719306946,-109.85846519470215,3.3093181509722434,-3.1868260344065527,False,0
GUIDED_NOGPS,1.0529305934906006,27.26335768700762,4.277154575575052,50.8683544420296,83.95620585800495,3.9873004133838528,5.875790552572886,56.22826590193766,70.35061319546652,0.6387561962501248,-0.2055880536871491,-13.755902804436362,0.23271189451386382,-0.08307933343623514,0.8433483123313334,0.47230090208595354,4.783321998937367,49.032304822189374,87.4030783656881,0.005735363811254501,-6.317538768053055,16.08526110649109,6.25947117805481,-5.254735425114632,-37.502193450927734,3.2033899977554245,-3.7322740559097816,False,0
GUIDED_NOGPS,1.0915310382843018,25.91379992091736,4.282018431385274,50.57226343606254,84.71097072099754,3.8838030675411215,5.882723160734562,56.06376059952531,70.62562454391484,0.633092582046009,-0.1833108581006236,-13.708384324606936,0.24143910207558647,-0.11696747044076931,1.3023229455465444,0.4712960143802103,4.320437529704212,48.878310910738264,88.30366685572639,-0.4758118186146021,-4.584548994898796,12.49038651585579,3.2996948808431625,9.147399663925171,24.240224063396454,3.0904531932463657,-1.8369104350529946,False,0
GUIDED_NOGPS,1.122969150543213,31.811420640277895,4.2952066366672,50.230596848122936,85.59209411225596,3.7665806622097575,5.881304226232417,55.89642936713433,70.88263227142608,0.6572858591381348,-0.09719092384663691,-13.648487834454157,0.24724067330063867,-0.08611201301606315,0.8294692731549789,0.4700092107233423,4.456594882926545,48.802208505555825,88.60132369865204,-0.4758118186146021,-4.584548994898796,12.49038651585579,3.2996948808431625,9.147399663925171,24.240224063396454,3.0387266834173046,-1.8369104350529946,False,0
GUIDED_NOGPS,1.155644416809082,30.60642148277875,4.3325772355721535,49.98140652526423,86.26413442660619,3.683609187470744,5.871547769938046,55.7263068249157,71.12145489923525,0.6222858353968738,-0.06446151111758205,-13.587079311173865,0.24744792385104822,-0.024526341276553933,1.2140865194627368,0.46910241195062813,4.8015133848221865,48.77171737179786,88.86054967776235,0.5118947476148605,-3.933800384402275,12.652672827243805,-13.53069543838501,2.711016684770584,34.6307098865509,2.996278195995046,-1.0016368897769092,False,0
GUIDED_NOGPS,1.1924169063568115,27.198122077905236,4.3644482501484445,49.74199083046201,86.90223552335074,3.620830618721045,5.853478625096075,55.55343236818952,71.34192675509864,0.5499494363313844,-0.06947721784589861,-13.535712019747137,0.251311758800974,-0.023876713105096155,1.4882145821964055,0.46822147165418365,5.016974352422261,48.66254754744515,89.35192721237377,-0.37305383011698723,-3.4781627357006073,10.328380763530731,-43.931710720062256,-0.015455984976142645,-79.42031621932983,2.926653617118439,0.3343867984959307,False,0
GUIDED_NOGPS,1.2261762619018555,29.62748643761302,4.411974291841191,49.520572989864874,87.55681618905946,3.532299220311796,5.827132175784402,55.37785003487426,71.54389775505344,0.4699626917869517,-0.13924205068887824,-13.475652458827922,0.25019896017080917,0.04086131825162999,0.9936497464524181,0.4672759543092935,4.913978512338881,48.277486483009426,90.412579737582,1.0165455751121044,-2.0243342965841293,10.491150617599487,73.38176369667053,3.7842649966478348,-110.16732454299927,2.7764121761763905,-1.1613760179998782,False,0
GUIDED_NOGPS,1.2585530281066895,30.892488086557513,4.461079953947044,49.329534450767895,88.12768356224511,3.4542806871668548,5.79255409537446,55.199608372916096,71.72723318517735,0.4402349337547059,-0.11123816837012017,-13.442067564905322,0.25085076815138524,0.05842843056385473,1.1270119703613433,0.4664575876135368,5.024511221871694,48.167705627627655,90.65928096968557,1.0165455751121044,-2.0243342965841293,10.491150617599487,73.38176369667053,3.7842649966478348,-110.16732454299927,2.7828834267482097,-1.1613760179998782,False,0
GUIDED_NOGPS,1.2911431789398193,30.685463870009585,4.510576569119192,49.14359233600182,88.70771106944923,3.394600315550206,5.749800084991475,55.0187603077182,71.8918134833483,0.36820898813133474,-0.15695529252766005,-13.440514550642792,0.2512639579366555,0.07593739463038149,1.335673844166183,0.4655808863861299,5.1385558253172,48.06336775935202,90.8192032607107,0.7426543161273003,-1.0893077589571476,9.737294167280197,7.591159641742706,5.735160410404205,27.057838439941406,2.7424946181047893,0.20188694493064846,False,0
GUIDED_NOGPS,1.3289494514465332,26.455809259492874,4.506971353165596,48.98210079402472,89.21762070006966,3.348187852395078,5.698935611974716,54.835363009570024,72.0375340210039,0.3392888999684429,-0.18113085381662597,-13.416141874363246,0.25665778132360134,-0.00774622915125814,1.5164626289402237,0.46480069412728864,5.029925980957282,48.247509127123934,91.11721518451579,-2.31869425624609,-0.6333590019494295,5.983942002058029,-89.12936449050903,-7.8916288912296295,-187.7820372581482,2.6764801809683743,1.0417825005624226,False,0
GUIDED_NOGPS,1.3628208637237549,29.526123868388076,4.513931774388885,48.844794358209676,89.6829777637106,3.2675797040650094,5.640035648337746,54.64947776107658,72.16430488490128,0.36880268098059693,-0.1471857741370146,-13.395217589840913,0.25330770397175606,0.03719986371430284,1.0185557658980433,0.464075550273362,5.029925980957282,48.247509127123934,91.11721518451579,-1.5043402090668678,-0.07980057853274047,5.908581987023354,-20.681706070899963,-4.097209498286247,-14.20019418001175,2.6764801809683743,-1.5096528065858232,False,0
GUIDED_NOGPS,1.3992562294006348,27.450711415369714,4.551912151686613,48.718664667090316,90.0020556953969,3.2264732539798313,5.573184409228697,54.46116982458777,72.27205065887655,0.33273298558228853,-0.08589934048813645,-13.334280349613351,0.24840087734932872,0.10261365819977014,1.4838903804438357,0.4636012875202783,5.05820808391357,47.8535789768106,91.43025124087526,0.6696111522614956,-0.7776273880153894,2.595515549182892,8.445753157138824,-7.873827964067459,-143.35534572601318,2.6526111635138436,0.37847198768951357,False,0
GUIDED_NOGPS,1.4327943325042725,29.821708402656313,4.6069602590801475,48.6063564466507,90.45535633990274,3.1693010735248643,5.498475091390501,54.27050830962767,72.3607102056045,0.19669770870873127,-0.08952115501724149,-13.339105878261966,0.2426139269112575,0.17257450543061156,1.2171391343006164,0.46282363839855695,5.022406394430991,48.380984497344514,91.74171467865027,1.7365550622344017,1.1457153595983982,3.3952709287405014,27.10241675376892,-7.022653520107269,-79.18950319290161,2.5607852590512437,0.2680819367152386,False,0
GUIDED_NOGPS,1.462031364440918,34.208219490910274,4.638066377738462,48.5176740265199,90.8669368154102,3.136580114671985,5.4160096116211625,54.07756604032381,72.43023644835823,0.28586337372401477,-0.01613653535756669,-13.29851406402458,0.23903707156860465,0.1811301184162428,1.4347029127044277,0.46209636674125687,5.024523590456289,48.22854473137346,92.15170207917919,0.31827581115067005,1.3824493624269962,4.475583136081696,-5.866451933979988,-8.06586742401123,-12.704980373382568,2.5162342077435955,1.4537717206130698,False,0
GUIDED_NOGPS,1.4950001239776611,30.335035366612182,4.666191813350998,48.46313551276978,91.17268287069597,3.114977741204303,5.325898345234003,53.88241942283648,72.48059615276875,0.19380832524640432,0.025200836716408295,-13.312417767853788,0.2349755133694432,0.17310196965711713,1.606215076275981,0.46153642056880767,5.0520579304251605,48.16766268139531,92.25501126873813,0.31827581115067005,1.3824493624269962,4.475583136081696,-5.866451933979988,-8.06586742401123,-12.704980373382568,2.514197294123548,1.4537717206130698,False,0
GUIDED_NOGPS,1.5429043769836426,20.87777877330785,4.7640590186954945,48.418873392851744,91.56172135062107,3.0763699410763667,5.228259864517924,53.68514831278804,72.51176970858468,0.17837711364234723,0.022754455054780135,-13.27652512376537,0.2253271142159045,0.26425871811788015,1.4616122925272748,0.460759434440693,5.169286527925434,48.434911182373,92.41749910006568,4.523167759180069,2.5621628388762474,5.848166719079018,44.34366524219513,-5.6951746344566345,42.95515716075897,2.4923050980049664,0.6978033950682966,False,0
GUIDED_NOGPS,1.5664770603179932,42.428850336351225,4.753368440865036,48.394030095270274,91.94613358173956,3.0382192713796883,5.123220677197666,53.485835882692186,72.52375091143173,0.16180024452672628,-0.0017624022492748526,-13.291365417284515,0.22496249497124712,0.16064772207174732,1.3349306280566715,0.45996598382764997,5.169286527925434,48.434911182373,92.41749910006568,-2.7503814548254013,4.40262034535408,3.5889804363250732,20.545552670955658,-5.373929813504219,40.97869098186493,2.4923050980049664,0.8533587122595157,False,0
GUIDED_NOGPS,1.603442907333374,27.05636010605015,4.739083250084268,48.40832522476279,92.19923634073203,3.011253633031948,5.01091496489404,53.28456848938328,72.51654674457252,0.10486976402102374,0.02658789872644979,-13.267379500466724,0.21825419356831097,0.145963774916142,1.5151354649344086,0.45938712845413854,5.233757818087975,48.38210569870883,92.56516975382885,-2.7503814548254013,4.40262034535408,3.5889804363250732,20.545552670955658,-5.373929813504219,40.97869098186493,2.45324191171426,0.8533587122595157,False,0
GUIDED_NOGPS,1.6370747089385986,29.73903301970405,4.759045753300659,48.426547933364226,92.47274533787234,2.953283905424303,4.891484321584222,53.081435541445614,72.49017716066605,0.09658912014773532,-0.0004398001495253523,-13.273809269796644,0.20186397291808417,0.3089924226229938,0.9076628573983117,0.4587444834428722,5.3443351280880345,49.062594295599645,92.82083446401107,-0.9382854215800762,4.312538355588913,-1.3774202205240726,-14.005996286869049,-21.47303819656372,81.04636073112488,2.4248277255231625,-0.6745711469367329,False,0
GUIDED_NOGPS,1.6695225238800049,30.82347234980709,4.813917626263836,48.48885912447728,92.62293107343751,2.91871081147349,4.7650774920619705,52.87652936664273,72.44467486352738,0.11221243082219902,-0.014802940922121697,-13.284867346062894,0.19318713263823262,0.29276420641603407,1.3931791507558722,0.45829075810217573,5.428826201427103,49.1039515242263,92.8669206869933,1.5619906596839428,4.305761680006981,1.2865913100540638,9.540492296218872,-11.923618614673615,-76.53827667236328,2.417996908506769,-0.12613267651580234,False,0
GUIDED_NOGPS,1.697105884552002,36.256247568829146,4.834029789978081,48.516099098896554,92.93654528111858,2.8744341699310243,4.631850110397912,52.66994507934669,72.3800850898873,0.14104991638481598,0.023553160300848502,-13.300760342487868,0.18207323702350453,0.346098632280923,1.1022881210875046,0.4574875526377294,5.298445414777654,49.18883419602552,92.91086303523092,-0.7031848654150963,4.282793775200844,1.888314075767994,-62.459009885787964,-14.857512712478638,-6.989634037017822,2.4077332070853608,0.1414406512301083,False,0
GUIDED_NOGPS,1.733158826828003,27.7417571151722,4.865911382210849,48.603623277575274,93.08194254908004,2.8562979537079607,4.49196443839977,52.4617804479674,72.29646539115193,0.18101964979920168,0.14819183965741634,-13.30021307358062,0.1715709096032242,0.33726968851800543,1.501682650632816,0.45697264337362903,5.490741403813946,49.44894670831466,92.93638709955533,-0.030612200498580933,5.209235846996307,1.0056805796921253,-56.322163343429565,-16.211561858654022,-40.379488468170166,2.404269024755421,0.9052856523113607,False,0
GUIDED_NOGPS,1.7711615562438965,26.316541075047528,4.910464176598916,48.68331449433611,93.28614574807773,2.834760024017219,4.34558910407264,52.25213576238188,72.19388541516228,0.05008342930617631,0.08087082715512613,-13.32690545285703,0.16090509956215995,0.3383887114949353,1.484486048053606,0.45629189082361477,5.7648405937701925,49.5508817386517,93.10429548437224,-0.030612200498580933,5.209235846996307,1.0056805796921253,-56.322163343429565,-16.211561858654022,-40.379488468170166,2.4196379949395292,0.9052856523113607,False,0
GUIDED_NOGPS,1.8014392852783203,33.02991691932118,5.002182701348533,48.802468064912894,93.45095634246752,2.8266257607234304,4.192898840079239,52.04111370136359,72.07242668795402,0.06959962764242993,0.15582644368475676,-13.327565419885584,0.1376986163324368,0.5534743055130925,1.5885650496962176,0.45566754384062724,5.935934118892578,50.38713695113752,93.10647638883898,2.7343515306711197,5.299109593033791,-0.626229215413332,-38.99328410625458,-17.95109510421753,-30.79925775527954,2.448706822701677,1.5867985126006479,False,0
GUIDED_NOGPS,1.833014726638794,31.681186787621517,5.085181639380383,48.93529633081134,93.61084270663136,2.820374977777811,4.034074222200156,51.828819200011694,71.93218239551696,0.05995540053437193,0.21646507657954153,-13.355577733219098,0.12469077229101481,0.5492672969687032,1.6127587971465907,0.45501271497824264,5.935934118892578,50.38713695113752,93.10647638883898,2.5315942242741585,5.624866113066673,4.120034351944923,53.99514436721802,-18.326003849506378,157.892107963562,2.448706822701677,1.2648788904132533,False,0
GUIDED_NOGPS,1.8669724464416504,29.451072913155826,5.16047559290119,49.080686993443926,93.76052659209506,2.810176646468486,3.8693014077941195,51.61535931718037,71.77325716555478,-0.008668577273803995,0.2957692824546489,-13.369063087961642,0.11186563970706295,0.5302867588118898,1.5661530947620252,0.45433567767612215,6.1926593955535365,50.50177319219356,93.12227207468655,1.288862433284521,6.539882719516754,1.8282346427440643,1.7794374376535416,-22.512145340442657,-1.1262714862823486,2.4617060687969623,1.054588891812785,False,0
GUIDED_NOGPS,1.9010157585144043,29.379283292706845,5.231196138572855,49.235298674429686,93.91998051338315,2.799724455133623,3.698771874258232,51.40084310290811,71.59576684924463,-0.010340266073164616,0.26711156960542076,-13.404974515070277,0.09657172584296851,0.5517284025710518,1.5566947269414406,0.45360115264294504,6.094710162813653,50.76218262803776,93.14520929385553,1.288862433284521,6.539882719516754,1.8282346427440643,1.7794374376535416,-22.512145340442657,-1.1262714862823486,2.4571252209981242,1.054588891812785,False,0
GUIDED_NOGPS,1.9343376159667969,30.01548612403212,5.280959804327448,49.41877627598793,94.09879666588023,2.793833735609271,3.5226821574882488,51.18538146584701,71.39983830299673,-0.09419919426846554,0.36486987940084475,-13.442618248907156,0.0810621860122237,0.550538369800991,1.605404140293496,0.4527913098233904,6.135590572688775,50.9968418226881,93.15108170128329,-0.07681604474782944,7.797191292047501,4.3144140392541885,-18.16118210554123,-15.037518739700317,37.74530291557312,2.4773126757148973,1.1799484762919066,False,0
GUIDED_NOGPS,1.9680898189544678,29.633347463614527,5.280897772842759,49.59185840617141,94.24643159649638,2.8084690131141343,3.3412335903388195,50.96908704069206,71.18560917021401,-0.04059288145444359,0.5003688797028502,-13.445912107634394,0.06920060088672575,0.4773386483163158,1.8574948897269008,0.4520049412984872,6.135590572688775,50.9968418226881,93.15108170128329,-3.2459530979394913,7.151970267295837,3.394283726811409,-12.519609928131104,-13.668885827064514,19.438406825065613,2.4773126757148973,2.445589359684439,False,0
GUIDED_NOGPS,2.0028529167175293,28.76870104393871,5.288119463517529,49.778232798729604,94.37582900485474,2.756422586748783,3.154632041083743,50.75207405561044,70.95322766305179,-0.09396632750645043,0.5143020387228531,-13.477022765530156,0.052289378938516096,0.5062275250898233,1.0548152734660659,0.4512162624097985,6.163552362054808,51.137183670110815,93.13029356953065,-2.7155540883541107,7.692261785268784,2.4150587618350983,77.25631594657898,-9.97517928481102,109.26065444946289,2.5025483960797423,-2.1643797993844363,False,0
GUIDED_NOGPS,2.039081573486328,27.606455519574546,5.3009423164302225,49.982146822144706,94.48995858461065,2.706699407564345,2.9630876518762372,50.53445819967085,70.70285234417733,-0.09755404445055829,0.5368753336820692,-13.49216614869372,0.03504724995371406,0.5256762230361055,1.0751027059736966,0.4504183010921732,6.3585037532026085,51.5959413124254,93.14719312613533,-2.7155540883541107,7.692261785268784,2.4150587618350983,77.25631594657898,-9.97517928481102,109.26065444946289,2.534264700079601,-2.1643797993844363,False,0
GUIDED_NOGPS,2.0745677947998047,28.18203441533572,5.323805909982388,50.22362223589791,94.62455760870651,2.7201440048141516,2.766814577209174,50.31635649027274,70.4346519085295,-0.1186828611220225,0.4989726929869644,-13.527346745561164,0.014169970030679008,0.5755636575778017,1.784040992316623,0.44954421359785596,6.030868112045152,52.37627040237557,93.14139316432428,-0.9331310167908669,8.29404592514038,5.114886537194252,-0.5476854741573334,-17.708761990070343,44.88653540611267,2.6160897543204555,1.7351626010911956,False,0
GUIDED_NOGPS,2.1022560596466064,36.12167143201626,5.362227519751324,50.46899026133631,94.73557111764855,2.7076559846676207,2.5660307223753476,50.09788714057568,70.14880496507843,-0.10099064345927963,0.5759443892605124,-13.522625377297393,-0.012047633111130763,0.7385210727106205,1.4449196306857421,0.4486958087478427,6.030868112045152,52.37627040237557,93.14139316432428,0.13168823206797242,8.477145433425903,2.713829278945923,18.84194314479828,-14.362569153308868,103.32217216491699,2.6160897543204555,0.02199480995302778,False,0
GUIDED_NOGPS,2.153742790222168,19.425898394260653,5.380029146567914,50.701813144631444,94.71525958197908,2.7060940673392877,2.360957481927728,49.879169426928584,69.84549981858504,-0.11599085945453834,0.5329465341662838,-13.54649859599388,-0.02307652216122635,0.5856881879283896,1.607489428618799,0.44805293506778326,6.1929646936240115,52.55492228326217,93.15573333479193,-1.4145360328257084,8.503875881433487,-1.8821123987436295,-24.191443622112274,-19.326576590538025,-94.67633962631226,2.6245740798209924,0.44410247501137273,False,0
GUIDED_NOGPS,2.1709702014923096,58.049436709386335,5.404049048433405,50.985676937813146,94.78740027323528,2.6872537019044316,2.1518194781397098,49.660323556299055,69.52493425136083,-0.13547007871973868,0.4887544631843609,-13.553572110653073,-0.049696668392942,0.7229683180358588,1.3615497357069208,0.4472067953578445,6.512913472228363,53.10406888836134,93.12507759115212,-2.0574621856212616,8.955281972885132,-0.10055768070742488,-32.63574838638306,-26.697710156440735,-0.13566650450229645,2.63617918875606,-0.47620329689337487,False,0
GUIDED_NOGPS,2.2039146423339844,30.37897816986079,5.42674471544084,51.25974689894418,94.78478319819578,2.696578847052833,1.9388442994653967,49.44147053370267,69.18731530502735,-0.05981970388547082,0.6004782153157866,-13.534923132898001,-0.06904072796738622,0.7044360422563998,1.7310832046673805,0.4464692763212272,6.3003531543218685,53.63604797680789,93.09904177263553,-1.2188540771603584,8.810620754957199,-0.43295989744365215,14.733001589775085,-22.959652543067932,-52.82472372055054,2.6817480530388993,0.9758008454676896,False,0
GUIDED_NOGPS,2.244382381439209,24.70129151182855,5.471669326372058,51.56247911811423,94.80610849135886,2.6784029713331896,1.7222622389997901,49.22273202963227,68.8328590622759,-0.09053490450045948,0.512028012616062,-13.557050384487903,-0.09107832082434958,0.7229098607305843,1.4091106678492367,0.4456413898794175,6.089798546957404,53.842073929680375,93.14246552573425,0.9038180112838745,9.883107990026474,-0.10464820079505444,-68.03504228591919,-18.229591846466064,22.607633471488953,2.710583035508554,-0.8895087691022775,False,0
GUIDED_NOGPS,2.2733242511749268,34.55913517789167,5.483959288530074,51.8785648847165,94.8043620316433,2.6577562528684693,1.5023060329391302,49.00423024748726,68.46179042862718,-0.0518496735368593,0.6466382345523195,-13.534956430070205,-0.11472961851987651,0.7654440224510287,1.3268264386397026,0.4448377618489516,6.408808082867748,54.32808654246908,93.09806947423179,-2.1251050755381584,9.706180542707443,-1.2670665979385376,-64.2008900642395,-25.005680322647095,-46.39679789543152,2.7222715678759624,-1.1018874182065943,False,0
GUIDED_NOGPS,2.30794095993042,28.898133539110244,5.489043500872837,52.211824279295186,94.77743368148855,2.638247151257513,1.2792105990410814,48.78608779100287,68.07434291419088,-0.06930592950811938,0.6073294820226912,-13.49137811561823,-0.13576629005574886,0.7333081598630744,1.353697373779336,0.44404400622802015,6.2933572652972956,55.22958439337738,93.03078841462607,-2.1251050755381584,9.706180542707443,-1.2670665979385376,-64.2008900642395,-25.005680322647095,-46.39679789543152,2.70694200151704,-1.1018874182065943,False,0
GUIDED_NOGPS,2.342531204223633,28.909686179635106,5.47095868342579,52.56436894665635,94.78086593863067,2.6197700565389477,1.05321277508503,48.568427531679525,67.67075841542527,-0.0769238849493579,0.6702492380177015,-13.454413985603768,-0.1570147248782395,0.6845180410375259,1.3719418686018916,0.4431497941471274,6.177717499083927,55.414926478441174,93.02899398910569,-3.2990913838148117,10.26948019862175,0.11054961942136288,-25.188356637954712,-17.871850728988647,29.301103949546814,2.713430639605309,-0.9963331411646884,False,0
GUIDED_NOGPS,2.373288631439209,32.5177656316626,5.442555269796969,52.956583724516086,94.75124706131727,2.606694722234177,0.8245510573323205,48.35137247621208,67.25128699689697,-0.11329426875370556,0.6865609570553085,-13.43804799857877,-0.18525180782495615,0.7537081489139117,1.3935997332633272,0.44230257073776025,6.256749593747579,55.594384206283806,93.01971927794531,-4.104701429605484,12.023643404245377,-2.53843292593956,-28.2382071018219,-32.442933320999146,-83.70587825775146,2.72197550829996,-0.5996556044076232,False,0
GUIDED_NOGPS,2.408531904220581,28.38246559027731,5.423675501964284,53.30401752135787,94.69019536838417,2.597417092093167,0.5934653389865125,48.135045633919134,66.81618667304039,-0.11468079715521816,0.7697446036572773,-13.38848302331928,-0.20819614240699238,0.7405330554726633,1.4529257916184153,0.4414760523070405,6.492272316754878,55.54070991201778,93.03183705827239,-4.104701429605484,12.023643404245377,-2.53843292593956,-28.2382071018219,-32.442933320999146,-83.70587825775146,2.7285542499977247,-0.5996556044076232,False,0
GUIDED_NOGPS,2.4440507888793945,28.159329703455544,5.405696566629851,53.67768443897282,94.72004443932501,2.574256309430726,0.36019664865365253,47.919569884172326,66.3657231899175,-0.16075410500580362,0.686270140407054,-13.350934058357135,-0.235083556586701,0.7958428744722381,1.257036801717255,0.4404423370307571,6.28466187655993,55.88556786416587,92.95532060881813,-3.33501435816288,12.372918426990509,3.160500153899193,-20.53152322769165,-17.058612406253815,73.07189702987671,2.711988074686531,-1.4174588064472855,False,0
GUIDED_NOGPS,2.4728832244873047,34.68631585911463,5.294428953041535,54.051172326657245,94.72491835988875,2.5723784214574947,0.12498688880249165,47.705067843825624,65.90016980697744,-0.22599030898565323,0.6853434224749009,-13.294032606155406,-0.25262533300580436,0.6355708616833683,1.5200624744351865,0.43942734675034345,5.941616538229613,56.42907977361571,92.88001064989933,-8.608277887105942,11.854134500026703,2.097090147435665,-25.90504288673401,-17.988221347332,15.809306502342224,2.6566452883338485,0.11133731283479113,False,0
GUIDED_NOGPS,2.506798267364502,29.48979462697481,5.1961383531556695,54.451436308675476,94.71176414742362,2.531893286264915,-0.11192142577522479,47.49166173464462,65.419807078816,-0.2684119735903677,0.7439102135344975,-13.212039600263987,-0.27920108647995784,0.6590745952187091,1.0433496059850846,0.43841317030238675,6.196796850178844,57.20519503349304,92.83406697622367,-8.442460745573044,12.177008390426636,1.153635699301958,100.96509456634521,-6.625562906265259,93.75439882278442,2.614530628261642,-2.4033768696230564,False,0
GUIDED_NOGPS,2.5403952598571777,29.769427863697985,5.100549820705805,54.882134751665305,94.74559881346907,2.488771384411032,-0.3502854295044824,47.27947325073587,64.92492263693555,-0.31838644003494115,0.6666244352808346,-13.16056985599971,-0.30700272029731995,0.6832179774866932,0.9743557350631754,0.43727643161631224,6.014762979470742,57.71079848266335,92.79346582981235,-7.570171356201172,12.721629440784454,4.178448021411896,-88.04822564125061,-28.037074208259583,-72.23235964775085,2.561299053935095,-2.38849132610066,False,0
GUIDED_NOGPS,2.5826003551483154,23.69475860666388,5.038187161809316,55.3533849358318,94.72279158599473,2.4233522112888113,-0.5898621675668203,47.06862342597611,64.4158109715043,-0.2917662046316396,0.5792036701550779,-13.054863287083654,-0.3358870508152456,0.689237120102182,0.838815959992334,0.43620069282915713,5.820289827349381,59.02571703747759,92.71503034959977,-4.859813302755356,12.955479323863983,0.9510272182524204,-30.074036121368408,-25.291451811790466,50.05703568458557,2.413384876739357,-3.5379760914772516,False,0
GUIDED_NOGPS,2.6078813076019287,39.56890566037736,4.963056424559282,55.87866185688856,94.72218711826093,2.3510381794167667,-0.8304088574400013,46.859232501441596,63.89277321311621,-0.3115823976828449,0.6219642828973543,-13.001717585151784,-0.37216726589585947,0.8448412321917229,0.26518196980363573,0.4350935438789596,5.820289827349381,59.02571703747759,92.71503034959977,-4.859813302755356,12.955479323863983,0.9510272182524204,-30.074036121368408,-25.291451811790466,50.05703568458557,2.413384876739357,-3.5379760914772516,False,0
GUIDED_NOGPS,2.6487791538238525,24.452590830651555,4.892147803066804,56.263381937922,94.65666361593749,2.307731543858469,-1.0716831504377737,46.65141979283744,63.35611691455048,-0.23197131354276299,0.6784802562978016,-12.881623222749097,-0.3923625824535735,0.7148289774943489,0.9617257837103995,0.4340487118740586,5.418667335974272,59.403700760652995,92.69303981056021,-5.401463434100151,12.747640907764435,0.18865764141082764,-13.4203240275383,-22.259828448295593,-199.90426301956177,2.3250298594587333,-2.4710905112809165,False,0
GUIDED_NOGPS,2.6818299293518066,30.25931376792774,4.771629665769173,56.76995797892035,94.65207482963226,2.2413962634442424,-1.3134433932496485,46.44530355792679,62.80615583253131,-0.21890169320509067,0.6329232146989339,-12.828006237764496,-0.42130244749912166,0.6945111373716788,0.5428767939663485,0.43287367358510526,5.418667335974272,59.403700760652995,92.69303981056021,-6.761784851551056,12.440349161624908,1.2751517817378044,-52.6524543762207,-26.115623116493225,66.20528101921082,2.3250298594587333,-2.955201726490138,False,0
GUIDED_NOGPS,2.716280460357666,29.0315489292191,4.66783989550302,57.23404084368073,94.62258579075251,2.1787461464296474,-1.5554488894806007,46.24100086396028,62.24320970948729,-0.1459605022329378,0.630690063005457,-12.720137060202486,-0.4507807205315621,0.7269434071775137,0.5775388192705363,0.43171780024798256,5.444889044496662,60.273321405717894,92.64366526814231,-6.761784851551056,12.440349161624908,1.2751517817378044,-52.6524543762207,-26.115623116493225,66.20528101921082,2.20084728942306,-2.955201726490138,False,0
GUIDED_NOGPS,2.753699541091919,26.72756933115824,4.692932162850192,57.73904450498555,94.57255542683369,2.0808795364811528,-1.7974601611908227,46.038627455105186,61.66760405531125,-0.17495204057785027,0.5696994619250051,-12.605111551937593,-0.4880095544575124,0.9348815059663499,0.20293934338872144,0.43056809322265777,5.5067823846162725,60.79271643572467,92.59953281104609,1.494911778718233,14.26474004983902,0.02985461615025997,29.884743690490723,-19.283895194530487,34.098345041275024,2.123644162431195,-5.074052765527739,False,0
GUIDED_NOGPS,2.7888243198394775,28.475342168151204,4.580190856263595,58.26277859391673,94.47657201179294,2.0338102610361646,-2.039239210435528,45.83829761987479,61.079669929119866,-0.25023545282678866,0.4758545303588811,-12.50986371018812,-0.511951306959024,0.7430766250637454,0.6705302314845104,0.42949269123954326,5.459481068883591,60.89507877964869,92.62199023021374,-7.094509154558182,14.26297128200531,-3.3077463507652283,-64.85143899917603,-16.868627071380615,-62.062740325927734,2.104494199690522,-1.5069950092250421,False,0
GUIDED_NOGPS,2.8214452266693115,30.659444602823037,4.478153970199495,58.76056933877027,94.38776491871019,1.9578662728210217,-2.280549780804612,45.640124058557674,60.47974372101313,-0.2396174435143278,0.5078023666756455,-12.411954655983278,-0.5426427545055483,0.7786822607004085,0.2642181135308206,0.42837994956935666,5.104964271563265,61.63091646926205,92.58431528270593,-6.116084009408951,14.365603029727936,-2.0677201449871063,-7.335978001356125,-21.77240401506424,-34.41863656044006,2.00332862845115,-3.6215592507848133,False,0
GUIDED_NOGPS,2.8721728324890137,19.714244083570303,4.308554515417007,59.33739140407535,94.3240360902396,1.8787831957232797,-2.5211576189624045,45.44421775064702,59.86816693383414,-0.2580918779195958,0.39920347945035345,-12.303977049168193,-0.5714369198400396,0.6182810517023719,0.5035274138900379,0.42714445872610507,3.453612025934952,63.99565845408057,93.177243351503,-6.116084009408951,14.365603029727936,-2.0677201449871063,-7.335978001356125,-21.77240401506424,-34.41863656044006,1.867178766527719,-3.6215592507848133,False,0
GUIDED_NOGPS,2.8919599056243896,50.55997685547934,4.09832354674573,59.92364748717692,94.1663427020045,1.8090080287912198,-2.760830736187496,45.25068782226986,59.24528596492866,-0.23286734898450404,0.50183731701355,-12.214434122922972,-0.6038422587825995,0.6251904060465135,-0.3150079579372811,0.426158405750762,3.2746298628404777,64.22514281378226,93.20578655209125,-8.44225287437439,15.184719860553741,-8.307035267353058,-25.674989819526672,-23.906084895133972,-55.567193031311035,1.823499380320094,-2.959409976792512,False,0
GUIDED_NOGPS,2.9211299419403076,34.290442048120866,3.9426980205206963,60.34562561133301,94.09600032679971,1.7782999892571032,-2.9993396699123833,45.05964141361645,58.61145188790476,-0.2729060246208245,0.4232477196803553,-12.129992494214106,-0.6334499414123919,0.7136007818498111,0.6456625370190289,0.4249486601715217,3.2746298628404777,64.22514281378226,93.20578655209125,-7.901418954133987,15.267716348171234,-2.1072888746857643,-86.07619404792786,-26.591452956199646,143.96411180496216,1.823499380320094,-1.955843238409957,False,0
GUIDED_NOGPS,2.9561116695404053,28.58985999209303,3.770827635200622,60.82476333880647,94.01151396343563,1.7109372626103219,-3.236457745263304,44.87118354636945,57.96702023439243,-0.23995900633368134,0.4045068545366039,-11.975919648237896,-0.6610748142943366,0.6658640546663317,0.21936357512064897,0.42373251353411534,4.037372538865673,63.697112721241176,92.39744130135205,-9.700501710176468,15.151384472846985,-1.3684156350791454,-43.75243782997131,-20.682086050510406,-58.86955261230469,1.6298960783636542,-2.9740492066179653,False,0
GUIDED_NOGPS,2.989269733428955,30.16226322829323,3.5887315816867575,61.372361720956775,93.92701564378567,1.6332782419771565,-3.47196133659991,44.68541699113336,57.31235077580325,-0.22984157518218837,0.34719174900326505,-11.876259504284594,-0.6923948399273514,0.6453987670706008,0.08734810525927661,0.42249023447830586,4.057150199551144,64.5746554321658,92.3120968482057,-9.700501710176468,15.151384472846985,-1.3684156350791454,-43.75243782997131,-20.682086050510406,-58.86955261230469,1.509418068705967,-2.9740492066179653,False,0
GUIDED_NOGPS,3.0272891521453857,26.307462649121266,3.414903863980018,61.918022761523815,93.86557652224306,1.5542461926426028,-3.705630129055005,44.502442134863706,56.64780730508994,-0.20434373195859032,0.2303678732742496,-11.763797878279394,-0.7247361834353186,0.6597986470405607,0.042136695319725304,0.42117831651964505,4.057150199551144,64.5746554321658,92.3120968482057,-9.11230519413948,15.488304197788239,0.11422676034271717,40.02204239368439,-22.433961927890778,130.29756546020508,1.509418068705967,-3.1033192878403306,False,0
GUIDED_NOGPS,3.0553150177001953,35.68314574240916,3.240265352889738,62.44902144576144,93.79109286698827,1.4739686403163221,-3.9372473800743917,44.322356848296394,55.97375741850607,-0.256228837101769,0.3077875872686681,-11.659727993443203,-0.7559722372279707,0.6757599439123921,-0.16667494564321328,0.4198867548733759,3.638086770604061,65.09377082440338,92.27067114445319,-8.683469146490097,15.645478665828705,-0.726939644664526,4.510906338691711,-23.750384151935577,138.0659580230713,1.3975518358590873,-3.239448159649858,False,0
GUIDED_NOGPS,3.0898373126983643,28.97058945419884,3.0862662539220946,62.985954138166385,93.70875345136275,1.3829515966069286,-4.166600180956499,44.145256353376965,55.29057229736564,-0.14664538877979025,0.21002975772092014,-11.53101137098702,-0.7879677582850986,0.7021388572026424,-0.2278634803194951,0.41857926632422704,3.4778910649244636,66.28100892008347,92.17602501970971,-7.694382965564728,15.585637092590332,-1.1091386899352074,-21.93724364042282,-28.232541680336,119.87531185150146,1.1907523948892653,-3.8081160495667796,False,0
GUIDED_NOGPS,3.123760461807251,29.486892149350055,2.8370160627434116,63.80586323214664,93.74378192686154,1.2577952761196551,-4.393479718392164,43.97123309068992,54.59862648980277,-0.1732203741798405,0.23708691178769098,-11.49839294883198,-0.8263018990490456,0.5296155072092719,-0.7622160643429524,0.41702196411875797,2.3219684809421617,72.27175132827546,93.89600232136152,-10.048718005418777,15.78439474105835,1.854788139462471,-33.70448350906372,-16.999545693397522,73.50426912307739,0.8697168057738293,-4.857292870235976,False,0
GUIDED_NOGPS,3.157832384109497,29.353582151180287,2.6266550210213566,64.49253177328458,93.68971852341899,1.156711483321867,-4.617681536004418,43.800376586888035,53.8982976925312,-0.16696995067648546,0.20455584134883092,-11.322634252240979,-0.8652658951337868,0.5967286185863565,-0.4829490457884994,0.41562007462314704,1.707963931652865,70.05745237719213,93.04672779220564,-6.618805229663849,16.39731228351593,-1.7658710479736328,26.982516050338745,-21.306346356868744,1.8404826521873474,0.9663129523731907,-3.95143561646845,False,0
GUIDED_NOGPS,3.1901164054870605,30.97736320061448,2.407194372938463,65.11819791524391,93.59607308903529,1.0577385007416635,-4.839005795888215,43.63277332212157,53.18996653260402,-0.15092508926418505,0.1965179893561953,-11.172027727268551,-0.8998428878268958,0.5774021438064079,-0.5643367012130843,0.4142839694205873,1.9532899061752091,68.71687752769385,92.4604511601753,-8.065494149923325,16.712279617786407,-2.8062045574188232,-47.11048603057861,-29.366713762283325,-34.841594099998474,0.8412289448664071,-3.492652450248928,False,0
GUIDED_NOGPS,3.2237424850463867,29.74093087897439,2.195550385405958,65.71996820142064,93.50105346358389,0.9621941690206848,-5.057257540150082,43.46850659746771,52.47401634917333,-0.15278322088354584,0.16298288110934342,-11.053565780077497,-0.9341659272119829,0.5877229288342454,-0.5584285784799727,0.4129316637786382,1.8428581408848297,69.05400914902252,92.39335857888324,-8.065494149923325,16.712279617786407,-2.8062045574188232,-47.11048603057861,-29.366713762283325,-34.841594099998474,0.7819937700946551,-3.492652450248928,False,0
GUIDED_NOGPS,3.2583844661712646,28.871080762956282,2.0382976754788276,66.36625857440148,93.41508532890633,0.857081260380009,-5.272246952448071,43.30765640235967,51.750832975249736,-0.17029059655187526,0.16038041895300986,-10.908015302638171,-0.9715423755839417,0.6826470018857375,-0.7047337367925823,0.4115422665759792,2.170514497084471,69.98530697998132,92.43209233932215,-5.5748336017131805,17.9806649684906,-2.3918239399790764,-11.363127082586288,-9.796962887048721,-23.11617136001587,0.6739870482342247,-3.9504909159288726,False,0
GUIDED_NOGPS,3.307828187942505,20.22608754358131,1.851387902831456,67.0058811238855,93.40025681484042,0.758797272647493,-5.483789619531225,43.15029928201617,51.02080451946213,-0.04593408938539356,0.20826997015343693,-10.727735020816624,-1.0084462080078054,0.6158601205777436,-0.33724102559827135,0.4099436852044323,2.1416549174286583,70.37692277678097,92.38954415720544,-7.917827367782593,17.906229197978973,2.410386875271797,-15.294040739536285,-33.081838488578796,92.99567937850952,0.6039982757320724,-3.506998195383482,False,0
GUIDED_NOGPS,3.3291993141174316,46.808294087449504,1.5728263475883293,67.95559456539516,93.37577433436999,0.6070049506799118,-5.691706792779608,42.99650820487064,50.28432114781725,-0.12394781639419163,0.1818590160151728,-10.602685356171092,-1.0508916326573792,0.3525363166911688,-2.9352108700942945,0.408456244743071,1.843639817423596,72.5426532741613,92.26033542911011,-7.917827367782593,17.906229197978973,2.410386875271797,-15.294040739536285,-33.081838488578796,92.99567937850952,0.24088537967585333,-3.506998195383482,False,0
GUIDED_NOGPS,3.3592851161956787,33.24248452521538,1.4812610548836265,68.40677424511615,93.27970994112702,0.5403072579206136,-5.8958256497437835,42.846352430000536,49.54177486545916,-0.06252659323091149,0.247662339139545,-10.517182486819932,-1.0837522659719665,0.8000968612241112,-0.4928436812613448,0.40704902415202104,1.843639817423596,72.5426532741613,92.26033542911011,-7.43279755115509,18.763232231140137,-3.3452846109867096,14.233511686325073,-17.206524312496185,43.34072470664978,0.24088537967585333,-3.6951114235225653,False,0
GUIDED_NOGPS,3.3980724811553955,25.78555400495509,1.2977102351953507,69.15381245069558,93.20951313200759,0.43272781394027154,-6.095979555684823,42.6998973745566,48.79355929842919,-0.11948279366770735,0.20762622482416324,-10.381604085568826,-1.1227153489629098,0.6229082918468433,-0.8637534729775806,0.40555687738314217,1.4023266938447343,74.89604539836519,92.94394203521895,-7.43279755115509,18.763232231140137,-3.3452846109867096,14.233511686325073,-17.206524312496185,43.34072470664978,0.09631939941521359,-3.6951114235225653,False,0
GUIDED_NOGPS,3.4260315895080566,35.77628223171865,1.1299719439834792,69.90714705699037,93.1207292844532,0.3376798716335846,-6.292008325113854,42.55720448119223,48.04006947542534,-0.1220793861302229,0.221620482020726,-10.180370490920971,-1.1623158366689639,0.6621058589189199,-1.1615330373822412,0.40412695209053606,2.2826649348442762,74.88219104018062,92.82379924005005,-9.011741727590561,20.18849104642868,-4.287745803594589,-8.102685958147049,-3.872085362672806,-58.747076988220215,0.014149640766790025,-2.7227678277136653,False,0
GUIDED_NOGPS,3.466301441192627,24.833355042688485,1.0067961462193242,70.53496077971647,93.01147306944596,0.23814404107715187,-6.4837584833318145,42.41833108549268,47.28170160956188,-0.22809592824072122,0.1663052878928786,-10.03394916436247,-1.1989182550842812,0.7098049009580103,-0.8310064598143563,0.40267916816732885,2.20368598041314,74.6124666394629,92.71148425147625,-7.9970583319664,19.668899476528168,-5.783606320619583,-57.25775361061096,-25.717395544052124,112.81664371490479,-0.01959190243523056,-4.1129717247733675,False,0
GUIDED_NOGPS,3.4941070079803467,35.976052013106205,0.8584373069344531,71.28264444958957,92.90101496062394,0.11904371351364648,-6.67108352796935,42.28333028340447,46.518852880129145,-0.17472301579724328,0.25579207852085845,-9.859959486766503,-1.2376012925474422,0.6984271254112161,-1.6263280700384486,0.40127026574526664,2.4252314584836374,75.60624845767381,92.38080640185157,-8.359549194574356,19.99032348394394,-4.608910158276558,42.159244418144226,-22.55236655473709,30.48747479915619,-0.24150083546551776,-3.920555477457176,False,0
GUIDED_NOGPS,3.5290138721466064,28.65216173567325,0.7241189417880429,71.93515252476907,92.73295665430697,0.035802192608106895,-6.85384419052643,42.15225079866456,45.75192121435313,-0.2035522837885151,0.24622591834057958,-9.752232889403416,-1.2740136861631093,0.7066878285585138,-0.9570027669148021,0.39994462248389023,1.8494287113072012,76.14613401307636,91.9898247376131,-8.471637964248657,20.693087577819824,-8.185967803001404,-103.52287292480469,-38.51429224014282,-93.54008436203003,-0.40652128632224693,-2.446971832661132,False,0
GUIDED_NOGPS,3.5615806579589844,30.707929744411988,0.4280023563408486,72.73281326649139,92.54981465270258,-0.06945798251072313,-7.031908697912047,42.02513685022976,44.98130506915494,-0.28456734532900485,0.2743158717150504,-9.552324351454544,-1.316242605624108,0.4031213668131176,-1.2994811400070976,0.3986422887460717,-1.22346141646665,77.4408557690301,91.8281192826821,-8.471637964248657,20.693087577819824,-8.185967803001404,-103.52287292480469,-38.51429224014282,-93.54008436203003,-0.5587171772623261,-2.446971832661132,False,0
GUIDED_NOGPS,3.6028199195861816,24.25280297905066,0.2613679765883334,73.51354756368926,92.36229651827885,-0.2106158653545525,-7.2051530339841845,41.902028019705924,44.207403212910606,-0.34332511488109735,0.2572784450781296,-9.371509607330443,-1.358401404923751,0.6288863420272903,-1.495862192795737,0.39731069009916986,1.4993945487832798,77.91437573914499,91.84864882984698,-8.228462934494019,20.787426829338074,-8.740373700857162,-19.414862990379333,-32.038164138793945,-65.77296257019043,-0.6281037809691821,-5.12567192018011,False,0
GUIDED_NOGPS,3.6449241638183594,23.751919722744468,0.1487863266249449,74.23528078130546,92.14729070265658,-0.34245281697399255,-7.373461201089227,41.78295911877733,43.430614507210635,-0.4516794493175912,0.19951510838050865,-9.296907719894625,-1.398301125084829,0.707432072760274,-1.462544325547757,0.3960236293443704,2.519382080020217,76.67244676457454,91.66450679504595,-7.8044019639492035,21.951808035373688,-10.199543088674545,10.867194831371307,-15.319567918777466,-34.50681269168854,-0.7460916167869396,-4.387619607715104,False,0
GUIDED_NOGPS,3.687211513519287,23.651067716997197,0.04033239491105025,74.96470999891231,91.90937884982885,-0.47310110975570135,-7.53672548160204,41.667960056635906,42.651337688619776,-0.4468624050445868,0.2653042908788648,-8.951506761114372,-1.4388662380370485,0.7141981708184267,-1.521922745353415,0.39477456257813986,1.3572535431332446,80.49939356221051,90.87584854779018,-7.159742712974548,21.326647698879242,-11.053978651762009,30.12244701385498,-25.67824423313141,-57.72163271903992,-1.204736985176297,-4.6561766694644815,False,0
