Mode,Time,Freq,time2delay,actualDelay,North-Desired,East-Desired,Down-Desired,Roll-UAV,Pitch-UAV,Yaw-UAV,Roll-Control,Pitch-Control,Yaw-Control,Thrust-Control,North-Pos,East-Pos,Down-Pos,Yaw-Ang,North-Vel,East-Vel,Down-Vel,Yaw-Vel,North-Acc,East-Acc,Down-Acc,North-Avg,East-Avg,Down-Avg,Yaw-Avg,North-Dif,East-Dif,Down-Dif,Yaw-Dif,North-One,East-One,Down-One,Yaw-One,North-Two,East-Two,Down-Two,Yaw-Two,Landing-State,Q-Size,Kalman-Time,Kalman-Dt
STABILIZE,0.03473162651062012,28.80327429799683,0.03279569943745931,0.033205509185791016,0.0,0.0,0.0,-0.05439205137283787,-1.040489246931763,172.76120660203674,-0.10101164068948769,0.0839667499441393,0.0038193637774926272,0.4,0.024262094308814524,0.029167479619000257,0.644824835637753,0.019033406931206438,-0.06042364984750748,0.07087023695930839,1.2180081568658352,0.22279860961127387,-5.714694038033485,0.26981590781360865,15.937040746212006,0.0,0.0,0.0,0.0,0.0,0.0,0.0,0.0,0.0,0.0,0.0,0.0,0.0,0.0,0.0,0.0,False,0,3.5650124549865723,0.02993212890625
STABILIZE,0.06805729866027832,30.004750050075828,0.032169373830159505,0.03235507011413574,0.0,0.0,0.0,-0.05281699907806235,-1.0410018312846314,172.75783248858676,-0.05513105755473179,0.049669061914453395,0.003661762050935874,0.4,0.027436707898169058,0.030424694331934024,0.6372875848510622,0.01818454561693602,0.24895037058740854,0.13532167067751288,0.9887294843792915,-0.005666295586973488,2.6349371299147606,0.2476006979122758,13.737775385379791,0.0,0.0,0.0,0.0,0.0,0.0,0.0,0.0,0.0,0.0,0.0,0.0,0.0,0.0,0.0,0.0,False,0,3.5940754413604736,0.034919921875
STABILIZE,0.10149717330932617,29.906124107836774,0.032395394643147786,0.03251528739929199,0.0,0.0,0.0,-0.052378906475829504,-1.0410317133622502,172.75616592242926,-0.03659868447281393,0.038770501152039366,0.003341435428525672,0.4,0.030753783118411218,0.028990120672562524,0.6347416834775359,0.016527666262892923,0.2524708863347769,-0.029746635118499398,1.0860840789973736,-0.057433886791873626,7.68895223736763,0.2967650769278407,17.13840663433075,0.0,0.0,0.0,0.0,0.0,0.0,0.0,0.0,0.0,0.0,0.0,0.0,0.0,0.0,0.0,0.0,False,0,3.6230499744415283,0.034919921875
STABILIZE,0.13489437103271484,29.938998536707235,0.03230431874593099,0.03244376182556152,0.0,0.0,0.0,-0.05195874312016794,-1.0413984091433153,172.7518765636305,-0.029334698315142644,0.03278718539256727,0.0033784691640620134,0.4,0.03325197622696232,0.029702001865995042,0.6328053935090612,0.016657095696298044,0.20318487659096718,0.09517586440779269,1.1189034208655357,0.045784465553887974,5.432949960231781,0.2605268033221364,15.509043633937836,0.0,0.0,0.0,0.0,0.0,0.0,0.0,0.0,0.0,0.0,0.0,0.0,0.0,0.0,0.0,0.0,False,0,3.653325080871582,0.02993212890625
STABILIZE,0.1683669090270996,29.87630084978168,0.03246429761250814,0.032585859298706055,0.0,0.0,0.0,-0.05112343232901653,-1.0417137717838993,172.74992312952787,-0.024295717079871014,0.026732838668798727,0.0030289529600099757,0.4,0.03253134016883956,0.02952046666417667,0.629423439292607,0.014859824318358219,0.026443577371537685,0.05219056038185954,1.1975853703916073,-0.06477851460439263,1.0752828791737556,0.22057886235415936,12.85507082939148,0.0,0.0,0.0,0.0,0.0,0.0,0.0,0.0,0.0,0.0,0.0,0.0,0.0,0.0,0.0,0.0,False,0,3.6820719242095947,0.034919921875
STABILIZE,0.20179343223571777,29.916789706060673,0.032427342732747395,0.0325465202331543,0.0,0.0,0.0,-0.0498286312336231,-1.0427629528734368,172.7454561858107,-0.005505801403104896,0.010294248002548306,0.003328533163491337,0.4,0.03199587903932069,0.030082036998202433,0.6255893727877029,0.0163032331825236,0.02632181567605585,0.0860883214045316,0.9827411733567715,0.1215537417086096,2.4779459461569786,0.3057731781154871,16.491959989070892,0.0,0.0,0.0,0.0,0.0,0.0,0.0,0.0,0.0,0.0,0.0,0.0,0.0,0.0,0.0,0.0,False,0,3.710707664489746,0.029931884765625
STABILIZE,0.23525214195251465,29.88588040814,0.03243830998738607,0.032564640045166016,0.0,0.0,0.0,-0.04920281515092068,-1.0424917730190462,172.74322954414126,-0.0038545604092601582,0.007311085023995741,0.003286139087475201,0.4,0.03088031660112568,0.02905657267301786,0.6218706603668728,0.016037608768305733,-0.02017669175984338,0.11889149900525808,0.9146161377429962,-0.0650922764193901,-0.34078394528478384,0.21820180118083954,12.31355220079422,0.0,0.0,0.0,0.0,0.0,0.0,0.0,0.0,0.0,0.0,0.0,0.0,0.0,0.0,0.0,0.0,False,0,3.7680506706237793,0.03492041015625
STABILIZE,0.2687838077545166,29.823828891606702,0.03243759473164876,0.03258323669433594,0.0,0.0,0.0,-0.04895484726753749,-1.0425575135898075,172.74135807230869,-0.00535089490539061,0.004178705426064019,0.002937890447302916,0.4,0.029700534242419384,0.02971537146160962,0.6218340822141947,0.014248653025179052,-0.011261506006121635,0.09182820795103908,1.183608453720808,-0.07079228939528391,-2.1377619355916977,0.3798356046900153,18.362650275230408,0.0,0.0,0.0,0.0,0.0,0.0,0.0,0.0,0.0,0.0,0.0,0.0,0.0,0.0,0.0,0.0,False,0,3.7996323108673096,0.029931640625
STABILIZE,0.3024637699127197,29.69208551606966,0.03234151204427083,0.03263092041015625,0.0,0.0,0.0,-0.04955483669744079,-1.0425862217286628,172.73639935497124,-0.00530459484357372,0.0014926600014050244,0.0025858520932276973,0.4,0.028400738669087943,0.03021556816270875,0.6189875583792135,0.012446596360856385,-0.011261506006121635,0.09182820795103908,1.183608453720808,-0.07079228939528391,-2.1377619355916977,0.3798356046900153,18.362650275230408,0.0,0.0,0.0,0.0,0.0,0.0,0.0,0.0,0.0,0.0,0.0,0.0,0.0,0.0,0.0,0.0,False,0,3.8282861709594727,0.029931640625
STABILIZE,0.3422720432281494,25.119353196586314,0.032285483678181966,0.038857221603393555,0.0,0.0,0.0,-0.05049911035019505,-1.042669678102584,172.73410441141013,-0.005305608334465978,0.0025762148608376814,0.0020908601949928126,0.4,0.029231774876881722,0.03002388210843298,0.6148784589213447,0.009932055972450973,0.11496350634843111,0.05010702880099416,1.0889546945691109,-0.11645367147187281,-1.5483754687011242,0.2796785905957222,13.382230699062347,0.0,0.0,0.0,0.0,0.0,0.0,0.0,0.0,0.0,0.0,0.0,0.0,0.0,0.0,0.0,0.0,False,0,3.86023211479187,0.034920166015625
STABILIZE,0.37570786476135254,29.908683157797157,0.032375367482503255,0.03250741958618164,0.0,0.0,0.0,-0.04987873707448749,-1.0416022476013578,172.72906373180265,-0.005267764719825309,0.002368760682860023,0.002149596297197606,0.4,0.028529670458155267,0.030410955241190512,0.6113575219176925,0.010191651597491793,0.01437155733583495,0.0747932877857238,0.9364433586597443,0.05030535709334884,-0.24146782234311104,0.3182352753356099,14.364475011825562,0.0,0.0,0.0,0.0,0.0,0.0,0.0,0.0,0.0,0.0,0.0,0.0,0.0,0.0,0.0,0.0,False,0,3.88647723197937,0.0349208984375
STABILIZE,0.40906763076782227,29.97494407798352,0.032381327946980794,0.03249859809875488,0.0,0.0,0.0,-0.04986080782791621,-1.0419480259280898,172.72687807126826,-0.007739668243705572,0.0045151930174919825,0.0018270896715307712,0.4,0.030238171391460074,0.03258764241635283,0.6109002608734583,0.00855053882545468,0.13780875597149134,0.18864021403715014,0.9734050370752811,-0.1354928504637098,5.814242735505104,2.435591258108616,17.43968576192856,0.0,0.0,0.0,0.0,0.0,0.0,0.0,0.0,0.0,0.0,0.0,0.0,0.0,0.0,0.0,0.0,False,0,3.9439659118652344,0.02993212890625
STABILIZE,0.4426431655883789,29.785917693427546,0.032473119099934895,0.032677650451660156,0.0,0.0,0.0,-0.05019020437281065,-1.0420366049438883,172.72339467479154,-0.009021419170180395,0.006307211914280871,0.0012842284344615844,0.4,0.03146435332839108,0.034666942590504735,0.6051717548761341,0.005816732051674666,0.13780875597149134,0.18864021403715014,0.9734050370752811,-0.1354928504637098,5.814242735505104,2.435591258108616,17.43968576192856,0.0,0.0,0.0,0.0,0.0,0.0,0.0,0.0,0.0,0.0,0.0,0.0,0.0,0.0,0.0,0.0,False,0,3.972290515899658,0.02993212890625
STABILIZE,0.4761018753051758,29.887584083912895,0.03241017659505208,0.03253173828125,0.0,0.0,0.0,-0.050707697924144896,-1.042465519479424,172.72093580669033,-0.007376627153734333,0.0062725169498033155,0.0007591375127331955,0.4,0.0303627053052852,0.03303523686183901,0.6052498242700011,0.0031806349937421657,-0.0031925708753988147,-0.03527163353282958,1.3064052909612656,-0.1331479611442798,1.0151275433599949,0.3223050385713577,13.133659958839417,0.0,0.0,0.0,0.0,0.0,0.0,0.0,0.0,0.0,0.0,0.0,0.0,0.0,0.0,0.0,0.0,False,0,4.001057147979736,0.034919921875
STABILIZE,0.5096113681793213,29.86715278568987,0.032401355107625325,0.03253507614135742,0.0,0.0,0.0,-0.050528245375873394,-1.0434954906619207,172.7196244103697,-0.006322161388700429,0.005057582097156176,0.00021854033772915322,0.4,0.029419483478702792,0.031597277796499026,0.6083925188698239,0.0004760567369579004,-0.0031925708753988147,-0.03527163353282958,1.3064052909612656,-0.1331479611442798,1.0151275433599949,0.3223050385713577,13.133659958839417,0.0,0.0,0.0,0.0,0.0,0.0,0.0,0.0,0.0,0.0,0.0,0.0,0.0,0.0,0.0,0.0,False,0,4.029900789260864,0.034919921875
STABILIZE,0.5429897308349609,29.932802375039252,0.03233388264973958,0.032448530197143555,0.0,0.0,0.0,-0.050825945574150745,-1.0440817129917783,172.71619565540635,-0.005461494693935845,0.005190174926077594,0.00030768654436579197,0.4,0.028999180978076404,0.03083736076621243,0.6123799163682446,0.0009187157058563461,0.029498967342078686,0.008090299525065348,1.3567857444286346,0.05562510729133013,1.006969902664423,-1.356662716716528,21.724233031272888,0.0,0.0,0.0,0.0,0.0,0.0,0.0,0.0,0.0,0.0,0.0,0.0,0.0,0.0,0.0,0.0,False,0,4.058560132980347,0.06485205078125
STABILIZE,0.5764384269714355,29.895466111661523,0.032407315572102864,0.03255033493041992,0.0,0.0,0.0,-0.05062306761146021,-1.0447468026622082,172.71358652314342,-0.003439232579973656,0.007150732231609076,-0.00016912418464526546,0.4,0.03275355773657052,0.03009785033042032,0.6330682667675869,-0.0014604498259882222,0.22194536868482828,-0.03606909012887627,1.3156400062143803,-0.07460176737389902,4.740719124674797,0.5063740536570549,18.66256296634674,0.0,0.0,0.0,0.0,0.0,0.0,0.0,0.0,0.0,0.0,0.0,0.0,0.0,0.0,0.0,0.0,False,0,4.087289810180664,0.034920166015625
STABILIZE,0.610037088394165,29.763935310355595,0.03242972691853841,0.03274679183959961,0.0,0.0,0.0,-0.051382285826389436,-1.044893865172775,172.70961135304645,-0.0010525144708275645,0.009750684880589429,-0.0003917655825421846,0.4,0.03690993054697935,0.02882554263358909,0.6329478131643136,-0.002565036983367048,0.12498366413637996,0.08850229205563664,1.1251148767769337,0.04708919176791908,1.2937162071466446,0.6353484932333231,20.048081874847412,0.0,0.0,0.0,0.0,0.0,0.0,0.0,0.0,0.0,0.0,0.0,0.0,0.0,0.0,0.0,0.0,False,0,4.144575834274292,0.06485205078125
STABILIZE,0.6436593532562256,29.744094516108444,0.032468589146931966,0.03261899948120117,0.0,0.0,0.0,-0.05119344176800916,-1.0447566210591401,172.70701588116185,-0.002902901630032344,0.009286556395521142,-0.00037795804911076994,0.4,0.035432788032972735,0.02975927294916787,0.643822405294676,-0.0024876651151921995,-0.08929877658374608,0.07443295326083899,0.8668204769492149,0.04865047696264879,-3.654145449399948,-1.4966818504035473,11.69823557138443,0.0,0.0,0.0,0.0,0.0,0.0,0.0,0.0,0.0,0.0,0.0,0.0,0.0,0.0,0.0,0.0,False,0,4.173260927200317,0.0349208984375
STABILIZE,0.677081823348999,29.918710321706257,0.032306702931722005,0.03244638442993164,0.0,0.0,0.0,-0.04997633407442462,-1.04476547896072,172.7050487866809,-0.004043623219294303,0.00741295171914639,-0.00021384370317788882,0.4,0.032362356147192774,0.029979112978608256,0.6350792756209326,-0.0016615342252373092,-0.08929877658374608,0.07443295326083899,0.8668204769492149,0.04865047696264879,-3.654145449399948,-1.4966818504035473,11.69823557138443,0.0,0.0,0.0,0.0,0.0,0.0,0.0,0.0,0.0,0.0,0.0,0.0,0.0,0.0,0.0,0.0,False,0,4.201860189437866,0.0349208984375
STABILIZE,0.7105209827423096,29.9054844137695,0.03234604199727376,0.03248953819274902,0.0,0.0,0.0,-0.04999324946479099,-1.0451983421993696,172.7010599562056,-0.0023709262984099163,0.0072435165405262455,-0.0005124015368064042,0.4,0.03179732680943844,0.027305001232041652,0.6325519248847878,-0.0031438047781403716,0.039142530295066535,-0.07632857887074351,1.17292869836092,-0.07191666926675759,0.49903462640941143,0.4920542240142822,13.460326194763184,0.0,0.0,0.0,0.0,0.0,0.0,0.0,0.0,0.0,0.0,0.0,0.0,0.0,0.0,0.0,0.0,False,0,4.23074197769165,0.0348876953125
STABILIZE,0.744006872177124,29.863750284802915,0.0323670228322347,0.032499074935913086,0.0,0.0,0.0,-0.050526271024316435,-1.0451114707308635,172.6989016164279,-0.004235932983278829,0.0028927082928236164,-0.0007719353839892842,0.4,0.02947625484443073,0.028973285199580673,0.6266191706187659,-0.004426667599192475,-0.05348554695956409,0.14846839476376772,0.9830609895288944,-0.06303578249951462,1.4026499353349209,0.5407065153121948,14.644572138786316,0.0,0.0,0.0,0.0,0.0,0.0,0.0,0.0,0.0,0.0,0.0,0.0,0.0,0.0,0.0,0.0,False,0,4.259538650512695,0.029931884765625
STABILIZE,0.7779474258422852,29.46162329224177,0.03233459790547689,0.033045291900634766,0.0,0.0,0.0,-0.05022547589657142,-1.0459377101770233,172.69436637081898,-0.006319663509752641,-0.0017085189610700168,-0.0010051835696974877,0.4,0.027128672842074084,0.030503592022312193,0.6182548903389955,-0.0055739532773340815,-0.05348554695956409,0.14846839476376772,0.9830609895288944,-0.06303578249951462,1.4026499353349209,0.5407065153121948,14.644572138786316,0.0,0.0,0.0,0.0,0.0,0.0,0.0,0.0,0.0,0.0,0.0,0.0,0.0,0.0,0.0,0.0,False,0,4.2880425453186035,0.029931884765625
STABILIZE,0.8117055892944336,29.622673757512835,0.03243974049886068,0.032745361328125,0.0,0.0,0.0,-0.050914204424832,-1.046227032721397,172.69197580460948,-0.006013732825660592,-0.0010123927879730154,-0.0008048033970683171,0.4,0.026775652533983504,0.03086211341846106,0.6159845567510943,-0.00455671724956111,0.04932594019919634,0.08686606306582689,1.2802734039723873,0.05207666393494983,0.47009349800646305,-1.3871131464838982,17.11590737104416,0.0,0.0,0.0,0.0,0.0,0.0,0.0,0.0,0.0,0.0,0.0,0.0,0.0,0.0,0.0,0.0,False,1,4.3168745040893555,0.06983984375
STABILIZE,0.8454239368438721,29.65828271614541,0.03229883511861165,0.03272676467895508,0.0,0.0,0.0,-0.05143537987501571,-1.0460210598292388,172.690268257317,-0.004721638986964521,-0.0006239310384367318,-0.00067274995543799,0.4,0.02475269739708456,0.029430767314518567,0.6266410959466123,-0.0038833487169265563,0.03311058389954269,0.04163837875239551,1.0353118181228638,0.002066225605421416,-0.2461642026901245,0.6111129187047482,17.521508038043976,0.0,0.0,0.0,0.0,0.0,0.0,0.0,0.0,0.0,0.0,0.0,0.0,0.0,0.0,0.0,0.0,False,0,4.375417470932007,0.034920166015625
STABILIZE,0.8788275718688965,29.93707531547993,0.03232529958089193,0.03244328498840332,0.0,0.0,0.0,-0.051933663519309295,-1.0466332155336011,172.68532320035789,-0.005421725834601114,-0.0018165145724738784,-0.0004207235137498054,0.4,0.02282641990195964,0.02811961223098475,0.625097055361781,-0.0026144736789420185,-0.0376701500499621,-0.004792470281245187,1.224710326641798,0.06214669730886259,0.9570910595357418,0.6475511472672224,19.513748586177826,0.0,0.0,0.0,0.0,0.0,0.0,0.0,0.0,0.0,0.0,0.0,0.0,0.0,0.0,0.0,0.0,False,0,4.404094219207764,0.0349208984375
STABILIZE,0.9123525619506836,29.829131433529383,0.0323665459950765,0.03256416320800781,0.0,0.0,0.0,-0.05201722661493617,-1.0470023659138992,172.68336976625528,-0.0045420896337435525,-0.0008887950025769109,-0.000141590750269875,0.4,0.022079454950617,0.028368798108127594,0.6254258521101878,-0.0012147389564007838,0.02097088290611282,0.07480393396690488,1.3072865083813667,0.06920687842494097,-0.9891603142023087,0.7343544159084558,21.322043240070343,0.0,0.0,0.0,0.0,0.0,0.0,0.0,0.0,0.0,0.0,0.0,0.0,0.0,0.0,0.0,0.0,False,0,4.432708501815796,0.02993115234375
STABILIZE,0.9459190368652344,29.792053187106674,0.03235486348470052,0.032575130462646484,0.0,0.0,0.0,-0.05089045884529563,-1.0460901087728793,172.6806103698306,-0.0036858136792164505,5.009159267866709e-05,0.00013208225754781687,0.4,0.02135580179610836,0.02851512560131938,0.6230707845879178,0.00015311256124964654,0.02097088290611282,0.07480393396690488,1.3072865083813667,0.06920687842494097,-0.9891603142023087,0.7343544159084558,21.322043240070343,0.0,0.0,0.0,0.0,0.0,0.0,0.0,0.0,0.0,0.0,0.0,0.0,0.0,0.0,0.0,0.0,False,0,4.461438179016113,0.02993115234375
STABILIZE,0.979311466217041,29.946266269696775,0.0323360284169515,0.03245711326599121,0.0,0.0,0.0,-0.05241972752829091,-1.0462976824906243,172.67638931292353,-0.004733708261442847,0.00205721463369396,-0.0012041852579211562,0.4,0.02351242725937411,0.030064634296611124,0.6208849944601402,-0.006506469171135599,0.17468729056417942,0.15025734901428223,1.2928328476846218,-0.3634371405007288,10.535058379173279,0.7212698459625244,20.125508308410645,0.0,0.0,0.0,0.0,0.0,0.0,0.0,0.0,0.0,0.0,0.0,0.0,0.0,0.0,0.0,0.0,False,0,4.490167140960693,0.039908935546875
STABILIZE,1.0128443241119385,29.821284341049996,0.03238657315572103,0.032499074935913086,0.0,0.0,0.0,-0.05208286046399176,-1.046582522723355,172.67454516184762,-0.007800541917477829,0.005780546355345577,-0.0026112421092950064,0.4,0.0264329567699889,0.03265346373924546,0.6260599277171449,-0.01349664238464929,0.08074655197560787,0.0884891371242702,1.1292282491922379,-0.006150043401434311,-2.2692982107400894,0.5101680289953947,17.83149242401123,0.0,0.0,0.0,0.0,0.0,0.0,0.0,0.0,0.0,0.0,0.0,0.0,0.0,0.0,0.0,0.0,False,0,4.547694683074951,0.059864013671875
STABILIZE,1.0464015007019043,29.80073181995808,0.03227690060933431,0.03248476982116699,0.0,0.0,0.0,-0.052510280895646466,-1.0459177532180424,172.66981867094196,-0.009509408439901201,0.005900792400584234,-0.002773672054312104,0.4,0.025011359189473198,0.03366982491256378,0.6348293726217439,-0.014260972014956916,-0.047529005678370595,0.06588773103430867,0.9446528740227222,-0.005140817918025466,-3.019872307777405,0.2329690381884575,10.744466632604599,0.0,0.0,0.0,0.0,0.0,0.0,0.0,0.0,0.0,0.0,0.0,0.0,0.0,0.0,0.0,0.0,False,0,4.5762248039245605,0.0399091796875
STABILIZE,1.079723596572876,30.008614151820847,0.03224805196126302,0.03238701820373535,0.0,0.0,0.0,-0.05106735007262838,-1.04521274962965,172.66670410468043,-0.007091252519273334,0.006910476613505185,-0.0030115860205929155,0.4,0.025631660066150013,0.030892447460343832,0.6329375716771639,-0.015398993834335238,0.08296130690723658,-0.08230173261836171,1.086536142975092,-0.06546221387226826,0.6194961257278919,0.13845611829310656,8.114621788263321,0.0,0.0,0.0,0.0,0.0,0.0,0.0,0.0,0.0,0.0,0.0,0.0,0.0,0.0,0.0,0.0,False,0,4.6055145263671875,0.029930908203125
STABILIZE,1.1132023334503174,29.869492454832255,0.032408984502156575,0.032582759857177734,0.0,0.0,0.0,-0.051368838891460974,-1.0455551128617968,172.6641222931742,-0.006850185062390941,0.006452286246361329,-0.0029468265462671665,0.4,0.024475109017990607,0.030695829494774875,0.6200666980553631,-0.015024895012034583,0.0018835809896700084,0.06275454070419073,0.8165209554135799,-0.007317603875583158,2.1278141066432,0.2692105947062373,11.761580407619476,0.0,0.0,0.0,0.0,0.0,0.0,0.0,0.0,0.0,0.0,0.0,0.0,0.0,0.0,0.0,0.0,False,0,4.638598442077637,0.029931640625
STABILIZE,1.1468355655670166,29.733973245617143,0.03242686589558919,0.03256678581237793,0.0,0.0,0.0,-0.05169626108479846,-1.045670799190864,172.65984659475376,-0.005216560294330307,0.004127607665126459,-0.0024228605588555705,0.4,0.02335277676855591,0.029924631638324827,0.6090980898013151,-0.012363656019497862,0.00017680285964161158,0.03103050112258643,0.8673224598169327,0.11425991342804256,-2.03738734126091,0.28147553093731403,11.484888195991516,0.0,0.0,0.0,0.0,0.0,0.0,0.0,0.0,0.0,0.0,0.0,0.0,0.0,0.0,0.0,0.0,False,0,4.667668581008911,0.03492041015625
STABILIZE,1.1801276206970215,30.03590584562062,0.032245667775472005,0.03237199783325195,0.0,0.0,0.0,-0.0520325945405687,-1.0463655574955013,172.65768825497602,-0.0028831101645379656,0.0031574294757029985,-0.002652665235696581,0.4,0.02450201807004534,0.02913728425010238,0.6052251278249889,-0.013467664573307666,0.11409805156290531,0.02107155160047114,1.0620024986565113,-0.07654387563549661,2.6146015152335167,0.32974639907479286,13.255575299263,0.0,0.0,0.0,0.0,0.0,0.0,0.0,0.0,0.0,0.0,0.0,0.0,0.0,0.0,0.0,0.0,False,0,4.696676969528198,0.0349208984375
STABILIZE,1.2135319709777832,29.935365992919948,0.03240683873494466,0.03253650665283203,0.0,0.0,0.0,-0.05212458865095231,-1.0457753864625299,172.65285248104365,-0.0017864546419358095,0.0012219232858488337,-0.002858313632972246,0.4,0.02098200470712369,0.028593581467630337,0.6005598125284011,-0.014447583343911679,-0.13603830011561513,0.03303404664620757,1.0054202750325203,-0.07104035733026627,-3.524157777428627,0.41652536019682884,17.107300460338593,0.0,0.0,0.0,0.0,0.0,0.0,0.0,0.0,0.0,0.0,0.0,0.0,0.0,0.0,0.0,0.0,False,0,4.724565267562866,0.034919921875
STABILIZE,1.247023344039917,29.860135976933755,0.032425912221272786,0.032541751861572266,0.0,0.0,0.0,-0.05102103285231923,-1.0465700362837784,172.65087172618436,-0.003693669772600415,-0.0023017536049014546,-0.003632621263305845,0.4,0.01716250267879528,0.028674829945362936,0.593818048271673,-0.01825810015616576,0.031195904011838138,0.09342737030237913,1.1050892062485218,-0.17500560153393935,-0.6769649684429169,0.4230538383126259,15.328013896942139,0.0,0.0,0.0,0.0,0.0,0.0,0.0,0.0,0.0,0.0,0.0,0.0,0.0,0.0,0.0,0.0,False,0,4.78191876411438,0.02993212890625
STABILIZE,1.280526876449585,29.847598986649967,0.03239634831746419,0.032581329345703125,0.0,0.0,0.0,-0.050258506264510776,-1.0462882909805153,172.6486724052716,-0.0030692106905571897,-0.0044140982244924385,-0.0033270863029465966,0.4,0.013636479353611113,0.027734014819129613,0.5899972336443973,-0.016674545425185462,-0.14648829819634557,0.014636122796218842,1.156848482787609,0.05691977498459133,1.6854558140039444,0.3496089484542608,13.67948055267334,0.0,0.0,0.0,0.0,0.0,0.0,0.0,0.0,0.0,0.0,0.0,0.0,0.0,0.0,0.0,0.0,False,0,4.810862302780151,0.034919921875
STABILIZE,1.3161413669586182,28.077706818759957,0.03240016301472982,0.03473329544067383,0.0,0.0,0.0,-0.04994522469718934,-1.0458779460217857,172.64333119734067,-0.005020961507499459,-0.001936303470629153,-0.003052742563953644,0.4,0.015864598644709217,0.02957417416423853,0.5850861080540902,-0.015248472084934649,0.1703828340396285,0.16077965265139937,0.9221330285072327,0.05758922690474514,8.059500902891159,0.4143186379224062,15.973126888275146,0.0,0.0,0.0,0.0,0.0,0.0,0.0,0.0,0.0,0.0,0.0,0.0,0.0,0.0,0.0,0.0,False,0,4.839380979537964,0.034919921875
STABILIZE,1.349937915802002,29.590072453032516,0.03243902524312337,0.032582998275756836,0.0,0.0,0.0,-0.04983225977161967,-1.046122872336554,172.6405854612943,-0.005139001708082689,-0.0026519397410673306,-0.003219373264598407,0.4,0.015904693882215843,0.029065010095940133,0.5813741760832253,-0.016027806403234694,0.04647602036129683,0.029384891968220472,0.9795363061130047,-0.06625642346648059,-3.1993038952350616,0.36228829994797707,14.475995302200317,0.0,0.0,0.0,0.0,0.0,0.0,0.0,0.0,0.0,0.0,0.0,0.0,0.0,0.0,0.0,0.0,False,0,4.867939472198486,0.029931884765625
STABILIZE,1.3830819129943848,30.168554761956138,0.032109769185384114,0.03223848342895508,0.0,0.0,0.0,-0.049983431067859095,-1.0461054766985118,172.63600923455041,-0.005087613239052076,0.00020182733545116608,-0.002501955360863298,0.4,0.016551917816285885,0.02854956985690887,0.5825380990100202,-0.012399366781438655,0.08053629426285625,0.03614403249230236,1.3927272520959377,0.17595002192903905,0.37106689997017384,0.44239950366318226,17.48492568731308,0.0,0.0,0.0,0.0,0.0,0.0,0.0,0.0,0.0,0.0,0.0,0.0,0.0,0.0,0.0,0.0,False,0,4.896702289581299,0.034920166015625
STABILIZE,1.4165852069854736,29.85206009836089,0.03242662747701009,0.03254413604736328,0.0,0.0,0.0,-0.05045156583026942,-1.0463006706983862,172.6333044796391,-0.004879324226026753,-0.0026900723486467386,-0.002612876310480712,0.4,0.00993661675890746,0.028342139626993678,0.5846497217535631,-0.012910802584783158,-0.33520699944347143,0.04475445603020489,1.2736608274281025,-0.05294314413429602,-7.3312461376190186,0.405467813834548,19.00886446237564,0.0,0.0,0.0,0.0,0.0,0.0,0.0,0.0,0.0,0.0,0.0,0.0,0.0,0.0,0.0,0.0,False,0,4.92558741569519,0.034921142578125
STABILIZE,1.4501368999481201,29.801367040400166,0.032338651021321614,0.03263425827026367,0.0,0.0,0.0,-0.04936332459641598,-1.04745315839912,172.62957519635225,-0.006031458161060979,-0.003991784570414411,-0.002635258758127955,0.4,0.005493333116560313,0.02897999817666448,0.5829632498639682,-0.01297909442527353,0.163178367074579,0.10399018647149205,0.918449554592371,0.0017043456413297442,3.709283471107483,0.18160727340728045,11.340843141078949,0.0,0.0,0.0,0.0,0.0,0.0,0.0,0.0,0.0,0.0,0.0,0.0,0.0,0.0,0.0,0.0,False,0,4.982863664627075,0.029931884765625
STABILIZE,1.4835903644561768,29.891844123264633,0.032425673802693684,0.03256487846374512,0.0,0.0,0.0,-0.05016565838048092,-1.046658188412754,172.6278539886814,-0.0035689803468905543,-0.003047277290006289,-0.0023365886216853904,0.4,0.00832696557053864,0.027340358156317007,0.5778372107280509,-0.011447433102316995,0.1945803640410304,-0.03135873994324356,1.0002903640270233,0.060931857451525906,6.5543584525585175,-1.8143825232982635,9.396135061979294,0.0,0.0,0.0,0.0,0.0,0.0,0.0,0.0,0.0,0.0,0.0,0.0,0.0,0.0,0.0,0.0,False,0,5.01219367980957,0.034919921875
STABILIZE,1.5170950889587402,29.847811390306212,0.03243449529012044,0.03256845474243164,0.0,0.0,0.0,-0.05055081701664617,-1.0468420699118155,172.6253541394452,-0.0035559000920819686,-0.001854079825232144,-0.0024531911988853196,0.4,0.009812404960576417,0.0269001101379698,0.5763106301854833,-0.011990333026794213,0.11905787978321314,0.02940874546766281,1.0294021107256413,-0.055469393652488375,0.6487984210252762,0.32559491228312254,17.312543094158173,0.0,0.0,0.0,0.0,0.0,0.0,0.0,0.0,0.0,0.0,0.0,0.0,0.0,0.0,0.0,0.0,False,0,5.040933132171631,0.034919921875
STABILIZE,1.5505647659301758,29.87821627012395,0.032378466924031575,0.032500267028808594,0.0,0.0,0.0,-0.04849375613770873,-1.0470972415103388,172.62046372399945,-0.0029981238323718395,-8.867125257220486e-05,-0.002807742335535152,0.4,0.012485778281954693,0.02578682920569839,0.5763300696498285,-0.013717208072795231,0.18553587142378092,-0.009903922909870744,1.1159706860780716,-0.12369920818057374,5.911795049905777,0.08389590075239539,8.971012383699417,0.0,0.0,0.0,0.0,0.0,0.0,0.0,0.0,0.0,0.0,0.0,0.0,0.0,0.0,0.0,0.0,False,0,5.072123765945435,0.02993212890625
STABILIZE,1.58406662940979,29.84972315925815,0.03233841260274251,0.03249335289001465,0.0,0.0,0.0,-0.04895345988536233,-1.0465286282619353,172.61784093135816,-0.0030282771842929956,0.004863006642674191,-0.0023173751666824803,0.4,0.013210740095369943,0.025642173092552845,0.5720039178320298,-0.011227792900691598,0.07323287427425385,0.051841523963958025,1.0163564234972,0.11867899246018793,-1.124367956072092,0.1169550116173923,10.941316932439804,0.0,0.0,0.0,0.0,0.0,0.0,0.0,0.0,0.0,0.0,0.0,0.0,0.0,0.0,0.0,0.0,False,0,5.100884675979614,0.034919921875
STABILIZE,1.6173930168151855,30.004750050075828,0.03231862386067708,0.03243446350097656,0.0,0.0,0.0,-0.049665720549747716,-1.0463244696387755,172.61363353482943,-0.0026031318875158423,0.008418782474391916,-0.0018386736187573911,0.4,0.013993293454277689,0.02561760714368225,0.570713435954213,-0.008804860291951691,0.07323287427425385,0.051841523963958025,1.0163564234972,0.11867899246018793,-1.124367956072092,0.1169550116173923,10.941316932439804,0.0,0.0,0.0,0.0,0.0,0.0,0.0,0.0,0.0,0.0,0.0,0.0,0.0,0.0,0.0,0.0,False,0,5.129577159881592,0.034919921875
STABILIZE,1.6508488655090332,29.890139961802685,0.03244069417317708,0.032547950744628906,0.0,0.0,0.0,-0.04962708729225483,-1.046766084057299,172.61080583651307,-0.0035951721534686464,0.007351666274255085,-0.0025780329757559835,0.4,0.014956315505272929,0.025497440792356444,0.5678304468482067,-0.012459997536897322,0.08317498140968382,0.04564037953969091,0.9214702062308788,-0.23851778305795573,1.6995850950479507,0.30171729158610106,16.171734035015106,0.0,0.0,0.0,0.0,0.0,0.0,0.0,0.0,0.0,0.0,0.0,0.0,0.0,0.0,0.0,0.0,False,1,5.158194065093994,0.0349208984375
STABILIZE,1.68438720703125,29.81640849926424,0.032415183385213216,0.03254103660583496,0.0,0.0,0.0,-0.049310497352054165,-1.0469592503447633,172.6084016099252,-0.004307926295345821,0.008818759300845594,-0.0022007755909148703,0.4,0.017935973232204565,0.02599942293462624,0.5630780323919645,-0.010538431786760708,0.11419533984735608,0.010654264042386785,1.1004293337464333,0.06119287206344089,3.0626926571130753,-1.629807986319065,17.56560504436493,0.0,0.0,0.0,0.0,0.0,0.0,0.0,0.0,0.0,0.0,0.0,0.0,0.0,0.0,0.0,0.0,False,0,5.2155938148498535,0.039908935546875
STABILIZE,1.7251935005187988,24.50845813587944,0.032314332326253255,0.039745330810546875,0.0,0.0,0.0,-0.04997718784807088,-1.0467261701393367,172.60250032648233,-0.004657257678304852,0.008225663115546055,-0.001928818459243236,0.4,0.01958351012753272,0.02542980246362464,0.5662410103939735,-0.00914140816057542,0.11419533984735608,0.010654264042386785,1.1004293337464333,0.06119287206344089,3.0626926571130753,-1.629807986319065,17.56560504436493,0.0,0.0,0.0,0.0,0.0,0.0,0.0,0.0,0.0,0.0,0.0,0.0,0.0,0.0,0.0,0.0,False,0,5.244410753250122,0.039908935546875
STABILIZE,1.762462854385376,26.83066687989765,0.03223589261372884,0.03631901741027832,0.0,0.0,0.0,-0.04938077359531125,-1.0478225222228297,172.59811534503518,-0.002151131009776964,0.004840781207001263,-0.0014094384883592368,0.4,0.01568671075895995,0.021937004087385643,0.5692538262945545,-0.0065201329531183565,-0.20561302080750465,-0.15550436219200492,1.104988344013691,0.12873117662880873,-3.0815638601779938,0.05485581932589412,7.667744159698486,0.0,0.0,0.0,0.0,0.0,0.0,0.0,0.0,0.0,0.0,0.0,0.0,0.0,0.0,0.0,0.0,False,0,5.273060083389282,0.02993212890625
STABILIZE,1.7960000038146973,29.817256357212425,0.032372268040974934,0.03249979019165039,0.0,0.0,0.0,-0.049475542470045174,-1.0481491973642265,172.5957657599607,-0.0019867951053013115,0.003050248830577313,-0.0009642167299202754,0.4,0.014118218256601275,0.021702502620393076,0.5651864228757633,-0.0042797058377550615,-0.05705184303224087,0.042106190812774,1.0137706995010376,0.10850833385793647,1.9838444888591766,0.19847340881824493,13.74005526304245,0.0,0.0,0.0,0.0,0.0,0.0,0.0,0.0,0.0,0.0,0.0,0.0,0.0,0.0,0.0,0.0,False,1,5.30180549621582,0.02993212890625
STABILIZE,1.8345816135406494,25.917162542095344,0.032303603490193684,0.0376896858215332,0.0,0.0,0.0,-0.04963957373183126,-1.047826684369355,172.59304734467102,-0.00038943138757601065,0.0008626661657592031,-0.00044847888713031635,0.4,0.011976168794149181,0.019385931401828854,0.5615747456998,-0.0016944606594351793,0.1043182797729969,-0.04558231448754668,1.0019922628998756,-0.06655903286322389,4.987360909581184,0.06933477707207203,10.918643325567245,0.0,0.0,0.0,0.0,0.0,0.0,0.0,0.0,0.0,0.0,0.0,0.0,0.0,0.0,0.0,0.0,False,0,5.359928369522095,0.06485205078125
STABILIZE,1.868825912475586,29.202347715294266,0.0324437936147054,0.0333406925201416,0.0,0.0,0.0,-0.04926962293873987,-1.0484454568194759,172.5893453821409,0.0012014857805872593,0.00016648261367078912,-0.0005447780781814617,0.4,0.013539944902825809,0.017803349430758682,0.5755722778765543,-0.0021685324884787123,0.1043182797729969,-0.04558231448754668,1.0019922628998756,-0.06655903286322389,4.987360909581184,0.06933477707207203,10.918643325567245,0.0,0.0,0.0,0.0,0.0,0.0,0.0,0.0,0.0,0.0,0.0,0.0,0.0,0.0,0.0,0.0,False,0,5.388577461242676,0.06485205078125
STABILIZE,1.9024097919464111,29.7787275735007,0.03241017659505208,0.03254413604736328,0.0,0.0,0.0,-0.05003294993934169,-1.048178759276728,172.58715972160647,0.0009208672002861524,0.002670529297086141,-0.00047726287570865967,0.4,0.017678944869121263,0.017759517351479234,0.5880014826709244,-0.0018248534494203093,0.21785837598145008,0.04298326966818422,1.0202914476394653,-0.009256327058075492,2.41220872849226,-1.7617052420973778,14.230592548847198,0.0,0.0,0.0,0.0,0.0,0.0,0.0,0.0,0.0,0.0,0.0,0.0,0.0,0.0,0.0,0.0,False,0,5.417259216308594,0.02993212890625
STABILIZE,1.9357941150665283,29.953323620990087,0.0322757085164388,0.03241157531738281,0.0,0.0,0.0,-0.049953175464270055,-1.0488969963566372,172.58295232507774,-0.0011735922826475891,0.0043541495093329784,-0.0009238704729350982,0.4,0.016923054346751298,0.017796603080404535,0.5794939913122005,-0.004044364719996107,-0.0016585516277700663,0.04926814581267536,0.9415816515684128,-0.12170698073789854,2.898569591343403,0.07214613724499941,10.027571767568588,0.0,0.0,0.0,0.0,0.0,0.0,0.0,0.0,0.0,0.0,0.0,0.0,0.0,0.0,0.0,0.0,False,0,5.446206569671631,0.034919921875
STABILIZE,1.969259262084961,29.88247363921345,0.032351287206014,0.03248000144958496,0.0,0.0,0.0,-0.04916023319031389,-1.0491106532116117,172.58105353248848,-0.0005836294908122342,0.009346628412890396,-0.0009628049252782608,0.4,0.02175516629277368,0.016876403523134118,0.5766740314522885,-0.004224900204922264,0.15451431972905993,0.02052478666882962,1.131722517311573,-0.014882288510370205,3.09954397380352,-1.7167063429951668,13.420037925243378,0.0,0.0,0.0,0.0,0.0,0.0,0.0,0.0,0.0,0.0,0.0,0.0,0.0,0.0,0.0,0.0,False,0,5.503335952758789,0.034920166015625
STABILIZE,2.0026285648345947,29.96659188660103,0.03233197530110677,0.03243732452392578,0.0,0.0,0.0,-0.04926450029686236,-1.0497851343921505,172.57709202276988,-0.0010019499272622282,0.008017574127850135,-0.001201921977760949,0.4,0.01863118521937134,0.015768350535942697,0.57788995949324,-0.005402431653574867,-0.13100976357236505,-0.015351374167948961,1.2481575831770897,-0.07110114201181542,-5.5128313601017,-1.428617537021637,20.377345383167267,0.0,0.0,0.0,0.0,0.0,0.0,0.0,0.0,0.0,0.0,0.0,0.0,0.0,0.0,0.0,0.0,False,0,5.5320398807525635,0.029931884765625
STABILIZE,2.036506414413452,29.517812152518754,0.03239467938741048,0.03293108940124512,0.0,0.0,0.0,-0.049750831110108425,-1.0491155624100776,172.5749883245055,-0.0019356805110384875,0.007828370013783677,-0.0009956899966442171,0.4,0.019626057690470426,0.01565554268724026,0.5766962046594505,-0.004356522446464177,0.09135494474321604,0.036184367490932345,1.2547626160085201,0.04409088546462893,4.630187153816223,0.39492310024797916,17.04048663377762,0.0,0.0,0.0,0.0,0.0,0.0,0.0,0.0,0.0,0.0,0.0,0.0,0.0,0.0,0.0,0.0,False,0,5.561133623123169,0.039908935546875
STABILIZE,2.0700018405914307,29.854184906009554,0.03238061269124349,0.03252887725830078,0.0,0.0,0.0,-0.049926601759530474,-1.049724303019855,172.57317149418628,-0.002610212170833104,0.0042524804435272925,-0.0005251185618901778,0.4,0.01857056595827469,0.016435116243137874,0.5835255641306725,-0.001996979399847767,-0.03112546692136675,0.07955540786497295,1.3663476333022118,0.11571886584714108,-4.11418192088604,0.4392616916447878,18.118053674697876,0.0,0.0,0.0,0.0,0.0,0.0,0.0,0.0,0.0,0.0,0.0,0.0,0.0,0.0,0.0,0.0,False,0,5.590094327926636,0.02993212890625
STABILIZE,2.103403329849243,29.938784833257195,0.03235748608907064,0.03248405456542969,0.0,0.0,0.0,-0.048859651505980435,-1.0510189440326898,172.5688411542525,-0.001507396475253074,0.0062346780712624825,-0.0011674527285797118,0.4,0.020374031932324843,0.015107531822076373,0.5823910806941519,-0.005191285811588698,0.13623189879581332,-0.03022253222297877,1.2523481622338295,-0.1803265190005776,6.714273244142532,-1.4318717643618584,23.083244264125824,0.0,0.0,0.0,0.0,0.0,0.0,0.0,0.0,0.0,0.0,0.0,0.0,0.0,0.0,0.0,0.0,False,0,5.618509531021118,0.029930908203125
STABILIZE,2.13682222366333,29.9229792394949,0.03240564664204915,0.032526254653930664,0.0,0.0,0.0,-0.04882560728183615,-1.0516246964347054,172.5666554937181,-0.003017456233565359,0.0018845135041888365,-0.0013647550202033566,0.4,0.01892848977280594,0.016203259397396662,0.572645012588526,-0.006157217886242616,-0.03920295275747776,0.09971585823222995,0.7607889827340841,-0.0638214343469446,0.35740272141993046,0.19287586910650134,10.99143996834755,0.0,0.0,0.0,0.0,0.0,0.0,0.0,0.0,0.0,0.0,0.0,0.0,0.0,0.0,0.0,0.0,False,0,5.647252082824707,0.0349208984375
STABILIZE,2.170494794845581,29.698182410377324,0.03243282636006673,0.03255891799926758,0.0,0.0,0.0,-0.048177913249448534,-1.0514271545573037,172.56382779540172,-0.0030580474840240716,0.002554441096138308,-0.0016125674463066068,0.4,0.0172218509146644,0.01535146389563614,0.575289398653542,-0.007371619220808746,-0.06183235673233867,-0.010261058923788369,1.2635428458452225,-0.07584447493665789,-4.46397140622139,0.3887488506734371,18.27702671289444,0.0,0.0,0.0,0.0,0.0,0.0,0.0,0.0,0.0,0.0,0.0,0.0,0.0,0.0,0.0,0.0,False,0,5.675874948501587,0.034919921875
STABILIZE,2.2037134170532227,30.102732303187327,0.03219798405965169,0.03231477737426758,0.0,0.0,0.0,-0.04754195860469688,-1.05170729903498,172.55985262530476,-0.00350091750880844,-0.0007683804365221581,-0.0016431932348222502,0.4,0.013941062598386116,0.01579309455737757,0.5708342083948981,-0.007499669897676401,-0.14892874751240015,0.060590350767597556,0.8669992908835411,-0.016167974905079242,-3.1860731542110443,-1.587759517133236,18.704813718795776,0.0,0.0,0.0,0.0,0.0,0.0,0.0,0.0,0.0,0.0,0.0,0.0,0.0,0.0,0.0,0.0,False,0,5.7156336307525635,0.02993212890625
STABILIZE,2.2376904487609863,29.43577794932978,0.03242686589558919,0.03289318084716797,0.0,0.0,0.0,-0.04734100163271041,-1.0515156268513965,172.55789919120215,-0.0012007909052393151,-0.0025205526747440607,-0.0016801062141952828,0.4,0.010920071389884841,0.013580669509966694,0.5767482135193737,-0.0076583665830982865,-0.051510107005015016,-0.025964828091673553,1.34579474106431,-0.015842657130377632,-0.7822912186384201,0.4204130731523037,16.38377010822296,0.0,0.0,0.0,0.0,0.0,0.0,0.0,0.0,0.0,0.0,0.0,0.0,0.0,0.0,0.0,0.0,False,0,5.772347688674927,0.034919921875
STABILIZE,2.270979166030884,30.036981337458286,0.032227547963460286,0.03235268592834473,0.0,0.0,0.0,-0.04767626787142283,-1.0521338656929886,172.55352787013334,-0.0026204851549788567,-0.004538896901841436,-0.0017100368656232392,0.4,0.009896095032865489,0.014239929720701976,0.5769508525812668,-0.007781990467862642,-0.02639660960994661,0.07134510087780654,1.1006197892129421,-0.017156181215029098,-3.5114534199237823,0.3012805711477995,15.73028564453125,0.0,0.0,0.0,0.0,0.0,0.0,0.0,0.0,0.0,0.0,0.0,0.0,0.0,0.0,0.0,0.0,False,0,5.801010847091675,0.034921142578125
STABILIZE,2.3044040203094482,29.916362936070357,0.032392056783040364,0.03252840042114258,0.0,0.0,0.0,-0.04813191619425673,-1.05199544764059,172.55112364354548,-0.0035306311079061656,-0.0022315250671728734,-0.002139486326559244,0.4,0.01154746246993079,0.016226065261754463,0.5775051823251296,-0.009896120260599363,0.12421447318047285,0.14564142329618335,1.120655331760645,-0.13055823889157392,-2.2391904145479202,2.422611601650715,20.34900039434433,0.0,0.0,0.0,0.0,0.0,0.0,0.0,0.0,0.0,0.0,0.0,0.0,0.0,0.0,0.0,0.0,False,0,5.829700231552124,0.029931884765625
STABILIZE,2.337923049926758,29.836133676677715,0.03243401845296224,0.032590389251708984,0.0,0.0,0.0,-0.04915649793061153,-1.0503906733507544,172.54712115269186,-0.005652066730708995,0.0002314623805044182,-0.002545944880018109,0.4,0.013178625410043499,0.018125274097193816,0.575170808637865,-0.011888633776014002,0.12421447318047285,0.14564142329618335,1.120655331760645,-0.13055823889157392,-2.2391904145479202,2.422611601650715,20.34900039434433,0.0,0.0,0.0,0.0,0.0,0.0,0.0,0.0,0.0,0.0,0.0,0.0,0.0,0.0,0.0,0.0,False,0,5.8585357666015625,0.029931884765625
STABILIZE,2.371345043182373,29.919350581722984,0.03238561948140462,0.03251194953918457,0.0,0.0,0.0,-0.04969064006804769,-1.049962078980336,172.54430711475382,-0.005884316434296764,-0.0003017228194401551,-0.0021068217159133894,0.4,0.009880063242262356,0.018753187284424353,0.5721012502393202,-0.009660691074724762,-0.16214207280427217,0.0736340181902051,1.060350053012371,0.11308011831084186,-2.7964089065790176,0.24029933847486973,11.516083776950836,0.0,0.0,0.0,0.0,0.0,0.0,0.0,0.0,0.0,0.0,0.0,0.0,0.0,0.0,0.0,0.0,False,0,5.8871355056762695,0.069840087890625
STABILIZE,2.4048514366149902,29.845687489771088,0.03242209752400716,0.03256082534790039,0.0,0.0,0.0,-0.04942111440009664,-1.050002633228533,172.54277715237973,-0.006811087203132516,0.004156409361460027,-0.001562762139000959,0.4,0.012919254923748394,0.018113637248161105,0.5879842521598757,-0.0069172440365382485,0.18978884909301996,-0.04616821534000337,0.8471946232020855,0.16411610554218373,2.950921840965748,0.28232429176568985,12.828370928764343,0.0,0.0,0.0,0.0,0.0,0.0,0.0,0.0,0.0,0.0,0.0,0.0,0.0,0.0,0.0,0.0,False,0,5.919647932052612,0.02993212890625
STABILIZE,2.4383950233459473,29.81132236397882,0.03236368497212728,0.03266191482543945,0.0,0.0,0.0,-0.048253739021406256,-1.0499006072778059,172.53902054833623,-0.006592636893817749,0.00426947274894408,-0.0011292988489354863,0.4,0.012224283729516693,0.018366142805265103,0.5767668300197992,-0.004734024268580795,-0.008563355368096381,0.054835109040141106,0.7226396352052689,0.10162226253473391,0.9535675868391991,0.15150124672800303,8.669712394475937,0.0,0.0,0.0,0.0,0.0,0.0,0.0,0.0,0.0,0.0,0.0,0.0,0.0,0.0,0.0,0.0,False,0,5.948240756988525,0.034919921875
STABILIZE,2.471867561340332,29.875449630679594,0.03244975407918294,0.03257250785827637,0.0,0.0,0.0,-0.048238424456626613,-1.0493910111326996,172.53702613309858,-0.006635140991566822,0.0008323151795637906,-0.0007304779343590083,0.4,0.00934277509691937,0.020002384274705607,0.5723584907867318,-0.0027307842762120628,-0.09832277428358793,0.10534320026636124,1.3411675579845905,-0.024595352786183897,0.20950809121131897,0.5759644322097301,24.867945909500122,0.0,0.0,0.0,0.0,0.0,0.0,0.0,0.0,0.0,0.0,0.0,0.0,0.0,0.0,0.0,0.0,False,0,6.005630731582642,0.064851806640625
STABILIZE,2.5053329467773438,29.88204784770807,0.03241732915242513,0.03254961967468262,0.0,0.0,0.0,-0.04847011727987814,-1.0489370169963053,172.53516832164433,-0.005967372705584733,0.0005360252310781739,-0.0006860905918829537,0.4,0.010286112747998287,0.02070039110598161,0.5835343796547996,-0.002500479850100023,0.07051799329929054,0.03464780456852168,0.8976348675787449,-0.013646551209020193,2.0984815433621407,-1.6860470175743103,14.200711250305176,0.0,0.0,0.0,0.0,0.0,0.0,0.0,0.0,0.0,0.0,0.0,0.0,0.0,0.0,0.0,0.0,False,0,6.034375190734863,0.034921142578125
STABILIZE,2.538912773132324,29.778938998068842,0.032403024037679036,0.03254103660583496,0.0,0.0,0.0,-0.0488293425415385,-1.048486971563025,172.52981345333504,-0.0047552780514022175,0.0028567429072067197,0.00028712407073517654,0.4,0.01046631777259621,0.019710002524135482,0.5796582128879536,0.0023577005167388213,0.03352697240188718,-0.010996163473464549,1.0231074877083302,0.23683240719982865,-2.8555478900671005,0.17618262208998203,11.363829672336578,0.0,0.0,0.0,0.0,0.0,0.0,0.0,0.0,0.0,0.0,0.0,0.0,0.0,0.0,0.0,0.0,False,0,6.063194036483765,0.034920166015625
STABILIZE,2.572313070297241,29.94134947602867,0.03228190739949544,0.03242087364196777,0.0,0.0,0.0,-0.04820539408868726,-1.0486213341906037,172.5278873399891,-0.005010357868473924,0.0029036163301623483,0.0004754998233068802,0.4,0.01295813567067454,0.019495857443555687,0.5790004756476915,0.0032885845677983563,0.15222436049953103,0.028363146702758968,1.1722751893103123,0.03777513493712244,0.666226539760828,0.3161229891702533,16.79910719394684,0.0,0.0,0.0,0.0,0.0,0.0,0.0,0.0,0.0,0.0,0.0,0.0,0.0,0.0,0.0,0.0,False,0,6.092034339904785,0.0349208984375
STABILIZE,2.6056783199310303,29.96958957356808,0.03232243855794271,0.032436370849609375,0.0,0.0,0.0,-0.04855426734488682,-1.0475812244460576,172.52402145291887,-0.004685793038676337,0.005390640043450736,0.000656485787789425,0.4,0.01543205701972158,0.019289189787879545,0.5785999416627186,0.004179544920109241,0.15222436049953103,0.028363146702758968,1.1722751893103123,0.03777513493712244,0.666226539760828,0.3161229891702533,16.79910719394684,0.0,0.0,0.0,0.0,0.0,0.0,0.0,0.0,0.0,0.0,0.0,0.0,0.0,0.0,0.0,0.0,False,0,6.120402812957764,0.0349208984375
STABILIZE,2.6392264366149902,29.807932571014348,0.03241852124532064,0.03254389762878418,0.0,0.0,0.0,-0.04871029447873929,-1.0481134455927898,172.5218084716278,-0.004015199828992607,0.008091169484766446,-0.0001162704717459712,0.4,0.016407091843126876,0.019773486784952783,0.5754909593920925,0.00031471046175501893,0.07518233032897115,0.06416215328499675,1.0191450826823711,-0.20917020776234313,4.749045148491859,0.24501285515725613,15.123483538627625,0.0,0.0,0.0,0.0,0.0,0.0,0.0,0.0,0.0,0.0,0.0,0.0,0.0,0.0,0.0,0.0,False,0,6.15744686126709,0.029930908203125
STABILIZE,2.6725640296936035,29.995094148019422,0.032309802373250325,0.03243517875671387,0.0,0.0,0.0,-0.048618833976884594,-1.048188150786837,172.51874854687964,-0.003410547455059014,0.008831267745003,-0.00016197803793461111,0.4,0.018058853979334752,0.019583319333201364,0.5703319510998726,8.588548815077486e-05,0.11991732753813267,0.033902202267199755,1.0401112958788872,-0.016033628952766926,3.2426245510578156,0.34816365223377943,15.832306444644928,0.0,0.0,0.0,0.0,0.0,0.0,0.0,0.0,0.0,0.0,0.0,0.0,0.0,0.0,0.0,0.0,False,0,6.186168909072876,0.034921142578125
STABILIZE,2.7061362266540527,29.78739844327027,0.03242042859395345,0.03257393836975098,0.0,0.0,0.0,-0.04871034783959219,-1.0475750345871224,172.51363956538046,-0.004213029527283037,0.009611806619419922,-2.1463740498227617e-05,0.4,0.019147059385660102,0.01975656964354711,0.5675328169233065,0.0007858268382893892,0.08327700197696686,0.04719941643998027,0.9967803955078125,0.032178101737201106,-0.7360887248069048,0.2272038022056222,12.612852454185486,0.0,0.0,0.0,0.0,0.0,0.0,0.0,0.0,0.0,0.0,0.0,0.0,0.0,0.0,0.0,0.0,False,0,6.214950084686279,0.034919921875
STABILIZE,2.739511013031006,29.963594799257038,0.0323210080464681,0.03244304656982422,0.0,0.0,0.0,-0.049104844625013314,-1.0475961654848671,172.51086650857744,-0.004365348037246243,0.00912479905566008,-0.00018059110034961527,0.4,0.020543811297594174,0.019758557400026407,0.5617555521643036,-9.777263357251898e-06,0.2454943722113967,0.03552229900378734,1.1083967983722687,-0.01966643915262076,5.571024119853973,0.34919322934001684,15.091942250728607,0.0,0.0,0.0,0.0,0.0,0.0,0.0,0.0,0.0,0.0,0.0,0.0,0.0,0.0,0.0,0.0,False,0,6.272296667098999,0.034919921875
STABILIZE,2.778582811355591,25.59375152550647,0.03238561948140462,0.038177490234375,0.0,0.0,0.0,-0.04828137994320365,-1.04884683715492,172.5067547346971,-0.006772068230517571,0.011019587932293675,-0.0006925963995571496,0.4,0.0253980867111176,0.02288280014634981,0.561450579533173,-0.0025597949177154577,0.2954246010631323,0.21027186885476112,1.0936529375612736,-0.14524503991737897,-1.9460072740912437,0.208382704295218,11.37140467762947,0.0,0.0,0.0,0.0,0.0,0.0,0.0,0.0,0.0,0.0,0.0,0.0,0.0,0.0,0.0,0.0,False,0,6.3008973598480225,0.0349208984375
STABILIZE,2.8120484352111816,29.880557672990474,0.0324280579884847,0.03254985809326172,0.0,0.0,0.0,-0.04753598218917312,-1.04958225642946,172.5047466590811,-0.00901319990022055,0.014332687744338183,-0.0012061780722083402,0.4,0.03021495522195663,0.025998196230400027,0.5612413289423059,-0.005110606652989725,0.2954246010631323,0.21027186885476112,1.0936529375612736,-0.14524503991737897,-1.9460072740912437,0.208382704295218,11.37140467762947,0.0,0.0,0.0,0.0,0.0,0.0,0.0,0.0,0.0,0.0,0.0,0.0,0.0,0.0,0.0,0.0,False,0,6.3296568393707275,0.0349208984375
STABILIZE,2.845604419708252,29.825949682135594,0.032412083943684895,0.032639503479003906,0.0,0.0,0.0,-0.046945330908525686,-1.0491636938993851,172.50275224384345,-0.008351259877345345,0.014006642135615812,-0.0015064669383358458,0.4,0.031127982773896404,0.025018647493095576,0.5583808807424153,-0.006589951108820477,0.08029030286706984,-0.01729378418531269,0.9408555924892426,-0.08588962881291035,2.453209087252617,0.15291895251721144,7.970722019672394,0.0,0.0,0.0,0.0,0.0,0.0,0.0,0.0,0.0,0.0,0.0,0.0,0.0,0.0,0.0,0.0,False,0,6.358673572540283,0.029930908203125
STABILIZE,2.8790390491485596,29.88694518273609,0.0323977788289388,0.032509565353393555,0.0,0.0,0.0,-0.04533570078107698,-1.049299443909139,172.49738371515582,-0.008292415358079275,0.010253188292927515,-0.0015722820254996223,0.4,0.02739571426699495,0.025070106986288074,0.5550360714855688,-0.006895960292188592,-0.1631254330277443,0.05136517575010657,1.0568302124738693,-0.025581359628478666,-10.057306289672852,0.1580986543558538,8.1224724650383,0.0,0.0,0.0,0.0,0.0,0.0,0.0,0.0,0.0,0.0,0.0,0.0,0.0,0.0,0.0,0.0,False,0,6.38766884803772,0.03492138671875
STABILIZE,2.9125709533691406,29.821072314769392,0.032377036412556966,0.03256416320800781,0.0,0.0,0.0,-0.0451612641529772,-1.0491072381170266,172.49521171499975,-0.009840535608448579,0.011558290624347298,-0.001684370491423594,0.4,0.03009993465067703,0.026951022491558906,0.5560782784926801,-0.007431506575837914,0.15804735012352467,0.05922385025769472,1.2007181532680988,-0.01929258968221504,4.8278264701366425,0.43472503311932087,19.82928365468979,0.0,0.0,0.0,0.0,0.0,0.0,0.0,0.0,0.0,0.0,0.0,0.0,0.0,0.0,0.0,0.0,False,0,6.444475889205933,0.029931884765625
STABILIZE,2.9462742805480957,29.670031478796023,0.032375367482503255,0.032790422439575195,0.0,0.0,0.0,-0.05190383480254338,-1.0578705842655647,172.50066220595744,-0.008774576017610232,0.006187139610066182,-0.0012686000626447994,0.4,0.026834352926457642,0.027784280251324015,0.553407853946425,-0.005334665169072597,-0.13769167708233,0.0992976245470345,1.0699580423533916,0.11095027322856148,-5.451164394617081,0.4168837331235409,17.158542573451996,0.0,0.0,0.0,0.0,0.0,0.0,0.0,0.0,0.0,0.0,0.0,0.0,0.0,0.0,0.0,0.0,False,0,6.473053455352783,0.034921142578125
STABILIZE,2.9797704219818115,29.854184906009554,0.03241852124532064,0.03255438804626465,0.0,0.0,0.0,-0.047492386372361396,-1.045566745527727,172.50848960274627,-0.010630697863244882,0.0014001940564644661,-0.0014557901967775996,0.4,0.024837216621987863,0.03254228752256211,0.5483616457225902,-0.006249694143201322,-0.07713493541814387,0.315453321672976,0.7590956520289183,-0.05987655320411927,-1.957290805876255,15.477584302425385,-3.1330734491348267,0.0,0.0,0.0,0.0,0.0,0.0,0.0,0.0,0.0,0.0,0.0,0.0,0.0,0.0,0.0,0.0,False,0,6.501883029937744,0.034919921875
STABILIZE,3.0132927894592285,29.83252605000178,0.03237441380818685,0.03252220153808594,0.0,0.0,0.0,-0.03246383576421771,-1.0336820029284934,172.4829720160071,-0.015179629562665553,-0.0008465737967935599,-0.0016432056643647692,0.4,0.022806268017916465,0.03729833276343885,0.5433067331577869,-0.00716279918982323,-0.07713493541814387,0.315453321672976,0.7590956520289183,-0.05987655320411927,-1.957290805876255,15.477584302425385,-3.1330734491348267,0.0,0.0,0.0,0.0,0.0,0.0,0.0,0.0,0.0,0.0,0.0,0.0,0.0,0.0,0.0,0.0,False,0,6.53055214881897,0.034919921875
STABILIZE,3.046703338623047,29.930025617788306,0.032302172978719075,0.03242206573486328,0.0,0.0,0.0,-0.05916838131508663,-1.0596122825039178,172.48605926151194,-0.02401178321947951,-0.0021043269747300494,-0.006609990933723765,0.4,0.01824254015165708,0.04810609484616833,0.5504179773651036,-0.03189010291954468,-0.2223854186013341,0.6667654495686293,1.4625465497374535,-1.4384211906185835,-5.078478157520294,-0.7923553697764874,48.356473445892334,0.0,0.0,0.0,0.0,0.0,0.0,0.0,0.0,0.0,0.0,0.0,0.0,0.0,0.0,0.0,0.0,False,0,6.559357166290283,0.029931884765625
STABILIZE,3.081303119659424,28.900921262067016,0.03234580357869466,0.03367209434509277,0.0,0.0,0.0,-0.06361600840352853,-1.0717132432790648,172.49279382803357,-0.01845576825020164,-0.014547239794404875,-0.0005251537704214022,0.4,0.004838851135613276,0.04264462334822011,0.5446219180196528,-0.001460856302897176,-0.7403409574180841,-0.25180610828101635,0.8605916053056717,1.7591871511664807,-7.355194538831711,-23.1727197766304,11.54622808098793,0.0,0.0,0.0,0.0,0.0,0.0,0.0,0.0,0.0,0.0,0.0,0.0,0.0,0.0,0.0,0.0,False,1,6.588011026382446,0.034919921875
STABILIZE,3.114748001098633,29.899302115040527,0.032401116689046223,0.03253889083862305,0.0,0.0,0.0,-0.05995721480337021,-1.0639706902463264,172.50034801725562,0.008648606701141405,0.03583935190878038,-0.010132436639034115,0.4,0.06383897768419684,0.010185932489871239,0.5615855299194078,-0.04933220205376919,1.7857398837804794,-1.2621684931218624,2.2137869149446487,-0.4886402709591747,16.61936342716217,-39.767879247665405,80.61648607254028,0.0,0.0,0.0,0.0,0.0,0.0,0.0,0.0,0.0,0.0,0.0,0.0,0.0,0.0,0.0,0.0,False,0,6.645486831665039,0.03492138671875
STABILIZE,3.1482815742492676,29.822344517679515,0.03241685231526693,0.032553672790527344,0.0,0.0,0.0,-0.05030343610264477,-1.0645619284963557,172.49265722425017,0.015485692608007733,0.02932081238365038,-0.008065655817831021,0.4,0.05423074338167321,0.005630822436177614,0.5442953529872517,-0.038868253493435645,-0.5368602462112904,-0.20371789578348398,0.010820967145264149,0.6060129096993183,-60.75880527496338,13.902059197425842,-11.498620361089706,0.0,0.0,0.0,0.0,0.0,0.0,0.0,0.0,0.0,0.0,0.0,0.0,0.0,0.0,0.0,0.0,False,0,6.674279689788818,0.029930908203125
STABILIZE,3.1817173957824707,29.907403578075197,0.03233316739400228,0.032469987869262695,0.0,0.0,0.0,-0.019371590424919757,-1.0158790081351494,172.46244046736203,0.002528337551669653,0.008087677297208936,-0.010005063892547043,0.4,0.0266039828639852,0.025269270744399254,0.5564972142941568,-0.048403380484197664,-1.562974788248539,1.209543738514185,1.9057685509324074,-0.6093258716118919,-16.988202929496765,1.2461988255381584,0.3916453570127487,0.0,0.0,0.0,0.0,0.0,0.0,0.0,0.0,0.0,0.0,0.0,0.0,0.0,0.0,0.0,0.0,False,0,6.702921152114868,0.0349208984375
STABILIZE,3.2151291370391846,29.92895777140329,0.03235319455464681,0.03247833251953125,0.0,0.0,0.0,-0.034926492485977546,-1.0307061748844835,172.49302605446536,-0.006510000684346929,-0.011306212420369957,-0.012045611570124758,0.4,-0.0007918944731878652,0.04496645745965461,0.5716937007737107,-0.05841077447771797,-1.562974788248539,1.209543738514185,1.9057685509324074,-0.6093258716118919,-16.988202929496765,1.2461988255381584,0.3916453570127487,0.0,0.0,0.0,0.0,0.0,0.0,0.0,0.0,0.0,0.0,0.0,0.0,0.0,0.0,0.0,0.0,False,0,6.7317304611206055,0.0349208984375
STABILIZE,3.248582124710083,29.892483233912753,0.03239301045735677,0.0325624942779541,0.0,0.0,0.0,-0.03680490122943683,-1.028145174110846,172.506590810157,-0.01931227699603763,-0.03873974979860955,0.005175098648588775,0.4,-0.04473352652644303,0.05639121021187629,0.5845959260352462,0.02760037732903936,-2.5227801874279976,0.7114072795957327,1.7666235566139221,5.043035168959419,-21.814531087875366,1.5465684235095978,17.9132878780365,0.0,0.0,0.0,0.0,0.0,0.0,0.0,0.0,0.0,0.0,0.0,0.0,0.0,0.0,0.0,0.0,False,0,6.760326147079468,0.029871826171875
STABILIZE,3.282496452331543,29.487306754030133,0.032427104314168294,0.03300309181213379,0.0,0.0,0.0,-0.033911515703143075,-1.0232909373233767,172.47452990219296,-0.04054975631828498,-0.06257684256742937,-0.015739972284443734,0.4,-0.026308756301101122,0.056100988425208304,0.5662982530941115,-0.07671490631495187,1.117797289043665,0.056079617934301496,0.10939025087282062,-6.245866059631337,-36.48917376995087,-17.12096780538559,9.384346008300781,0.0,0.0,0.0,0.0,0.0,0.0,0.0,0.0,0.0,0.0,0.0,0.0,0.0,0.0,0.0,0.0,False,1,6.789072513580322,0.034919921875
STABILIZE,3.3159677982330322,29.87587523416743,0.03241875966389974,0.03254413604736328,0.0,0.0,0.0,-0.04564988948289757,-1.0272230985728943,172.4518809949052,-0.057947205235757034,-0.07396564605169541,-0.001186092697486096,0.4,-0.04787508934887645,0.07376757238395261,0.5629873193020979,-0.003932352455043586,-1.0429699905216694,0.46481662429869175,-0.47684689052402973,0.8588318815796643,17.586609721183777,-22.51027226448059,21.11489772796631,0.0,0.0,0.0,0.0,0.0,0.0,0.0,0.0,0.0,0.0,0.0,0.0,0.0,0.0,0.0,0.0,False,0,6.8464720249176025,0.034919921875
STABILIZE,3.3494248390197754,29.889713951797955,0.03239181836446126,0.03253626823425293,0.0,0.0,0.0,-0.05256502913071235,-1.0262045466129162,172.42503835146707,-0.020101423026318014,-0.04548456550489437,0.013536911314080016,0.4,-0.03520357940362026,0.04331503629625067,0.5360124380396644,0.06945024636481177,0.7891730405390263,-1.7466433346271515,-0.5661293864250183,4.274865991122887,6.076184660196304,-47.77436554431915,-5.62867745757103,0.0,0.0,0.0,0.0,0.0,0.0,0.0,0.0,0.0,0.0,0.0,0.0,0.0,0.0,0.0,0.0,False,0,6.875004053115845,0.02993212890625
STABILIZE,3.389349937438965,25.047948355041175,0.03239634831746419,0.038886070251464844,0.0,0.0,0.0,-0.042368357112676676,-1.024407032922439,172.43244227652735,0.003918494077150301,-0.05020138001726061,0.008982703795082795,0.4,-0.06709464346691078,0.027747904191501683,0.5486015864060626,0.04649411375448148,-1.9180791452527046,-0.8400104939937592,1.9342662766575813,-1.3800510343018892,-44.87182796001434,26.77617371082306,108.6606502532959,0.0,0.0,0.0,0.0,0.0,0.0,0.0,0.0,0.0,0.0,0.0,0.0,0.0,0.0,0.0,0.0,False,0,6.9037346839904785,0.034919921875
STABILIZE,3.422710418701172,29.971731145760387,0.03226784070332845,0.03238224983215332,0.0,0.0,0.0,-0.10293143103976818,-1.1045677338472955,172.4386714090504,-0.009258066143832533,-0.016285585132693924,0.021748155841830666,0.4,-0.060870426760301584,0.05299368016286928,0.5576623858168243,0.10995368761362063,0.39980350993573666,1.585601456463337,1.5562808141112328,3.717124696330693,32.01816380023956,17.51617044210434,35.04326641559601,0.0,0.0,0.0,0.0,0.0,0.0,0.0,0.0,0.0,0.0,0.0,0.0,0.0,0.0,0.0,0.0,False,0,6.932370901107788,0.034920166015625
STABILIZE,3.4569339752197266,29.220657800319078,0.03236130078633626,0.0333256721496582,0.0,0.0,0.0,-0.16522422369373896,-1.1430728185715366,172.473245826629,0.04602420407768806,0.08750633238663676,0.005458890316041065,0.4,0.08331354939017757,-0.01623654865166938,0.5606008493216168,0.02841003590898459,3.45575213432312,-1.5719018876552582,3.1105704605579376,-1.3337715934765868,61.12459897994995,27.100053429603577,128.7806272506714,0.0,0.0,0.0,0.0,0.0,0.0,0.0,0.0,0.0,0.0,0.0,0.0,0.0,0.0,0.0,0.0,False,0,6.989973545074463,0.02993212890625
STABILIZE,3.491450309753418,28.97259062776304,0.03242352803548177,0.03362584114074707,0.0,0.0,0.0,-0.20482205864390277,-1.1627841041859588,172.4923840166834,0.07942969442440281,0.14762006796202537,0.0008918545804436292,0.4,0.14085487901077065,-0.04350136568261822,0.5929558582014276,0.005555676832341747,3.45575213432312,-1.5719018876552582,3.1105704605579376,-1.3337715934765868,61.12459897994995,27.100053429603577,128.7806272506714,0.0,0.0,0.0,0.0,0.0,0.0,0.0,0.0,0.0,0.0,0.0,0.0,0.0,0.0,0.0,0.0,False,0,7.018605709075928,0.02993212890625
STABILIZE,3.524958610534668,29.842926870917708,0.032434972127278645,0.03258490562438965,0.0,0.0,0.0,-0.1932576679249985,-1.1529318764733327,172.54609662431636,0.06705970012940757,0.1804938584027108,-0.002308434138500353,0.4,0.19120068115671363,-0.05277474504357227,0.5874960806920071,-0.010410900220917839,3.089083544909954,-0.5196858663111925,0.8492543362081051,-0.9390965828068047,-18.551437556743622,21.875101327896118,59.940141439437866,0.0,0.0,0.0,0.0,0.0,0.0,0.0,0.0,0.0,0.0,0.0,0.0,0.0,0.0,0.0,0.0,False,0,7.047520160675049,0.034919921875
STABILIZE,3.558466911315918,29.84398858696039,0.0323980172475179,0.03254961967468262,0.0,0.0,0.0,-0.15948443687212172,-1.137043895968531,172.5604536819517,0.05690341230748101,0.1825816044194301,-0.012068278953924696,0.4,0.17214224238524883,-0.05065267947419179,0.5942508701225824,-0.05901259977710098,-1.229273248463869,0.21917650010436773,1.3825472444295883,-2.8853903629834377,-27.538952231407166,96.26615643501282,74.54595565795898,0.0,0.0,0.0,0.0,0.0,0.0,0.0,0.0,0.0,0.0,0.0,0.0,0.0,0.0,0.0,0.0,False,0,7.076043367385864,0.034919921875
STABILIZE,3.5927586555480957,29.161132432282105,0.032332690556844075,0.03337526321411133,0.0,0.0,0.0,-0.13631816943515743,-1.1240488207423471,172.47446160030125,0.023866717027294246,0.14846185306506018,-0.019031693911327207,0.4,0.1345349659443644,0.011406922601830863,0.5776968899030636,-0.09350861369283385,-2.268470823764801,3.779902681708336,-0.001896210596896708,-2.008727472162662,-66.7250394821167,90.77069759368896,-4.026857018470764,0.0,0.0,0.0,0.0,0.0,0.0,0.0,0.0,0.0,0.0,0.0,0.0,0.0,0.0,0.0,0.0,False,0,7.104638576507568,0.029931884765625
STABILIZE,3.626265287399292,29.84398858696039,0.03240946133931478,0.03254222869873047,0.0,0.0,0.0,-0.16288901936910863,-1.1403466125973496,172.4778220533729,-0.014782567440509571,0.06328998987374855,-0.013856189040583215,0.4,0.14345759207526187,0.00409258248959724,0.5792819994957698,-0.06740560708727932,0.6750590167939663,-0.4234258085489273,1.2855579145252705,1.5444447230008105,88.2052481174469,-39.975905418395996,74.17368292808533,0.0,0.0,0.0,0.0,0.0,0.0,0.0,0.0,0.0,0.0,0.0,0.0,0.0,0.0,0.0,0.0,False,0,7.141563415527344,0.034921142578125
