E-kp,E-ki,E-kd,E-I-Tot,E-P,E-I,E-D,E-PID,N-kp,N-ki,N-kd,N-I-Tot,N-P,N-I,N-D,N-PID,Y-kp,Y-ki,Y-kd,Y-I-Tot,Y-P,Y-I,Y-D,Y-PID,D-kp,D-ki,D-kd,D-I-Tot,D-P,D-I,D-D,D-PID,errorN,desiredN,actualN,errorE,desiredE,actualE,errorD,desiredD,actualD,errorY,desiredY,actualY,roll,pitch,yaw-rate,thrust,dt,Time,Mode
0.025,0.0,0.006,-0.0038449324874890254,-0.00230626887166507,-0.0,-0.013280131915682692,-0.015586400787347762,0.025,0.0,0.006,-0.0036954126476863107,-0.002216583824305878,-0.0,-0.012763700690153283,-0.014980284514459161,0.25,0,0,-0.0038326819357017037,-0.022989207410178472,-0.0,-0.0,-0.022989207410178472,0.002,8e-05,0.0,-0.005139146528378126,-0.00024660518651789016,-4.111317222702501e-07,-0.0,-0.00024701631824016043,-0.08866335297223513,0.0,0.08866335297223513,-0.09225075486660281,0.0,0.09225075486660281,-0.12330259325894509,0.0,0.12330259325894509,-0.09195682964071389,0,0.09195682964071389,-0.01561042330216219,0.014955249846301186,0.022989207410178472,0.4,0.04167914390563965,0.0419156551361084,STABILIZE
0.025,0.0,0.006,-0.008170876917290328,-0.0029648172881973707,-0.0,-0.004332872813435705,-0.007297690101633076,0.025,0.0,0.006,-0.00777868561165506,-0.0027985006447619866,-0.0,-0.003828680637198905,-0.0066271812819608915,0.25,0,0,-0.00811429243205854,-0.02934432706411149,-0.0,-0.0,-0.02934432706411149,0.002,8e-05,0.0,-0.011696654090752797,-0.00035953881708658775,-9.357323272602238e-07,-0.0,-0.00036047454941384797,-0.11194002579047946,0.0,0.11194002579047946,-0.11859269152789483,0.0,0.11859269152789483,-0.17976940854329387,0.0,0.17976940854329387,-0.11737730825644596,0,0.11737730825644596,-0.007311251357907717,0.0066122171882764666,0.02934432706411149,0.4,0.03647732734680176,0.07834768295288086,STABILIZE
0.025,0.0,0.006,-0.012530982463350627,-0.003259428114286129,-0.0,-0.0021142889483183637,-0.005373717062604493,0.025,0.0,0.006,-0.011851725483882455,-0.0030448301147530873,-0.0,-0.0017677954437777456,-0.004812625558530833,0.25,0,0,-0.012429798483016397,-0.03226087442441334,-0.0,-0.0,-0.03226087442441334,0.002,8e-05,0.0,-0.018861203276501204,-0.0004284728026974454,-1.5088962621200964e-06,-0.0,-0.0004299816989595655,-0.1217932045901235,0.0,0.1217932045901235,-0.13037712457144515,0.0,0.13037712457144515,-0.2142364013487227,0.0,0.2142364013487227,-0.12904349769765336,0,0.12904349769765336,-0.005384542582695926,0.004800510494800021,0.03226087442441334,0.4,0.03344225883483887,0.11177301406860352,STABILIZE
0.025,0.0,0.006,-0.01724027197899608,-0.0035189578364516086,-0.0,-0.0018617313306164478,-0.005380689167068057,0.025,0.0,0.006,-0.016198176227505114,-0.0032478310909125627,-0.0,-0.0014562234888104353,-0.004704054579722998,0.25,0,0,-0.017005040584950303,-0.034187925789601774,-0.0,-0.0,-0.034187925789601774,0.002,8e-05,0.0,-0.026981358548988265,-0.0004854147774842129,-2.1585086839190613e-06,-0.0,-0.000487573286168132,-0.1299132436365025,0.0,0.1299132436365025,-0.14075831345806433,0.0,0.14075831345806433,-0.24270738874210646,0.0,0.24270738874210646,-0.1367517031584071,0,0.1367517031584071,-0.005391901314924603,0.004691198739312883,0.034187925789601774,0.4,0.03345656394958496,0.14529728889465332,STABILIZE
0.025,0.0,0.006,-0.022140762433459346,-0.0036642849249315587,-0.0,-0.0010431997977990513,-0.00470748472273061,0.025,0.0,0.006,-0.020665169172120926,-0.003340142187568881,-0.0,-0.0006626357024951021,-0.004002777890063983,0.25,0,0,-0.021670480771940392,-0.03488528812414567,-0.0,-0.0,-0.03488528812414567,0.002,8e-05,0.0,-0.03582522514032117,-0.0005290318971924433,-2.8660180112256936e-06,-0.0,-0.000531897915203669,-0.13360568750275523,0.0,0.13360568750275523,-0.14657139699726235,0.0,0.14657139699726235,-0.26451594859622163,0.0,0.26451594859622163,-0.1395411524965827,0,0.1395411524965827,-0.004717219327676143,0.003991301174620351,0.03488528812414567,0.4,0.033434152603149414,0.1786661148071289,STABILIZE
0.025,0.0,0.006,-0.02719316475422315,-0.0037748872883039027,-0.0,-0.0007933077611048436,-0.004568195049408746,0.025,0.0,0.006,-0.025215232721730044,-0.0033995663773263777,-0.0,-0.00042622661482636016,-0.0038257929921527377,0.25,0,0,-0.026411586494655092,-0.03542302965784992,-0.0,-0.0,-0.03542302965784992,0.002,8e-05,0.0,-0.045478743546329,-0.0005770077931994569,-3.6382994837063203e-06,-0.0,-0.0005806460926831632,-0.1359826550930551,0.0,0.1359826550930551,-0.1509954915321561,0.0,0.1509954915321561,-0.2885038965997284,0.0,0.2885038965997284,-0.1416921186313997,0,0.1416921186313997,-0.004577642234011456,0.003814484186052182,0.03542302965784992,0.4,0.03346061706542969,0.21213126182556152,STABILIZE
0.025,0.0,0.006,-0.03244508932415027,-0.003928410356197812,-0.0,-0.0011024102454779518,-0.005030820601675764,0.025,0.0,0.006,-0.029982590453782015,-0.0035659570576339313,-0.0,-0.0011948093093726605,-0.004760766367006591,0.25,0,0,-0.031321592858328764,-0.03672657440379132,-0.0,-0.0,-0.03672657440379132,0.002,8e-05,0.0,-0.05609671866528738,-0.0006353749047807912,-4.4877374932229905e-06,-0.0,-0.0006398626422740142,-0.14263828230535724,0.0,0.14263828230535724,-0.15713641424791247,0.0,0.15713641424791247,-0.3176874523903956,0.0,0.3176874523903956,-0.14690629761516527,0,0.14690629761516527,-0.005043010650009682,0.004747851715392486,0.03672657440379132,0.4,0.03342270851135254,0.24556851387023926,STABILIZE
0.025,0.0,0.006,-0.03794906005696708,-0.004091314955115169,-0.0,-0.0011624957544203091,-0.005253810709535478,0.025,0.0,0.006,-0.034813566944123533,-0.0035910522279664764,-0.0,-0.00017908045053312513,-0.0037701326784996014,0.25,0,0,-0.036428343022405836,-0.037960454974353866,-0.0,-0.0,-0.037960454974353866,0.002,8e-05,0.0,-0.06857718984961111,-0.0007421774697871705,-5.48617518796889e-06,-0.0,-0.0007476636449751395,-0.14364208911865906,0.0,0.14364208911865906,-0.16365259820460676,0.0,0.16365259820460676,-0.37108873489358524,0.0,0.37108873489358524,-0.15184181989741546,0,0.15184181989741546,-0.005263783626746498,0.003756196123196411,0.037960454974353866,0.4,0.03363204002380371,0.2791941165924072,STABILIZE
0.025,0.0,0.006,-0.043495619582662834,-0.00414205892703379,-0.0,-0.00036378793028136666,-0.004505846857315156,0.025,0.0,0.006,-0.03965460606712671,-0.003615190501906644,-0.0,-0.00017304937680757398,-0.0037882398787142182,0.25,0,0,-0.04156075383429654,-0.038327810099414654,-0.0,-0.0,-0.038327810099414654,0.002,8e-05,0.0,-0.08197668235190878,-0.0008005176871138296,-6.558134588152703e-06,-0.0,-0.0008070758217019824,-0.14460762007626576,0.0,0.14460762007626576,-0.16568235708135157,0.0,0.16568235708135157,-0.4002588435569148,0.0,0.4002588435569148,-0.15331124039765862,0,0.15331124039765862,-0.004515967233628313,0.0037761696499300753,0.038327810099414654,0.4,0.033477067947387695,0.3126802444458008,STABILIZE
0.025,0.0,0.006,-0.04912183478654693,-0.004200198090267527,-0.0,-0.00041667116132866264,-0.00461686925159619,0.025,0.0,0.006,-0.04454067508136968,-0.00364764890762992,-0.0,-0.0002326225706624177,-0.0038802714782923374,0.25,0,0,-0.04673988988039327,-0.03866435346275701,-0.0,-0.0,-0.03866435346275701,0.002,8e-05,0.0,-0.0962562457968834,-0.0008528219122515032,-7.700499663750673e-06,-0.0,-0.0008605224119152539,-0.1459059563051968,0.0,0.1459059563051968,-0.1680079236107011,0.0,0.1680079236107011,-0.4264109561257516,0.0,0.4264109561257516,-0.15465741385102805,0,0.15465741385102805,-0.004627326362762784,0.003867795129536194,0.03866435346275701,0.4,0.033487796783447266,0.3462240695953369,STABILIZE
0.025,0.0,0.006,-0.05468117532385403,-0.004158741448539888,-0.0,0.00029771724719597123,-0.0038610242013439166,0.025,0.0,0.006,-0.04929392845971822,-0.0035557368193756276,-0.0,0.0006600586241132288,-0.0028956781952623988,0.25,0,0,-0.05184176002570365,-0.03816524405365533,-0.0,0.0,-0.03816524405365533,0.002,8e-05,0.0,-0.11123626498310037,-0.000896480814896364,-8.89890119864803e-06,-0.0,-0.0009053797160950121,-0.1422294727750251,0.0,0.1422294727750251,-0.1663496579415955,0.0,0.1663496579415955,-0.448240407448182,0.0,0.448240407448182,-0.15266097621462132,0,0.15266097621462132,-0.0038687258382679858,0.002885380474426068,0.03816524405365533,0.4,0.03341960906982422,0.37959790229797363,STABILIZE
0.025,0.0,0.006,-0.06027924173099551,-0.0041856206278681005,-0.0,-0.00019293412707697657,-0.004378554754945077,0.025,0.0,0.006,-0.05396671786943058,-0.0034937998802630783,-0.0,0.00044457269828015463,-0.003049227181982924,0.25,0,0,-0.057027894875919694,-0.03877623348711612,-0.0,-0.0,-0.03877623348711612,0.002,8e-05,0.0,-0.1270864484546778,-0.0009480824280254286,-1.0166915876374223e-05,-0.0,-0.0009582493439018029,-0.13975199521052312,0.0,0.13975199521052312,-0.167424825114724,0.0,0.167424825114724,-0.4740412140127143,0.0,0.4740412140127143,-0.15510493394846447,0,0.15510493394846447,-0.004386793238941251,0.0030373628739706077,0.03877623348711612,0.4,0.03343629837036133,0.4130370616912842,STABILIZE
0.025,0.0,0.006,-0.06588860596389755,-0.004196910893475767,-0.0,-8.109451852577689e-05,-0.0042780054120015445,0.025,0.0,0.006,-0.05852923972725506,-0.0034136663072275235,-0.0,0.0005755749022109401,-0.0028380914050165833,0.25,0,0,-0.06227846354360704,-0.03928461038259062,-0.0,-0.0,-0.03928461038259062,0.002,8e-05,0.0,-0.14375718900574674,-0.0009978401789023062,-1.150057512045974e-05,-0.0,-0.001009340754022766,-0.13654665228910093,0.0,0.13654665228910093,-0.1678764357390307,0.0,0.1678764357390307,-0.4989200894511531,0.0,0.4989200894511531,-0.1571384415303625,0,0.1571384415303625,-0.004285773014951538,0.0028263479602937624,0.03928461038259062,0.4,0.03341364860534668,0.44647884368896484,STABILIZE
0.025,0.0,0.006,-0.07155670817485837,-0.004083797208930003,-0.0,0.0007823712395528924,-0.0033014259693771105,0.025,0.0,0.006,-0.06295819241105678,-0.0031910053727712342,-0.0,0.0015400745894727811,-0.0016509307832984531,0.25,0,0,-0.06760102942075043,-0.03834842574184918,-0.0,0.0,-0.03834842574184918,0.002,8e-05,0.0,-0.16255609863984535,-0.001083550463097884,-1.300448789118763e-05,-0.0,-0.0010965549509890716,-0.12764021491084937,0.0,0.12764021491084937,-0.1633518883572001,0.0,0.1633518883572001,-0.541775231548942,0.0,0.541775231548942,-0.1533937029673967,0,0.1533937029673967,-0.0033058340460064358,0.0016420862166112824,0.03834842574184918,0.4,0.0346987247467041,0.48114895820617676,STABILIZE
0.025,0.0,0.006,-0.07698063119178489,-0.004056398708630561,-0.0,0.00019670941355691792,-0.0038596892950736425,0.025,0.0,0.006,-0.06722314970125616,-0.00318964100160341,-0.0,9.795596451028562e-06,-0.0031798454051523814,0.25,0,0,-0.07269924120477862,-0.03812808484287018,-0.0,0.0,-0.03812808484287018,0.002,8e-05,0.0,-0.18154837636552212,-0.0011363030131507049,-1.4523870109241771e-05,-0.0,-0.0011508268832599467,-0.1275856400641364,0.0,0.1275856400641364,-0.16225594834522242,0.0,0.16225594834522242,-0.5681515065753524,0.0,0.5681515065753524,-0.15251233937148073,0,0.15251233937148073,-0.0038681398589083746,0.0031695602671504897,0.03812808484287018,0.4,0.033428192138671875,0.5145759582519531,STABILIZE
0.025,0.0,0.006,-0.08236162110298247,-0.004019445405674657,-0.0,0.0002649893695995626,-0.0037544560360750945,0.025,0.0,0.006,-0.07148660217873971,-0.0031846769378386717,-0.0,3.5596929704490405e-05,-0.0031490800081341815,0.25,0,0,-0.07776230131674755,-0.03781960947995701,-0.0,0.0,-0.03781960947995701,0.002,8e-05,0.0,-0.2014194094758216,-0.001187447425983765,-1.611355275806573e-05,-0.0,-0.0012035609787418309,-0.12738707751354686,0.0,0.12738707751354686,-0.16077781622698628,0.0,0.16077781622698628,-0.5937237129918825,0.0,0.5937237129918825,-0.15127843791982803,0,0.15127843791982803,-0.0037627574773029656,0.0031391561272819343,0.03781960947995701,0.4,0.03346848487854004,0.5480732917785645,STABILIZE
0.025,0.0,0.006,-0.08771057964674343,-0.003992362019519602,-0.0,0.00019405948673257615,-0.0037983025327870262,0.025,0.0,0.006,-0.07555303877122369,-0.0030351117649909357,-0.0,0.001071673257905501,-0.001963438507085435,0.25,0,0,-0.0827499544510485,-0.03722690459649763,-0.0,0.0,-0.03722690459649763,0.002,8e-05,0.0,-0.2219001233388256,-0.0012229135595702577,-1.775200986710605e-05,-0.0,-0.0012406655694373638,-0.12140447059963742,0.0,0.12140447059963742,-0.15969448078078408,0.0,0.15969448078078408,-0.6114567797851288,0.0,0.6114567797851288,-0.1489076183859905,0,0.1489076183859905,-0.0038033925351179834,0.0019535603716013023,0.03722690459649763,0.4,0.03349494934082031,0.5815441608428955,STABILIZE
0.025,0.0,0.006,-0.09290924438555362,-0.0038769567776129107,-0.0,0.0008262204065292769,-0.0030507363710836335,0.025,0.0,0.006,-0.07948355147517333,-0.0029312195790026706,-0.0,0.0007437950193964511,-0.0021874245596062193,0.25,0,0,-0.0875002684465694,-0.035425946788288545,-0.0,0.0,-0.035425946788288545,0.002,8e-05,0.0,-0.24302623768840326,-0.0012604010656931254,-1.9442099015072262e-05,-0.0,-0.0012798431647081977,-0.11724878316010681,0.0,0.11724878316010681,-0.1550782711045164,0.0,0.1550782711045164,-0.6302005328465626,0.0,0.6302005328465626,-0.14170378715315418,0,0.14170378715315418,-0.0030561369686203685,0.002179872803365578,0.035425946788288545,0.4,0.033522844314575195,0.6150710582733154,STABILIZE
0.025,0.0,0.006,-0.09800157267188139,-0.00375923545512203,-0.0,0.0008342755193119602,-0.0029249599358100696,0.025,0.0,0.006,-0.0832468521899963,-0.0027781267585265056,-0.0,0.001084948670327583,-0.0016931780881989226,0.25,0,0,-0.0920626716865859,-0.03368036594671679,-0.0,0.0,-0.03368036594671679,0.002,8e-05,0.0,-0.2659010503693098,-0.0013509232244938384,-2.1272084029544782e-05,-0.0,-0.0013721953085233832,-0.11112507034106021,0.0,0.11112507034106021,-0.1503694182048812,0.0,0.1503694182048812,-0.6754616122469191,0.0,0.6754616122469191,-0.13472146378686717,0,0.13472146378686717,-0.0029289330721440315,0.001686295858783959,0.03368036594671679,0.4,0.03386545181274414,0.6489338874816895,STABILIZE
0.025,0.0,0.006,-0.10291277563537324,-0.0036710123598511744,-0.0,0.0006330696420985111,-0.0030379427177526634,0.025,0.0,0.006,-0.08695403926727201,-0.0027710379070311542,-0.0,5.0868048386577055e-05,-0.002720169858644577,0.25,0,0,-0.09649509441196152,-0.03313135036343556,-0.0,0.0,-0.03313135036343556,0.002,8e-05,0.0,-0.2891900772465396,-0.0013926413736227393,-2.313520617972317e-05,-0.0,-0.0014157765798024624,-0.11084151628124617,0.0,0.11084151628124617,-0.14684049439404698,0.0,0.14684049439404698,-0.6963206868113696,0.0,0.6963206868113696,-0.13252540145374225,0,0.13252540145374225,-0.003044226351054251,0.0027131358129979075,0.03313135036343556,0.4,0.03344583511352539,0.6823863983154297,STABILIZE
0.025,0.0,0.006,-0.1076783431409852,-0.0035606556264844757,-0.0,0.000791562873036753,-0.0027690927534477225,0.025,0.0,0.006,-0.0906373944499907,-0.002752066640592865,-0.0,0.0001360764287679575,-0.0026159902118249073,0.25,0,0,-0.10083230352683459,-0.032406020940688285,-0.0,0.0,-0.032406020940688285,0.002,8e-05,0.0,-0.3129493514781437,-0.0014201640140331614,-2.5035948118251495e-05,-0.0,-0.0014451999621514129,-0.11008266562371459,0.0,0.11008266562371459,-0.14242622505937902,0.0,0.14242622505937902,-0.7100820070165806,0.0,0.7100820070165806,-0.12962408376275314,0,0.12962408376275314,-0.002775003991934303,0.0026097188182463444,0.032406020940688285,0.4,0.03345990180969238,0.7158412933349609,STABILIZE
0.025,0.0,0.006,-0.1123071352524787,-0.0034592755346105697,-0.0,0.0007273465658986078,-0.002731928968711962,0.025,0.0,0.006,-0.09413213875851462,-0.0026117577102195057,-0.0,0.0010066396349186692,-0.0016051180753008365,0.25,0,0,-0.10515866645786869,-0.03233258500421937,-0.0,0.0,-0.03233258500421937,0.002,8e-05,0.0,-0.33702505086908524,-0.0014394161738207917,-2.696200406952682e-05,-0.0,-0.0014663781778903185,-0.10447030840878022,0.0,0.10447030840878022,-0.13837102138442278,0.0,0.13837102138442278,-0.7197080869103959,0.0,0.7197080869103959,-0.1293303400168775,0,0.1293303400168775,-0.0027355451430019174,0.0015989473713489402,0.03233258500421937,0.4,0.03345203399658203,0.7493090629577637,STABILIZE
0.025,0.0,0.006,-0.11686953626171058,-0.0033911692532634396,-0.0,0.0004859755416490349,-0.002905193711614405,0.025,0.0,0.006,-0.0974230225675402,-0.0024460681923066793,-0.0,0.0011822852697366709,-0.0012637829225700084,0.25,0,0,-0.10946357693421374,-0.03199780119260234,-0.0,0.0,-0.03199780119260234,0.002,8e-05,0.0,-0.3617632669014829,-0.001471005769460488,-2.8941061352118636e-05,-0.0,-0.0014999468308126067,-0.09784272769226716,0.0,0.09784272769226716,-0.13564677013053758,0.0,0.13564677013053758,-0.7355028847302439,0.0,0.7355028847302439,-0.12799120477040937,0,0.12799120477040937,-0.0029080095847199136,0.0012572899556429254,0.03199780119260234,0.4,0.03363442420959473,0.7829179763793945,STABILIZE
0.025,0.0,0.006,-0.1212492739911438,-0.0032720981164479288,-0.0,0.0008539962159922664,-0.0024181019004556625,0.025,0.0,0.006,-0.10047788928571147,-0.0022822881761509605,-0.0,0.0011746550658103415,-0.001107633110340619,0.25,0,0,-0.11368499901974408,-0.03153820641352208,-0.0,0.0,-0.03153820641352208,0.002,8e-05,0.0,-0.3866656964515675,-0.0014883666166257644,-3.09332557161254e-05,-0.0,-0.00151929987234189,-0.09129152704603842,0.0,0.09129152704603842,-0.13088392465791715,0.0,0.13088392465791715,-0.7441833083128822,0.0,0.7441833083128822,-0.1261528256540883,0,0.1261528256540883,-0.00242053480402774,0.0011023062961811074,0.03153820641352208,0.4,0.0334627628326416,0.8164091110229492,STABILIZE
0.025,0.0,0.006,-0.12539444305420447,-0.003100585512945773,-0.0,0.0012315973273746047,-0.0018689881855711683,0.025,0.0,0.006,-0.1031916777596079,-0.0020299131589941984,-0.0,0.0018122539701432574,-0.000217659188850941,0.25,0,0,-0.11758174261431077,-0.02914763319220715,-0.0,0.0,-0.02914763319220715,0.002,8e-05,0.0,-0.41262630238226095,-0.0015534821848075557,-3.301010419058088e-05,-0.0,-0.0015864922889981365,-0.08119652635976793,0.0,0.08119652635976793,-0.12402342051783091,0.0,0.12402342051783091,-0.7767410924037779,0.0,0.7767410924037779,-0.1165905327688286,0,0.1165905327688286,-0.0018694272279580141,0.00021385555794758475,0.02914763319220715,0.4,0.03342247009277344,0.8499753475189209,STABILIZE
0.025,0.0,0.006,-0.12949679710795647,-0.0030443672269013515,-0.0,0.0004005094175927655,-0.002643857809308586,0.025,0.0,0.006,-0.10568741251375843,-0.0018520910172600763,-0.0,0.0012668376685258025,-0.0005852533487342739,0.25,0,0,-0.12135413827337224,-0.027995042750754057,-0.0,0.0,-0.027995042750754057,0.002,8e-05,0.0,-0.4392521670665376,-0.0015807296741457086,-3.514017336532301e-05,-0.0,-0.0016158698475110317,-0.07408364069040305,0.0,0.07408364069040305,-0.12177468907605406,0.0,0.12177468907605406,-0.7903648370728542,0.0,0.7903648370728542,-0.11198017100301623,0,0.11198017100301623,-0.002644996591539116,0.0005800850185904953,0.027995042750754057,0.4,0.03368806838989258,0.8835024833679199,STABILIZE
0.025,0.0,0.006,-0.13350148386344932,-0.0029756577210210177,-0.0,0.0004901200638075522,-0.0024855376572134654,0.025,0.0,0.006,-0.10813480597452997,-0.0018185205716607794,-0.0,0.00023946539461120855,-0.0015790551770495707,0.25,0,0,-0.12499694907589644,-0.027067680327011998,-0.0,0.0,-0.027067680327011998,0.002,8e-05,0.0,-0.4661590289355533,-0.0015994381814590532,-3.7292722314844264e-05,-0.0,-0.0016367309037738974,-0.07274082286643117,0.0,0.07274082286643117,-0.1190263088408407,0.0,0.1190263088408407,-0.7997190907295266,0.0,0.7997190907295266,-0.10827072130804799,0,0.10827072130804799,-0.0024885171275323874,0.0015743554883098066,0.027067680327011998,0.4,0.0336453914642334,0.9171650409698486,STABILIZE
0.025,0.0,0.006,-0.1373496618781831,-0.0028765484544594115,-0.0,0.0007112168465192805,-0.002165331607940131,0.025,0.0,0.006,-0.1104367574381641,-0.001720729888171623,-0.0,0.0007017545779827804,-0.0010189753101888426,0.25,0,0,-0.12849649797539242,-0.02615944984771389,-0.0,0.0,-0.02615944984771389,0.002,8e-05,0.0,-0.492986815876629,-0.0016043213960777569,-3.943894527013032e-05,-0.0,-0.0016437603413478872,-0.06882919552686492,0.0,0.06882919552686492,-0.11506193817837645,0.0,0.11506193817837645,-0.8021606980388785,0.0,0.8021606980388785,-0.10463779939085556,0,0.10463779939085556,-0.0021671889241555034,0.0010150191240251352,0.02615944984771389,0.4,0.03344440460205078,0.9506385326385498,STABILIZE
0.025,0.0,0.006,-0.1410852028167783,-0.0027889514017589603,-0.0,0.0006278388320656996,-0.0021611125696932606,0.025,0.0,0.006,-0.11250111187096064,-0.0015412451057865671,-0.0,0.001286430452535296,-0.00025481465325127113,0.25,0,0,-0.13191645061757706,-0.02553333472221841,-0.0,0.0,-0.02553333472221841,0.002,8e-05,0.0,-0.5201451226475262,-0.0016221093326650058,-4.16116098118021e-05,-0.0,-0.001663720942476808,-0.061649804231462685,0.0,0.061649804231462685,-0.1115580560703584,0.0,0.1115580560703584,-0.8110546663325029,0.0,0.8110546663325029,-0.10213333888887365,0,0.10213333888887365,-0.0021615633591353873,0.00025096193105950045,0.02553333472221841,0.4,0.03348517417907715,0.9840922355651855,STABILIZE
0.025,0.0,0.006,-0.14475301767272838,-0.002742194500180185,-0.0,0.0003355890699360534,-0.0024066054302441316,0.025,0.0,0.006,-0.1142932947971538,-0.0013399024641473412,-0.0,0.001445099815528572,0.00010519735138123077,0.25,0,0,-0.13529703603739213,-0.02527451114542402,-0.0,0.0,-0.02527451114542402,0.002,8e-05,0.0,-0.5486162065301606,-0.0017028831105904984,-4.388929652241285e-05,-0.0,-0.0017467724071129113,-0.053596098565893646,0.0,0.053596098565893646,-0.10968778000720739,0.0,0.10968778000720739,-0.8514415552952492,0.0,0.8514415552952492,-0.10109804458169608,0,0.10109804458169608,-0.002406416063864279,-0.0001094436256440631,0.02527451114542402,0.4,0.033438682556152344,1.0175197124481201,STABILIZE
0.025,0.0,0.006,-0.14835942627532916,-0.0026964194851015854,-0.0,0.0003285581583843646,-0.0023678613267172207,0.025,0.0,0.006,-0.11585018757302011,-0.0011640489139340309,-0.0,0.0012622195427839363,9.817062884990538e-05,0.25,0,0,-0.13871014789307262,-0.025518964506271367,-0.0,-0.0,-0.025518964506271367,0.002,8e-05,0.0,-0.5782604438276512,-0.0017731390505731233,-4.6260835506212095e-05,-0.0,-0.0018193998860793355,-0.046561956557361235,0.0,0.046561956557361235,-0.10785677940406341,0.0,0.10785677940406341,-0.8865695252865616,0.0,0.8865695252865616,-0.10207585802508547,0,0.10207585802508547,-0.0023676826722208496,-0.00010238895739756286,0.025518964506271367,0.4,0.03343701362609863,1.050987720489502,STABILIZE
0.025,0.0,0.006,-0.15189131993606236,-0.0025689742213198963,-0.0,0.0008899119950509654,-0.001679062226268931,0.025,0.0,0.006,-0.11740498501461569,-0.0011309045318210376,-0.0,0.000231437264404198,-0.0008994672674168396,0.25,0,0,-0.14220938412327944,-0.025452203642631104,-0.0,0.0,-0.025452203642631104,0.002,8e-05,0.0,-0.6088211063093331,-0.0017782993859583153,-4.8705688504746646e-05,-0.0,-0.001827005074463062,-0.0452361812728415,0.0,0.0452361812728415,-0.10275896885279585,0.0,0.10275896885279585,-0.8891496929791577,0.0,0.8891496929791577,-0.10180881457052442,0,0.10180881457052442,-0.001680657837225736,0.0008964823249842727,0.025452203642631104,0.4,0.03437066078186035,1.0853450298309326,STABILIZE
0.025,0.0,0.006,-0.15512330962082604,-0.002409123865767239,-0.0,0.0011438629770249014,-0.0012652608887423378,0.025,0.0,0.006,-0.11873703844359464,-0.0009929121127331003,-0.0,0.000987451161801133,-5.460950931967384e-06,0.25,0,0,-0.14529008893623538,-0.022963561806104215,-0.0,0.0,-0.022963561806104215,0.002,8e-05,0.0,-0.6384238141312361,-0.0017652677603838534,-5.107390513049889e-05,0.0,-0.0018163416655143524,-0.03971648450932401,0.0,0.03971648450932401,-0.09636495463068956,0.0,0.09636495463068956,-0.8826338801919267,0.0,0.8826338801919267,-0.09185424722441686,0,0.09185424722441686,-0.0012652680175763435,3.43253034385377e-06,0.022963561806104215,0.4,0.0335390567779541,1.1188743114471436,STABILIZE
0.025,0.0,0.006,-0.1582068401576685,-0.002303883453421015,-0.0,0.0007548593278683504,-0.0015490241255526648,0.025,0.0,0.006,-0.11995768633672407,-0.0009120164207337073,-0.0,0.0005802416232389253,-0.000331774797494782,0.25,0,0,-0.14824081092314575,-0.022046545283283144,-0.0,0.0,-0.022046545283283144,0.002,8e-05,0.0,-0.667964994989558,-0.0017657535597153092,-5.343719959916464e-05,-0.0,-0.0018191907593144738,-0.03648065682934829,0.0,0.03648065682934829,-0.0921553381368406,0.0,0.0921553381368406,-0.8828767798576546,0.0,0.8828767798576546,-0.08818618113313258,0,0.08818618113313258,-0.0015495329381729774,0.000329390241679867,0.022046545283283144,0.4,0.033460140228271484,1.152360439300537,STABILIZE
0.025,0.0,0.006,-0.1611665290743278,-0.0022118901028273024,-0.0,0.000660001844573843,-0.0015518882582534594,0.025,0.0,0.006,-0.12102119746464833,-0.0007948030365155953,-0.0,0.0008409417560445266,4.613871952893127e-05,0.25,0,0,-0.15091593857961416,-0.01999226457157845,-0.0,0.0,-0.01999226457157845,0.002,8e-05,0.0,-0.6974941465446174,-0.001765462247113375,-5.5799531723569396e-05,0.0,-0.0018212617788369444,-0.03179212146062381,0.0,0.03179212146062381,-0.08847560411309209,0.0,0.08847560411309209,-0.8827311235566875,0.0,0.8827311235566875,-0.0799690582863138,0,0.0799690582863138,-0.001551822349812566,-4.8304680590302184e-05,0.01999226457157845,0.4,0.03345203399658203,1.1857919692993164,STABILIZE
0.025,0.0,0.006,-0.16425333233447698,-0.0021002432081097602,-0.0,0.0007292534964884708,-0.0013709897116212894,0.025,0.0,0.006,-0.12210473936497952,-0.0007372356852969456,-0.0,0.00037601755307202413,-0.0003612181322249215,0.25,0,0,-0.15377180064222662,-0.01943112143794431,-0.0,0.0,-0.01943112143794431,0.002,8e-05,0.0,-0.7297640673075543,-0.0017565014987141795,-5.838112538460435e-05,0.0,-0.0018148826240987838,-0.029489427411877826,0.0,0.029489427411877826,-0.08400972832439041,0.0,0.08400972832439041,-0.8782507493570897,0.0,0.8782507493570897,-0.07772448575177723,0,0.07772448575177723,-0.0013714784598097517,0.00035935798682839665,0.01943112143794431,0.4,0.0367434024810791,1.2225430011749268,STABILIZE
0.025,0.0,0.006,-0.16696330448494268,-0.002023377948893618,-0.0,0.0005509516829791762,-0.0014724262659144417,0.025,0.0,0.006,-0.1229969699189249,-0.0006661764505114941,-0.0,0.0005093354968877174,-0.00015684095362377673,0.25,0,0,-0.15622739877620015,-0.018334517256100025,-0.0,0.0,-0.018334517256100025,0.002,8e-05,0.0,-0.7591365096129448,-0.0017544549911530057,-6.0730920769035585e-05,0.0,-0.0018151859119220413,-0.02664705802045976,0.0,0.02664705802045976,-0.08093511795574472,0.0,0.08093511795574472,-0.8772274955765028,0.0,0.8772274955765028,-0.0733380690244001,0,0.0733380690244001,-0.0014726258146388201,0.00015495613362404703,0.018334517256100025,0.4,0.033483266830444336,1.2560148239135742,STABILIZE
0.025,0.0,0.006,-0.16943407600887034,-0.001844623193479552,-0.0,0.0012811616048055007,-0.0005634615886740513,0.025,0.0,0.006,-0.123811899843675,-0.0006084085985680041,-0.0,0.0004140306853971637,-0.00019437791317084046,0.25,0,0,-0.15866263055719737,-0.018180900100326438,-0.0,0.0,-0.018180900100326438,0.002,8e-05,0.0,-0.7882863824380545,-0.0017410118573715973,-6.306291059504437e-05,0.0,-0.0018040747679666418,-0.024336343942720162,0.0,0.024336343942720162,-0.07378492773918208,0.0,0.07378492773918208,-0.8705059286857987,0.0,0.8705059286857987,-0.07272360040130575,0,0.07272360040130575,-0.0005637078520581682,0.00019366257399844447,0.018180900100326438,0.4,0.033486127853393555,1.2895174026489258,STABILIZE
0.025,0.0,0.006,-0.17177869263719336,-0.0017524226083172568,-0.0,0.0006615640803157227,-0.001090858528001534,0.025,0.0,0.006,-0.1246946428366272,-0.0006597832496349445,-0.0,-0.0003686269856619151,-0.0010284102352968597,0.25,0,0,-0.16103405137831286,-0.017724567038191752,-0.0,0.0,-0.017724567038191752,0.002,8e-05,0.0,-0.8174997283094114,-0.0017467803358939334,-6.539997826475292e-05,-0.0,-0.0018121803141586863,-0.02639132998539778,0.0,0.02639132998539778,-0.07009690433269027,0.0,0.07009690433269027,-0.8733901679469667,0.0,0.8733901679469667,-0.07089826815276701,0,0.07089826815276701,-0.0010921302557987285,0.0010270596109992931,0.017724567038191752,0.4,0.033448219299316406,1.3229594230651855,STABILIZE
0.025,0.0,0.006,-0.1740371371946434,-0.0016872097694289043,-0.0,0.00046769635748463107,-0.0012195134119442732,0.025,0.0,0.006,-0.12538469027810165,-0.0005155117847743971,-0.0,0.0010346925506459063,0.0005191807658715092,0.25,0,0,-0.16323910438023345,-0.01647322691485326,-0.0,0.0,-0.01647322691485326,0.002,8e-05,0.0,-0.8468940075838729,-0.0017567600672274766,-6.775152060670984e-05,-0.0,-0.0018245115878341865,-0.020620471390975885,0.0,0.020620471390975885,-0.06748839077715617,0.0,0.06748839077715617,-0.8783800336137383,0.0,0.8783800336137383,-0.06589290765941304,0,0.06589290765941304,-0.0012189155227038447,-0.000520582921420308,0.01647322691485326,0.4,0.03346419334411621,1.3564486503601074,STABILIZE
0.025,0.0,0.006,-0.17620033384580105,-0.0016167212576419978,-0.0,0.0005057416502095386,-0.0011109796074324592,0.025,0.0,0.006,-0.12604235324373142,-0.0004915215157755166,-0.0,0.00017212561203084367,-0.0003193959037446729,0.25,0,0,-0.16528604758061505,-0.015298362187606142,-0.0,0.0,-0.015298362187606142,0.002,8e-05,0.0,-0.8759769878729053,-0.0017388737152010316,-7.007815902983244e-05,0.0,-0.001808951874230864,-0.01966086063102066,0.0,0.01966086063102066,-0.06466885030567991,0.0,0.06466885030567991,-0.8694368576005158,0.0,0.8694368576005158,-0.06119344875042457,0,0.06119344875042457,-0.001111320097230859,0.0003182091654092503,0.015298362187606142,0.4,0.03345036506652832,1.3898851871490479,STABILIZE
0.025,0.0,0.006,-0.178301332304491,-0.0015699113231805403,-0.0,0.0003357829607663584,-0.001234128362414182,0.025,0.0,0.006,-0.12656554207973,-0.00039093797256184573,-0.0,0.0007215186334530421,0.00033058066089119634,0.25,0,0,-0.1672091811674614,-0.014370068580923398,-0.0,0.0,-0.014370068580923398,0.002,8e-05,0.0,-0.9050962903065053,-0.0017406856220973138,-7.240770322452043e-05,-0.0,-0.0018130933253218344,-0.015637518902473828,0.0,0.015637518902473828,-0.06279645292722161,0.0,0.06279645292722161,-0.8703428110486569,0.0,0.8703428110486569,-0.05748027432369359,0,0.05748027432369359,-0.0012337960962808703,-0.0003318185966344497,0.014370068580923398,0.4,0.033457279205322266,1.4233481884002686,STABILIZE
0.025,0.0,0.006,-0.1804300443738356,-0.0015401022450546756,-0.0,0.000207039118411338,-0.0013330631266433375,0.025,0.0,0.006,-0.12690728149007793,-0.00024724510218168504,-0.0,0.0009980196328074177,0.0007507745306257326,0.25,0,0,-0.16910904065308752,-0.013745296516320681,-0.0,0.0,-0.013745296516320681,0.002,8e-05,0.0,-0.9352321718797687,-0.001744241113152493,-7.48185737503815e-05,-0.0,-0.0018190596869028745,-0.0098898040872674,0.0,0.0098898040872674,-0.06160408980218702,0.0,0.06160408980218702,-0.8721205565762464,0.0,0.8721205565762464,-0.054981186065282725,0,0.054981186065282725,-0.0013323420677024546,-0.0007520533957657186,0.013745296516320681,0.4,0.03455471992492676,1.4579172134399414,STABILIZE
0.025,0.0,0.006,-0.18216305291505352,-0.0012957908442192,-0.0,0.0017536752419797861,0.00045788439776058617,0.025,0.0,0.006,-0.1272114512456614,-0.00022743129938440642,-0.0,0.0001422241258338028,-8.520717355060362e-05,0.25,0,0,-0.17072282562345986,-0.012066459797580845,-0.0,0.0,-0.012066459797580845,0.002,8e-05,0.0,-0.9640619088538773,-0.001724506640275127,-7.71249527083102e-05,0.0,-0.0018016315929834372,-0.009097251975376256,0.0,0.009097251975376256,-0.051831633768767996,0.0,0.051831633768767996,-0.8622533201375635,0.0,0.8622533201375635,-0.04826583919032338,0,0.04826583919032338,0.00045781245696749606,8.559286408598532e-05,0.012066459797580845,0.4,0.03343534469604492,1.49135160446167,STABILIZE
0.025,0.0,0.006,-0.18369662862402936,-0.0011278533031849561,-0.0,0.0011856770611624672,5.7823757977511084e-05,0.025,0.0,0.006,-0.12743487722854197,-0.0001643164607617945,-0.0,0.0004456050500259657,0.0002812885892641712,0.25,0,0,-0.1722955440584554,-0.011566404394043092,-0.0,0.0,-0.011566404394043092,0.002,8e-05,0.0,-0.9934869024914618,-0.0017312259747519958,-7.947895219931695e-05,-0.0,-0.0018107049269513128,-0.00657265843047178,0.0,0.00657265843047178,-0.045114132127398246,0.0,0.045114132127398246,-0.8656129873759979,0.0,0.8656129873759979,-0.04626561757617237,0,0.04626561757617237,5.8050876080795245e-05,-0.00028124180561061956,0.011566404394043092,0.4,0.03399324417114258,1.5253379344940186,STABILIZE
0.025,0.0,0.006,-0.18498465480187395,-0.0009622969109301587,-0.0,0.0011874124244384994,0.00022511551350834068,0.025,0.0,0.006,-0.12757318211676819,-0.0001033289299518328,-0.0,0.0004374180352282703,0.0003340891052764375,0.25,0,0,-0.17378040138503204,-0.011093513805191463,-0.0,0.0,-0.011093513805191463,0.002,8e-05,0.0,-1.022562186455832,-0.0017377942420487781,-8.180497491646657e-05,-0.0,-0.0018195992169652447,-0.004133157198073311,0.0,0.004133157198073311,-0.03849187643720635,0.0,0.03849187643720635,-0.8688971210243891,0.0,0.8688971210243891,-0.04437405522076585,0,0.04437405522076585,0.00022537418908325188,-0.00033391465912954634,0.011093513805191463,0.4,0.0334622859954834,1.5588245391845703,STABILIZE
0.025,0.0,0.006,-0.18644006033844596,-0.001088332465139001,-0.0,-0.0009047776628714567,-0.0019931101280104575,0.025,0.0,0.006,-0.12751785719355496,4.1371225099288026e-05,-0.0,0.0010387661555195165,0.0010801373806188046,0.25,0,0,-0.17523005322175617,-0.010840299266493882,-0.0,0.0,-0.010840299266493882,0.002,8e-05,0.0,-1.0515594730435032,-0.0017347021212319592,-8.412475784348025e-05,0.0,-0.0018188268790754396,0.001654849003971521,0.0,-0.001654849003971521,-0.04353329860556003,0.0,0.04353329860556003,-0.8673510606159796,0.0,0.8673510606159796,-0.04336119706597553,0,0.04336119706597553,-0.0019922921140439255,-0.0010816454482436937,0.010840299266493882,0.4,0.0334320068359375,1.592254877090454,STABILIZE
0.025,0.0,0.006,-0.18784361146691345,-0.0010488832390808695,-0.0,0.0002830144618256615,-0.000765868777255208,0.025,0.0,0.006,-0.12732768724436483,0.00014211528759924667,-0.0,0.000722752496805439,0.0008648677844046857,0.25,0,0,-0.17661761697104858,-0.010369357626309857,-0.0,0.0,-0.010369357626309857,0.002,8e-05,0.0,-1.0804298926524958,-0.0017260047671319519,-8.643439141219967e-05,0.0,-0.0018124391585441517,0.005684611503969867,0.0,-0.005684611503969867,-0.04195532956323478,0.0,0.04195532956323478,-0.8630023835659759,0.0,0.8630023835659759,-0.04147743050523943,0,0.04147743050523943,-0.0007652424835093555,-0.0008654219837211734,0.010369357626309857,0.4,0.03345346450805664,1.625718116760254,STABILIZE
0.025,0.0,0.006,-0.189316142978488,-0.001101618260368866,-0.0,-0.000378736261173055,-0.001480354521541921,0.025,0.0,0.006,-0.12724406961018705,6.255534226264567e-05,-0.0,-0.0005713894770490134,-0.0005088341347863677,0.25,0,0,-0.17932136579837898,-0.020227065133928412,-0.0,-0.0,-0.020227065133928412,0.002,8e-05,0.0,-1.1083377079678178,-0.0016702533679832272,-8.866701663742543e-05,0.0,-0.0017589203846206526,0.0025022136905058267,0.0,-0.0025022136905058267,-0.04406473041475464,0.0,0.04406473041475464,-0.8351266839916136,0.0,0.8351266839916136,-0.08090826053571365,0,0.08090826053571365,-0.0014810715779260827,0.000506743196533456,0.020227065133928412,0.4,0.033417463302612305,1.6591451168060303,STABILIZE
0.025,0.0,0.006,-0.1911930929405307,-0.0014035676625082055,-0.0,-0.0021676345567114784,-0.003571202219219684,0.025,0.0,0.006,-0.1286127701306424,-0.0010235029324269054,-0.0,-0.007796595820822803,-0.008820098753249708,0.25,0,0,-0.17995620538321874,-0.0047472779252544055,-0.0,0.0,-0.0047472779252544055,0.002,8e-05,0.0,-1.1374466738869142,-0.001741395522707823,-9.099573391095315e-05,-0.0,-0.0018323912566187762,-0.040940117297076216,0.0,0.040940117297076216,-0.05614270650032822,0.0,0.05614270650032822,-0.8706977613539114,0.0,0.8706977613539114,-0.018989111701017622,0,0.018989111701017622,-0.0035741252024002993,0.00881891469202439,0.0047472779252544055,0.4,0.0334317684173584,1.6925771236419678,STABILIZE
0.025,0.0,0.006,-0.1925370321362134,-0.0010044135806448857,-0.0,0.002863813709772107,0.0018594001291272215,0.025,0.0,0.006,-0.1281935476903714,0.0003133123237062795,-0.0,0.009591258193014448,0.009904570516720728,0.25,0,0,-0.18163541213042753,-0.012549809299595847,-0.0,-0.0,-0.012549809299595847,0.002,8e-05,0.0,-1.1669292516566654,-0.001762740552518171,-9.335434013253324e-05,-0.0,-0.0018560948926507042,0.012532492948251178,0.0,-0.012532492948251178,-0.040176543225795426,0.0,0.040176543225795426,-0.8813702762590855,0.0,0.8813702762590855,-0.05019923719838339,0,0.05019923719838339,0.0018680772242917,-0.009902937616938444,0.012549809299595847,0.4,0.03345084190368652,1.72607421875,STABILIZE
0.025,0.0,0.006,-0.19529742127344393,-0.0020624164908800095,-0.0,-0.0075886436272202375,-0.009651060118100248,0.025,0.0,0.006,-0.1284994938695887,-0.0002285867730853954,-0.0,-0.003886831583998819,-0.004115418357084214,0.25,0,0,-0.1836508802781793,-0.01505851000753115,-0.0,-0.0,-0.01505851000753115,0.002,8e-05,0.0,-1.1959584110485355,-0.001735123971868535,-9.567667288388285e-05,0.0,-0.0018308006447524177,-0.009143470923415815,0.0,0.009143470923415815,-0.08249665963520038,0.0,0.08249665963520038,-0.8675619859342675,0.0,0.8675619859342675,-0.0602340400301246,0,0.0602340400301246,-0.009655381250713902,0.004105270095910056,0.01505851000753115,0.4,0.03346061706542969,1.7594969272613525,STABILIZE
0.025,0.0,0.006,-0.1960505965695694,-0.0005632102259298156,-0.0,0.010762349368068162,0.010199139142138346,0.025,0.0,0.006,-0.13015885021314147,-0.0012408352556942063,-0.0,-0.007266626395464546,-0.008507461651158753,0.25,0,0,-0.1859535335435415,-0.017218805137318074,-0.0,-0.0,-0.017218805137318074,0.002,8e-05,0.0,-1.225216683425245,-0.001750302568910276,-9.80173346740196e-05,-0.0,-0.0018483199035842955,-0.04963341022776825,0.0,0.04963341022776825,-0.022528409037192623,0.0,0.022528409037192623,-0.8751512844551379,0.0,0.8751512844551379,-0.0688752205492723,0,0.0688752205492723,0.01018890496120051,0.008519715880137023,0.017218805137318074,0.4,0.0334322452545166,1.7929248809814453,STABILIZE
0.025,0.0,0.006,-0.19477688408169502,0.0009521117979450389,-0.0,0.010874084620650256,0.011826196418595294,0.025,0.0,0.006,-0.13318590297196342,-0.002262749774469243,-0.0,-0.007333348804510328,-0.009596098578979572,0.25,0,0,-0.18854780763793014,-0.01939243742905185,-0.0,-0.0,-0.01939243742905185,0.002,8e-05,0.0,-1.2547371916219077,-0.0017653481081766655,-0.00010037897532975262,-0.0,-0.0018657270835064181,-0.09050999097876972,0.0,0.09050999097876972,0.03808447191780155,0.0,-0.03808447191780155,-0.8826740540883327,0.0,0.8826740540883327,-0.0775697497162074,0,0.0775697497162074,0.01181319393004667,0.009612100646570365,0.01939243742905185,0.4,0.03344440460205078,1.8263709545135498,STABILIZE
0.025,0.0,0.006,-0.19296107493910147,0.001356618373711569,-0.0,0.0029012444011637085,0.004257862774875278,0.025,0.0,0.006,-0.13570229362630873,-0.0018800333785327916,-0.0,0.002744958592675753,0.0008649252141429615,0.25,0,0,-0.1913203454812376,-0.02071404803408596,-0.0,-0.0,-0.02071404803408596,0.002,8e-05,0.0,-1.2843947862418796,-0.0017726108691831434,-0.00010275158289935038,-0.0,-0.0018753624520824938,-0.07520133514131166,0.0,0.07520133514131166,0.054264734948462755,0.0,-0.054264734948462755,-0.8863054345915717,0.0,0.8863054345915717,-0.08285619213634383,0,0.08285619213634383,0.0042591091022316716,-0.0008587669596672714,0.02071404803408596,0.4,0.0334620475769043,1.8598418235778809,STABILIZE
0.025,0.0,0.006,-0.1910657448345768,0.001418657762639776,-0.0,0.0004457912321606985,0.0018644489948004745,0.025,0.0,0.006,-0.1376519760705451,-0.0014593405800896538,-0.0,0.0030229369473017296,0.0015635963672120758,0.25,0,0,-0.1947224982552526,-0.025465170584378045,-0.0,-0.0,-0.025465170584378045,0.002,8e-05,0.0,-1.3133755712034578,-0.0017353732927045068,-0.00010507004569627663,0.0,-0.0018404433384007835,-0.05837362320358615,0.0,0.05837362320358615,0.056746310505591036,0.0,-0.056746310505591036,-0.8676866463522533,0.0,0.8676866463522533,-0.10186068233751218,0,0.10186068233751218,0.0018672258152811602,-0.0015602792726043973,0.025465170584378045,0.4,0.03340005874633789,1.8932392597198486,STABILIZE
0.025,0.0,0.006,-0.1886213273241458,0.0014886499799150413,-0.0,0.00040920242102894413,0.0018978524009439855,0.025,0.0,0.006,-0.14003966402905377,-0.0014541016893838878,-0.0,3.062864478024016e-05,-0.0014234730446036476,0.25,0,0,-0.197955911664152,-0.019691483904344824,-0.0,0.0,-0.019691483904344824,0.002,8e-05,0.0,-1.3488621877806124,-0.0017289076298760049,-0.00010790897502244901,0.0,-0.0018368166048984538,-0.058164067575355506,0.0,0.058164067575355506,0.059545999196601654,0.0,-0.059545999196601654,-0.8644538149380024,0.0,0.8644538149380024,-0.0787659356173793,0,0.0787659356173793,0.0018958937243546631,0.0014260807236740256,0.019691483904344824,0.4,0.04105091094970703,1.9342999458312988,STABILIZE
0.025,0.0,0.006,-0.18733399011669294,0.0009630584665516383,-0.0,-0.0037746779927077517,-0.0028116195261561135,0.025,0.0,0.006,-0.14160334454148865,-0.0011697912153582801,-0.0,0.0020418527737124143,0.0008720615583541341,0.25,0,0,-0.1999940060899674,-0.015247008173536919,-0.0,0.0,-0.015247008173536919,0.002,8e-05,0.0,-1.3774300348756499,-0.0017097311788549813,-0.000110194402790052,0.0,-0.0018199255816450334,-0.0467916486143312,0.0,0.0467916486143312,0.03852233866206553,0.0,-0.03852233866206553,-0.8548655894274907,0.0,0.8548655894274907,-0.060988032694147674,0,0.060988032694147674,-0.002810689674570131,-0.0008750538695910214,0.015247008173536919,0.4,0.03341794013977051,1.967752456665039,STABILIZE
0.025,0.0,0.006,-0.18497895261790456,0.0017601361390251705,-0.0,0.005719002813952746,0.007479138952977917,0.025,0.0,0.006,-0.14354100269856704,-0.0014481901664432958,-0.0,-0.00199750217530973,-0.0034456923417530254,0.25,0,0,-0.2039295589756218,-0.029414006633223175,-0.0,-0.0,-0.029414006633223175,0.002,8e-05,0.0,-1.406065906037207,-0.0017121776355529391,-0.00011248527248297656,-0.0,-0.0018246629080359157,-0.05792760665773183,0.0,0.05792760665773183,0.07040544556100682,0.0,-0.07040544556100682,-0.8560888177764695,0.0,0.8560888177764695,-0.1176560265328927,0,0.1176560265328927,0.007472047511233375,0.003461043366073036,0.029414006633223175,0.4,0.033449649810791016,2.0011751651763916,STABILIZE
0.025,0.0,0.006,-0.18155687774647694,0.002559711222665982,-0.0,0.005741587008414639,0.008301298231080622,0.025,0.0,0.006,-0.14585217498433373,-0.0017287563421789166,-0.0,-0.0020146889798880628,-0.0037434453220669796,0.25,0,0,-0.20977766765344943,-0.043743839560590324,-0.0,-0.0,-0.043743839560590324,0.002,8e-05,0.0,-1.434717445318055,-0.0017145075873397533,-0.0001147773956254444,-0.0,-0.0018292849829651978,-0.06915025368715666,0.0,0.06915025368715666,0.10238844890663928,0.0,-0.10238844890663928,-0.8572537936698766,0.0,0.8572537936698766,-0.1749753582423613,0,0.1749753582423613,0.008289827445647137,0.0037687791288483438,0.043743839560590324,0.4,0.03342247009277344,2.0345957279205322,STABILIZE
0.025,0.0,0.006,-0.17788692599243153,0.0027413488893835328,-0.0,0.0013025101127348586,0.004043859002118391,0.025,0.0,0.006,-0.14735948232270674,-0.001125915427485863,-0.0,0.004322927077559544,0.0031970116500736807,0.25,0,0,-0.21546733694255849,-0.04250020063469662,-0.0,0.0,-0.04250020063469662,0.002,8e-05,0.0,-1.463426669755169,-0.001715597496648107,-0.00011707413358041353,-0.0,-0.0018326716302285205,-0.04503661709943452,0.0,0.04503661709943452,0.1096539555753413,0.0,-0.1096539555753413,-0.8577987483240536,0.0,0.8577987483240536,-0.17000080253878647,0,0.17000080253878647,0.004053326957401864,-0.003184999167365689,0.04250020063469662,0.4,0.03346848487854004,2.068058729171753,STABILIZE
0.025,0.0,0.006,-0.17449557070006882,0.0025347982173086754,-0.0,-0.001482067377242325,0.0010527308400663505,0.025,0.0,0.006,-0.1519008790170936,-0.003394372825208601,-0.0,-0.0162769100291789,-0.019671282854387503,0.25,0,0,-0.22006880642990917,-0.03439272989121339,-0.0,0.0,-0.03439272989121339,0.002,8e-05,0.0,-1.4931106390110358,-0.001774933402509909,-0.00011944885112088288,-0.0,-0.001894382253630792,-0.13577491300834404,0.0,0.13577491300834404,0.101391928692347,0.0,-0.101391928692347,-0.8874667012549545,0.0,0.8874667012549545,-0.13757091956485357,0,0.13757091956485357,0.0010054958122633483,0.019673753824079113,0.03439272989121339,0.4,0.033447980880737305,2.1015963554382324,STABILIZE
0.025,0.0,0.006,-0.17068834708495323,0.002843623697872678,-0.0,0.0022143593391521074,0.005057983037024785,0.025,0.0,0.006,-0.15583941192668696,-0.0029416988989313863,-0.0,0.0032457902580187666,0.0003040913590873803,0.25,0,0,-0.22435721099307968,-0.03203018807059682,-0.0,0.0,-0.03203018807059682,0.002,8e-05,0.0,-1.5229074508803397,-0.0017804243494646218,-0.00012183259607042718,-0.0,-0.001902256945535049,-0.11766795595725545,0.0,0.11766795595725545,0.11374494791490711,0.0,-0.11374494791490711,-0.8902121747323108,0.0,0.8902121747323108,-0.12812075228238728,0,0.12812075228238728,0.005058650378312779,-0.00029278030585758045,0.03203018807059682,0.4,0.03347158432006836,2.1350510120391846,STABILIZE
0.025,0.0,0.006,-0.16643796467004826,0.003177131994875493,-0.0,0.002393233799759785,0.0055703657946352785,0.025,0.0,0.006,-0.15921444637505547,-0.0025228153335370707,-0.0,0.003005881160603037,0.00048306582706596646,0.25,0,0,-0.2283536318176367,-0.029872974304997402,-0.0,0.0,-0.029872974304997402,0.002,8e-05,0.0,-1.5529339297855431,-0.0017955671280521048,-0.00012423471438284347,-0.0,-0.0019198018424349482,-0.10091261334148283,0.0,0.10091261334148283,0.1270852797950197,0.0,-0.1270852797950197,-0.8977835640260524,0.0,0.8977835640260524,-0.11949189721998961,0,0.11949189721998961,0.005571361126813251,-0.0004714476364940406,0.029872974304997402,0.4,0.033445119857788086,2.1684327125549316,STABILIZE
0.025,0.0,0.006,-0.16248324656376203,0.0029543979403232916,-0.0,-0.001597391302617422,0.0013570066377058695,0.025,0.0,0.006,-0.1633836332218278,-0.003114618210928352,-0.0,-0.004244257893609353,-0.007358876104537705,0.25,0,0,-0.23107484191633762,-0.020328977425747907,-0.0,0.0,-0.020328977425747907,0.002,8e-05,0.0,-1.5830247158086659,-0.001798361427746,-0.00012664197726469328,-0.0,-0.0019250034050106932,-0.12458472843713407,0.0,0.12458472843713407,0.11817591761293166,0.0,-0.11817591761293166,-0.8991807138729999,0.0,0.8991807138729999,-0.08131590970299163,0,0.08131590970299163,0.001346561334188194,0.007360794597730814,0.020328977425747907,0.4,0.033464670181274414,2.2019081115722656,STABILIZE
0.025,0.0,0.006,-0.15920595450011052,0.0024516935412757833,-0.0,-0.0036102307032861596,-0.0011585371620103763,0.025,0.0,0.006,-0.16810821907386383,-0.0035343925392275887,-0.0,-0.003014658656953601,-0.0065490511961811895,0.25,0,0,-0.23263803070148084,-0.011693983245607591,-0.0,0.0,-0.011693983245607591,0.002,8e-05,0.0,-1.6134420445680282,-0.0018203801678658225,-0.00012907536356544227,-0.0,-0.0019494555314312648,-0.14137570156910353,0.0,0.14137570156910353,0.09806774165103133,0.0,-0.09806774165103133,-0.9101900839329112,0.0,0.9101900839329112,-0.046775932982430365,0,0.046775932982430365,-0.0011638833817067254,0.006548103190981969,0.011693983245607591,0.4,0.03341865539550781,2.235320806503296,STABILIZE
0.025,0.0,0.006,-0.15558190879140343,0.0027017656009535947,-0.0,0.001789741899487899,0.004491507500441493,0.025,0.0,0.006,-0.17260961225524118,-0.0033558377104882502,-0.0,0.001277899893184408,-0.002077937817303842,0.25,0,0,-0.2346800345178124,-0.01522336115884371,-0.0,-0.0,-0.01522336115884371,0.002,8e-05,0.0,-1.6433235737435588,-0.0017821604719029168,-0.0001314658858994847,0.0,-0.0019136263578024015,-0.13423350841953,0.0,0.13423350841953,0.10807062403814378,0.0,-0.10807062403814378,-0.8910802359514584,0.0,0.8910802359514584,-0.06089344463537484,0,0.06089344463537484,0.004489296550400379,0.0020827101770690293,0.01522336115884371,0.4,0.03353404998779297,2.268855094909668,STABILIZE
0.025,0.0,0.006,-0.15211878836122267,0.0025878104173862396,-0.0,-0.0008174669071209713,0.0017703435102652681,0.025,0.0,0.006,-0.17534622619975482,-0.0020449297726579975,-0.0,0.009403906201643063,0.007358976428985066,0.25,0,0,-0.23600786311741906,-0.00992217496284439,-0.0,0.0,-0.00992217496284439,0.002,8e-05,0.0,-1.6734212780308222,-0.0017992363653359861,-0.0001338737022424658,-0.0,-0.001933110067578452,-0.0817971909063199,0.0,0.0817971909063199,0.10351241669544957,0.0,-0.10351241669544957,-0.8996181826679931,0.0,0.8996181826679931,-0.03968869985137756,0,0.03968869985137756,0.0017754406369719716,-0.007357748349276748,0.00992217496284439,0.4,0.03345608711242676,2.3023061752319336,STABILIZE
0.025,0.0,0.006,-0.1487555168297603,0.0025122854400856896,-0.0,-0.0005415878173903306,0.0019706976226953592,0.025,0.0,0.006,-0.17811652356765878,-0.002069347561440179,-0.0,-0.00017509938307447203,-0.002244446944514651,0.25,0,0,-0.2371527969301966,-0.008552388710798475,-0.0,0.0,-0.008552388710798475,0.002,8e-05,0.0,-1.7036957829833799,-0.0018091479629072263,-0.0001362956626386704,-0.0,-0.0019454436255458966,-0.08277390245760716,0.0,0.08277390245760716,0.10049141760342759,0.0,-0.10049141760342759,-0.9045739814536131,0.0,0.9045739814536131,-0.0342095548431939,0,0.0342095548431939,0.001969357180988294,0.002245623187564676,0.008552388710798475,0.4,0.03346824645996094,2.3357856273651123,STABILIZE
0.025,0.0,0.006,-0.14501989187236183,0.002786078221365661,-0.0,0.001960303267160925,0.004746381488526586,0.025,0.0,0.006,-0.18189027130345595,-0.002814510690857606,-0.0,-0.0053352236327630954,-0.008149734323620702,0.25,0,0,-0.23780561710904066,-0.004868818747832947,-0.0,0.0,-0.004868818747832947,0.002,8e-05,0.0,-1.7336749351735914,-0.0017887076773429092,-0.00013869399481388734,0.0,-0.0019274016721567966,-0.11258042763430423,0.0,0.11258042763430423,0.11144312885462644,0.0,-0.11144312885462644,-0.8943538386714546,0.0,0.8943538386714546,-0.019475274991331788,0,0.019475274991331788,0.004743611057172158,0.008151347184269804,0.004868818747832947,0.4,0.03352046012878418,2.3693013191223145,STABILIZE
0.025,0.0,0.006,-0.14160671467987215,0.0025516905779964676,-0.0,-0.0016821902853446525,0.0008695002926518152,0.025,0.0,0.006,-0.18604356105953412,-0.0031049985806753475,-0.0,-0.0020848194010465444,-0.005189817981721892,0.25,0,0,-0.23700795714188574,0.005963304299327924,-0.0,0.0,0.005963304299327924,0.002,8e-05,0.0,-1.7638407738437418,-0.0018041579905398802,-0.00014110726190749937,-0.0,-0.0019452652524473795,-0.1241999432270139,0.0,0.1241999432270139,0.1020676231198587,0.0,-0.1020676231198587,-0.9020789952699401,0.0,0.9020789952699401,0.023853217197311698,0,-0.023853217197311698,0.0008716608276112922,0.005189455544075263,-0.005963304299327924,0.4,0.033440351486206055,2.4027493000030518,STABILIZE
0.025,0.0,0.006,-0.13858799255608129,0.0022523478465846024,-0.0,-0.0021441357358656225,0.00010821211071897988,0.025,0.0,0.006,-0.18982277666076278,-0.00281977200025185,-0.0,0.002043024398889847,-0.0007767476013620031,0.25,0,0,-0.2362724310635297,0.005487953215818515,-0.0,-0.0,0.005487953215818515,0.002,8e-05,0.0,-1.793666685425586,-0.001780311667492675,-0.0001434933348340469,0.0,-0.001923805002326722,-0.112790880010074,0.0,0.112790880010074,0.09009391386338408,0.0,-0.09009391386338408,-0.8901558337463374,0.0,0.8901558337463374,0.02195181286327406,0,-0.02195181286327406,0.00010850969917418044,0.0007767060848950592,-0.005487953215818515,0.4,0.03350639343261719,2.4363210201263428,STABILIZE
0.025,0.0,0.006,-0.1359511102980561,0.001960374815191843,-0.0,-0.0020838302987816935,-0.00012345548358985063,0.025,0.0,0.006,-0.19324032908994118,-0.002540759524384884,-0.0,0.0019913299806363486,-0.0005494295437485355,0.25,0,0,-0.23560272113130398,0.004978919633682575,-0.0,-0.0,0.004978919633682575,0.002,8e-05,0.0,-1.8232196552208069,-0.0017576787139237495,-0.00014585757241766456,0.0,-0.001903536286341414,-0.10163038097539535,0.0,0.10163038097539535,0.0784149926076737,0.0,-0.0784149926076737,-0.8788393569618748,0.0,0.8788393569618748,0.0199156785347303,0,-0.0199156785347303,-0.00012326449763314906,0.0005494724229616762,-0.004978919633682575,0.4,0.03362727165222168,2.4698894023895264,STABILIZE
0.025,0.0,0.006,-0.13272401199040873,0.0024130941781226813,-0.0,0.003249842987943894,0.005662937166066575,0.025,0.0,0.006,-0.19372463380662366,-0.00036214356702255585,-0.0,0.015639180411062433,0.015277036844039877,0.25,0,0,-0.23797023260541553,-0.017703297545286566,-0.0,-0.0,-0.017703297545286566,0.002,8e-05,0.0,-1.8522139419805008,-0.001734460816711682,-0.00014817711535844007,0.0,-0.001882637932070122,-0.014485742680902233,0.0,0.014485742680902233,0.09652376712490725,0.0,-0.09652376712490725,-0.867230408355841,0.0,0.867230408355841,-0.07081319018114626,0,0.07081319018114626,0.005681814082307976,-0.015270026221819555,0.017703297545286566,0.4,0.03343319892883301,2.503319501876831,STABILIZE
0.025,0.0,0.006,-0.13031618089540284,0.0017756355172105819,-0.0,-0.004512851718544655,-0.0027372162013340733,0.025,0.0,0.006,-0.1935809345892938,0.0001059698226405978,-0.0,0.0033139816658737456,0.003419951488514343,0.25,0,0,-0.23897004265596228,-0.0073730181485616025,-0.0,0.0,-0.0073730181485616025,0.002,8e-05,0.0,-1.8819864422593389,-0.001756439113720719,-0.00015055891538074713,-0.0,-0.0019069980291014663,0.004238792905623912,0.0,-0.004238792905623912,0.07102542068842327,0.0,-0.07102542068842327,-0.8782195568603596,0.0,0.8782195568603596,-0.02949207259424641,0,0.02949207259424641,-0.002735455474275008,-0.003421359973007239,0.0073730181485616025,0.4,0.03390097618103027,2.537220001220703,STABILIZE
0.025,0.0,0.006,-0.12779319239625103,0.0018856479294126075,-0.0,0.0007893293618034707,0.0026749772912160784,0.025,0.0,0.006,-0.19365455176926533,-5.502049772686882e-05,-0.0,-0.001155091360044271,-0.00121011185777114,0.25,0,0,-0.24146514888689746,-0.018648090942979523,-0.0,-0.0,-0.018648090942979523,0.002,8e-05,0.0,-1.9113361597262182,-0.0017548469678358557,-0.00015290689277809748,0.0,-0.0019077538606139532,-0.0022008199090747527,0.0,0.0022008199090747527,0.07542591717650429,0.0,-0.07542591717650429,-0.8774234839179279,0.0,0.8774234839179279,-0.0745923637719181,0,0.0745923637719181,0.0026733996014923784,0.0012135933369874859,0.018648090942979523,0.4,0.03344988822937012,2.570681095123291,STABILIZE
0.025,0.0,0.006,-0.12586838520078603,0.0014354750499935465,-0.0,-0.0032229901290261333,-0.0017875150790325868,0.025,0.0,0.006,-0.19272099244871138,0.0006962261547553864,-0.0,0.005378512691699293,0.0060747388464546795,0.25,0,0,-0.2450972677552495,-0.0270874715473544,-0.0,-0.0,-0.0270874715473544,0.002,8e-05,0.0,-1.9407351630974485,-0.0017540057386945368,-0.0001552588130477959,0.0,-0.0019092645517423327,0.027849046190215457,0.0,-0.027849046190215457,0.057419001999741856,0.0,-0.057419001999741856,-0.8770028693472685,0.0,0.8770028693472685,-0.1083498861894176,0,0.1083498861894176,-0.0017760241803386355,-0.0060781082847582504,0.0270874715473544,0.4,0.03352212905883789,2.6042091846466064,STABILIZE
0.025,0.0,0.006,-0.12455097184459978,0.0009862057836816146,-0.0,-0.003228668275717721,-0.002242462492036106,0.025,0.0,0.006,-0.19079397441518767,0.001442551285058615,-0.0,0.005363456733556963,0.006806008018615578,0.25,0,0,-0.24984359155452085,-0.035530624918041015,-0.0,-0.0,-0.035530624918041015,0.002,8e-05,0.0,-1.9700162795134784,-0.0017535699772007428,-0.00015760130236107828,0.0,-0.001911171279561821,0.05770205140234459,0.0,-0.05770205140234459,0.03944823134726458,0.0,-0.03944823134726458,-0.8767849886003714,0.0,0.8767849886003714,-0.14212249967216406,0,0.14212249967216406,-0.002225573269785099,-0.006811549515232667,0.035530624918041015,0.4,0.033396005630493164,2.637598752975464,STABILIZE
0.025,0.0,0.006,-0.1235659570417556,0.000736480880975971,-0.0,-0.0017924696276911784,-0.0010559887467152074,0.025,0.0,0.006,-0.19045407422476532,0.0002541383042806362,-0.0,-0.00853016319205208,-0.008276024887771443,0.25,0,0,-0.2496991589138238,0.0010799013187935275,-0.0,0.0,0.0010799013187935275,0.002,8e-05,0.0,-1.9994334690954363,-0.0017595835219207253,-0.00015995467752763493,-0.0,-0.0019195381994483603,0.010165532171225448,0.0,-0.010165532171225448,0.029459235239038838,0.0,-0.029459235239038838,-0.8797917609603626,0.0,0.8797917609603626,0.00431960527517411,0,-0.00431960527517411,-0.001055364803154622,0.008276104476652278,-0.0010799013187935275,0.4,0.03343653678894043,2.671041488647461,STABILIZE
0.025,0.0,0.006,-0.12186735541296177,0.0012676328592270301,-0.0,0.003805327051867303,0.005072959911094333,0.025,0.0,0.006,-0.1905377945012588,-6.247878941577942e-05,-0.0,-0.0022683368246010534,-0.002330815614016833,0.25,0,0,-0.2521982931770224,-0.01865054558966992,-0.0,-0.0,-0.01865054558966992,0.002,8e-05,0.0,-2.0286301596057514,-0.001743113094638384,-0.00016229041276846014,0.0,-0.0019054035074068441,-0.0024991515766311766,0.0,0.0024991515766311766,0.0507053143690812,0.0,-0.0507053143690812,-0.871556547319192,0.0,0.871556547319192,-0.07460218235867969,0,0.07460218235867969,0.00506992076462606,0.0023374189026634474,0.01865054558966992,0.4,0.03349947929382324,2.704540252685547,STABILIZE
0.025,0.0,0.006,-0.11946816031050037,0.0017942006231562724,-0.0,0.003780340668578073,0.005574541291734346,0.025,0.0,0.006,-0.1910323719068271,-0.0003698619959499263,-0.0,-0.0022067686556200092,-0.0025766306515699355,0.25,0,0,-0.25731704709195413,-0.03827980248264073,-0.0,-0.0,-0.03827980248264073,0.002,8e-05,0.0,-2.0576478338705186,-0.0017360331952987825,-0.0001646118267096415,0.0,-0.001900645022008424,-0.014794479837997051,0.0,0.014794479837997051,0.0717680249262509,0.0,-0.0717680249262509,-0.8680165976493912,0.0,0.8680165976493912,-0.1531192099305629,0,0.1531192099305629,0.00556763551722951,0.0025915190285130895,0.03827980248264073,0.4,0.033429861068725586,2.7379684448242188,STABILIZE
0.025,0.0,0.006,-0.11633593075800722,0.002340536133884714,-0.0,0.003919154912971813,0.006259691046856527,0.025,0.0,0.006,-0.19384496861116432,-0.0021016927738602407,-0.0,-0.012423342375518169,-0.01452503514937841,0.25,0,0,-0.26246435861484607,-0.0384629172600085,-0.0,-0.0,-0.0384629172600085,0.002,8e-05,0.0,-2.086735091451495,-0.001738819617475298,-0.0001669388073161196,-0.0,-0.0019057584247914178,-0.08406771095440962,0.0,0.08406771095440962,0.09362144535538855,0.0,-0.09362144535538855,-0.8694098087376491,0.0,0.8694098087376491,-0.153851669040034,0,0.153851669040034,0.006220665637800591,0.01454179139980563,0.0384629172600085,0.4,0.03345632553100586,2.7714316844940186,STABILIZE
0.025,0.0,0.006,-0.11380621360885568,0.0018907981248761328,-0.0,-0.003227037588087636,-0.0013362394632115034,0.025,0.0,0.006,-0.195098864773708,-0.0009372053763884857,-0.0,0.008355630449780377,0.007418425073391892,0.25,0,0,-0.2671746187911183,-0.03520611429606432,-0.0,0.0,-0.03520611429606432,0.002,8e-05,0.0,-2.1158462763086305,-0.001740696544173136,-0.00016926770210469046,-0.0,-0.0019099642462778264,-0.037488215055539426,0.0,0.037488215055539426,0.07563192499504531,0.0,-0.07563192499504531,-0.870348272086568,0.0,0.870348272086568,-0.1408244571842573,0,0.1408244571842573,-0.0013180020660717312,-0.007421686939396184,0.03520611429606432,0.4,0.0334477424621582,2.8048810958862305,STABILIZE
0.025,0.0,0.006,-0.11187617667804547,0.001441990498379903,-0.0,-0.003219053841767009,-0.0017770633433871058,0.025,0.0,0.006,-0.19479531889469928,0.00022678854811818765,-0.0,0.00834869751151196,0.008575486059630148,0.25,0,0,-0.27144720572445613,-0.03192182316837294,-0.0,0.0,-0.03192182316837294,0.002,8e-05,0.0,-2.1450132168437364,-0.0017433221280705176,-0.00017160105734749891,-0.0,-0.0019149231854180165,0.009071541924727505,0.0,-0.009071541924727505,0.057679619935196116,0.0,-0.057679619935196116,-0.8716610640352588,0.0,0.8716610640352588,-0.12768729267349177,0,0.12768729267349177,-0.0017579479296330111,-0.008579425060108642,0.03192182316837294,0.4,0.03346133232116699,2.838344097137451,STABILIZE
