E-kp,E-ki,E-kd,E-I-Tot,E-P,E-I,E-D,E-PID,N-kp,N-ki,N-kd,N-I-Tot,N-P,N-I,N-D,N-PID,Y-kp,Y-ki,Y-kd,Y-I-Tot,Y-P,Y-I,Y-D,Y-PID,D-kp,D-ki,D-kd,D-I-Tot,D-P,D-I,D-D,D-PID,errorN,desiredN,actualN,errorE,desiredE,actualE,errorD,desiredD,actualD,errorY,desiredY,actualY,roll,pitch,yaw-rate,thrust,dt,Time,Mode
0.03,0.005,0.02,-0.0011087196128241907,-0.0010069159602486349,-5.543598064120953e-06,-0.020321333611135688,-0.021333793169448445,0.03,0.005,0.02,-0.001105323524240928,-0.0010038317036364561,-5.526617621204641e-06,-0.02025908789249303,-0.02126844621375069,0.2,0.02,0,-0.0011012856649142105,-0.006667764028397244,-2.202571329828421e-05,-0.0,-0.006689789741695529,0.002,8e-05,0,-0.0012822073174538133,-7.763159097264977e-05,-1.0257658539630507e-07,-0.0,-7.773416755804608e-05,-0.033461056787881874,0.0,0.033461056787881874,-0.03356386534162117,0.0,0.03356386534162117,-0.03881579548632488,0.0,0.03881579548632488,-0.03333882014198622,0,0.03333882014198622,-0.021346165074371228,0.02125602907322309,0.006689789741695529,0.4,0.033033132553100586,0.033235788345336914,STABILIZE
0.03,0.005,0.02,-0.0035203898016603332,-0.0021665381862228206,-1.7601949008301667e-05,-0.023150077539124087,-0.02533421767435521,0.03,0.005,0.02,-0.003470252502650623,-0.002124547943225272,-1.7351262513253116e-05,-0.022373379247746673,-0.0245152784534852,0.2,0.02,0,-0.0034563947399117514,-0.014104841165876781,-6.912789479823504e-05,-0.0,-0.014173969060675015,0.002,8e-05,0,-0.0044465871470794035,-0.00018951595643365175,-3.557269717663523e-07,-0.0,-0.0001898716834054181,-0.07081826477417573,0.0,0.07081826477417573,-0.0722179395407607,0.0,0.0722179395407607,-0.09475797821682587,0.0,0.09475797821682587,-0.0705242058293839,0,0.0705242058293839,-0.025364373831241675,0.024484076518679447,0.014173969060675015,0.4,0.03339433670043945,0.0666189193725586,STABILIZE
0.03,0.005,0.02,-0.006592728414522046,-0.0027312524391768576,-3.296364207261023e-05,-0.011156012660567831,-0.013920228741817298,0.03,0.005,0.02,-0.006459399309681226,-0.0026572964560555488,-3.229699654840613e-05,-0.010524524789206962,-0.013214118241810917,0.2,0.02,0,-0.006463825069069786,-0.017823667803153618,-0.0001292765013813957,-0.0,-0.017952944304535014,0.002,8e-05,0,-0.008728766515862213,-0.00025378523918813666,-6.983013212689771e-07,-0.0,-0.00025448354050940563,-0.08857654853518496,0.0,0.08857654853518496,-0.09104174797256193,0.0,0.09104174797256193,-0.12689261959406833,0.0,0.12689261959406833,-0.08911833901576809,0,0.08911833901576809,-0.013940765245997426,0.013192450624848546,0.017952944304535014,0.4,0.03374648094177246,0.10036444664001465,STABILIZE
0.03,0.005,0.02,-0.010065807698609111,-0.0031123729453814883,-5.0329038493045555e-05,-0.007589737171828175,-0.010752439155702708,0.03,0.005,0.02,-0.009789161980228837,-0.0029839408785848473,-4.894580990114418e-05,-0.006504885660258517,-0.009537772348744509,0.2,0.02,0,-0.009815212651853759,-0.02002213250152573,-0.0001963042530370752,-0.0,-0.020218436754562804,0.002,8e-05,0,-0.013839142202003139,-0.00030530822411024166,-1.1071313761602513e-06,-0.0,-0.0003064153554864019,-0.09946469595282825,0.0,0.09946469595282825,-0.10374576484604961,0.0,0.10374576484604961,-0.15265411205512083,0.0,0.15265411205512083,-0.10011066250762864,0,0.10011066250762864,-0.010769087708632016,0.009518970485160407,0.020218436754562804,0.4,0.033476829528808594,0.13382720947265625,STABILIZE
0.03,0.005,0.02,-0.014005397371412428,-0.003536174611153407,-7.002698685706214e-05,-0.008453427980149057,-0.012059629578159526,0.03,0.005,0.02,-0.013534992062221342,-0.0033622560555173534,-6.76749603111067e-05,-0.007546124426319304,-0.010976055442147765,0.2,0.02,0,-0.013601750033849305,-0.02265863277899538,-0.0002720350006769861,-0.0,-0.022930667779672367,0.002,8e-05,0,-0.0200157825419726,-0.0003696100451477385,-1.6012626033578083e-06,-0.0,-0.0003712113077510963,-0.11207520185057845,0.0,0.11207520185057845,-0.11787248703844691,0.0,0.11787248703844691,-0.18480502257386924,0.0,0.18480502257386924,-0.1132931638949769,0,0.1132931638949769,-0.01208130936776974,0.010952188027593426,0.022930667779672367,0.4,0.03342247009277344,0.16723918914794922,STABILIZE
0.03,0.005,0.02,-0.018381158812282566,-0.0039264498633270195,-9.190579406141284e-05,-0.007782245349444198,-0.011800601006832629,0.03,0.005,0.02,-0.017655830587054867,-0.0036977029212561033,-8.827915293527433e-05,-0.00668894529269238,-0.010474927366883758,0.2,0.02,0,-0.017785320229881958,-0.02502662122757301,-0.00035570640459763915,-0.0,-0.025382327632170652,0.002,8e-05,0,-0.027203051480684956,-0.0004299510919176909,-2.1762441184547967e-06,-0.0,-0.00043212733603614566,-0.12325676404187011,0.0,0.12325676404187011,-0.13088166211090066,0.0,0.13088166211090066,-0.21497554595884544,0.0,0.21497554595884544,-0.12513310613786505,0,0.12513310613786505,-0.011823449926626727,0.010449130073671205,0.025382327632170652,0.4,0.033432960510253906,0.2006819248199463,STABILIZE
0.03,0.005,0.02,-0.022979302170104892,-0.004123321377351808,-0.00011489651085052446,-0.003923151194826194,-0.008161369083028527,0.03,0.005,0.02,-0.021983126969769225,-0.003880443103329776,-0.00010991563484884613,-0.0036415495009339896,-0.007631908239112611,0.2,0.02,0,-0.022086202728076876,-0.025711712121250774,-0.0004417240545615375,-0.0,-0.02615343617581231,0.002,8e-05,0,-0.035224014301140784,-0.0004795124885680366,-2.817921144091263e-06,-0.0,-0.00048233040971212783,-0.12934810344432587,0.0,0.12934810344432587,-0.13744404591172693,0.0,0.13744404591172693,-0.2397562442840183,0.0,0.2397562442840183,-0.12855856060625387,0,0.12855856060625387,-0.008178472772446438,0.007613576806600243,0.02615343617581231,0.4,0.03345465660095215,0.23415660858154297,STABILIZE
0.03,0.005,0.02,-0.028173438475650875,-0.0045602082073590185,-0.0001408671923782544,-0.008523692404446725,-0.013224767804183999,0.03,0.005,0.02,-0.0267584631528597,-0.004192521330596588,-0.0001337923157642985,-0.006088667894391363,-0.010414981540752249,0.2,0.02,0,-0.02682067910924403,-0.02771098893174751,-0.0005364135821848806,-0.0,-0.02824740251393239,0.002,8e-05,0,-0.045535505711071594,-0.000603533741275018,-3.642840456885728e-06,-0.0,-0.0006071765817319037,-0.13975071101988626,0.0,0.13975071101988626,-0.15200694024530062,0.0,0.15200694024530062,-0.301766870637509,0.0,0.301766870637509,-0.13855494465873755,0,0.13855494465873755,-0.0132499150359421,0.010382970456911991,0.02824740251393239,0.4,0.03417038917541504,0.2683260440826416,STABILIZE
0.03,0.005,0.02,-0.03346073529554298,-0.004739823928142188,-0.0001673036764777149,-0.003578164882690979,-0.008485292487310881,0.03,0.005,0.02,-0.031458905229165286,-0.004213735030403346,-0.00015729452614582644,-0.00042260285096161574,-0.004793632407510788,0.2,0.02,0,-0.03160026151630181,-0.02856453852974371,-0.0006320052303260363,-0.0,-0.02919654376006975,0.002,8e-05,0,-0.05664319906144886,-0.0006638365188868971,-4.531455924915909e-06,-0.0,-0.000668367974811813,-0.14045783434677822,0.0,0.14045783434677822,-0.15799413093807294,0.0,0.15799413093807294,-0.33191825944344855,0.0,0.33191825944344855,-0.14282269264871855,0,0.14282269264871855,-0.008497215325741289,0.004772466025184413,0.02919654376006975,0.4,0.03346514701843262,0.3018016815185547,STABILIZE
0.03,0.005,0.02,-0.038918207514406486,-0.004900128632763021,-0.00019459103757203243,-0.0031985246468912436,-0.008293244317226297,0.03,0.005,0.02,-0.036281198664684905,-0.0043298173937192565,-0.00018140599332342453,-0.002316165960403562,-0.006827389347446243,0.2,0.02,0,-0.036542457614608,-0.02958316675906411,-0.00073084915229216,-0.0,-0.03031401591135627,0.002,8e-05,0,-0.06876953513114505,-0.0007258623797813774,-5.501562810491604e-06,-0.0,-0.000731363942591869,-0.14432724645730854,0.0,0.14432724645730854,-0.1633376210921007,0.0,0.1633376210921007,-0.36293118989068873,0.0,0.36293118989068873,-0.14791583379532056,0,0.14791583379532056,-0.008310842374836983,0.006805956628383896,0.03031401591135627,0.4,0.03341221809387207,0.3352067470550537,STABILIZE
0.03,0.005,0.02,-0.04442088921066776,-0.004931747311039226,-0.0002221044460533388,-0.0006297346969457721,-0.005783586454038337,0.03,0.005,0.02,-0.04113048970580679,-0.004346149636230736,-0.00020565244852903394,-0.0003252817748600195,-0.004877083859619789,0.2,0.02,0,-0.041436013546632997,-0.029238811960335332,-0.0008287202709326599,0.0,-0.030067532231267992,0.002,8e-05,0,-0.08170494602575029,-0.0007728859177880619,-6.536395682060024e-06,-0.0,-0.0007794223134701219,-0.14487165454102455,0.0,0.14487165454102455,-0.16439157703464086,0.0,0.16439157703464086,-0.3864429588940309,0.0,0.3864429588940309,-0.14619405980167666,0,0.14619405980167666,-0.005796011823132025,0.004862310787188883,0.030067532231267992,0.4,0.03347301483154297,0.368685245513916,STABILIZE
0.03,0.005,0.02,-0.04998246858725122,-0.004988158002235632,-0.00024991234293625614,-0.0011243226734707196,-0.006362393018642608,0.03,0.005,0.02,-0.046015592628694334,-0.004381429012618985,-0.00023007796314347166,-0.0007031539932937875,-0.005314660969056244,0.2,0.02,0,-0.04627933046628623,-0.02895967543782235,-0.0009255866093257247,0.0,-0.029885262047148073,0.002,8e-05,0,-0.09562546420926989,-0.0008323504226725158,-7.650037136741591e-06,-0.0,-0.0008400004598092574,-0.14604763375396618,0.0,0.14604763375396618,-0.1662719334078544,0.0,0.1662719334078544,-0.4161752113362579,0.0,0.4161752113362579,-0.14479837718911173,0,0.14479837718911173,-0.006375803942768417,0.005298564921095216,0.029885262047148073,0.4,0.03344869613647461,0.40212559700012207,STABILIZE
0.03,0.005,0.02,-0.05557399264624645,-0.0050148007968795275,-0.0002778699632312322,-0.0005309953915232565,-0.005823666151634017,0.03,0.005,0.02,-0.050912180830296375,-0.004391542298004045,-0.0002545609041514819,-0.00020155948369540754,-0.004847662685850934,0.2,0.02,0,-0.051038477142232745,-0.028455178816121397,-0.001020769542844655,0.0,-0.029475948358966053,0.002,8e-05,0,-0.11051901469075755,-0.000890492920295162,-8.841521175260604e-06,-0.0,-0.0008993344414704226,-0.1463847432668015,0.0,0.1463847432668015,-0.16716002656265092,0.0,0.16716002656265092,-0.445246460147581,0.0,0.445246460147581,-0.14227589408060698,0,0.14227589408060698,-0.00583568581692801,0.004833186527290719,0.029475948358966053,0.4,0.03345012664794922,0.4355933666229248,STABILIZE
0.03,0.005,0.02,-0.061077142084765536,-0.004938850342191851,-0.0003053857104238277,0.001514720225469854,-0.0037295158271458246,0.03,0.005,0.02,-0.05575844459703401,-0.0043493224616384584,-0.0002787922229851701,0.0008420126031103098,-0.003786102081513319,0.2,0.02,0,-0.05566073753479359,-0.027655257626006777,-0.001113214750695872,0.0,-0.028768472376702648,0.002,8e-05,0,-0.12697729190950088,-0.0009847084714161172,-1.0158183352760072e-05,-0.0,-0.0009948666547688772,-0.14497741538794862,0.0,0.14497741538794862,-0.16462834473972837,0.0,0.16462834473972837,-0.4923542357080586,0.0,0.4923542357080586,-0.13827628813003387,0,0.13827628813003387,-0.0037386422470212836,0.0037770903385222782,0.028768472376702648,0.4,0.03342771530151367,0.46900343894958496,STABILIZE
0.03,0.005,0.02,-0.06654919460720869,-0.0049087714481763625,-0.00033274597303604346,0.0005996141932336251,-0.004641903227978781,0.03,0.005,0.02,-0.06049690384531957,-0.00425069265525732,-0.00030248451922659786,0.001966157125044595,-0.002587020049439323,0.2,0.02,0,-0.06018807031885435,-0.02707532723859636,-0.001203761406377087,0.0,-0.028279088644973447,0.002,8e-05,0,-0.14438861531996663,-0.0010412693333591437,-1.1551089225597332e-05,-0.0,-0.001052820422584741,-0.14168975517524401,0.0,0.14168975517524401,-0.16362571493921207,0.0,0.16362571493921207,-0.5206346666795718,0.0,0.5206346666795718,-0.1353766361929818,0,0.1353766361929818,-0.004648002793454605,0.0025760450978503957,0.028279088644973447,0.4,0.03344249725341797,0.5024542808532715,STABILIZE
0.03,0.005,0.02,-0.0719911117124165,-0.004882225394364839,-0.0003599555585620825,0.0005292408520060581,-0.004712940100920863,0.03,0.005,0.02,-0.06516708253228315,-0.004189858930393308,-0.00032583541266141574,0.0012128240455745877,-0.0033028702974801354,0.2,0.02,0,-0.0646593160758223,-0.026742572708705212,-0.001293186321516446,0.0,-0.02803575903022166,0.002,8e-05,0,-0.16267330141370814,-0.0010936091950564596,-1.3013864113096653e-05,-0.0,-0.0011066230591695563,-0.1396619643464436,0.0,0.1396619643464436,-0.16274084647882797,0.0,0.16274084647882797,-0.5468045975282299,0.0,0.5468045975282299,-0.13371286354352604,0,0.13371286354352604,-0.0047206352664785275,0.003291862584878609,0.02803575903022166,0.4,0.03343915939331055,0.5359416007995605,STABILIZE
0.03,0.005,0.02,-0.07733105429200059,-0.00478947527382082,-0.00038665527146000293,0.0018486441353960143,-0.003327486409884808,0.03,0.005,0.02,-0.0696997667484379,-0.0040654330367353745,-0.00034849883374218953,0.00247998813643567,-0.0019339437340418946,0.2,0.02,0,-0.06911135933574143,-0.02662069962186006,-0.0013822271867148287,0.0,-0.02800292680857489,0.002,8e-05,0,-0.1814719179451231,-0.0011240509015144214,-1.451775343560985e-05,-0.0,-0.0011385686549500312,-0.13551443455784581,0.0,0.13551443455784581,-0.15964917579402732,0.0,0.15964917579402732,-0.5620254507572107,0.0,0.5620254507572107,-0.1331034981093003,0,0.1331034981093003,-0.0033319701606549946,0.0019262084578032367,0.02800292680857489,0.4,0.033447980880737305,0.5693528652191162,STABILIZE
0.03,0.005,0.02,-0.08262532283254362,-0.004682259492115419,-0.0004131266141627181,0.0021071512743779113,-0.0029882348319002256,0.03,0.005,0.02,-0.07422893778070032,-0.004005606042614856,-0.0003711446889035016,0.0011758019658863383,-0.003200948765632019,0.2,0.02,0,-0.0734088372325794,-0.025337975108407712,-0.001468176744651588,0.0,-0.0268061518530593,0.002,8e-05,0,-0.20129135930993458,-0.001168556357982994,-1.6103308744794767e-05,-0.0,-0.0011846596667277889,-0.1335202014204952,0.0,0.1335202014204952,-0.1560753164038473,0.0,0.1560753164038473,-0.584278178991497,0.0,0.584278178991497,-0.12668987554203856,0,0.12668987554203856,-0.002995305316415416,0.0031943334942107185,0.0268061518530593,0.4,0.033921241760253906,0.6032652854919434,STABILIZE
0.03,0.005,0.02,-0.08817958248415485,-0.004561006612328751,-0.00044089791242077423,0.0022126568762227765,-0.002789247648526749,0.03,0.005,0.02,-0.07902344176026116,-0.003937115965990168,-0.0003951172088013058,0.001249826307327864,-0.0030824068674636094,0.2,0.02,0,-0.07778394006703823,-0.023951434525627334,-0.0015556788013407646,0.0,-0.0255071133269681,0.002,8e-05,0,-0.2234103724163004,-0.0012109020387269236,-1.7872829793304033e-05,-0.0,-0.0012287748685202277,-0.13123719886633894,0.0,0.13123719886633894,-0.15203355374429173,0.0,0.15203355374429173,-0.6054510193634618,0.0,0.6054510193634618,-0.11975717262813666,0,0.11975717262813666,-0.0027956842652502,0.0030765701731686984,0.0255071133269681,0.4,0.03653311729431152,0.639826774597168,STABILIZE
0.03,0.005,0.02,-0.09304245250834445,-0.004362359059345505,-0.00046521226254172225,0.003960038907351475,-0.0008675324145357519,0.03,0.005,0.02,-0.08304401323507427,-0.0036067540998733516,-0.00041522006617537133,0.006585763698977794,0.002563789532929071,0.2,0.02,0,-0.08154162021798186,-0.022472805794452613,-0.0016308324043596374,0.0,-0.02410363819881225,0.002,8e-05,0,-0.2447244077010081,-0.0012746858604478718,-1.957795261608065e-05,-0.0,-0.0012942638130639525,-0.12022513666244505,0.0,0.12022513666244505,-0.14541196864485018,0.0,0.14541196864485018,-0.6373429302239358,0.0,0.6373429302239358,-0.11236402897226305,0,0.11236402897226305,-0.0008625028447547849,-0.0025654859388070713,0.02410363819881225,0.4,0.033442020416259766,0.6732573509216309,STABILIZE
0.03,0.005,0.02,-0.0978629110699209,-0.004321724679726616,-0.0004893145553496045,0.000809561529381421,-0.004001477705694799,0.03,0.005,0.02,-0.08693902881698924,-0.003492029804479152,-0.0004346951440849462,0.0022856599979530867,-0.0016410649506110116,0.2,0.02,0,-0.08522677318473248,-0.0220258665180677,-0.0017045354636946498,0.0,-0.02373040198176235,0.002,8e-05,0,-0.2666157821019951,-0.001308430056509545,-2.132926256815961e-05,-0.0,-0.0013297593190777046,-0.1164009934826384,0.0,0.1164009934826384,-0.14405748932422055,0.0,0.14405748932422055,-0.6542150282547725,0.0,0.6542150282547725,-0.1101293325903385,0,0.1101293325903385,-0.0040046246348099624,0.0016333706057014782,0.02373040198176235,0.4,0.0334620475769043,0.7067251205444336,STABILIZE
0.03,0.005,0.02,-0.10258729072799708,-0.004236310697387702,-0.0005129364536399854,0.0017019996663960439,-0.0030472474846316437,0.03,0.005,0.02,-0.09077681963211247,-0.0034413140901261245,-0.00045388409816056235,0.0010105854632487237,-0.002884612725037963,0.2,0.02,0,-0.08877180755562615,-0.021192012659060705,-0.0017754361511125231,0.0,-0.02296744881017323,0.002,8e-05,0,-0.2892426928181191,-0.0013526237778356375,-2.313941542544953e-05,-0.0,-0.0013757631932610872,-0.11471046967087081,0.0,0.11471046967087081,-0.14121035657959008,0.0,0.14121035657959008,-0.6763118889178188,0.0,0.6763118889178188,-0.10596006329530351,0,0.10596006329530351,-0.003052576934897476,0.002878972362246077,0.02296744881017323,0.4,0.03345632553100586,0.7401785850524902,STABILIZE
0.03,0.005,0.02,-0.10710284044846383,-0.004018214943406977,-0.0005355142022423191,0.004312779282402649,-0.00024094986324664676,0.03,0.005,0.02,-0.09436120288838623,-0.0031896055308562217,-0.0004718060144419312,0.004977462604423715,0.0013160510591255625,0.2,0.02,0,-0.09225265023930446,-0.02064979157658983,-0.0018450530047860892,0.0,-0.02249484458137592,0.002,8e-05,0,-0.31231037395405536,-0.0013684697956787622,-2.498482991632443e-05,-0.0,-0.0013934546255950867,-0.10632018436187406,0.0,0.10632018436187406,-0.1339404981135659,0.0,0.1339404981135659,-0.6842348978393811,0.0,0.6842348978393811,-0.10324895788294913,0,0.10324895788294913,-0.00023857790420661243,-0.001316483121976303,0.02249484458137592,0.4,0.03371310234069824,0.7738828659057617,STABILIZE
0.03,0.005,0.02,-0.11156947694555348,-0.004000775477030157,-0.0005578473847277674,0.0003471236849688218,-0.004211499176789103,0.03,0.005,0.02,-0.09771870917938526,-0.0030073252752391587,-0.0004885935458969262,0.0036281955341798027,0.00013227671304371757,0.2,0.02,0,-0.09566824007358352,-0.02039567216104102,-0.0019133648014716704,0.0,-0.022309036962512692,0.002,8e-05,0,-0.3356158717900419,-0.001391652149336488,-2.6849269743203353e-05,-0.0,-0.0014185014190796913,-0.1002441758413053,0.0,0.1002441758413053,-0.13335918256767193,0.0,0.13335918256767193,-0.695826074668244,0.0,0.695826074668244,-0.1019783608052051,0,0.1019783608052051,-0.004211257072334084,-0.0001397723707500909,0.022309036962512692,0.4,0.0334932804107666,0.8073804378509521,STABILIZE
0.03,0.005,0.02,-0.1158555119388386,-0.003841252512441483,-0.000579277559694193,0.0031770777496807285,-0.001243452322454948,0.03,0.005,0.02,-0.10090747944550406,-0.002857856227379788,-0.0005045373972275203,0.0029768427852655682,-0.0003855508393417399,0.2,0.02,0,-0.09900615673295828,-0.019943499876896816,-0.0019801231346591656,0.0,-0.02192362301155598,0.002,8e-05,0,-0.3595256650045355,-0.0014285705926498546,-2.876205320036284e-05,-0.0,-0.0014573326458502175,-0.09526187424599293,0.0,0.09526187424599293,-0.1280417504147161,0.0,0.1280417504147161,-0.7142852963249273,0.0,0.7142852963249273,-0.09971749938448407,0,0.09971749938448407,-0.0012441214510900717,0.0003833861537317939,0.02192362301155598,0.4,0.03347373008728027,0.8408737182617188,STABILIZE
0.03,0.005,0.02,-0.11969966580450869,-0.003451225415160826,-0.0005984983290225435,0.007781347861213891,0.003731624117030522,0.03,0.005,0.02,-0.10381676297626864,-0.0026119124291434483,-0.0005190838148813432,0.004906772533827414,0.0017757762898026226,0.2,0.02,0,-0.10251312693096569,-0.020990045491610418,-0.002050262538619314,-0.0,-0.02304030803022973,0.002,8e-05,0,-0.38445039048141194,-0.0014918037282517912,-3.075603123851296e-05,-0.0,-0.0015225597594903041,-0.08706374763811495,0.0,0.08706374763811495,-0.11504084717202753,0.0,0.11504084717202753,-0.7459018641258955,0.0,0.7459018641258955,-0.10495022745805209,0,0.10495022745805209,0.0037348705924074212,-0.0017689379978391628,0.02304030803022973,0.4,0.03341555595397949,0.8742833137512207,STABILIZE
0.03,0.005,0.02,-0.12341271370316836,-0.003330288825414289,-0.0006170635685158419,0.0024104412595735963,-0.0015369111343565348,0.03,0.005,0.02,-0.1064071997057182,-0.002323401886666396,-0.000532035998528591,0.005750432659513303,0.002894994774318316,0.2,0.02,0,-0.10604091395833147,-0.021094170317452126,-0.0021208182791666295,-0.0,-0.023214988596618757,0.002,8e-05,0,-0.4096190592379352,-0.001504943981298307,-3.2769524739034814e-05,-0.0,-0.0015377135060373418,-0.07744672955554653,0.0,0.07744672955554653,-0.11100962751380963,0.0,0.11100962751380963,-0.7524719906491535,0.0,0.7524719906491535,-0.10547085158726062,0,0.10547085158726062,-0.0015315793875573477,-0.002897819034696423,0.023214988596618757,0.4,0.033447980880737305,0.9077389240264893,STABILIZE
0.03,0.005,0.02,-0.12703423517744553,-0.0032463924382833626,-0.0006351711758872277,0.001671247222814117,-0.0022103163913564736,0.03,0.005,0.02,-0.10887770060717293,-0.002214598340012794,-0.0005443885030358646,0.002167407100539244,-0.0005915797425094143,0.2,0.02,0,-0.1094673748064984,-0.02047691219757914,-0.002189347496129968,0.0,-0.02266625969370911,0.002,8e-05,0,-0.4353228617484659,-0.0015360879066621418,-3.482582893987728e-05,-0.0,-0.0015709137356020191,-0.07381994466709313,0.0,0.07381994466709313,-0.1082130812761121,0.0,0.1082130812761121,-0.7680439533310709,0.0,0.7680439533310709,-0.1023845609878957,0,0.1023845609878957,-0.0022113699838792727,0.0005876290803256713,0.02266625969370911,0.4,0.03346657752990723,0.9412579536437988,STABILIZE
0.03,0.005,0.02,-0.13061519001436822,-0.0032114462991135644,-0.0006530759500718411,0.0006964477006585142,-0.0031680745485268913,0.03,0.005,0.02,-0.1113137077411595,-0.0021846424909894185,-0.0005565685387057975,0.0005969953382327765,-0.00214421569146244,0.2,0.02,0,-0.11265137489546415,-0.01903634787879349,-0.002253027497909283,0.0,-0.021289375376702776,0.002,8e-05,0,-0.46153179025424096,-0.0015669669177943543,-3.692254322033928e-05,-0.0,-0.0016038894610146937,-0.07282141636631395,0.0,0.07282141636631395,-0.10704820997045215,0.0,0.10704820997045215,-0.7834834588971772,0.0,0.7834834588971772,-0.09518173939396744,0,0.09518173939396744,-0.0031716322210176414,0.0021389498196872966,0.021289375376702776,0.4,0.03345179557800293,0.9746649265289307,STABILIZE
0.03,0.005,0.02,-0.1341553520984738,-0.003170208305995681,-0.0006707767604923689,0.0008206342923730023,-0.0030203507741150474,0.03,0.005,0.02,-0.11372312450769109,-0.00215762805894056,-0.0005686156225384554,0.0005375860378292641,-0.0021886576436497512,0.2,0.02,0,-0.1155862425418465,-0.017521122043785406,-0.0023117248508369302,0.0,-0.019832846894622336,0.002,8e-05,0,-0.48807837565054263,-0.0015848277285952137,-3.9046270052043416e-05,-0.0,-0.0016238739986472572,-0.07192093529801867,0.0,0.07192093529801867,-0.10567361019985604,0.0,0.10567361019985604,-0.7924138642976069,0.0,0.7924138642976069,-0.08760561021892703,0,0.08760561021892703,-0.00302369371364918,0.002184036951574372,0.019832846894622336,0.4,0.03350090980529785,1.008171558380127,STABILIZE
0.03,0.005,0.02,-0.13753930698002725,-0.0030370253479995286,-0.0006876965349001362,0.002656195247629478,-0.0010685266352701865,0.03,0.005,0.02,-0.11600720973268494,-0.0020499164344983866,-0.0005800360486634247,0.002148196054978877,-0.00048175642818293427,0.2,0.02,0,-0.11857237857190558,-0.017866610978967544,-0.0023714475714381117,-0.0,-0.020238058550405655,0.002,8e-05,0,-0.514654525617577,-0.0015901008125551086,-4.117236204940616e-05,-0.0,-0.0016312731746045148,-0.0683305478166129,0.0,0.0683305478166129,-0.10123417826665096,0.0,0.10123417826665096,-0.7950504062775543,0.0,0.7950504062775543,-0.08933305489483771,0,0.08933305489483771,-0.0010692764695855428,0.0004800898436418777,0.020238058550405655,0.4,0.03342700004577637,1.0416457653045654,STABILIZE
0.03,0.005,0.02,-0.14119561055478796,-0.0032796978946448897,-0.0007059780527739398,-0.004837263306124624,-0.008822939253543454,0.03,0.005,0.02,-0.11856952929513029,-0.0022983961540746474,-0.0005928476464756514,-0.004953019393573657,-0.007844263194123955,0.2,0.02,0,-0.12110449500092814,-0.015142026642402932,-0.002422089900018563,0.0,-0.017564116542421494,0.002,8e-05,0,-0.5429205216858197,-0.001690303260283363,-4.343364173486558e-05,-0.0,-0.0017337369020182286,-0.07661320513582158,0.0,0.07661320513582158,-0.10932326315482967,0.0,0.10932326315482967,-0.8451516301416815,0.0,0.8451516301416815,-0.07571013321201465,0,0.07571013321201465,-0.008833296887357657,0.007832597795763754,0.017564116542421494,0.4,0.033444881439208984,1.0750651359558105,STABILIZE
0.03,0.005,0.02,-0.1444854295282193,-0.002871078896568669,-0.0007224271476410965,0.007924633149106956,0.0043311271048971905,0.03,0.005,0.02,-0.12088497793548902,-0.0020207299493104933,-0.0006044248896774451,0.005384974318424348,0.00275981947943641,0.2,0.02,0,-0.12387752521732097,-0.016133792564536658,-0.0024775505043464195,-0.0,-0.01861134306888308,0.002,8e-05,0,-0.573323847034598,-0.001768898663813985,-4.586590776276785e-05,-0.0,-0.001814764571576753,-0.06735766497701644,0.0,0.06735766497701644,-0.09570262988562231,0.0,0.09570262988562231,-0.8844493319069925,0.0,0.8844493319069925,-0.08066896282268328,0,0.08066896282268328,0.004335008468327346,-0.002753718783278709,0.01861134306888308,0.4,0.03437542915344238,1.1094276905059814,STABILIZE
0.03,0.005,0.02,-0.14714386285410763,-0.002384695030228222,-0.0007357193142705382,0.00969557836564986,0.0065751640211511,0.03,0.005,0.02,-0.12278142861084886,-0.0017011735658603849,-0.0006139071430542442,0.006370038507435846,0.004054957798521217,0.2,0.02,0,-0.1267292378014833,-0.017053815771534555,-0.002534584756029666,-0.0,-0.01958840052756422,0.002,8e-05,0,-0.6030256393711667,-0.0017762270202311113,-4.8242051149693344e-05,-0.0,-0.0018244690713808047,-0.0567057855286795,0.0,0.0567057855286795,-0.07948983434094073,0.0,0.07948983434094073,-0.8881135101155556,0.0,0.8881135101155556,-0.08526907885767276,0,0.08526907885767276,0.006581191431870978,-0.004045167980429979,0.01958840052756422,0.4,0.03344368934631348,1.1429011821746826,STABILIZE
0.03,0.005,0.02,-0.1498140610899976,-0.0023964785860841604,-0.000749070305449988,-0.00023501408910914917,-0.0033805629806432976,0.03,0.005,0.02,-0.12461503249066666,-0.0016456427744884815,-0.0006230751624533333,0.001107519539206044,-0.001161198397735771,0.2,0.02,0,-0.12900564893114985,-0.01362038830936292,-0.002580112978622997,0.0,-0.016200501287985915,0.002,8e-05,0,-0.6326075838055891,-0.001769968372109697,-5.060860670444713e-05,0.0,-0.001820576978814144,-0.05485475914961605,0.0,0.05485475914961605,-0.07988261953613869,0.0,0.07988261953613869,-0.8849841860548485,0.0,0.8849841860548485,-0.06810194154681459,0,0.06810194154681459,-0.0033819407963505774,0.00115717943076242,0.016200501287985915,0.4,0.033426523208618164,1.1763007640838623,STABILIZE
0.03,0.005,0.02,-0.15265818391151212,-0.0024833354507188144,-0.0007632909195575606,-0.0016853056450608903,-0.004931932015337265,0.03,0.005,0.02,-0.1261290431051053,-0.0013219528366211427,-0.0006306452155255266,0.0062806374813532745,0.004328039429206605,0.2,0.02,0,-0.13155469433568312,-0.01483793121423292,-0.0026310938867136623,-0.0,-0.017469025100946584,0.002,8e-05,0,-0.663367132383436,-0.0017905058307994964,-5.3069370590674884e-05,-0.0,-0.0018435752013901713,-0.04406509455403809,0.0,0.04406509455403809,-0.08277784835729382,0.0,0.08277784835729382,-0.8952529153997482,0.0,0.8952529153997482,-0.0741896560711646,0,0.0741896560711646,-0.004926323704182272,-0.004334421929887258,0.017469025100946584,0.4,0.03435850143432617,1.210667371749878,STABILIZE
0.03,0.005,0.02,-0.1547500102333784,-0.0018760970596392622,-0.000773750051166892,0.012102536090600153,0.009452688979793998,0.03,0.005,0.02,-0.1277534019988362,-0.0014568393716398822,-0.000638767009994181,-0.0026883497192891283,-0.0047839561009231915,0.2,0.02,0,-0.13394349666230215,-0.014282973604395658,-0.002678869933246043,0.0,-0.0169618435376417,0.002,8e-05,0,-0.6930022902129241,-0.0017719263428538328,-5.5440183217033936e-05,0.0,-0.0018273665260708667,-0.048561312387996075,0.0,0.048561312387996075,-0.06253656865464208,0.0,0.06253656865464208,-0.8859631714269164,0.0,0.8859631714269164,-0.07141486802197829,0,0.07141486802197829,0.009446718798129127,0.004795734445666576,0.0169618435376417,0.4,0.033449649810791016,1.2441353797912598,STABILIZE
0.03,0.005,0.02,-0.1570968353755621,-0.0020199115041304705,-0.0007854841768778105,-0.0027506897218182854,-0.005556085402826566,0.03,0.005,0.02,-0.12927809618641964,-0.0013123037053007606,-0.0006463904809320982,0.00276448428557872,0.0008057900993458612,0.2,0.02,0,-0.13620745074950133,-0.012990562791572638,-0.0027241490149900265,0.0,-0.015714711806562663,0.002,8e-05,0,-0.723783398504259,-0.0017662192105117683,-5.790267188034073e-05,0.0,-0.001824121882392109,-0.04374345684335869,0.0,0.04374345684335869,-0.06733038347101569,0.0,0.06733038347101569,-0.8831096052558841,0.0,0.8831096052558841,-0.06495281395786319,0,0.06495281395786319,-0.005555168356586374,-0.0008120881834429651,0.015714711806562663,0.4,0.03485536575317383,1.2789673805236816,STABILIZE
0.03,0.005,0.02,-0.15881497290488192,-0.0015406501575149596,-0.0007940748645244096,0.009550057761885267,0.007215332739845898,0.03,0.005,0.02,-0.13041893759708645,-0.001022989992971756,-0.0006520946879854323,0.00576504381911702,0.0040899591381598314,0.2,0.02,0,-0.1386923581440318,-0.014854740102631445,-0.002773847162880636,-0.0,-0.017628587265512082,0.002,8e-05,0,-0.7534182631489191,-0.0017715678791171423,-6.0273461051913536e-05,-0.0,-0.0018318413401690558,-0.034099666432391866,0.0,0.034099666432391866,-0.05135500525049865,0.0,0.05135500525049865,-0.8857839395585712,0.0,0.8857839395585712,-0.07427370051315722,0,0.07427370051315722,0.007220628574241413,-0.00408060231967753,0.017628587265512082,0.4,0.03345608711242676,1.3124306201934814,STABILIZE
0.03,0.005,0.02,-0.16014130676877855,-0.001171167880142548,-0.0008007065338438928,0.007250156696665337,0.005278282282678896,0.03,0.005,0.02,-0.13161844000942544,-0.0010591742665438113,-0.0006580922000471272,-0.0007100249982707187,-0.0024272914648616572,0.2,0.02,0,-0.1412842862464195,-0.015258013203588945,-0.00282568572492839,-0.0,-0.018083698928517335,0.002,8e-05,0,-0.7838338654824302,-0.0017904881758576113,-6.270670923859441e-05,-0.0,-0.0018531948850962056,-0.03530580888479371,0.0,0.03530580888479371,-0.03903892933808493,0.0,0.03903892933808493,-0.8952440879288056,0.0,0.8952440879288056,-0.07629006601794472,0,0.07629006601794472,0.005275045634883057,0.002434317411705671,0.018083698928517335,0.4,0.033974647521972656,1.3464365005493164,STABILIZE
0.03,0.005,0.02,-0.16241149973965288,-0.001628061323822802,-0.0008120574986982645,-0.007281324679417543,-0.009721443501938608,0.03,0.005,0.02,-0.13317415839442023,-0.0011156782554897196,-0.0006658707919721012,-0.0009004810528323184,-0.0026820301002941395,0.2,0.02,0,-0.14333884564994498,-0.009822802863869981,-0.0028667769129988997,0.0,-0.012689579776868881,0.002,8e-05,0,-0.8212501932213744,-0.0017888663167340863,-6.570001545770995e-05,0.0,-0.0018545663321917962,-0.03718927518299066,0.0,0.03718927518299066,-0.0542687107940934,0.0,0.0542687107940934,-0.8944331583670432,0.0,0.8944331583670432,-0.0491140143193499,0,0.0491140143193499,-0.009723738969606068,0.0026736958823382513,0.012689579776868881,0.4,0.04183244705200195,1.3882794380187988,STABILIZE
0.03,0.005,0.02,-0.16383227767027986,-0.001275298978665135,-0.0008191613883513993,0.007036480958671558,0.004942020591655024,0.03,0.005,0.02,-0.13420186584443808,-0.0009224765060898137,-0.0006710093292221904,0.003853757209338381,0.002260271374026377,0.2,0.02,0,-0.1447864217672232,-0.00866235463501928,-0.0028957284353444642,0.0,-0.011558083070363745,0.002,8e-05,0,-0.8511343408398574,-0.0017882796044141405,-6.809074726718859e-05,0.0,-0.001856370351681329,-0.030749216869660458,0.0,0.030749216869660458,-0.042509965955504506,0.0,0.042509965955504506,-0.8941398022070702,0.0,0.8941398022070702,-0.0433117731750964,0,0.0433117731750964,0.004943727793297484,-0.002256534891900267,0.011558083070363745,0.4,0.033422231674194336,1.4216663837432861,STABILIZE
0.03,0.005,0.02,-0.16556469037487187,-0.0015537164104007422,-0.0008278234518743593,-0.005548866829641904,-0.007930406691917006,0.03,0.005,0.02,-0.13599462896770348,-0.0016078417557176042,-0.0006799731448385174,-0.01365934767856176,-0.01594716257911788,0.2,0.02,0,-0.14507631559278586,-0.0017332774992805666,-0.0029015263118557172,0.0,-0.004634803811136284,0.002,8e-05,0,-0.8810454771428187,-0.0017883892294432077,-7.04836381714255e-05,-0.0,-0.0018588728676146333,-0.053594725190586806,0.0,0.053594725190586806,-0.05179054701335807,0.0,0.05179054701335807,-0.8941946147216039,0.0,0.8941946147216039,-0.008666387496402833,0,0.008666387496402833,-0.007932818721096687,0.015945962867203647,0.004634803811136284,0.4,0.03345036506652832,1.455122470855713,STABILIZE
0.03,0.005,0.02,-0.1664167777191099,-0.0007641356454801204,-0.0008320838885955495,0.0157351319945532,0.01413891246047753,0.03,0.005,0.02,-0.1374032945120008,-0.001263264338141107,-0.0006870164725600041,0.0068668987249879895,0.004916617914286879,0.2,0.02,0,-0.14632747140049854,-0.007480084110999041,-0.002926549428009971,-0.0,-0.010406633539009013,0.002,8e-05,0,-0.9106017130528538,-0.001767031166292318,-7.28481370442283e-05,0.0,-0.0018398793033365464,-0.042108811271370235,0.0,0.042108811271370235,-0.025471188182670683,0.0,0.025471188182670683,-0.8835155831461591,0.0,0.8835155831461591,-0.037400420554995206,0,0.037400420554995206,0.014142118821852224,-0.004907387544177294,0.010406633539009013,0.4,0.03345298767089844,1.4885823726654053,STABILIZE
0.03,0.005,0.02,-0.16763667856788958,-0.001094225520841749,-0.0008381833928394479,-0.006579637939035601,-0.008512046852716799,0.03,0.005,0.02,-0.13902414156697973,-0.001453865873372654,-0.0006951207078348987,-0.003799235256985713,-0.005948221838193266,0.2,0.02,0,-0.1469200512174314,-0.00354354459475021,-0.002938401024348628,0.0,-0.0064819456190988375,0.002,8e-05,0,-0.9399836823933232,-0.0017570007560911054,-7.519869459146587e-05,0.0,-0.0018321994506825712,-0.048462195779088474,0.0,0.048462195779088474,-0.0364741840280583,0.0,0.0364741840280583,-0.8785003780455527,0.0,0.8785003780455527,-0.01771772297375105,0,0.01771772297375105,-0.008513885829821483,0.005945589351441132,0.0064819456190988375,0.4,0.03344559669494629,1.5220251083374023,STABILIZE
0.03,0.005,0.02,-0.16921764733286374,-0.0014190973765831933,-0.0008460882366643187,-0.006480201091075713,-0.008745386704323226,0.03,0.005,0.02,-0.14086153911319693,-0.0016492710642640994,-0.0007043076955659846,-0.0038977366270360565,-0.00625131538686614,0.2,0.02,0,-0.1468523983928267,0.0004048401547285162,-0.0029370479678565344,0.0,-0.0025322078131280183,0.002,8e-05,0,-0.9693410754962845,-0.0017567709309515179,-7.754728603970277e-05,0.0,-0.0018343182169912207,-0.05497570214213665,0.0,0.05497570214213665,-0.047303245886106446,0.0,0.047303245886106446,-0.8783854654757589,0.0,0.8783854654757589,0.002024200773642581,0,-0.002024200773642581,-0.00874516584634291,0.006251624348453792,0.0025322078131280183,0.4,0.033421993255615234,1.555469036102295,STABILIZE
0.03,0.005,0.02,-0.16963901877740925,-0.00037779438988970216,-0.0008481950938870463,0.020746985515489227,0.01952099603171248,0.03,0.005,0.02,-0.143280532038895,-0.002168827452219298,-0.0007164026601944749,-0.010351673809766272,-0.013236903922180045,0.2,0.02,0,-0.14719524138248966,-0.0020492475191713146,-0.002943904827649793,-0.0,-0.004993152346821107,0.002,8e-05,0,-0.998845109328581,-0.0017635206190395906,-7.990760874628648e-05,-0.0,-0.001843428227785877,-0.07229424840730994,0.0,0.07229424840730994,-0.012593146329656739,0.0,0.012593146329656739,-0.8817603095197953,0.0,0.8817603095197953,-0.010246237595856572,0,0.010246237595856572,0.019518628556348547,0.013240394661582212,0.004993152346821107,0.4,0.033460378646850586,1.5889153480529785,STABILIZE
0.03,0.005,0.02,-0.170443990691736,-0.0007224446524286129,-0.0008522199534586799,-0.006873690171955445,-0.008448354777842738,0.03,0.005,0.02,-0.1439683369260893,-0.0006172898132519215,-0.0007198416846304464,0.030943800657006505,0.029606669159124136,0.2,0.02,0,-0.14670478243229407,0.0029345077304210455,-0.002934095648645881,0.0,4.1208177516431285e-07,0.002,8e-05,0,-1.0289282834812832,-0.0017999326359831886,-8.231426267850266e-05,-0.0,-0.0018822468986616912,-0.020576327108397383,0.0,0.020576327108397383,-0.0240814884142871,0.0,0.0240814884142871,-0.8999663179915943,0.0,0.8999663179915943,0.014672538652105226,0,-0.014672538652105226,-0.008455936298237434,-0.029604504698952167,-4.1208177516431285e-07,0.4,0.03342700004577637,1.6223373413085938,STABILIZE
0.03,0.005,0.02,-0.17057823302493627,-0.00012039711368818203,-0.0008528911651246813,0.011998994528015854,0.011025706249202991,0.03,0.005,0.02,-0.14565885107754262,-0.0015161612557817233,-0.0007282942553877131,-0.017914787165926666,-0.020159242677096102,0.2,0.02,0,-0.14655087012940063,0.0009202560070636364,-0.0029310174025880126,-0.0,-0.002010761395524376,0.002,8e-05,0,-1.058966485226015,-0.0017960120846297653,-8.471731881808121e-05,0.0,-0.0018807294034478466,-0.05053870852605744,0.0,0.05053870852605744,-0.004013237122939401,0.0,0.004013237122939401,-0.8980060423148826,0.0,0.8980060423148826,0.004601280035318182,0,-0.004601280035318182,0.011027325151754828,0.02015835716533572,0.002010761395524376,0.4,0.03344988822937012,1.655822992324829,STABILIZE
0.03,0.005,0.02,-0.1709173108090086,-0.0003039030377680619,-0.000854586554045043,-0.003654881327853176,-0.0048133709196662815,0.03,0.005,0.02,-0.14676965469994072,-0.00099557273011593,-0.0007338482734997036,0.01036854418455877,0.008639123180943136,0.2,0.02,0,-0.14515256691299216,0.008354987462045639,-0.0029030513382598436,0.0,0.005451936123785795,0.002,8e-05,0,-1.08882860689002,-0.0017842886232764137,-8.71062885512016e-05,0.0,-0.0018713949118276153,-0.033185757670531,0.0,0.033185757670531,-0.010130101258935396,0.0,0.010130101258935396,-0.8921443116382068,0.0,0.8921443116382068,0.041774937310228195,0,-0.041774937310228195,-0.004819668512548075,-0.00863561140712982,-0.005451936123785795,0.4,0.033472299575805664,1.6892764568328857,STABILIZE
0.03,0.005,0.02,-0.17144611945543112,-0.0004745129442100185,-0.0008572305972771556,-0.0034020543501091065,-0.004733797891596281,0.03,0.005,0.02,-0.14729705916558153,-0.00047325293841881066,-0.0007364852958279077,0.010415340800247194,0.009205602566000476,0.2,0.02,0,-0.14245747656299146,0.01612247033077709,-0.002849149531259829,0.0,0.01327332079951726,0.002,8e-05,0,-1.118768867034918,-0.0017910752264084203,-8.950150936279345e-05,-0.0,-0.0018805767357712136,-0.01577509794729369,0.0,0.01577509794729369,-0.01581709814033395,0.0,0.01581709814033395,-0.8955376132042101,0.0,0.8955376132042101,0.08061235165388544,0,-0.08061235165388544,-0.0047467450333351655,-0.00919893323544333,-0.01327332079951726,0.4,0.033432722091674805,1.722702980041504,STABILIZE
0.03,0.005,0.02,-0.17208242283902717,-0.0005694275164886044,-0.0008604121141951358,-0.0018875331961488973,-0.003317372826832638,0.03,0.005,0.02,-0.14683687643138718,0.00041181725293098787,-0.0007341843821569359,0.01760108408002079,0.017278716950794845,0.2,0.02,0,-0.13958444052426827,0.017140521523623706,-0.0027916888104853655,0.0,0.01434883271313834,0.002,8e-05,0,-1.1487452746816968,-0.001788391282062983,-9.189962197453575e-05,0.0,-0.0018802909040375188,0.013727241764366262,0.0,-0.013727241764366262,-0.018980917216286815,0.0,0.018980917216286815,-0.8941956410314915,0.0,0.8941956410314915,0.08570260761811853,0,-0.08570260761811853,-0.003343214484400788,-0.017273735520992133,-0.01434883271313834,0.4,0.0335233211517334,1.7562592029571533,STABILIZE
0.03,0.005,0.02,-0.17196592837278749,0.00010444023720223387,-0.0008598296418639374,0.013425322117611424,0.01266993271294972,0.03,0.005,0.02,-0.14681969602828732,1.5402666177191243e-05,-0.0007340984801414366,-0.007897682431219582,-0.008616378245183827,0.2,0.02,0,-0.1381939945680253,0.008310466592643761,-0.002763879891360506,-0.0,0.005546586701283255,0.002,8e-05,0,-1.1785626494434258,-0.0017821354057315747,-9.428501195547407e-05,0.0,-0.0018764204176870487,0.0005134222059063748,0.0,-0.0005134222059063748,0.0034813412400744627,0.0,-0.0034813412400744627,-0.8910677028657873,0.0,0.8910677028657873,0.04155233296321881,0,-0.04155233296321881,0.012676178193621332,0.008607187427859904,-0.005546586701283255,0.4,0.0334625244140625,1.7897052764892578,STABILIZE
0.03,0.005,0.02,-0.1720366270495502,-6.243649833110866e-05,-0.000860183135247751,-0.003274994194995512,-0.004197613828574372,0.03,0.005,0.02,-0.14695223275355684,-0.0001170478629165208,-0.0007347611637677843,-0.0025993720006544673,-0.0034511810273387725,0.2,0.02,0,-0.13509855903058646,0.018224589635628775,-0.002701971180611729,0.0,0.015522618455017045,0.002,8e-05,0,-1.2086385085633837,-0.0017707368923396462,-9.669108068507071e-05,0.0,-0.0018674279730247169,-0.0039015954305506935,0.0,0.0039015954305506935,-0.0020812166110369553,0.0,0.0020812166110369553,-0.885368446169823,0.0,0.885368446169823,0.09112294817814387,0,-0.09112294817814387,-0.004192119779584335,0.0034578525259067495,-0.015522618455017045,0.4,0.033969879150390625,1.8236756324768066,STABILIZE
0.03,0.005,0.02,-0.17325239752119803,-0.0010905439810193474,-0.0008662619876059902,-0.020493569089328388,-0.022450375057953727,0.03,0.005,0.02,-0.1464008894597631,0.0004945539676639766,-0.0007320044472988155,0.01219123932197067,0.011953788842335831,0.2,0.02,0,-0.13134017949563875,0.022475065679506842,-0.002626803589912775,0.0,0.019848262089594067,0.002,8e-05,0,-1.2379913691363753,-0.0017552976306012442,-9.903930953091003e-05,0.0,-0.0018543369401321542,0.016485132255465888,0.0,-0.016485132255465888,-0.03635146603397825,0.0,0.03635146603397825,-0.8776488153006221,0.0,0.8776488153006221,0.11237532839753421,0,-0.11237532839753421,-0.022473777061074465,-0.011909733520909132,-0.019848262089594067,0.4,0.033444881439208984,1.857142686843872,STABILIZE
0.03,0.005,0.02,-0.17323289855503332,1.7484929437201618e-05,-0.0008661644927751666,0.022079583490677675,0.02123090392733971,0.03,0.005,0.02,-0.14545831049352728,0.0008452205401250156,-0.0007272915524676364,0.006987698417411382,0.007105627405068761,0.2,0.02,0,-0.12956253369855267,0.01062689206659112,-0.0025912506739710532,-0.0,0.008035641392620068,0.002,8e-05,0,-1.2676662916264072,-0.0017739878152495427,-0.00010141330333011259,-0.0,-0.0018754011185796553,0.02817401800416719,0.0,-0.02817401800416719,0.000582830981240054,0.0,-0.000582830981240054,-0.8869939076247713,0.0,0.8869939076247713,0.0531344603329556,0,-0.0531344603329556,0.021224305244035235,-0.007125313277296052,-0.008035641392620068,0.4,0.033455610275268555,1.8905746936798096,STABILIZE
0.03,0.005,0.02,-0.17396670738163358,-0.0006479888198755346,-0.000869833536908168,-0.013058791755617345,-0.014576614112401048,0.03,0.005,0.02,-0.14528728783562936,0.0001510213099734597,-0.0007264364391781468,-0.013622480515303998,-0.014197895644508685,0.2,0.02,0,-0.12638907911500336,0.018682096444200092,-0.0025277815823000673,0.0,0.016154314861900027,0.002,8e-05,0,-1.297489637575206,-0.0017556974919144856,-0.00010379917100601649,0.0,-0.001859496662920502,0.0050340436657819905,0.0,-0.0050340436657819905,-0.02159962732918449,0.0,0.02159962732918449,-0.8778487459572427,0.0,0.8778487459572427,0.09341048222100046,0,-0.09341048222100046,-0.014553447630832049,0.014221641317753627,-0.016154314861900027,0.4,0.03397321701049805,1.924546241760254,STABILIZE
0.03,0.005,0.02,-0.17477906101223145,-0.000728347483055217,-0.0008738953050611573,-0.0016010824149064154,-0.0032033252030227895,0.03,0.005,0.02,-0.1449098295776559,0.0003384249934982623,-0.0007245491478882795,0.003733869259489028,0.0033477451050990107,0.2,0.02,0,-0.12260655389586982,0.022609141464013202,-0.0024521310779173962,0.0,0.020157010386095804,0.002,8e-05,0,-1.3267100498188407,-0.001746580381569669,-0.00010613680398550727,0.0,-0.0018527171855551763,0.011280833116608744,0.0,-0.011280833116608744,-0.0242782494351739,0.0,0.0242782494351739,-0.8732901907848345,0.0,0.8732901907848345,0.113045707320066,0,-0.113045707320066,-0.003209924131146743,-0.0033414183690937613,-0.020157010386095804,0.4,0.033460140228271484,1.9580168724060059,STABILIZE
0.03,0.005,0.02,-0.17384595907561953,0.0008372832691823525,-0.0008692297953780977,0.031219083673291768,0.031187137147096023,0.03,0.005,0.02,-0.14344540544754067,0.0013140448808674858,-0.0007172270272377034,0.019454113847455635,0.020050931701085416,0.2,0.02,0,-0.12105020138607865,0.009310221933019737,-0.002421004027721573,-0.0,0.006889217905298164,0.002,8e-05,0,-1.3560563390055485,-0.0017555178760593818,-0.00010848450712044389,-0.0,-0.0018640023831798256,0.0438014960289162,0.0,-0.0438014960289162,0.027909442306078416,0.0,-0.027909442306078416,-0.8777589380296908,0.0,0.8777589380296908,0.04655110966509868,0,-0.04655110966509868,0.03117083607228562,-0.020076263697911184,-0.006889217905298164,0.4,0.03343319892883301,1.9914560317993164,STABILIZE
0.03,0.005,0.02,-0.17358805602928368,0.00022797929934849337,-0.0008679402801464184,-0.011969070815694425,-0.012609031796492351,0.03,0.005,0.02,-0.14186613382417387,0.0013960332896077498,-0.0007093306691208694,0.001610567333979294,0.0022972699544661743,0.2,0.02,0,-0.11947403071428928,0.00928861421668324,-0.0023894806142857857,-0.0,0.006899133602397454,0.002,8e-05,0,-1.3858718958798593,-0.001757076250801216,-0.00011086975167038875,-0.0,-0.0018679460024716046,0.046534442986924995,0.0,-0.046534442986924995,0.007599309978283113,0.0,-0.007599309978283113,-0.8785381254006079,0.0,0.8785381254006079,0.04644307108341619,0,-0.04644307108341619,-0.01261088978535311,-0.0022870485150789225,-0.006899133602397454,0.4,0.033937692642211914,2.0253920555114746,STABILIZE
0.03,0.005,0.02,-0.1744988526855264,-0.0008166686269273076,-0.000872494263427632,-0.02081526178761935,-0.02250442467797429,0.03,0.005,0.02,-0.1362780362590131,0.005010584892243558,-0.0006813901812950656,0.07202219614980561,0.0763513908607541,0.2,0.02,0,-0.12684967493377575,-0.04408929403467347,-0.002536993498675515,-0.0,-0.04662628753334898,0.002,8e-05,0,-1.4199006376480985,-0.002034131740636391,-0.00011359205101184788,-0.0,-0.002147723791648239,0.1670194964081186,0.0,-0.1670194964081186,-0.027222287564243587,0.0,0.027222287564243587,-1.0170658703181954,0.0,1.0170658703181954,-0.22044647017336733,0,0.22044647017336733,-0.022210495578516447,-0.07643741166873042,0.04662628753334898,0.4,0.03345775604248047,2.0588560104370117,STABILIZE
0.03,0.005,0.02,-0.17466123004262663,-0.00014579459224528554,-0.0008733061502131332,0.013385802618614795,0.012366701876156377,0.03,0.005,0.02,-0.1327873748990086,0.003134178057437644,-0.0006639368744950431,-0.03743953443486101,-0.03496929325191841,0.2,0.02,0,-0.13020501367695037,-0.020084501626008545,-0.0026041002735390072,0.0,-0.02268860189954755,0.002,8e-05,0,-1.4513079266000466,-0.0018799882643953164,-0.00011610463412800374,0.0,-0.00199609289852332,0.10447260191458814,0.0,-0.10447260191458814,-0.004859819741509518,0.0,0.004859819741509518,-0.9399941321976581,0.0,0.9399941321976581,-0.10042250813004272,0,0.10042250813004272,0.01230539211295068,0.03499091468908647,0.02268860189954755,0.4,0.03341221809387207,2.092266082763672,STABILIZE
0.03,0.005,0.02,-0.1733609176407067,0.001165663312948258,-0.0008668045882035336,0.0261256596543506,0.026424518379095326,0.03,0.005,0.02,-0.12755247987033613,0.004692814644426146,-0.0006377623993516807,0.03104972628951499,0.03510477853458946,0.2,0.02,0,-0.13700768857321408,-0.040654992060782685,-0.0027401537714642817,-0.0,-0.04339514583224697,0.002,8e-05,0,-1.4851833958641223,-0.002024507939873329,-0.0001188146716691298,-0.0,-0.0021433226115424586,0.15642715481420488,0.0,-0.15642715481420488,0.03885544376494193,0.0,-0.03885544376494193,-1.0122539699366644,0.0,1.0122539699366644,-0.2032749603039134,0,0.2032749603039134,0.026548897157331552,-0.035010808434812704,0.04339514583224697,0.4,0.03346538543701172,2.125739812850952,STABILIZE
0.03,0.005,0.02,-0.17276357456145333,0.0005358882781179241,-0.0008638178728072667,-0.0125551916938854,-0.012883121288574743,0.03,0.005,0.02,-0.11983625318232338,0.0069223794114684906,-0.0005991812659116169,0.04444859115714392,0.05077178930270079,0.2,0.02,0,-0.14197331494820983,-0.02969841017995309,-0.002839466298964197,0.0,-0.03253787647891729,0.002,8e-05,0,-1.5187705148067763,-0.0020087778656578082,-0.00012150164118454211,0.0,-0.0021302795068423503,0.23074598038228303,0.0,-0.23074598038228303,0.017862942603930804,0.0,-0.017862942603930804,-1.0043889328289042,0.0,1.0043889328289042,-0.14849205089976544,0,0.14849205089976544,-0.01275149418209603,-0.05080500761989847,0.03253787647891729,0.4,0.033440351486206055,2.1591968536376953,STABILIZE
0.03,0.005,0.02,-0.17158850499356063,0.0010542908763777302,-0.0008579425249678032,0.010335976780903271,0.010532325132313197,0.03,0.005,0.02,-0.11329693569817725,0.005867178377903668,-0.0005664846784908863,-0.02103873209494437,-0.01573803839553159,0.2,0.02,0,-0.15007592756513646,-0.04846527553353556,-0.0030015185513027295,-0.0,-0.051466794084838285,0.002,8e-05,0,-1.5516079822421671,-0.0019641527767908667,-0.00012412863857937337,0.0,-0.00208828141537024,0.19557261259678896,0.0,-0.19557261259678896,0.03514302921259101,0.0,-0.03514302921259101,-0.9820763883954333,0.0,0.9820763883954333,-0.24232637766767778,0,0.24232637766767778,0.010465668779150322,0.01578244284757911,0.051466794084838285,0.4,0.03343677520751953,2.1926209926605225,STABILIZE
0.03,0.005,0.02,-0.16984496012988096,0.0015643916162931372,-0.0008492248006494048,0.010170815887307392,0.010885982702951125,0.03,0.005,0.02,-0.1094201458756004,0.003478440746153371,-0.000547100729378002,-0.047628652057325,-0.04469731204054963,0.2,0.02,0,-0.1587442245744642,-0.0518507302810364,-0.003174884491489284,-0.0,-0.05502561477252568,0.002,8e-05,0,-1.583532424914622,-0.0019096088477363502,-0.0001266825939931698,0.0,-0.00203629144172952,0.11594802487177903,0.0,-0.11594802487177903,0.052146387209771244,0.0,-0.052146387209771244,-0.9548044238681751,0.0,0.9548044238681751,-0.259253651405182,0,0.259253651405182,0.010683624222849101,0.04474611152406615,0.05502561477252568,0.4,0.03343558311462402,2.2260546684265137,STABILIZE
0.03,0.005,0.02,-0.1685104309530877,0.0011948472091748152,-0.0008425521547654385,-0.007352557344480922,-0.007000262290071545,0.03,0.005,0.02,-0.10251208469977192,0.006185010983859723,-0.0005125604234988596,0.05385066718985575,0.05952311775021661,0.2,0.02,0,-0.16915353092636723,-0.06213192817511485,-0.0033830706185273445,-0.0,-0.0655149987936422,0.002,8e-05,0,-1.6144118713330757,-0.001843157922437273,-0.00012915294970664606,0.0,-0.0019723108721439193,0.2061670327953241,0.0,-0.2061670327953241,0.03982824030582718,0.0,-0.03982824030582718,-0.9215789612186365,0.0,0.9215789612186365,-0.31065964087557424,0,0.31065964087557424,-0.006677424629616261,-0.059560198279990165,0.0655149987936422,0.4,0.03350710868835449,2.259767770767212,STABILIZE
0.03,0.005,0.02,-0.16718106119587064,0.0011919410184430075,-0.0008359053059793533,-5.7905600619388394e-05,0.00029813011184426586,0.03,0.005,0.02,-0.09751073751563143,0.004484313580843808,-0.00048755368757815717,-0.033886249624163096,-0.029889489730897445,0.2,0.02,0,-0.18012608843383426,-0.06558817965867729,-0.0036025217686766853,-0.0,-0.06919070142735398,0.002,8e-05,0,-1.644794468190425,-0.001816111895354282,-0.000131583557455234,0.0,-0.0019476954528095162,0.14947711936146027,0.0,-0.14947711936146027,0.03973136728143358,0.0,-0.03973136728143358,-0.908055947677141,0.0,0.908055947677141,-0.3279408982933864,0,0.3279408982933864,0.00012704923165954776,0.029890706522759658,0.06919070142735398,0.4,0.03345894813537598,2.293027400970459,STABILIZE
0.03,0.005,0.02,-0.16610966416762188,0.0009604524324980613,-0.0008305483208381094,-0.004611502958893691,-0.004481598847233739,0.03,0.005,0.02,-0.09291376593453742,0.004120949023354055,-0.0004645688296726871,-0.007238614919958105,-0.003582234726276737,0.2,0.02,0,-0.1889946482502446,-0.053001390544882024,-0.003779892965004892,0.0,-0.05678128350988691,0.002,8e-05,0,-1.6746795581468705,-0.001786029927113496,-0.00013397436465174966,0.0,-0.0019200042917652455,0.13736496744513518,0.0,-0.13736496744513518,0.03201508108326871,0.0,-0.03201508108326871,-0.8930149635567479,0.0,0.8930149635567479,-0.2650069527244101,0,0.2650069527244101,-0.004498119560282126,0.0035614679955149223,0.05678128350988691,0.4,0.03346538543701172,2.326497793197632,STABILIZE
0.03,0.005,0.02,-0.1646337873143909,0.0013236796629323565,-0.0008231689365719545,0.00723933477085272,0.007739845497213122,0.03,0.005,0.02,-0.08602460039846391,0.006178732524134216,-0.00043012300199231953,0.041012849257675885,0.04676145877981778,0.2,0.02,0,-0.20028991373274424,-0.06753640804052859,-0.004005798274654885,-0.0,-0.07154220631518347,0.002,8e-05,0,-1.704684373449349,-0.0017940414526675082,-0.00013637474987594794,-0.0,-0.001930416202543456,0.20595775080447387,0.0,-0.20595775080447387,0.04412265543107855,0.0,-0.04412265543107855,-0.8970207263337541,0.0,0.8970207263337541,-0.3376820402026429,0,0.3376820402026429,0.008015305778688838,-0.0467150308660012,0.07154220631518347,0.4,0.033449411392211914,2.3601644039154053,STABILIZE
0.03,0.005,0.02,-0.16275137888167762,0.0016877831292006738,-0.0008137568944083882,0.007254626891470265,0.00812865312626255,0.03,0.005,0.02,-0.07681931143829168,0.008253538996317391,-0.0003840965571914584,0.04133975153261638,0.04920919397174232,0.2,0.02,0,-0.21402503534164166,-0.08210016532066632,-0.004280500706832833,-0.0,-0.08638066602749915,0.002,8e-05,0,-1.7348357219242843,-0.0018022633981119186,-0.00013878685775394275,-0.0,-0.0019410502558658612,0.275117966543913,0.0,-0.275117966543913,0.05625943764002246,0.0,-0.05625943764002246,-0.9011316990559592,0.0,0.9011316990559592,-0.41050082660333154,0,0.41050082660333154,0.008481005232033753,-0.04914969301277348,0.08638066602749915,0.4,0.03345942497253418,2.3934130668640137,STABILIZE
0.03,0.005,0.02,-0.16121027045016012,0.0013472398688474576,-0.0008060513522508006,-0.0066156345369818795,-0.006074446020385223,0.03,0.005,0.02,-0.06752865711088342,0.008121907363286275,-0.00033764328555441713,-0.002557169320387458,0.005227094757344401,0.2,0.02,0,-0.22803860426489864,-0.08167125415336318,-0.004560772085297973,0.0,-0.08623202623866115,0.002,8e-05,0,-1.7657478072907513,-0.0018015601837054536,-0.00014125982458326012,0.0,-0.0019428200082887137,0.2707302454428759,0.0,-0.2707302454428759,0.04490799562824859,0.0,-0.04490799562824859,-0.9007800918527268,0.0,0.9007800918527268,-0.40835627076681585,0,0.40835627076681585,-0.006037037708119225,-0.005270255189986322,0.08623202623866115,0.4,0.0343170166015625,2.427720546722412,STABILIZE
0.03,0.005,0.02,-0.15925359928383487,0.0017542427162863968,-0.0007962679964191744,0.008108803392611904,0.009066778112479126,0.03,0.005,0.02,-0.0596222981417755,0.007088402421726955,-0.0002981114907088775,-0.020590736475509987,-0.01380044554449191,0.2,0.02,0,-0.24153467271574,-0.08066550369099568,-0.0048306934543148,0.0,-0.08549619714531048,0.002,8e-05,0,-1.7955140120572528,-0.0017791150876309211,-0.00014364112096458025,0.0,-0.0019227562085955014,0.23628008072423184,0.0,-0.23628008072423184,0.05847475720954656,0.0,-0.05847475720954656,-0.8895575438154606,0.0,0.8895575438154606,-0.4033275184549784,0,0.4033275184549784,0.00896940751045871,0.013863927707498478,0.08549619714531048,0.4,0.033461809158325195,2.4612183570861816,STABILIZE
0.03,0.005,0.02,-0.15790792699565134,0.0012066871896817188,-0.0007895396349782567,-0.010911163065236183,-0.010494015510532721,0.03,0.005,0.02,-0.050545689478432076,0.008139149104865092,-0.0002527284473921604,0.020938275376505572,0.028824696033978504,0.2,0.02,0,-0.25504701271707375,-0.08077829808148979,-0.005100940254341475,-0.0,-0.08587923833583126,0.002,8e-05,0,-1.8251578144122054,-0.001772140060611833,-0.00014601262515297645,0.0,-0.0019181526857648095,0.27130497016216976,0.0,-0.27130497016216976,0.04022290632272396,0.0,-0.04022290632272396,-0.8860700303059165,0.0,0.8860700303059165,-0.4038914904074489,0,0.4038914904074489,-0.010290564367090934,-0.028897954045110457,0.08587923833583126,0.4,0.03345537185668945,2.4946606159210205,STABILIZE
0.03,0.005,0.02,-0.15627122111269484,0.0014662408759290304,-0.0007813561055634742,0.005167129744321406,0.005852014514686962,0.03,0.005,0.02,-0.04259720533852404,0.0071206393701931155,-0.0002129860266926202,-0.020276236569762785,-0.01336858322626229,0.2,0.02,0,-0.2680071806871161,-0.07740233287875452,-0.005360143613742322,0.0,-0.08276247649249684,0.002,8e-05,0,-1.85462747334823,-0.0017600237559128537,-0.0001483701978678584,0.0,-0.0019083939537807122,0.23735464567310385,0.0,-0.23735464567310385,0.048874695864301015,0.0,-0.048874695864301015,-0.8800118779564268,0.0,0.8800118779564268,-0.38701166439377255,0,0.38701166439377255,0.005761581899039797,0.013407806135914456,0.08276247649249684,0.4,0.033487796783447266,2.528146266937256,STABILIZE
0.03,0.005,0.02,-0.15433699920837085,0.0017372476023998639,-0.0007716849960418543,0.005409074714783778,0.0063746373211417875,0.03,0.005,0.02,-0.03574565320783643,0.006153814350435034,-0.00017872826603918215,-0.01929704415863123,-0.013321958074235377,0.2,0.02,0,-0.280468017282298,-0.07461246113310564,-0.00560936034564596,0.0,-0.0802218214787516,0.002,8e-05,0,-1.8839671743535622,-0.0017567899909414861,-0.000150717373948285,0.0,-0.001907507364889771,0.20512714501450113,0.0,-0.20512714501450113,0.057908253413328795,0.0,-0.057908253413328795,-0.8783949954707431,0.0,0.8783949954707431,-0.3730623056655282,0,0.3730623056655282,0.006287761332808354,0.013363181706817393,0.0802218214787516,0.4,0.0334014892578125,2.5615739822387695,STABILIZE
0.03,0.005,0.02,-0.1523539365363507,0.0017721460951325729,-0.0007617696826817536,0.0006930383043347072,0.0017034147167855264,0.03,0.005,0.02,-0.02920422382302826,0.005845689450179705,-0.0001460211191151413,-0.006118956484218248,-0.0004192881531536836,0.2,0.02,0,-0.2926039203032019,-0.07230093616588815,-0.0058520784060640384,0.0,-0.07815301457195219,0.002,8e-05,0,-1.9132358392761202,-0.0017437119187435725,-0.00015305886714208963,0.0,-0.0018967707858856622,0.19485631500599018,0.0,-0.19485631500599018,0.0590715365044191,0.0,-0.0590715365044191,-0.8718559593717863,0.0,0.8718559593717863,-0.3615046808294407,0,0.3615046808294407,0.0017007353523736102,0.0004300273409018945,0.07815301457195219,0.4,0.03357052803039551,2.5951287746429443,STABILIZE
0.03,0.005,0.02,-0.1509285343938716,0.0012128146683859874,-0.000754642671969358,-0.010575812469278651,-0.010117640472862021,0.03,0.005,0.02,-0.021208094607549445,0.006803569683132096,-0.00010604047303774723,0.018111554665644,0.02480908387573835,0.2,0.02,0,-0.30534967718824046,-0.07229885260296119,-0.006106993543764809,0.0,-0.078405846146726,0.002,8e-05,0,-1.9439534024648366,-0.001742418746359485,-0.00015551627219718693,0.0,-0.001897935018556672,0.2267856561044032,0.0,-0.2267856561044032,0.04042715561286625,0.0,-0.04042715561286625,-0.8712093731797425,0.0,0.8712093731797425,-0.3614942630148059,0,0.3614942630148059,-0.009960913048949943,-0.02487242454451867,0.078405846146726,0.4,0.03525853157043457,2.630385637283325,STABILIZE
0.03,0.005,0.02,-0.14898260708945055,0.0017440884408492859,-0.0007449130354472527,0.010581512627532642,0.011580688032934675,0.03,0.005,0.02,-0.014230437079889382,0.006253908771693637,-7.11521853994469e-05,-0.010947733874156105,-0.004764977287861915,0.2,0.02,0,-0.3176268027926187,-0.07335797455812124,-0.006352536055852374,-0.0,-0.0797105106139736,0.002,8e-05,0,-1.973125059221194,-0.0017430575552537843,-0.00015785000473769552,-0.0,-0.0019009075599914797,0.20846362572312124,0.0,-0.20846362572312124,0.058136281361642866,0.0,-0.058136281361642866,-0.8715287776268921,0.0,0.8715287776268921,-0.36678987279060615,0,0.36678987279060615,0.011549947032312541,0.004839015129214927,0.0797105106139736,0.4,0.03347182273864746,2.6639811992645264,STABILIZE
