E-kp,E-ki,E-kd,E-I-Tot,E-P,E-I,E-D,E-PID,N-kp,N-ki,N-kd,N-I-Tot,N-P,N-I,N-D,N-PID,D-kp,D-ki,D-kd,D-I-Tot,D-P,D-I,D-D,D-PID,Y-kp,Y-ki,Y-kd,Y-I-Tot,Y-P,Y-I,Y-D,Y-PID,errorN,desiredN,actualN,errorE,desiredE,actualE,errorD,desiredD,actualD,errorY,desiredY,actualY,roll,pitch,yaw-rate,thrust,dt,Time,Mode
0.16,0.015,0.11,1.3320305634464265,6.403508522831408,0.019980458451696395,13.75,20.173488981283104,0.17,0.015,0.08,-0.33189371103757925,-1.695242235596465,-0.004978405665563688,-10.0,-11.700220641262028,0.002,8e-05,0,0.3037527508592092,0.018252990794068422,2.430022006873674e-05,0.0,0.018277291014137158,0.2,0.02,0.0,-0.0011683616994145906,-0.007020873155299061,-2.3367233988291814e-05,-0.0,-0.0070442403892873534,-9.97201315056744,-10,-0.02798684943256047,40.021928267696296,40,-0.02192826769629322,9.12649539703421,10,0.8735046029657906,-0.035104365776495304,0,0.035104365776495304,3.9975485023247126,4.002449996135049,0.0070442403892873534,0.5182772910141371,0.03328251838684082,0.033577680587768555,STABILIZE
0.16,0.015,0.11,2.7138907315296414,6.40316143308317,0.04070836097294462,6.871544627574344,13.315414421630457,0.17,0.015,0.08,-0.6760908631385556,-1.694597510227891,-0.010141362947078333,-4.995606645994575,-6.700345519169544,0.002,8e-05,0,0.619156311759353,0.018268671133113534,4.953250494074825e-05,0.0,0.01831820363805428,0.2,0.02,0.0,-0.0022674557782658067,-0.006366126055641519,-4.5349115565316135e-05,-0.0,-0.006411475171206835,-9.968220648399358,-10,-0.0317793516006418,40.01975895676981,40,-0.019758956769815768,9.134335566556768,10,0.8656644334432321,-0.031830630278207594,0,0.031830630278207594,3.997777185638913,4.002221579821015,0.006411475171206835,0.5183182036380543,0.03452944755554199,0.06804060935974121,STABILIZE
0.16,0.015,0.11,4.059230625732981,6.40281915038731,0.060888459385994714,4.578696532076401,11.042404141849705,0.17,0.015,0.08,-1.011222386522884,-1.6946633368533972,-0.01516833579784326,-3.330711573672268,-5.040543246323509,0.002,8e-05,0,0.9265890498254741,0.0182893950371497,7.412712398603794e-05,0.0,0.018363522161135737,0.2,0.02,0.0,-0.0033362491421167744,-0.0063583287087500195,-6.672498284233549e-05,-0.0,-0.006425053691592355,-9.968607863843513,-10,-0.031392136156486734,40.017619689920686,40,-0.01761968992068716,9.14469751857485,10,0.8553024814251502,-0.031791643543750095,0,0.031791643543750095,3.9977799089371775,4.002218859545072,0.006425053691592355,0.5183635221611358,0.03361868858337402,0.10168194770812988,STABILIZE
0.16,0.015,0.11,5.399599561880272,6.402271679720228,0.08099399342820408,3.4312133240952623,9.914478997243695,0.17,0.015,0.08,-1.3451706199018592,-1.6947975763302163,-0.020177559298527888,-2.4985051470237343,-4.213480282652478,0.002,8e-05,0,1.2329459442969584,0.01829141977692671,9.863567554375668e-05,0.0,0.018390055452470466,0.2,0.02,0.0,-0.004327101310866708,-0.005916006227557006,-8.654202621733417e-05,-0.0,-0.00600254825377434,-9.969397507824802,-10,-0.03060249217519912,40.014197998251426,40,-0.01419799825142399,9.145709888463355,10,0.8542901115366457,-0.029580031137785026,0,0.029580031137785026,3.997934391279731,4.002064542585835,0.00600254825377434,0.5183900554524705,0.03349733352661133,0.13516688346862793,STABILIZE
0.16,0.015,0.11,6.7442133777793405,6.401724359099827,0.1011632006666901,2.742731299219655,9.245618858986171,0.17,0.015,0.08,-1.680231278387721,-1.6949300430781469,-0.025203469175815812,-1.99917510347686,-3.7193086157308226,0.002,8e-05,0,1.5403265788852838,0.01829304139869252,0.0001232261263108227,0.0,0.018416267525003343,0.2,0.02,0.0,-0.005246093664109122,-0.005469168604411434,-0.00010492187328218244,-0.0,-0.005574090477693617,-9.970176723989098,-10,-0.02982327601090247,40.01077724437392,40,-0.010777244373922629,9.14652069934626,10,0.8534793006537397,-0.02734584302205717,0,0.02734584302205717,3.9982244114743986,3.7212172920349236,0.005574090477693617,0.5184162675250034,0.03360629081726074,0.16876745223999023,STABILIZE
0.16,0.015,0.11,8.09427663238278,6.401329094893813,0.1214141494857417,-0.008879295389784972,6.51386394898977,0.17,0.015,0.08,-2.0165117380508892,-1.694129516407965,-0.030247676070763337,0.003057661041482561,-1.7213195314372458,0.002,8e-05,0,1.8490237734504298,0.01829610877808838,0.0001479219018760344,0.0,0.018444030679964415,0.2,0.02,0.0,-0.006210069710515004,-0.005713369254734697,-0.0001242013942103001,0.0,-0.005837570648944997,-9.965467743576264,-10,-0.03453225642373645,40.00830684308633,40,-0.00830684308633204,9.14805438904419,10,0.8519456109558097,-0.028566846273673483,0,0.028566846273673483,3.999141277859299,1.7233136595028877,0.005837570648944997,0.5184440306799644,0.03374457359313965,0.20253968238830566,STABILIZE
0.16,0.015,0.11,9.43733542068901,6.401314590695208,0.14156003131033515,-0.007556555195074798,6.535318066810468,0.17,0.015,0.08,-2.3509127241521965,-1.6934432064649527,-0.03526369086228295,0.00322449864707435,-1.7254823986801613,0.002,8e-05,0,2.155277764045854,0.01824592634669286,0.00017242222112366832,-0.0,0.01841834856781653,0.2,0.02,0.0,-0.007119092837414329,-0.005415756048957536,-0.0001423818567482866,0.0,-0.005558137905705822,-9.961430626264427,-10,-0.03856937373557328,40.008216191845044,40,-0.008216191845046645,9.122963173346431,10,0.8770368266535682,-0.027078780244787676,0,0.027078780244787676,3.999184066383913,1.727372661395355,0.005558137905705822,0.5184183485678165,0.0335695743560791,0.23611164093017578,STABILIZE
0.16,0.015,0.11,10.782310457385949,6.400901122684749,0.16173465686078922,-0.007847654237808145,6.55478812530773,0.17,0.015,0.08,-2.6856653200880345,-1.6926991927189479,-0.040284979801320515,0.005491638952265601,-1.7274925335680027,0.002,8e-05,0,2.4606511133781193,0.018166365185662364,0.00019685208907024957,-0.0,0.018363217274732613,0.2,0.02,0.0,-0.008111777990389295,-0.005905387959610965,-0.00016223555980778592,0.0,-0.006067623519418751,-9.95705407481734,-10,-0.04294592518266127,40.00563201677968,40,-0.005632016779676719,9.083182592831182,10,0.9168174071688178,-0.029526939798054822,0,0.029526939798054822,3.9991092188782713,1.7295536733550718,0.006067623519418751,0.5183632172747326,0.03361964225769043,0.2697176933288574,STABILIZE
0.16,0.015,0.11,12.124597995112042,6.400729879854427,0.1818689699266806,-0.006302138827920758,6.576296710953187,0.17,0.015,0.08,-3.020079168814033,-1.694326621136226,-0.04530118753221049,0.001303853009104406,-1.738323955659332,0.002,8e-05,0,2.7654817938881098,0.01816990389724906,0.0002212385435110488,-0.0,0.018391142440760108,0.2,0.02,0.0,-0.009236331988145365,-0.0067030779291342825,-0.0001847266397629073,-0.0,-0.00688780456889719,-9.96662718315427,-10,-0.033372816845730624,40.004561749090165,40,-0.004561749090165348,9.08495194862453,10,0.9150480513754703,-0.03351538964567141,0,0.03351538964567141,3.9989824763395863,1.7406634737214484,0.00688780456889719,0.5183911424407601,0.033553361892700195,0.3033480644226074,STABILIZE
0.16,0.015,0.11,13.473262381317465,6.400348976416323,0.20209893571976195,-0.005616229106789327,6.596831683029295,0.17,0.015,0.08,-3.356188336458271,-1.6947633439556802,-0.05034282504687406,0.00045569002999263546,-1.7446504789725616,0.002,8e-05,0,3.0723301163397188,0.018202604430409067,0.0002457864093071775,-0.0,0.018448390839716243,0.2,0.02,0.0,-0.01021888090971985,-0.005828596099222897,-0.00020437761819439698,-0.0,-0.0060329737174172945,-9.969196140915765,-10,-0.03080385908423459,40.002181102602016,40,-0.0021811026020146203,9.101302215204534,10,0.8986977847954668,-0.029142980496114485,0,0.029142980496114485,3.9991120819064174,1.7466848170546705,0.0060329737174172945,0.5184483908397163,0.03371477127075195,0.3370187282562256,STABILIZE
0.16,0.015,0.11,14.821708390513828,6.3999915019980556,0.22232562585770743,-0.005463688195040898,6.616853439660722,0.17,0.015,0.08,-3.6923425334282687,-1.6951702097285501,-0.05538513800142403,-0.0029129953366114326,-1.7534683430665856,0.002,8e-05,0,3.379644872876628,0.018232207823498492,0.00027037158983013026,-0.0,0.018502579413328623,0.2,0.02,0.0,-0.011063739220527185,-0.005012330835535133,-0.0002212747844105437,0.0,-0.005233605619945677,-9.971589468991471,-10,-0.028410531008529513,39.999946887487845,40,5.311251215733446e-05,9.116103911749246,10,0.8838960882507537,-0.02506165417767566,0,0.02506165417767566,3.9992326356225085,1.7552178087942603,0.005233605619945677,0.5185025794133287,0.03371119499206543,0.3707122802734375,STABILIZE
0.16,0.015,0.11,16.159774145935472,6.400107823272917,0.24239661218903208,-0.004926143133924218,6.637578292328024,0.17,0.015,0.08,-4.025737524782534,-1.694329390387427,-0.06038606287173801,-0.0024714531020261074,-1.7571869063611911,0.002,8e-05,0,3.684908512697471,0.018251347154109965,0.00029479268101579773,0.0,0.018546139835125763,0.2,0.02,0.0,-0.011660813945624595,-0.00356983821954466,-0.0002332162789124919,0.0,-0.0038030544984571516,-9.966643472867217,-10,-0.03335652713278304,40.000673895455726,40,-0.0006738954557278916,9.125673577054982,10,0.8743264229450183,-0.0178491910977233,0,0.0178491910977233,3.9994523944754627,1.758432929688165,0.0038030544984571516,0.5185461398351258,0.033451080322265625,0.4041917324066162,STABILIZE
0.16,0.015,0.11,17.496648536116858,6.398650721823942,0.26244972804175287,-0.00922847149400308,6.651871978371692,0.17,0.015,0.08,-4.358700701846374,-1.693257258845362,-0.0653805105276956,-0.0015357674835136067,-1.7601735368565714,0.002,8e-05,0,3.9895206386468525,0.01822447394737923,0.0003191616510917482,0.0,0.018543635598470977,0.2,0.02,0.0,-0.012400007564303319,-0.004422481476629715,-0.00024800015128606637,0.0,-0.004670481627915781,-9.960336816737422,-10,-0.03966318326257796,39.99156701139964,40,0.008432988600362212,9.112236973689614,10,0.8877630263103862,-0.022112407383148572,0,0.022112407383148572,3.9993203907591437,1.7617171429909806,0.004670481627915781,0.5185436355984709,0.03342890739440918,0.4375941753387451,STABILIZE
0.16,0.015,0.11,18.834148619646694,6.399728434015129,0.2825122292947004,-0.004095201574927379,6.678145461734902,0.17,0.015,0.08,-4.691846339852316,-1.6936778104714243,-0.07037769509778474,0.0018455014822243915,-1.7622100040869848,0.002,8e-05,0,4.294599577222082,0.018246936783980962,0.0003435679661777666,0.0,0.018590504750158728,0.2,0.02,0.0,-0.012882436630046097,-0.0028854344080500288,-0.00025764873260092195,0.0,-0.0031430831406509506,-9.962810649831907,-10,-0.03718935016809414,39.99830271259456,40,0.0016972874054418056,9.12346839199048,10,0.8765316080095192,-0.014427172040250144,0,0.014427172040250144,3.9995561458030764,1.7632171548261117,0.0031430831406509506,0.5185905047501588,0.033438920974731445,0.4710347652435303,STABILIZE
0.16,0.015,0.11,20.18380840737281,6.400184792095746,0.30275712611059213,-0.0006819922554358003,6.7022599259509015,0.17,0.015,0.08,-5.0280107516057155,-1.6937483236672242,-0.07542016127408573,0.002867956967078455,-1.7663005279742314,0.002,8e-05,0,4.602667064277871,0.018260980132958984,0.00036821336514222976,0.0,0.018629193498101212,0.2,0.02,0.0,-0.013419796729611508,-0.0031852508020853904,-0.00026839593459223015,0.0,-0.0034536467366776207,-9.963225433336612,-10,-0.03677456666338716,40.00115495059841,40,-0.0011549505984156023,9.130490066479492,10,0.869509933520507,-0.015926254010426952,0,0.015926254010426952,3.9995088747435736,1.7674123220033977,0.0034536467366776207,0.5186291934981012,0.03374052047729492,0.504798173904419,STABILIZE
0.16,0.015,0.11,21.523672892213916,6.400363271450886,0.3228550933832087,0.001508741637310667,6.724727106471406,0.17,0.015,0.08,-5.3618295143298536,-1.694273158375605,-0.0804274427149478,0.002529131310966281,-1.7721714697795865,0.002,8e-05,0,4.908647263722964,0.01827035917135888,0.00039269178109783715,0.0,0.018663050952456715,0.2,0.02,0.0,-0.013842222333998929,-0.002522342141528505,-0.0002768444466799786,0.0,-0.0027991865882084836,-9.966312696327087,-10,-0.033687303672913234,40.00227044656804,40,-0.002270446568041735,9.135179585679438,10,0.8648204143205619,-0.012611710707642524,0,0.012611710707642524,3.999609820025381,1.7730518903453674,0.0027991865882084836,0.5186630509524567,0.03349471092224121,0.5382723808288574,STABILIZE
0.16,0.015,0.11,22.86113583265528,6.400874213766514,0.34291703748982916,0.0031320217801264157,6.746923273036469,0.17,0.015,0.08,-5.694598847206612,-1.6921145914650442,-0.08541898270809917,0.006240198487321272,-1.771293375685822,0.002,8e-05,0,5.21413536354306,0.01827518768581456,0.00041713082908344484,0.0,0.018692318514898006,0.2,0.02,0.0,-0.014280010841409181,-0.0026189783315050978,-0.0002856002168281836,0.0,-0.0029045785483332812,-9.953615243912024,-10,-0.046384756087976264,40.00546383604071,40,-0.005463836040710312,9.137593842907279,10,0.8624061570927212,-0.013094891657525488,0,0.013094891657525488,3.9995950682495005,1.7722075253148961,0.0029045785483332812,0.518692318514898,0.0334320068359375,0.5717189311981201,STABILIZE
0.16,0.015,0.11,24.235856406389455,6.400617196309659,0.36353784609584183,0.008097003009478094,6.772252045414978,0.17,0.015,0.08,-6.037013442575698,-1.6939033565003883,-0.09055520163863547,-0.0016773907921366245,-1.7861359489311603,0.002,8e-05,0,5.528079348623702,0.018271306438359308,0.00044224634788989623,0.0,0.018713552786249206,0.2,0.02,0.0,-0.01446402848398795,-0.0010709689936430878,-0.00028928056967975904,0.0,-0.0013602495633228467,-9.964137391178754,-10,-0.035862608821244944,40.003857476935366,40,-0.0038574769353644876,9.135653219179654,10,0.8643467808203468,-0.0053548449682154385,0,0.0053548449682154385,3.9998330508444044,1.7865097798324425,0.0013602495633228467,0.5187135527862492,0.03436470031738281,0.6060824394226074,STABILIZE
0.16,0.015,0.11,25.581373092065373,6.400301689721222,0.3837205963809806,0.0023757366498534938,6.786398022752056,0.17,0.015,0.08,-6.372262256981344,-1.6943672454381966,-0.09558393385472015,-0.0017917056600811857,-1.791742884952998,0.002,8e-05,0,5.835350000280736,0.018270164279069547,0.00046682800002245895,0.0,0.018736992279092007,0.2,0.02,0.0,-0.014737439243376638,-0.0016256871467412422,-0.0002947487848675328,0.0,-0.001920435931608775,-9.96686614963645,-10,-0.03313385036354994,40.001885560757636,40,-0.0018855607576348014,9.135082139534774,10,0.8649178604652259,-0.00812843573370621,0,0.00812843573370621,3.999745768828072,1.7923103387866797,0.001920435931608775,0.518736992279092,0.03363633155822754,0.6397213935852051,STABILIZE
0.16,0.015,0.11,26.929938093722956,6.399741557805755,0.40394907140584435,-0.0017683772794152355,6.801922251932185,0.17,0.015,0.08,-6.708259265380726,-1.694161861879643,-0.1006238889807109,-0.0010216788263046593,-1.7958074296866586,0.002,8e-05,0,6.14393260770015,0.018305095919465345,0.000491514608616012,0.0,0.018796610528081358,0.2,0.02,0.0,-0.015074470270959773,-0.0019992653958491153,-0.00030148940541919545,0.0,-0.0023007548012683107,-9.965658011056723,-10,-0.03434198894327698,39.99838473628597,40,0.001615263714032735,9.152547959732672,10,0.8474520402673286,-0.009996326979245577,0,0.009996326979245577,3.999686626721634,1.7965052776270711,0.0023007548012683107,0.5187966105280813,0.03371548652648926,0.6734428405761719,STABILIZE
0.16,0.015,0.11,28.269912920506417,6.399296082751086,0.42404869380759624,-0.004329333103973837,6.819015443454708,0.17,0.015,0.08,-7.042347092127375,-1.6952164385129185,-0.10563520638191062,-0.002509476175648353,-1.8033611210704774,0.002,8e-05,0,6.450976214598089,0.01832928977080394,0.0005160780971678472,0.0,0.018845367867971786,0.2,0.02,0.0,-0.015376148929616328,-0.001800902356524698,-0.00030752297859232654,0.0,-0.0021084253351170246,-9.971861403017167,-10,-0.028138596982833074,39.99560051719428,40,0.004399482805716818,9.16464488540197,10,0.8353551145980307,-0.00900451178262349,0,0.00900451178262349,3.9997165372946646,1.8039897323100673,0.0021084253351170246,0.5188453678679718,0.033503055572509766,0.7069582939147949,STABILIZE
0.16,0.015,0.11,29.606779335552602,6.399160224645109,0.44410169003328903,-0.006989609810478591,6.8362723048679195,0.17,0.015,0.08,-7.3756484120315875,-1.6951219343755493,-0.1106347261804738,-0.008320169697501392,-1.8140768302535246,0.002,8e-05,0,6.757327710281043,0.018330106544968142,0.0005405862168224835,0.0,0.018870692761790625,0.2,0.02,0.0,-0.015660606645174133,-0.001702012331321851,-0.00031321213290348265,0.0,-0.0020152244642253334,-9.97130549632676,-10,-0.028694503673239554,39.99475140403193,40,0.00524859596806731,9.165053272484071,10,0.834946727515928,-0.008510061656609254,0,0.008510061656609254,3.9997305135958574,1.8146709246232204,0.0020152244642253334,0.5188706927617907,0.03342604637145996,0.7403810024261475,STABILIZE
0.16,0.015,0.11,30.94404886007672,6.398944615363988,0.4641607329011508,-0.006847856032479373,6.85625749223266,0.17,0.015,0.08,-7.708962744189492,-1.6946200121688204,-0.11563444116284237,-0.002008332875293373,-1.812262786206956,0.002,8e-05,0,7.064362745214897,0.01836484855415775,0.0005651490196171918,0.0,0.01892999757377494,0.2,0.02,0.0,-0.015962498314958818,-0.0018057205740549882,-0.0003192499662991764,-0.0,-0.0021249705403541645,-9.968353012757767,-10,-0.03164698724223336,39.993403846024925,40,0.006596153975074879,9.182424277078875,10,0.817575722921125,-0.00902860287027494,0,0.00902860287027494,3.9997143760587908,1.8128930790918798,0.0021249705403541645,0.5189299975737749,0.033437252044677734,0.7738602161407471,STABILIZE
0.16,0.015,0.11,32.28195982794338,6.398683370510918,0.4842293974191507,-0.006631842009141256,6.876280925920928,0.17,0.015,0.08,-8.042342119891149,-1.6940689167817897,-0.12063513179836723,0.0008400634643183655,-1.8138639851158385,0.002,8e-05,0,7.3716958418519365,0.01837311321427777,0.000589735667348155,0.0,0.018962848881625922,0.2,0.02,0.0,-0.016279789850502477,-0.0018968452692748874,-0.00032559579701004957,-0.0,-0.002222441066284937,-9.965111275186997,-10,-0.03488872481300331,39.991771065693236,40,0.008228934306763185,9.186556607138884,10,0.8134433928611157,-0.009484226346374436,0,0.009484226346374436,3.9996996945232173,1.8145260841694153,0.002222441066284937,0.5189628488816259,0.03345465660095215,0.8072810173034668,STABILIZE
0.16,0.015,0.11,33.63365948322338,6.3990962170936285,0.5045048922483507,-0.0026678716679673802,6.900933237674011,0.17,0.015,0.08,-8.379378358432927,-1.6952899022850871,-0.1256906753764939,-0.003133435259291903,-1.824114012920873,0.002,8e-05,0,7.682157459100784,0.01837199699587054,0.0006145725967280628,0.0,0.018986569592598604,0.2,0.02,0.0,-0.016554867755586365,-0.001627811673022624,-0.00033109735511172733,0.0,-0.001958909028134351,-9.972293542853453,-10,-0.027706457146545998,39.994351356835175,40,0.005648643164823404,9.18599849793527,10,0.8140015020647307,-0.00813905836511312,0,0.00813905836511312,3.9997408381061694,1.8246822079803517,0.001958909028134351,0.5189865695925986,0.033797264099121094,0.8410515785217285,STABILIZE
0.16,0.015,0.11,34.97486888940627,6.399362931748889,0.524623033341094,0.0002540322764674083,6.924239997366451,0.17,0.015,0.08,-8.713752588200041,-1.6951256224639253,-0.13070628882300062,0.00029018770930431127,-1.8255417235776217,0.002,8e-05,0,7.989336677696599,0.01832069712439815,0.0006391469342157279,-0.0,0.018959844058613878,0.2,0.02,0.0,-0.01701255277540044,-0.0027297122066779127,-0.0003402510555080088,-0.0,-0.0030699632621859216,-9.971327190964265,-10,-0.028672809035734728,39.996018323430555,40,0.003981676569442351,9.160348562199074,10,0.8396514378009269,-0.013648561033389562,0,0.013648561033389562,3.9995650199697015,1.8264945210860923,0.0030699632621859216,0.5189598440586138,0.033533573150634766,0.874619722366333,STABILIZE
0.16,0.015,0.11,36.314021871568805,6.398376385141263,0.544710328073532,-0.0032378991709360616,6.939848814043859,0.17,0.015,0.08,-9.047885584306083,-1.6962423218440243,-0.13571828376459125,-0.003114442161171486,-1.835075047769787,0.002,8e-05,0,8.296110977249674,0.018321818529826606,0.000663688878179974,-0.0,0.01898550740800658,0.2,0.02,0.0,-0.01746348051992897,-0.0026931253098294245,-0.0003492696103985794,-0.0,-0.003042394920228004,-9.977896010847202,-10,-0.022103989152798608,39.989852407132894,40,0.01014759286710594,9.160909264913302,10,0.8390907350866973,-0.013465626549147122,0,0.013465626549147122,3.999568611080334,1.836015075158212,0.003042394920228004,0.5189855074080065,0.03348731994628906,0.9080989360809326,STABILIZE
0.16,0.015,0.11,37.65215448512587,6.3983754481446615,0.564782317276888,-0.002355125262557484,6.960802640158992,0.17,0.015,0.08,-9.381715490122305,-1.6959956863132772,-0.14072573235183458,-0.0038335208918570175,-1.8405549395569687,0.002,8e-05,0,8.602791553512384,0.018330185006533637,0.0006882233242809908,-0.0,0.019018408330814626,0.2,0.02,0.0,-0.01802523218000953,-0.0033575689671925383,-0.0003605046436001906,-0.0,-0.003718073610792729,-9.976445213607512,-10,-0.02355478639248829,39.98984655090413,40,0.010153449095870327,9.165092503266818,10,0.8349074967331817,-0.01678784483596269,0,0.01678784483596269,3.999460539880228,1.841726873200397,0.003718073610792729,0.5190184083308146,0.033461809158325195,0.9415607452392578,STABILIZE
0.16,0.015,0.11,38.9885469364373,6.398397561868468,0.5848282040465596,-0.0011904107705869194,6.982035355144442,0.17,0.015,0.08,-9.71506163058096,-1.695749030098247,-0.1457259244587144,-0.004689239083065254,-1.8461641936400266,0.002,8e-05,0,8.909332023756036,0.018345731782384134,0.000712746561900483,-0.0,0.01905847834428462,0.2,0.02,0.0,-0.0186912948219436,-0.003986229475499959,-0.000373825896438872,-0.0,-0.004360055371938831,-9.97499429469557,-10,-0.025005705304429644,39.989984761677924,40,0.010015238322075513,9.172865891192068,10,0.8271341088079318,-0.01993114737749979,0,0.01993114737749979,3.9993575436644693,1.8475555384920455,0.004360055371938831,0.5190584783442846,0.03341817855834961,0.9750051498413086,STABILIZE
0.16,0.015,0.11,40.32476133271523,6.398229780355271,0.6048714199907284,-0.003560441628385561,6.999540758717614,0.17,0.015,0.08,-10.048283638910334,-1.6952989876067044,-0.15072425458365502,-2.1456168265928886e-05,-1.8460446983586254,0.002,8e-05,0,9.216012888716248,0.01835609847416116,0.0007372810310972999,-0.0,0.01909337950525846,0.2,0.02,0.0,-0.01919559131377393,-0.0030184198369899717,-0.00038391182627547856,-0.0,-0.00340233166326545,-9.97234698592179,-10,-0.027653014078210397,39.98893612722044,40,0.011063872779560446,9.178049237080579,10,0.8219507629194215,-0.015092099184949859,0,0.015092099184949859,3.999513600472393,1.8470982615914997,0.00340233166326545,0.5190933795052585,0.033414602279663086,1.0083818435668945,STABILIZE
0.16,0.015,0.11,41.66303923398402,6.398477484679131,0.6249455885097603,-0.0036363069803855164,7.019786766208506,0.17,0.015,0.08,-10.38203795643536,-1.6954546225625322,-0.1557305693465304,-0.000920247395786296,-1.8521054393048488,0.002,8e-05,0,9.523033349359917,0.018348800190358987,0.0007618426679487934,0.0,0.01911064285830778,0.2,0.02,0.0,-0.019941570659775056,-0.004458278102121545,-0.00039883141319550113,-0.0,-0.004857109515317046,-9.973262485661953,-10,-0.026737514338047212,39.99048427924457,40,0.00951572075543392,9.174400095179493,10,0.8255999048205074,-0.022291390510607724,0,0.022291390510607724,3.9992791205527123,1.8536615317294936,0.004857109515317046,0.5191106428583078,0.033464908599853516,1.0418705940246582,STABILIZE
0.16,0.015,0.11,43.19351887362289,6.398541605124249,0.6479027831043433,0.00064485833283518,7.047089246561428,0.17,0.015,0.08,-10.76367074970458,-1.6952278031126828,-0.16145506124556872,0.0027760954735829924,-1.8539067688846687,0.002,8e-05,0,9.874108284559586,0.01834692472551805,0.000789928662764767,0.0,0.019136853388282814,0.2,0.02,0.0,-0.02100708276363421,-0.005568289958528115,-0.0004201416552726842,-0.0,-0.005988431613800799,-9.971928253604016,-10,-0.028071746395984646,39.990885032026554,40,0.009114967973446925,9.173462362759023,10,0.8265376372409766,-0.027841449792640575,0,0.027841449792640575,3.999098668203062,1.8558502498027394,0.005988431613800799,0.5191368533882829,0.03827071189880371,1.0801475048065186,STABILIZE
0.16,0.015,0.11,44.53113109909288,6.398257762019345,0.6679669664863932,-0.0005180810435932948,7.065706647462144,0.17,0.015,0.08,-11.097070272416596,-1.6944369572446059,-0.16645605408624894,0.00430761410914171,-1.8565853972217132,0.002,8e-05,0,10.181706816601336,0.018391865162289144,0.0008145365453281069,0.0,0.01920640170761725,0.2,0.02,0.0,-0.021747165350578978,-0.004425085860357359,-0.00043494330701157954,-0.0,-0.004860029167368938,-9.967276219085916,-10,-0.032723780914085024,39.9891110126209,40,0.010888987379099244,9.195932581144572,10,0.8040674188554289,-0.022125429301786792,0,0.022125429301786792,3.9992827598078087,1.8581299051145335,0.004860029167368938,0.5192064017076172,0.033449411392211914,1.1135880947113037,STABILIZE
0.16,0.015,0.11,45.86823108579323,6.398726488192875,0.6880234662868984,0.0013185965335930918,7.088068551013366,0.17,0.015,0.08,-11.43026146986992,-1.6941510149633516,-0.1714539220480488,0.004417873083643833,-1.8611870639277566,0.002,8e-05,0,10.489127734688248,0.018389634200446488,0.0008391302187750599,0.0,0.01922876441922155,0.2,0.02,0.0,-0.022743402604504994,-0.005959398856318997,-0.0004548680520900999,-0.0,-0.006414266908409097,-9.965594205666774,-10,-0.03440579433322604,39.99204055120547,40,0.00795944879453107,9.194817100223244,10,0.805182899776757,-0.029796994281594984,0,0.029796994281594984,3.9990315382657715,1.8632670347772804,0.006414266908409097,0.5192287644192215,0.033434152603149414,1.1470189094543457,STABILIZE
0.16,0.015,0.11,47.20596607133737,6.399073020052753,0.7080894910700606,0.0034335461479468917,7.11059605727076,0.17,0.015,0.08,-11.763554339692355,-1.6939552854155087,-0.1764533150953853,0.003701005342755736,-1.8667075951681382,0.002,8e-05,0,10.79661815113218,0.018386055992536197,0.0008637294520905744,0.0,0.01924978544462677,0.2,0.02,0.0,-0.023384050929873234,-0.0038306871862762108,-0.00046768101859746467,-0.0,-0.004298368204873676,-9.964442855385345,-10,-0.03555714461465587,39.9942063753297,40,0.005793624670294966,9.193027996268098,10,0.8069720037319024,-0.019153435931381052,0,0.019153435931381052,3.999375753858509,1.8680446529210954,0.004298368204873676,0.5192497854446267,0.033448219299316406,1.1805014610290527,STABILIZE
0.16,0.015,0.11,48.54399786103227,6.398303648447451,0.728159967915484,-0.0007458922476517194,7.125717724115283,0.17,0.015,0.08,-12.096882896246944,-1.6935572229734484,-0.18145324344370414,0.00525841492489341,-1.8697520514922592,0.002,8e-05,0,11.104287809516483,0.018390481385776314,0.0008883430247613187,0.0,0.01927882441053763,0.2,0.02,0.0,-0.02427917656093635,-0.005350476008081153,-0.000485583531218727,-0.0,-0.00583605953929988,-9.962101311608519,-10,-0.03789868839148093,39.98939780279657,40,0.010602197203433382,9.195240692888158,10,0.8047593071118432,-0.02675238004040576,0,0.02675238004040576,3.999126544775926,1.8716195160683895,0.00583605953929988,0.5192788244105376,0.03345966339111328,1.2139317989349365,STABILIZE
0.16,0.015,0.11,49.88025679829255,6.399219267942449,0.7482038519743882,0.002791935637338318,7.150215055554176,0.17,0.015,0.08,-12.429613441062768,-1.6930039773170127,-0.18644420161594152,0.00625910199706712,-1.8731890769358872,0.002,8e-05,0,11.411374156929819,0.018382598017628066,0.0009129099325543855,0.0,0.01929550795018245,0.2,0.02,0.0,-0.025145508831097046,-0.005185980427396773,-0.0005029101766219409,0.0,-0.005688890604018714,-9.958846925394191,-10,-0.041153074605809144,39.995120424640305,40,0.004879575359693393,9.191299008814033,10,0.8087009911859677,-0.025929902136983863,0,0.025929902136983863,3.9991518558960366,1.874999133715855,0.005688890604018714,0.5192955079501824,0.03341054916381836,1.2473695278167725,STABILIZE
0.16,0.015,0.11,51.21866101177826,6.399035809995466,0.7682799151766738,0.003204942021928854,7.170520667194069,0.17,0.015,0.08,-12.763043603552157,-1.6937958644548918,-0.19144565405328234,0.0018067647128438662,-1.8834347537953302,0.002,8e-05,0,11.7190065170465,0.018385238824573987,0.0009375205213637201,-0.0,0.019322759345937707,0.2,0.02,0.0,-0.026132727164029878,-0.005899979058147101,-0.0005226545432805976,-0.0,-0.006422633601427699,-9.963505085028775,-10,-0.03649491497122539,39.99397381247166,40,0.006026187528344666,9.192619412286993,10,0.8073805877130077,-0.029499895290735503,0,0.029499895290735503,3.9990297452398615,1.8854939852704073,0.006422633601427699,0.5193227593459377,0.03346514701843262,1.2808327674865723,STABILIZE
0.16,0.015,0.11,52.556485491787306,6.397449075069154,0.7883472823768095,-0.00524343171553835,7.180552925730426,0.17,0.015,0.08,-13.095513717826488,-1.6892318072270234,-0.19643270576739733,0.013840201994840113,-1.8718243109995807,0.002,8e-05,0,12.026685450167038,0.01839142891615475,0.0009621348360133632,0.0,0.019353563752168113,0.2,0.02,0.0,-0.027362981035288992,-0.007353810802906705,-0.0005472596207057799,-0.0,-0.007901070423612485,-9.936657689570724,-10,-0.06334231042927502,39.98405671918221,40,0.015943280817787443,9.195714458077376,10,0.8042855419226247,-0.03676905401453352,0,0.03676905401453352,3.9987979499104553,1.8743908896068064,0.007901070423612485,0.5193535637521681,0.03345894813537598,1.314272165298462,STABILIZE
0.16,0.015,0.11,53.89362807335554,6.397151224411975,0.8084044211003332,-0.00789255436674094,7.197663091145568,0.17,0.015,0.08,-13.42800816878969,-1.690138281060858,-0.20142012253184535,0.010738423924520391,-1.880819979668183,0.002,8e-05,0,12.334362685356735,0.018399849695806537,0.0009867490148285389,0.0,0.019386598710635077,0.2,0.02,0.0,-0.027721041409833395,-0.0021412884413041684,-0.000554420828196668,0.0,-0.0026957092695008363,-9.941989888593282,-10,-0.05801011140671736,39.982195152574846,40,0.017804847425151284,9.199924847903269,10,0.8000751520967313,-0.010706442206520842,0,0.010706442206520842,3.9996484751279087,1.8815673974976332,0.0026957092695008363,0.5193865987106351,0.033443450927734375,1.3477234840393066,STABILIZE
0.16,0.015,0.11,55.23374747499637,6.396891007075583,0.8285062121249456,-0.005798321209831881,7.219598897990697,0.17,0.015,0.08,-13.761455829121266,-1.6911497648359997,-0.20642183743681897,0.00677861452738404,-1.8907929877454346,0.002,8e-05,0,12.643009240419747,0.01841606772155926,0.00101144073923358,0.0,0.01942750846079284,0.2,0.02,0.0,-0.027209578239170522,0.0030517562025236078,-0.0005441915647834104,0.0,0.0025075646377401973,-9.947939793152939,-10,-0.052060206847060995,39.98056879422239,40,0.01943120577760443,9.208033860779631,10,0.791966139220369,0.015258781012618038,0,-0.015258781012618038,4.000503406511443,1.8897276568324979,-0.0025075646377401973,0.5194275084607929,0.03351926803588867,1.3812999725341797,STABILIZE
0.16,0.015,0.11,56.568639838057194,6.393952439387839,0.8485295975708579,-0.02166251681166706,7.220819520147029,0.17,0.015,0.08,-14.093567885201637,-1.6901946904146945,-0.21140351827802453,0.007911105404875484,-1.8936871032878435,0.002,8e-05,0,12.950719386683856,0.018423620648882092,0.0010360575509347086,0.0,0.0194596781998168,0.2,0.02,0.0,-0.02680295277187035,0.0024346006937589733,-0.000536059055437407,0.0,0.0018985416383215663,-9.942321708321732,-10,-0.05767829167826843,39.96220274617399,40,0.03779725382600632,9.211810324441046,10,0.7881896755589546,0.012173003468794866,0,-0.012173003468794866,4.000402240569402,1.8928372245932854,-0.0018985416383215663,0.5194596781998168,0.033403873443603516,1.4146311283111572,STABILIZE
0.16,0.015,0.11,57.91943051021947,6.399578362909046,0.868791457653292,0.001996770229441665,7.270366590791779,0.17,0.015,0.08,-14.430203847273038,-1.6945436327863619,-0.21645305770909556,-0.0019816570622443264,-1.9129783475577018,0.002,8e-05,0,13.26244951104461,0.018460867031793986,0.0010609959608835688,0.0,0.019521862992677556,0.2,0.02,0.0,-0.026057100352208568,0.004416988051107786,-0.0005211420070441714,0.0,0.0038958460440636144,-9.967903722272716,-10,-0.032096277727283275,39.997364768181534,40,0.0026352318184686627,9.230433515896992,10,0.7695664841030071,0.022084940255538928,0,-0.022084940255538928,4.000737069751577,1.9114363857947667,-0.0038958460440636144,0.5195218629926776,0.03377199172973633,1.448406457901001,STABILIZE
0.16,0.015,0.11,59.29243707889247,6.395343473064918,0.889386556183387,-0.00843433177431539,7.276295697473991,0.17,0.015,0.08,-14.772076847861559,-1.691940169746831,-0.22158115271792336,-0.007686672579102956,-1.9212079950438574,0.002,8e-05,0,13.579213421196311,0.01844322936532947,0.0010863370736957049,0.0,0.019529566439025176,0.2,0.02,0.0,-0.023400317853126733,0.015468823131048318,-0.0004680063570625347,0.0,0.015000816773985784,-9.952589233804888,-10,-0.04741076619511153,39.970896706655736,40,0.029103293344260872,9.221614682664734,10,0.7783853173352663,0.07734411565524159,0,-0.07734411565524159,4.002589811578106,1.9158066083171286,-0.015000816773985784,0.5195295664390251,0.03435015678405762,1.4827587604522705,STABILIZE
0.16,0.015,0.11,60.63796470932095,6.396182751564901,0.9095694706398142,-0.0037811414125440567,7.301971080792171,0.17,0.015,0.08,-15.106469018674638,-1.6889363499656196,-0.22659703528011954,0.003263850929273657,-1.9122695343164655,0.002,8e-05,0,13.88988247753963,0.018460193743803796,0.0011111905982031703,0.0,0.019571384342006965,0.2,0.02,0.0,-0.02096253206755442,0.014485510220182475,-0.0004192506413510884,0.0,0.014066259578831387,-9.934919705680114,-10,-0.0650802943198865,39.97614219728063,40,0.023857802719369048,9.230096871901898,10,0.7699031280981015,0.07242755110091237,0,-0.07242755110091237,4.002414101919985,1.9072116108672754,-0.014066259578831387,0.519571384342007,0.03365826606750488,1.5164389610290527,STABILIZE
0.16,0.015,0.11,61.9764307819792,6.400015507070747,0.9296464617296879,0.013035826973410136,7.342697795773845,0.17,0.015,0.08,-15.439492971305535,-1.6919131617454402,-0.23159239456958303,-0.0022689411717935356,-1.9257744974868167,0.002,8e-05,0,14.198610681067255,0.018452702410703865,0.0011358888544853805,0.0,0.019588591265189245,0.2,0.02,0.0,-0.018305834836834373,0.015879094567215802,-0.0003661166967366875,0.0,0.015512977870479115,-9.952430363208471,-10,-0.047569636791528494,40.00009691919217,40,-9.691919217004463e-05,9.226351205351932,10,0.7736487946480686,0.079395472836079,0,-0.079395472836079,4.002664728373008,1.9202298006773135,-0.015512977870479115,0.5195885912651892,0.033461570739746094,1.5498900413513184,STABILIZE
0.16,0.015,0.11,63.34650695765978,6.403115454331893,0.9501976043648966,0.03758223069507038,7.39089528939186,0.17,0.015,0.08,-15.779964666221074,-1.6906611368108124,-0.23669946999331612,-0.001517928731180592,-1.928878535535309,0.002,8e-05,0,14.514371370541513,0.01844653044235637,0.001161149709643321,0.0,0.01960768015199969,0.2,0.02,0.0,-0.015513240884854113,0.016314148994960212,-0.0003102648176970823,0.0,0.01600388417726313,-9.945065510651837,-10,-0.054934489348163154,40.01947158957433,40,-0.019471589574332402,9.223265221178185,10,0.7767347788218153,0.08157074497480106,0,-0.08157074497480106,4.002742047431256,1.923181870384253,-0.01600388417726313,0.5196076801519997,0.034235239028930664,1.5841271877288818,STABILIZE
0.16,0.015,0.11,64.68564637217605,6.4004988922149755,0.9702846955826407,0.003929366858451014,7.374712954656067,0.17,0.015,0.08,-16.112980998606393,-1.6911514653591113,-0.2416947149790959,0.009223381487764947,-1.9236227988504422,0.002,8e-05,0,14.823175020074352,0.018449324574813148,0.0011858540016059483,-0.0,0.019635178576419096,0.2,0.02,0.0,-0.012475050651459407,0.01815152049553921,-0.00024950101302918814,0.0,0.017902019482510023,-9.947949796230066,-10,-0.05205020376993352,40.0031180763436,40,-0.003118076343594952,9.224662287406574,10,0.7753377125934258,0.09075760247769606,0,-0.09075760247769606,4.003042035526831,1.9172843122662884,-0.017902019482510023,0.519635178576419,0.03347587585449219,1.617607593536377,STABILIZE
0.16,0.015,0.11,66.027381485114,6.418527940847396,0.99041072227671,0.09499926022717689,7.503937923351283,0.17,0.015,0.08,-16.446138408633992,-1.6933513046756796,-0.24669207612950986,-0.004100257777026381,-1.944143638582216,0.002,8e-05,0,15.131815686245078,0.018455754794632982,0.0012105452548996064,0.0,0.019666300049532588,0.2,0.02,0.0,-0.011951938577741785,0.0031280479926465614,-0.0002390387715548357,-0.0,0.0028890092210917258,-9.960890027503996,-10,-0.03910997249600407,40.11579963029622,40,-0.11579963029622636,9.22787739731649,10,0.7721226026835091,0.015640239963232806,0,-0.015640239963232806,4.000530551013764,1.9430516714295616,-0.0028890092210917258,0.5196663000495326,0.033446550369262695,1.651047945022583,STABILIZE
0.16,0.015,0.11,67.36879854419409,6.413257744703925,1.0105319781629114,0.06991734486991974,7.493707067736755,0.17,0.015,0.08,-16.77950122394748,-1.6934054888435834,-0.2516925183592122,-0.012652136791536643,-1.9577501439943323,0.002,8e-05,0,15.440771222435536,0.01846379051010261,0.001235261697794843,0.0,0.019699052207897454,0.2,0.02,0.0,-0.009503470253968388,0.014632528278407395,-0.00019006940507936777,0.0,0.014442458873328028,-9.961208757903432,-10,-0.038791242096569194,40.08286090439953,40,-0.08286090439953328,9.231895255051304,10,0.7681047449486955,0.07316264139203697,0,-0.07316264139203697,4.00249664612371,1.9526408333532004,-0.014442458873328028,0.5196990522078975,0.03346610069274902,1.6845099925994873,STABILIZE
0.16,0.015,0.11,68.70996109655803,6.413046088459505,1.0306494164483704,0.05329806414087757,7.496993569048753,0.17,0.015,0.08,-17.112413557655472,-1.6913822408816115,-0.25668620336483206,0.0014116957816720105,-1.9466567484647714,0.002,8e-05,0,15.75018244723324,0.018493921946829615,0.0012600145957786593,0.0,0.019753936542608274,0.2,0.02,0.0,-0.007529529970217653,0.011798504582132378,-0.00015059059940435306,-0.0,0.011647913982728025,-9.949307299303596,-10,-0.05069270069640399,40.081538052871906,40,-0.08153805287190491,9.246960973414808,10,0.7530390265851922,0.058992522910661885,0,-0.058992522910661885,4.00200218400905,1.942537262327349,-0.011647913982728025,0.5197539365426083,0.03346085548400879,1.717986822128296,STABILIZE
0.16,0.015,0.11,70.05227197923885,6.420229671262316,1.0507840796885828,0.07037478690413189,7.541388537855031,0.17,0.015,0.08,-17.44498611663394,-1.6901015654867728,-0.26167479174950914,0.001572890895797122,-1.950203466340485,0.002,8e-05,0,16.0598793039171,0.018515875998183096,0.001284790344313368,0.0,0.019800666342496463,0.2,0.02,0.0,-0.009569176268523188,-0.012194453099706504,-0.00019138352537046376,-0.0,-0.012385836625076968,-9.941773914628074,-10,-0.05822608537192626,40.126435445389475,40,-0.12643544538947893,9.257937999091547,10,0.7420620009084523,-0.06097226549853252,0,0.06097226549853252,3.99792239373647,1.9544590284236951,0.012385836625076968,0.5198006663424964,0.03345203399658203,1.7514863014221191,STABILIZE
0.16,0.015,0.11,71.40289483225467,6.427643025396852,1.0710434224838201,0.1114411640369099,7.610127611917582,0.17,0.015,0.08,-17.778965022854194,-1.688751050156639,-0.2666844753428129,0.006732118345753062,-1.9487034071536988,0.002,8e-05,0,16.37138158577523,0.018530575216739818,0.0013097105268620184,0.0,0.019840285743601836,0.2,0.02,0.0,-0.015688795278070104,-0.03640424708216016,-0.0003137759055614021,-0.0,-0.03671802298772156,-9.933829706803758,-10,-0.06617029319624132,40.172768908730326,40,-0.17276890873032913,9.265287608369908,10,0.7347123916300922,-0.18202123541080079,0,0.18202123541080079,3.9937890482932126,1.961401031606139,0.03671802298772156,0.5198402857436019,0.033620357513427734,1.7850685119628906,STABILIZE
0.16,0.015,0.11,72.74782803356169,6.427366676797536,1.0912174205034253,0.03618814277390155,7.554772240074863,0.17,0.015,0.08,-18.113202320201104,-1.6971343030914918,-0.2716980348030166,-0.010644146080663872,-1.9794764839751722,0.002,8e-05,0,16.681991813942286,0.018554879045789268,0.001334559345115383,0.0,0.01988943839090465,0.2,0.02,0.0,-0.024307804301189645,-0.05148725167947015,-0.0004861560860237929,-0.0,-0.051973407765493945,-9.983142959361716,-10,-0.0168570406382842,40.1710417299846,40,-0.17104172998460393,9.277439522894634,10,0.7225604771053658,-0.25743625839735074,0,0.25743625839735074,3.991065647688191,1.9974288839540573,0.051973407765493945,0.5198894383909046,0.033480167388916016,1.8185515403747559,STABILIZE
0.16,0.015,0.11,74.10345064858555,6.442482381344141,1.1115517597287832,0.11957561642572379,7.673609757498649,0.17,0.015,0.08,-18.447354926884117,-1.6872841478618266,-0.2767103239032617,0.017044727967641702,-1.9469497437974466,0.002,8e-05,0,16.993082060744698,0.018480377686061093,0.0013594465648595758,0.0,0.01983982425092067,0.2,0.02,0.0,-0.03664538715324919,-0.07329165513309932,-0.0007329077430649839,-0.0,-0.07402456287616431,-9.92520086977545,-10,-0.0747991302245495,40.26551488340088,40,-0.26551488340088597,9.240188843030547,10,0.7598111569694541,-0.3664582756654966,0,0.3664582756654966,3.987465767371589,1.9724933609299278,0.07402456287616431,0.5198398242509207,0.03366708755493164,1.85221529006958,STABILIZE
0.16,0.015,0.11,75.46761745640282,6.4646841213402615,1.1320142618460423,0.21086225976158895,7.807560642947893,0.17,0.015,0.08,-18.781568597780545,-1.6828018475711644,-0.28172352896670816,0.02384867276443356,-1.940676703773439,0.002,8e-05,0,17.304248493187906,0.01843242962831236,0.0013843398794550325,-0.0,0.019816769507767392,0.2,0.02,0.0,-0.05434005726256924,-0.10481714207581494,-0.0010868011452513848,-0.0,-0.10590394322106632,-9.898834397477437,-10,-0.10116560252256408,40.404275758376635,40,-0.404275758376636,9.21621481415618,10,0.7837851858438207,-0.5240857103790747,0,0.5240857103790747,3.9820815017404176,1.9771830927017653,0.10590394322106632,0.5198167695077673,0.03376293182373047,1.8859820365905762,STABILIZE
0.16,0.015,0.11,76.81935789843504,6.46091033643201,1.1522903684765256,0.16583410780400104,7.779034812712537,0.17,0.015,0.08,-19.11357573737049,-1.6860745314507612,-0.2867036360605573,0.011044044590156638,-1.9617341229211618,0.002,8e-05,0,17.613035859192166,0.01844887730237225,0.0014090428687353735,-0.0,0.019857920171107626,0.2,0.02,0.0,-0.07046992560151308,-0.09636986310006196,-0.0014093985120302616,-0.0,-0.09777926161209222,-9.918085479122125,-10,-0.08191452087787451,40.380689602700066,40,-0.38068960270006547,9.224438651186125,10,0.7755613488138755,-0.48184931550030974,0,0.48184931550030974,3.9833608403609673,1.9953037825133366,0.09777926161209222,0.5198579201711077,0.03347492218017578,1.9195072650909424,STABILIZE
0.16,0.015,0.11,78.17434891318543,6.4507642239527785,1.1726152336977813,0.09400466940294272,7.717384127053503,0.17,0.015,0.08,-19.445755512889278,-1.6802615111779975,-0.29168633269333916,0.023542377096434922,-1.9484054667749018,0.002,8e-05,0,17.923114114874885,0.01845253673833632,0.0014338491291899908,-0.0,0.01988638586752631,0.2,0.02,0.0,-0.08691550550191952,-0.09786647781133255,-0.0017383101100383906,-0.0,-0.09960478792137094,-9.883891242223514,-10,-0.11610875777648506,40.317276399704866,40,-0.3172763997048659,9.22626836916816,10,0.7737316308318396,-0.4893323890566627,0,0.4893323890566627,3.983214042679805,1.982495839379424,0.09960478792137094,0.5198863858675263,0.033608198165893555,1.953078269958496,STABILIZE
0.16,0.015,0.11,79.52168909238976,6.454727539634904,1.1928253363858463,0.11145667262728909,7.75900954864804,0.17,0.015,0.08,-19.776189854261222,-1.6819565362763804,-0.2966428478139183,0.04233222826730846,-1.9362671558229902,0.002,8e-05,0,18.231034487125886,0.018439497847871796,0.001458482758970071,-0.0,0.019897980606841868,0.2,0.02,0.0,-0.10225207882288616,-0.09184150716574506,-0.002045041576457723,-0.0,-0.09388654874220279,-9.893861978096355,-10,-0.10613802190364423,40.34204712271815,40,-0.3420471227181491,9.219748923935898,10,0.7802510760641027,-0.45920753582872526,0,0.45920753582872526,3.9843531281962368,1.9682633585350606,0.09388654874220279,0.5198979806068419,0.03339791297912598,1.9864583015441895,STABILIZE
0.16,0.015,0.11,80.86996044930397,6.4566534742143995,1.2130494067395596,0.057648518832702875,7.727351399786662,0.17,0.015,0.08,-20.106964690193827,-1.6830288931234703,-0.3016044703529074,0.011774947563547418,-1.9728584159128302,0.002,8e-05,0,18.537497752570438,0.01834503767921366,0.0014829998202056352,-0.0,0.019828037499419294,0.2,0.02,0.0,-0.11600018637534036,-0.08229682950803346,-0.002320003727506807,-0.0,-0.08461683323554027,-9.900169959549824,-10,-0.09983004045017624,40.35408421384,40,-0.35408421383999633,9.172518839606829,10,0.8274811603931715,-0.4114841475401673,0,0.4114841475401673,3.9857283848515737,2.0015343043341893,0.08461683323554027,0.5198280374994193,0.03341102600097656,2.0198793411254883,STABILIZE
0.16,0.015,0.11,82.21876792372956,6.451670517705644,1.2332815188559434,-0.053251297412959364,7.631700739148627,0.17,0.015,0.08,-20.439442798734692,-1.6897179208561262,-0.30659164198102035,-0.019540648280073486,-2.01585021111722,0.002,8e-05,0,18.846121277938543,0.018452756763300795,0.0015076897022350837,0.0,0.019960446465535877,0.2,0.02,0.0,-0.12991505669175302,-0.08319771379559647,-0.0025983011338350606,0.0,-0.08579601492943154,-9.939517181506623,-10,-0.06048281849337682,40.322940735660275,40,-0.32294073566027387,9.226378381650397,10,0.773621618349603,-0.4159885689779823,0,0.4159885689779823,3.985258884336631,2.044838306193742,0.08579601492943154,0.5199604464655359,0.03345012664794922,2.0533366203308105,STABILIZE
0.16,0.015,0.11,83.56797465005987,6.450407903823946,1.253519619750898,-0.04293782376136926,7.6609896998134746,0.17,0.015,0.08,-20.774224972728415,-1.7005912698444638,-0.3116133745909262,-0.04091820020425617,-2.0531228446396463,0.002,8e-05,0,19.156131813727836,0.018526575387773348,0.001532490545098227,0.0,0.020059065932871576,0.2,0.02,0.0,-0.139775176738496,-0.058925177143862584,-0.0027955035347699197,0.0,-0.061720680678632504,-10.00347805790861,-10,0.0034780579086107696,40.31504939889966,40,-0.31504939889965805,9.263287693886674,10,0.7367123061133263,-0.2946258857193129,0,0.2946258857193129,3.9893896109823124,2.0736643766452634,0.061720680678632504,0.5200590659328715,0.03346657752990723,2.086801290512085,STABILIZE
0.16,0.015,0.11,84.91544907619188,6.452560831640154,1.2737317361428782,0.007432394348465106,7.733724962131498,0.17,0.015,0.08,-21.10636072054771,-1.6898810510457134,-0.3165954108082156,-0.027028192438567116,-2.033504654292496,0.002,8e-05,0,19.465828608915423,0.0185378046102164,0.001557266288713234,0.0,0.020095070898929635,0.2,0.02,0.0,-0.149818052678385,-0.06011456198167608,-0.0029963610535677,0.0,-0.06311092303524378,-9.940476770857137,-10,-0.05952322914286416,40.328505197750964,40,-0.3285051977509621,9.268902305108199,10,0.7310976948918007,-0.30057280990838037,0,0.30057280990838037,3.9892772730657855,2.0544605174181507,0.06311092303524378,0.5200950708989296,0.03341245651245117,2.12019419670105,STABILIZE
0.16,0.015,0.11,86.26292723621,6.446093153384728,1.2939439085431501,-0.035473912841640795,7.704563149086238,0.17,0.015,0.08,-21.437779117618508,-1.6845363760847576,-0.32156668676427763,-0.007211514902152251,-2.0133145777511876,0.002,8e-05,0,19.775819689953032,0.01853676968927625,0.0015820655751962428,0.0,0.02011883526447249,0.2,0.02,0.0,-0.1589491090168688,-0.05460166395746879,-0.003178982180337376,0.0,-0.05778064613780617,-9.909037506380926,-10,-0.09096249361907362,40.28808220865455,40,-0.28808220865454737,9.268384844638124,10,0.7316151553618756,-0.27300831978734397,0,0.27300831978734397,3.990361397272322,2.032351226570921,0.05778064613780617,0.5201188352644724,0.03344607353210449,2.153674364089966,STABILIZE
0.16,0.015,0.11,87.62750146496919,6.446403273054659,1.3144125219745377,-0.042140900059733914,7.718674894969463,0.17,0.015,0.08,-21.774107921787234,-1.6881588406601455,-0.3266116188268085,-0.01425715584117721,-2.0290276153281313,0.002,8e-05,0,20.090409947698497,0.018577000287532258,0.0016072327958158799,0.0,0.020184233083348137,0.2,0.02,0.0,-0.17029471213937392,-0.06699739336477982,-0.0034058942427874785,0.0,-0.0704032876075673,-9.930346121530267,-10,-0.06965387846973363,40.29002045659162,40,-0.2900204565916205,9.288500143766129,10,0.7114998562338712,-0.33498696682389906,0,0.33498696682389906,3.9880687370786574,2.0523793051236914,0.0704032876075673,0.5201842330833482,0.03386878967285156,2.187577486038208,STABILIZE
0.16,0.015,0.11,88.97556549821121,6.446414407471344,1.334633482473168,-0.021612215495100055,7.759435674449412,0.17,0.015,0.08,-22.107093415070437,-1.691850372256436,-0.33160640122605656,-0.005820449790305222,-2.029277223272798,0.002,8e-05,0,20.40195617907518,0.01862259567253329,0.0016321564943260146,0.0,0.020254752166859305,0.2,0.02,0.0,-0.1835079475697164,-0.07898177418418109,-0.0036701589513943277,0.0,-0.08265193313557542,-9.952061013273152,-10,-0.04793898672684867,40.290090046695894,40,-0.29009004669589783,9.311297836266645,10,0.688702163733355,-0.39490887092090543,0,0.39490887092090543,3.985918386929743,2.0567986439195134,0.08265193313557542,0.5202547521668593,0.03345894813537598,2.2209839820861816,STABILIZE
0.16,0.015,0.11,90.32408021851126,6.444207229592547,1.3548612032776688,-0.02548896089790377,7.773579471972313,0.17,0.015,0.08,-22.438168016502907,-1.6810034697556353,-0.3365725202475436,0.05524946322498691,-1.962326526778192,0.002,8e-05,0,20.71381142465243,0.018628456533349113,0.0016571049139721945,0.0,0.02028556144732131,0.2,0.02,0.0,-0.19379444826818845,-0.06144569759827421,-0.003875888965363769,-0.0,-0.06532158656363798,-9.888255704444912,-10,-0.11174429555508822,40.27629518495342,40,-0.27629518495341554,9.314228266674556,10,0.6857717333254442,-0.30722848799137104,0,0.30722848799137104,3.989420258706518,1.9837468077149822,0.06532158656363798,0.5202855614473213,0.033481597900390625,2.254514217376709,STABILIZE
0.16,0.015,0.11,91.74643856096682,6.446642211116419,1.3761965784145023,-0.024864509085862126,7.797974280445059,0.17,0.015,0.08,-22.787534630770615,-1.6824217842530782,-0.34181301946155923,0.021299096267540826,-2.0029357074470964,0.002,8e-05,0,21.043388332305643,0.018672021153776,0.0016834710665844515,0.0,0.02035549222036045,0.2,0.02,0.0,-0.20322532812285596,-0.053430196125986124,-0.004064506562457119,0.0,-0.05749470268844324,-9.89659873090046,-10,-0.10340126909954084,40.29151381947762,40,-0.29151381947762284,9.336010576887999,10,0.6639894231120009,-0.2671509806299306,0,0.2671509806299306,3.9906175364007845,2.021564524406068,0.05749470268844324,0.5203554922203605,0.03530168533325195,2.289797306060791,STABILIZE
0.16,0.015,0.11,93.11342213019604,6.446032704749235,1.3967013319529407,-0.0007452280120848664,7.841988808690091,0.17,0.015,0.08,-23.12239284927918,-1.6777185687030045,-0.3468358927391877,0.019305051466802958,-2.0052494099753893,0.002,8e-05,0,21.359479541259383,0.018631663873513008,0.0017087583633007507,0.0,0.02034042223681376,0.2,0.02,0.0,-0.21043062269758794,-0.0424708510782091,-0.004208612453951759,0.0,-0.04667946353216086,-9.868932757076497,-10,-0.13106724292350339,40.287704404682714,40,-0.28770440468271324,9.315831936756505,10,0.6841680632434947,-0.2123542553910455,0,0.2123542553910455,3.9925405263471614,2.020060727226332,0.04667946353216086,0.5203404222368138,0.03393054008483887,2.323723077774048,STABILIZE
0.16,0.015,0.11,94.44345614015741,6.445158858945034,1.416651842102361,-0.005643300323731034,7.856167400723664,0.17,0.015,0.08,-23.44737548726035,-1.6732467042433172,-0.3517106323089052,0.04211855915049238,-1.9828387774017298,0.002,8e-05,0,21.666486923822774,0.018596435661328025,0.0017333189539058221,0.0,0.02032975461523385,0.2,0.02,0.0,-0.21563559772192015,-0.031528226569218346,-0.004312711954438403,0.0,-0.035840938523656746,-9.842627672019512,-10,-0.15737232798048728,40.28224286840646,40,-0.2822428684064617,9.298217830664012,10,0.7017821693359878,-0.1576411328460917,0,0.1576411328460917,3.9945293700010973,1.9938366857309604,0.035840938523656746,0.5203297546152339,0.033017873764038086,2.356778144836426,STABILIZE
0.16,0.015,0.11,95.79016628919763,6.444072831458778,1.4368524943379644,-0.010154966053569733,7.870770359743172,0.17,0.015,0.08,-23.776433063738853,-1.672966099618508,-0.3566464959560828,0.053292403028438184,-1.9763201925461527,0.002,8e-05,0,21.97774043599698,0.018617037813661932,0.0017582192348797588,-0.0,0.020375257048541692,0.2,0.02,0.0,-0.22146055072493487,-0.03484085032885794,-0.004429211014498697,0.0,-0.03927006134335664,-9.840977056579458,-10,-0.15902294342054268,40.27545519661736,40,-0.2754551966173548,9.308518906830965,10,0.6914810931690353,-0.1742042516442897,0,0.1742042516442897,3.9939726422050605,1.9884727900535097,0.03927006134335664,0.5203752570485417,0.033437490463256836,2.390172004699707,STABILIZE
0.16,0.015,0.11,97.17271829721511,6.445128697586205,1.4575907744582266,0.0031393381800606662,7.905858810224492,0.17,0.015,0.08,-24.113809416456967,-1.671066350627065,-0.3617071412468545,0.028010993010000512,-2.004762498863919,0.002,8e-05,0,22.29771640620309,0.018645648555660987,0.0017838173124962475,0.0,0.020429465868157234,0.2,0.02,0.0,-0.2274175478626767,-0.03471263014090294,-0.004548350957253534,0.0,-0.039260981098156476,-9.829802062512147,-10,-0.17019793748785256,40.28205435991378,40,-0.28205435991377686,9.322824277830494,10,0.6771757221695069,-0.1735631507045147,0,0.1735631507045147,3.9939087329375718,2.0168702759017756,0.039260981098156476,0.5204294658681572,0.03432178497314453,2.4244883060455322,STABILIZE
0.16,0.015,0.11,98.6916362535346,6.4426390856678255,1.480374543803019,-0.015419852385737062,7.907593777085108,0.17,0.015,0.08,-24.484480512502728,-1.670502568267118,-0.3672672076875409,0.03319902363944868,-2.00457075231521,0.002,8e-05,0,22.649663945497018,0.018660248923632054,0.0018119731156397616,-0.0,0.020472222039271817,0.2,0.02,0.0,-0.23248707224534518,-0.02687860443485343,-0.004649741444906904,0.0,-0.03152834587976033,-9.826485695688929,-10,-0.17351430431107112,40.26649428542391,40,-0.2664942854239086,9.330124461816027,10,0.6698755381839723,-0.13439302217426716,0,0.13439302217426716,3.995287078013773,2.0139476322123513,0.03152834587976033,0.5204722220392718,0.03772163391113281,2.4622461795806885,STABILIZE
0.16,0.015,0.11,100.0446079794853,6.4399174092256075,1.5006691196922795,-0.024082854482554303,7.916503674435333,0.17,0.015,0.08,-24.814365687923658,-1.6683352070180832,-0.37221548531885484,0.026221486441806774,-2.014329205895131,0.002,8e-05,0,22.96377168234904,0.01868874866457749,0.0018371017345879233,0.0,0.02052585039916541,0.2,0.02,0.0,-0.2376502746703982,-0.030719966783757192,-0.004753005493407964,0.0,-0.03547297227716516,-9.813736511871078,-10,-0.18626348812892193,40.24948380766005,40,-0.24948380766005165,9.344374332288744,10,0.6556256677112551,-0.15359983391878596,0,0.15359983391878596,3.9945855731275577,2.0250452460829838,0.03547297227716516,0.5205258503991654,0.0336146354675293,2.4958596229553223,STABILIZE
0.16,0.015,0.11,101.39468203196316,6.439598846985661,1.5209202304794474,-0.021749606039744948,7.938769471425363,0.17,0.015,0.08,-25.1435344780082,-1.6682026752730894,-0.37715301717012295,0.013846263792254059,-2.0315094286509585,0.002,8e-05,0,23.277440609486284,0.018701771004903552,0.0018621952487589029,0.0,0.020563966253662455,0.2,0.02,0.0,-0.24198280841462136,-0.025831712020370514,-0.004839656168292427,0.0,-0.03067136818866294,-9.812956913371114,-10,-0.1870430866288864,40.247492793660385,40,-0.2474927936603883,9.350885502451776,10,0.6491144975482239,-0.12915856010185256,0,0.12915856010185256,3.9954103265242717,2.0405212278731524,0.03067136818866294,0.5205639662536624,0.033544301986694336,2.5293893814086914,STABILIZE
0.16,0.015,0.11,102.73977732835796,6.439789495248565,1.5410966599253693,-0.0164993034861592,7.964386851687775,0.17,0.015,0.08,-25.471258365808957,-1.6670769789594624,-0.38206887548713436,0.016226667594981262,-2.0329191868516157,0.002,8e-05,0,23.590019023149512,0.018706287856937762,0.0018872015218519612,0.0,0.020593489378789725,0.2,0.02,0.0,-0.24747449469886673,-0.032865054003303855,-0.0049494898939773345,0.0,-0.037814543897281186,-9.806335170349778,-10,-0.1936648296502224,40.24868434530353,40,-0.24868434530353217,9.353143928468882,10,0.6468560715311188,-0.16432527001651925,0,0.16432527001651925,3.9941531101615086,2.044382878243843,0.037814543897281186,0.5205934893787897,0.03341960906982422,2.5628609657287598,STABILIZE
0.16,0.015,0.11,104.0937995633106,6.436791200442927,1.5614069934496588,-0.03297831745598057,7.965219876436605,0.17,0.015,0.08,-25.80144004190122,-1.6677291964842054,-0.38702160062851826,0.009193309283998034,-2.0455574878287255,0.002,8e-05,0,23.905212980093093,0.018729730170921135,0.0019124170384074476,0.0,0.020642147209328582,0.2,0.02,0.0,-0.2519161694167353,-0.026393706839871633,-0.0050383233883347055,0.0,-0.03143203022820634,-9.810171744024737,-10,-0.18982825597526237,40.22994500276829,40,-0.229945002768293,9.364865085460567,10,0.6351349145394334,-0.13196853419935817,0,0.13196853419935817,3.99527789116339,2.05476519544039,0.03143203022820634,0.5206421472093286,0.033657073974609375,2.5965077877044678,STABILIZE
0.16,0.015,0.11,105.44132403456275,6.4379622310136355,1.5816198605184413,-0.019095394825202058,8.000486696706874,0.17,0.015,0.08,-26.129870435245863,-1.6671859547189114,-0.3919480565286879,0.009313347901853085,-2.0498206633457463,0.002,8e-05,0,24.218921081363607,0.018734733122006415,0.0019375136865090888,0.0,0.020672246808515503,0.2,0.02,0.0,-0.2554983323290787,-0.0213927743308208,-0.005109966646581574,0.0,-0.026502740977402375,-9.80697620422889,-10,-0.1930237957711099,40.237263943835224,40,-0.23726394383522117,9.367366561003207,10,0.6326334389967923,-0.106963871654104,0,0.106963871654104,3.9961662795340587,2.0572845739454997,0.026502740977402375,0.5206722468085155,0.03348946571350098,2.629971504211426,STABILIZE
0.16,0.015,0.11,106.81884690389651,6.436707623938795,1.6022827035584477,-0.013000399385701125,8.02598992811154,0.17,0.015,0.08,-26.465594259695884,-1.6667714981452728,-0.39698391389543825,0.004384138402684979,-2.059371273638026,0.002,8e-05,0,24.5400440502039,0.01875626448542981,0.0019632035240163123,0.0,0.020719468009446122,0.2,0.02,0.0,-0.25891808915555115,-0.0199742372041508,-0.005178361783111023,0.0,-0.025152598987261823,-9.804538224383958,-10,-0.1954617756160419,40.22942264961747,40,-0.22942264961747091,9.378132242714905,10,0.6218677572850955,-0.099871186020754,0,0.099871186020754,3.996404274168072,2.066340465677589,0.025152598987261823,0.5207194680094461,0.034241676330566406,2.6642322540283203,STABILIZE
0.16,0.015,0.11,108.16309620118487,6.4350505591687925,1.622446443017773,-0.018511611158019206,8.038985391028547,0.17,0.015,0.08,-26.793044978789258,-1.6655091866746303,-0.40189567468183884,0.007566876554215323,-2.059837984802254,0.002,8e-05,0,24.853484519568433,0.01875587057883446,0.0019882787615654748,0.0,0.020744149340399934,0.2,0.02,0.0,-0.2614434027448447,-0.015111148521372403,-0.005228868054896894,0.0,-0.0203400165762693,-9.797112862791943,-10,-0.20288713720805693,40.21906599480495,40,-0.21906599480495037,9.37793528941723,10,0.6220647105827695,-0.07555574260686201,0,0.07555574260686201,3.9972802217726375,2.0651109781945136,0.0203400165762693,0.5207441493403999,0.03342318534851074,2.6976115703582764,STABILIZE
0.16,0.015,0.11,109.5088470743866,6.435857384061083,1.6426327061157988,-0.015980087297290998,8.062510002879591,0.17,0.015,0.08,-27.12024635340873,-1.6625924336418927,-0.406803695301131,0.012601907801851869,-2.0567942211411716,0.002,8e-05,0,25.16746207443733,0.018769398604632698,0.0020133969659549868,0.0,0.020782795570587684,0.2,0.02,0.0,-0.26318468939428935,-0.010409311971997343,-0.005263693787885787,0.0,-0.01567300575988313,-9.779955492011133,-10,-0.22004450798886607,40.224108650381766,40,-0.22410865038176483,9.38469930231635,10,0.6153006976836501,-0.05204655985998671,0,0.05204655985998671,3.998129991314554,2.0604269073837105,0.01567300575988313,0.5207827955705877,0.03345632553100586,2.7311105728149414,STABILIZE
