Mode,Time,Freq,North-Vision,East-Vision,Down-Vision,Yaw-Vision,North-Desired,East-Desired,Down-Desired,Roll-UAV,Pitch-UAV,Yaw-UAV,Roll-Control,Pitch-Control,Yaw-Control,Thrust-Control,northVraw,eastVraw,downVraw,N-Velocity,E-Velocity,D-Velocity,yawVraw,yawRate,Q-Size
STABILIZE,0.014727354049682617,67.97789338908608,-5.47549472156693,31.120154237697314,46.96590650428701,6.934246680192835,-6.6317806109975255,30.57342949191777,45.72182470725645,0.0842107496386227,0.5580880869751306,7.549998047204653,-0.0314025858766312,0.054421124937731345,10.0,0.4981338773044542,-6.6317806109975255,30.57342949191777,45.721824707256445,-26.575899124145508,-22.447821497917175,7.271308451890945,7.202088839013593,-8.43004657741964,5
STABILIZE,0.0330815315246582,54.49908395161186,-6.029314386319491,31.19181965380292,46.52819339145583,6.807940368040386,-6.631774420238582,30.573425556226535,45.721854216548586,0.03276990027618569,0.1713402045282358,7.719709465059253,-0.03120235167685667,0.026611863563846747,1.3791559246296758,0.49879049123763913,-6.6317806109975255,30.57342949191777,45.721824707256445,-27.75503695011139,-22.715939581394196,11.855034530162811,7.202088839013593,-11.693849910989295,4
STABILIZE,0.04676461219787598,73.10843457495947,-8.440357946428891,32.10595938548644,48.768946934966614,6.568374518149298,-6.631731333633397,30.57339816450026,45.722059596087824,0.03276990027618569,0.1713402045282358,7.719709465059253,-0.05816823746577349,-0.0977265987382592,-4.945532270288246,0.49542966899168184,-11.72080068619912,33.329122440109764,51.74276529124267,-32.40703046321869,-23.759469389915466,16.74446165561676,6.227430368704663,-6.433531056606138,4
STABILIZE,0.0609128475189209,70.7123661805614,-9.418105839565307,32.49996949340618,49.70669537269487,6.462294655656566,-6.6316151370262375,30.573324294079423,45.722613466728994,-0.0024958738526843077,-0.0371947156000168,7.87811265096925,-0.07046727615822548,-0.14819720500219277,1.0964338362235302,0.49402387714105117,-11.72080068619912,33.329122440109764,51.74276529124267,-29.35507297515869,-25.55394172668457,8.366948366165161,6.227430368704663,-9.77754386292019,3
STABILIZE,0.07673954963684082,63.20625687548034,-10.073782031292094,32.68841481918401,50.27332723693527,6.318560023957564,-6.631390355368382,30.573181392181784,45.72368492624923,-0.15348929168899592,-0.30851652319958184,7.917777267026806,-0.07566444467175334,-0.18154978146880318,-0.07881068658492474,0.49317553653397095,-12.215914870179684,33.15778141028433,51.85872312206594,-29.35507297515869,-25.55394172668457,8.366948366165161,6.1214665336876894,-9.77754386292019,2
STABILIZE,0.08860635757446289,84.33134952549462,-10.501259262958753,32.81461637624965,50.67890800058355,6.233558739855579,-6.631022247707227,30.57294737271678,45.725439573233224,-0.011401133189485112,-0.06631057139195144,7.994816678222673,-0.07926685424646288,-0.20332090164137762,-2.928466625630729,0.4925697973589745,-12.215914870179684,33.15778141028433,51.85872312206594,-35.993003845214844,-28.83756458759308,17.979696393013,6.1214665336876894,-5.656886040896444,2
STABILIZE,0.09421658515930176,178.3823416833241,-10.792773327126541,32.88926531031771,50.92207551212615,6.2062996543457105,-6.630476802175391,30.572600613099908,45.728039530958554,-0.011401133189485112,-0.06631057139195144,7.994816678222673,-0.08113989600758649,-0.21816540101854603,3.2351123233568715,0.4922089460282486,-12.215914870179684,33.15778141028433,51.85872312206594,-35.993003845214844,-28.83756458759308,17.979696393013,6.1214665336876894,-5.656886040896444,1
STABILIZE,0.10330677032470703,110.12140306658264,-11.031550064419243,32.96856625378191,51.15297560676701,6.153083036203572,-6.629720730979818,30.572119951067126,45.731643471280904,-0.011401133189485112,-0.06631057139195144,7.994816678222673,-0.08362826440185932,-0.23038240108694874,0.009232155410157539,0.49186800179677087,-12.215914870179684,33.15778141028433,51.85872312206594,-34.84877347946167,-30.594220757484436,17.783838510513306,6.1214665336876894,-2.8880406898248143,0
STABILIZE,0.1172628402709961,71.66442838348112,-11.200772546120392,33.01078458552777,51.29787052176761,6.140635854674846,-6.628721465390888,30.571484681489242,45.73640663851934,-0.002762091147756133,-0.5804927616392119,8.120773050480524,-0.08468523445330367,-0.23903276223526224,4.00775026442702,0.4916578041751276,-12.215914870179684,33.15778141028433,51.85872312206594,-40.81796407699585,-34.852996468544006,13.861533999443054,6.1214665336876894,-5.729054246553622,0
STABILIZE,0.15131688117980957,29.36920308375288,-11.400960494196813,33.09582638420285,51.51968585326668,6.064177161875024,-6.627447150731516,30.570674553186294,45.74248087334162,-0.034696453849165636,-0.8046014602302325,8.212721057087236,-0.08778170836824128,-0.2493444186465196,3.217490936695995,0.4913341925301124,-12.215914870179684,33.15778141028433,51.85872312206594,-38.530197739601135,-37.253016233444214,16.530536115169525,6.1214665336876894,-3.4286066201753647,0
STABILIZE,0.18413138389587402,30.481417421258413,-11.694316145215657,33.23518116423891,51.85846234207257,5.9028165369350925,-6.62586664136626,30.56966976574196,45.750014636649425,0.03786041892025504,-1.2543160028618285,8.286577600129876,-0.09324968933885308,-0.2644143947997303,1.7820989310865474,0.4908373284418653,-12.215914870179684,33.15778141028433,51.85872312206594,-38.530197739601135,-37.253016233444214,16.530536115169525,6.1214665336876894,-3.4286066201753647,0
STABILIZE,0.2183222770690918,29.253673880747957,-11.96677700697012,33.33011970857824,52.10525292638463,5.778008719753612,-6.623949495690425,30.568450966317936,45.759153033463654,0.002712305472009087,-1.4966621069495765,8.34535052416419,-0.0967493973335097,-0.27829546797212706,2.350671723980365,0.49048085016061854,-12.215914870179684,33.15778141028433,51.85872312206594,-33.02358090877533,-38.71748149394989,12.42106482386589,6.1214665336876894,-2.649202208040985,0
STABILIZE,0.25173091888427734,29.933443238344,-12.197130271210215,33.387639753828175,52.27058348094782,5.691773798559826,-6.62166597111917,30.56699924646833,45.7700378368097,0.11515528185912248,-2.3233784924126937,8.355017803160697,-0.09865518192583173,-0.28998721790532034,2.8513337536828334,0.4902491815337928,-12.215914870179684,33.15778141028433,51.85872312206594,-30.539298057556152,-39.48305547237396,18.682914972305298,6.1214665336876894,-0.3074466647795493,0
STABILIZE,0.28563618659973145,29.49726076529787,-13.711992146450092,32.398770240600896,52.97222562539827,5.528460367826586,-6.6189870190766085,30.565296138954064,45.782807511602705,0.9245413429638017,-3.3671210438234986,8.353138647365297,-0.0479554837065864,-0.360949263982749,1.6317205587870203,0.4892158728293067,-17.088271746464315,29.545348771395062,54.0211662092594,-34.25261080265045,-41.80006384849548,9.147117286920547,5.381029326199509,-4.789362796958791,0
STABILIZE,0.3209216594696045,28.345637629249172,-14.990066736848846,31.539046012917968,53.52938983740249,5.4048067412829965,-6.615884279984919,30.56332361455724,45.797597238532845,2.6900189916341586,-4.9579502218081,8.325035834025279,-0.0042733177988822785,-0.4209832984328486,2.136567988426288,0.4884023111016955,-17.088271746464315,29.545348771395062,54.0211662092594,-39.075466990470886,-46.17960751056671,16.670671105384827,5.381029326199509,-2.5948759505997616,0
STABILIZE,0.3566896915435791,27.962026666666667,-15.991784491513583,30.843669067075293,53.946732649164424,5.282257181038696,-6.612330078253446,30.561064078895562,45.814538937950594,5.935136848625362,-7.458868809524697,8.075460721753013,0.030511459793257402,-0.46815188918290057,2.266801143517154,0.48780170943317924,-17.088271746464315,29.545348771395062,54.0211662092594,-32.97485113143921,-49.414634704589844,8.272020518779755,5.381029326199509,-3.9868087392931226,0
STABILIZE,0.3857104778289795,34.4642892358258,-17.351455535115917,29.819606085819657,54.46033823099187,5.141429627958422,-6.608297417267807,30.5585003692367,45.83376129375201,8.161761869463417,-8.829236983461035,7.932181282212717,0.08125359541840659,-0.5320169618888863,1.3995440120656322,0.4870601345941402,-19.0142882270173,27.89935262544562,54.66081414611345,-28.265416622161865,-51.713067293167114,-5.047617852687836,5.283250348017196,-4.158669959188984,0
STABILIZE,0.4212675094604492,28.12817039312204,-18.243763729697378,29.100574046686635,54.77086225616924,5.0538161404012065,-6.603759974378996,30.555615751312708,45.855389777263994,9.917730934313763,-10.161510631075274,7.725629531522362,0.11649153918445744,-0.5739696518470802,2.5455449858655452,0.48662679128164216,-19.0142882270173,27.89935262544562,54.66081414611345,-28.957200050354004,-48.566991090774536,4.067925736308098,5.283250348017196,-3.6288316947035844,0
STABILIZE,0.45374631881713867,30.793148764031745,-19.01140962275209,28.497944836479487,55.04873266167865,4.990278850248182,-6.598692095892491,30.55239391613438,45.879546671129575,11.928156989145643,-12.474822278425014,7.247471893391864,0.1460868532511697,-0.6102413976276128,2.7748344410371995,0.48624622101417636,-19.0142882270173,27.89935262544562,54.66081414611345,-17.692238092422485,-44.777145981788635,-1.829768531024456,5.283250348017196,-1.1649638950265448,0
STABILIZE,0.48639369010925293,30.634588135617978,-19.569485262691327,28.04275190301773,55.24646378860665,4.937101744140025,-6.593068792057356,30.54881897680569,45.906351093193166,12.119677201020092,-13.509797428262463,6.969308597461686,0.16819347876831708,-0.6367080715754039,2.9159215851189675,0.48598983095687975,-19.0142882270173,27.89935262544562,54.66081414611345,-15.575508773326874,-36.988818645477295,5.928633362054825,5.283250348017196,-1.6899800459579148,0
STABILIZE,0.5200786590576172,29.69103458039854,-20.01821503856507,27.67809825778417,55.39891808977096,4.955543060938378,-6.586865732055348,30.544875465338134,45.935919020385846,11.678967782561482,-13.890776842429311,6.92840259452248,0.18653460080576692,-0.6579133579662119,4.033943121510464,0.4858055013959223,-19.0142882270173,27.89935262544562,54.66081414611345,3.4428030252456665,-15.609553456306458,13.344533741474152,5.283250348017196,2.793567861102725,0
STABILIZE,0.5586338043212891,25.94040447770425,-20.380083063078136,27.380650406559393,55.52215941008792,5.057648099485378,-6.580059238990022,30.54054832946515,45.968363312610634,9.528838745993456,-13.503401809878392,6.915930669098037,0.20247090708559015,-0.6747790077394857,5.35825479115362,0.4856693058537841,-19.0142882270173,27.89935262544562,54.66081414611345,12.214960157871246,-5.941323935985565,12.877672910690308,5.283250348017196,7.536106296206494,0
STABILIZE,0.5882077217102051,33.81875942365529,-20.66104172001749,27.145927477072657,55.61300495370721,5.207796967371615,-6.572626284875833,30.5358229294565,46.00379373662777,7.572988463950916,-12.53158115042782,7.10411774865752,0.21585453339547006,-0.6876667152270102,6.161764959105106,0.48558618317438085,-19.0142882270173,27.89935262544562,54.66081414611345,23.800423741340637,2.7623794972896576,15.756072103977203,5.283250348017196,9.5984921613756,0
STABILIZE,0.6218156814575195,29.75781139143514,-20.869987696994254,26.964189528927548,55.680976663293045,5.370953257966769,-6.564544485627246,30.53068503493267,46.04231698993996,5.355090290438022,-11.150175390792741,7.219679853659082,0.226739705675282,-0.6971091357871958,6.528128902172295,0.48554201048997037,-19.0142882270173,27.89935262544562,54.66081414611345,23.800423741340637,2.7623794972896576,15.756072103977203,5.283250348017196,9.5984921613756,0
STABILIZE,0.6545987129211426,30.508688599713413,-21.013428128820298,26.827039940918052,55.72347065608696,5.541887981619438,-6.555792096047837,30.525120821679252,46.08403672467768,3.2034255285237996,-8.888500827341943,7.374990671422355,0.23544698456343732,-0.7034318133668718,6.861844864884059,0.4855408491028861,-19.0142882270173,27.89935262544562,54.66081414611345,31.92574679851532,7.080717384815216,20.3602597117424,5.283250348017196,9.70041224417053,0
STABILIZE,0.6914796829223633,27.119864475164558,-21.118275983743782,26.72655043362539,55.747324689101234,5.726496237821263,-6.5463480048194,30.519116868461335,46.12905357148443,1.2985269635856749,-6.573543104402229,7.373997732671765,0.24251306437285805,-0.7079313776738807,6.888351062388711,0.4855725933235748,-19.0142882270173,27.89935262544562,54.66081414611345,38.73754143714905,5.5407848209142685,21.59380316734314,5.283250348017196,10.324527609769614,0
STABILIZE,0.7220871448516846,32.67838972816729,-21.20746717248855,26.641548401670043,55.76667242805406,5.875754985552437,-6.536191729491052,30.5126601538379,46.177465163402,-0.06591204586213707,-4.156772874147013,7.327422672721448,0.24838092831716818,-0.711876655263778,6.961957806859827,0.4856161891030219,-19.0142882270173,27.89935262544562,54.66081414611345,45.18471658229828,2.8536776080727577,24.730277061462402,5.283250348017196,7.885979321345812,0
STABILIZE,0.7550415992736816,30.348644033457788,-21.229211234194544,26.603936573236407,55.75644774572245,6.010486060750557,-6.525303411468336,30.505738052976213,46.22936615975576,-0.4399250139211166,-2.592480048304968,7.235951071809345,0.25159851205673095,-0.7127686601017145,6.6639568916415675,0.48570937762105,-19.0142882270173,27.89935262544562,54.66081414611345,45.18471658229828,2.8536776080727577,24.730277061462402,5.283250348017196,7.885979321345812,0
STABILIZE,0.8018460273742676,21.36865648069369,-21.272301303322827,26.55680580057141,55.757052869449794,6.191937968214702,-6.513663811002328,30.498338334466215,46.284848270039944,-0.6062074633689579,-0.7666730996040343,7.110646555730407,0.2559271600992192,-0.7144959689860158,7.357549604646577,0.4857916931008852,-19.0142882270173,27.89935262544562,54.66081414611345,49.033692479133606,-5.606816336512566,17.581304907798767,5.283250348017196,10.083389488669606,0
STABILIZE,0.8238160610198975,45.52296605018668,-21.26732051379827,25.787342410473542,56.14329818758201,6.361515425081845,-6.501254302178741,30.490449157134908,46.34400027780288,0.06418275402208092,0.18366114541942477,6.968955562058961,0.2921416938538026,-0.7103072684372634,7.441180166829673,0.4853010531353313,-18.763966779882953,23.240416803702274,57.11570122287828,54.44410443305969,-6.965067237615585,7.4972860515117645,5.869945811920525,7.257984408298159,0
STABILIZE,0.8567721843719482,30.348424441952172,-21.22299185420755,25.132585307065153,56.46803290945547,6.517882649157897,-6.488056867907031,30.482059066860757,46.406908064532296,1.5292462714370627,1.0346778231651401,6.805051512546165,0.322800943082977,-0.7046591264733257,7.421536026019968,0.48490831273261525,-18.763966779882953,23.240416803702274,57.11570122287828,39.90194499492645,-17.061154544353485,4.511354491114616,5.869945811920525,7.499148142607555,0
STABILIZE,0.8897705078125,30.30873065194456,-21.05031736562981,24.518960452887686,56.752710680905885,6.664611823205998,-6.474054094909502,30.47315699338807,46.47365463354058,3.201832813786717,1.4905431112268912,6.669580686774486,0.35071233580199285,-0.6927919667234682,7.397673307719714,0.48458141592895204,-17.9568024789961,22.909706419289822,57.1634452409086,36.244019865989685,-19.275762140750885,13.971193134784698,5.955094795911082,7.045736279840013,0
STABILIZE,0.9250023365020752,28.386115228175612,-22.253315438697477,22.677110283433652,58.73616243588407,6.732166763244946,-6.459229168710409,30.463732247141397,46.544320133850064,5.366129156797232,1.682529803677312,6.529166938477833,0.4405576860824028,-0.7431827354323689,6.202360577801402,0.481712236546949,-27.39041171392161,13.98843491260214,68.92005265913087,37.36088275909424,-20.1590895652771,13.46154510974884,4.664807057713643,6.774980750951538,0
STABILIZE,0.9587752819061279,29.618490089046755,-23.143484697580156,20.900121770232957,60.58431156309535,6.923596290477076,-6.443565868625066,30.453774516039918,46.61898188407827,10.047338042682988,1.5564413099477032,6.210110873099967,0.5274344965657444,-0.7770826485395734,8.304356137569417,0.47905200548147436,-25.93883574851033,13.343745985615595,69.19089891041429,37.30987012386322,-20.12139856815338,0.8656430058181286,4.775968035781255,13.003006783357625,0
STABILIZE,0.9909157752990723,31.118708452041787,-23.739948315362668,19.339434669656484,62.25254418462832,7.072317770822602,-6.427048562748946,30.44327386231183,46.697714396323235,13.227492049487495,1.459661157946619,5.9807556820918775,0.6024509836657456,-0.7975380415023555,7.78880427800432,0.47666775531754235,-24.880803212485525,13.153617106982754,69.53658940463853,34.626686573028564,-18.30938756465912,-3.3622194081544876,4.901163512584704,11.358980250135556,0
STABILIZE,1.0246903896331787,29.610335333568656,-24.272299924458753,17.94221453079374,63.74483538178943,7.1340469814279475,-6.409662202946795,30.432220719308752,46.780589400048704,16.924457442482897,1.2521245793553122,5.712063297219569,0.6686181204805997,-0.8164158808064432,6.515226195289675,0.4745536310273889,-24.880803212485525,13.153617106982754,69.53658940463853,31.344982981681824,-12.627851963043213,-6.723415106534958,4.901163512584704,6.330103209551927,0
STABILIZE,1.05726957321167,30.698939448278892,-24.741466095078888,16.69056278160375,65.08750163567139,7.348382533422111,-6.391392319841726,30.420605888320104,46.86767586596949,19.38276034553367,1.1722322835204961,5.4409931527424495,0.730128090089377,-0.8309434460126883,9.038876984212694,0.47267026134544715,-24.880803212485525,13.153617106982754,69.53658940463853,30.165058374404907,-0.5619946401566267,4.624208062887192,4.901163512584704,15.151886749081186,0
STABILIZE,1.1020679473876953,22.32532788281383,-25.14497820970788,15.59476283834545,66.26857271250701,7.681597721101708,-6.3722250178043325,30.4084205353875,46.95904002993667,21.171270992910895,0.7364971637683593,4.90135057859032,0.7860982378758518,-0.8411095270582707,9.783764831204808,0.4710357009761445,-24.880803212485525,13.153617106982754,69.53658940463853,31.504788994789124,9.18302983045578,-1.4161266386508942,4.901163512584704,22.028862714908524,0
STABILIZE,1.1246840953826904,44.22551903752676,-25.502239011038444,14.611930487523857,67.33270139171114,8.021757280771139,-6.352146969941789,30.39565618811914,47.054745416822925,20.98741596083249,0.7970891592777176,4.814899593604999,0.8369367284861668,-0.8490183268782312,10.0,0.4695830660376677,-24.880803212485525,13.153617106982754,69.53658940463853,31.504788994789124,9.18302983045578,-1.4161266386508942,4.901163512584704,22.028862714908524,0
STABILIZE,1.1588201522827148,29.298630175262126,-25.67591407915631,13.982660422369225,68.0497328873276,7.92826679439814,-6.3311454130869596,30.382304732504206,47.15485286440775,19.10333389149386,0.5925817695833114,4.484602317513761,0.8643442876850923,-0.8562006275055256,4.886636711659255,0.46865767996562024,-24.880803212485525,13.153617106982754,69.53658940463853,24.980132281780243,30.345234274864197,4.097653180360794,4.901163512584704,3.2230454603580725,0
STABILIZE,1.1926007270812988,29.60866311821429,-25.95654825895029,13.199860147100852,68.89855523340164,7.9495043886701735,-6.309208142787498,30.36835840972725,47.25942054726277,17.581723131218638,0.373125710477539,4.2417797010096985,0.9010198276855815,-0.8660784044879258,6.612595773106179,0.4675412979707917,-24.880803212485525,13.153617106982754,69.53658940463853,17.376986145973206,63.08726668357849,3.3278506249189377,4.901163512584704,4.085791840744948,0
STABILIZE,1.225191593170166,30.688382574593557,-25.707429880818154,12.57561348121798,69.72218657146682,8.110619413942489,-6.286323508294956,30.35380981298258,47.368504000636996,11.991491625771879,0.3781540370475642,3.9446967810785862,0.9290177387872457,-0.8484719259307235,8.912740818630082,0.4664694761437553,-21.14127219998597,13.47028412494649,70.21412692369852,21.565131843090057,71.06267809867859,3.061622940003872,6.195262169810778,9.322163198124393,0
STABILIZE,1.2592551708221436,29.360979468404583,-24.947273883827535,12.076079934244282,70.53960715533255,8.158517381320724,-6.262480407553889,30.338651884288662,47.4821561443421,8.403883537803907,0.31728155021498583,3.7148464013556706,0.9460784263371079,-0.8081587011001347,7.195264893684345,0.46541382348351434,-17.173103008505564,13.732270926328724,71.08305986613956,26.4195054769516,75.53964853286743,6.632146239280701,7.331143136432594,-0.2543699050696149,0
STABILIZE,1.2924795150756836,30.102732303187327,-24.225148797571336,11.628940513748159,71.28273406917543,8.266621875664361,-6.237668282190959,30.322877911302506,47.600427306637684,4.530778238284455,0.510137757763261,3.5300752701548395,0.9617983402118209,-0.7690778661661718,8.2301387834716,0.46447653985619336,-17.173103008505564,13.732270926328724,71.08305986613956,25.072991847991943,76.62886381149292,5.657096207141876,7.331143136432594,3.762546308084924,0
STABILIZE,1.331742525100708,25.471894281688773,-23.526904109574367,11.275559405179518,71.90889763012117,8.300402124253779,-6.211877112504041,30.306481524134053,47.723365248116565,2.3778515989210725,0.8113624937348989,3.4465747134475526,0.9724031909310782,-0.7330510400736852,7.087111698396629,0.4637217014269931,-17.173103008505564,13.732270926328724,71.08305986613956,22.394414246082306,73.5474705696106,3.5967476665973663,7.331143136432594,0.4437300696190484,0
STABILIZE,1.3630139827728271,31.98267540013573,-22.870333674001063,10.892389345153953,72.55941945609426,8.3970583750053,-6.185097412451325,30.289456692160567,47.851015185590036,0.2623522884556706,0.9739305475738698,3.284612572093156,0.9853398581590269,-0.6978515139717852,8.295093568714819,0.4629373935942437,-17.173103008505564,13.732270926328724,71.08305986613956,18.036359548568726,67.59588122367859,7.041794061660767,7.331143136432594,3.087556278452999,0
STABILIZE,1.3932831287384033,33.04422910265501,-21.752398990210086,11.46779049062484,72.90460796604282,8.483276699715155,-6.157320224640428,30.27179772084104,47.98341981597312,-0.4167070131372747,1.0367159943021542,3.238493213826526,0.9519521088761019,-0.6463934789994739,8.262205182527849,0.4626182177748954,-13.50441296118803,19.31341695866021,70.75989352574194,22.56622165441513,62.516748905181885,3.4319985657930374,7.9764240806778774,4.429222289949651,0
STABILIZE,1.427107810974121,29.569211897325992,-20.731938141200217,12.084317468143361,73.16071578881476,8.512361072959585,-6.128537115317491,30.253499248530563,48.120619340169895,-0.5924875876779593,1.365080326858279,3.239758933257094,0.9166881142719998,-0.6011010873896789,7.319048917236412,0.4624398553270327,-13.547044279668318,19.695054262969588,70.6963690150262,28.824225068092346,59.94114875793457,-2.968016266822815,7.988549243060764,0.7421811618182793,0
STABILIZE,1.4608874320983887,29.606364130473146,-19.778403832217588,12.643057145864159,73.41967106488134,8.612066902820095,-6.0987401693562875,30.234556243294737,48.262651486958724,-0.7051008652270734,1.7249859393929938,3.2368819295126374,0.8851139564158714,-0.5577315492085213,8.450984754047767,0.46226447063311604,-13.547044279668318,19.695054262969588,70.6963690150262,18.523865938186646,54.99995946884155,-1.497120875865221,7.988549243060764,4.358887563197799,0
STABILIZE,1.4968187808990479,27.834544453071597,-18.441662406211165,14.032233977481253,73.60087201259432,8.635298286428807,-6.067921985247329,30.21496399972404,48.40955153687752,-0.7025059269509975,1.8414055533005091,3.272042462699394,0.8128601953530703,-0.5023350013128393,7.355200599927697,0.4622130192864248,-10.05717243155717,26.07525564555217,70.53143628129376,18.05514693260193,51.13309025764465,-1.5626348555088043,8.424394387648732,-1.069649458932663,0
STABILIZE,1.527388334274292,32.71585909956008,-16.981839488935414,15.516845027086058,73.78201936056846,8.679945923276854,-6.03607567008697,30.194718135748253,48.56135234610906,-0.4629054521878889,1.6771384365446447,3.3345521405399388,0.7355332852026308,-0.4413400811923636,7.820690742581782,0.4621689994783109,-8.491351591488824,27.28755153793072,70.76602457863527,16.457124054431915,49.64245557785034,0.4255743231624365,8.395906774964343,0.5806565794575865,0
STABILIZE,1.5608229637145996,29.914442621781614,-15.563953183555642,17.04664045763817,73.84098326129029,8.70143190789261,-6.0031948345665125,30.17381458945081,48.71808437036623,-0.44398780253851056,1.7844873457909716,3.4378427434805143,0.6562438957685809,-0.3831679379553104,7.455934757307542,0.4623156516636139,-7.591404716192435,28.191643190101637,70.83916511169986,16.457124054431915,49.64245557785034,0.4255743231624365,8.377518936468148,0.5806565794575865,0
STABILIZE,1.5949101448059082,29.340030079395614,-13.896163805497007,18.720512411092205,73.95908111455478,8.631682712970731,-5.96927358796131,30.15224961588322,48.879775688777286,-0.45541780394940956,1.45426477489378,3.5408456247023032,0.568085729902999,-0.3146488856003246,6.09226424994969,0.4623810418613338,-4.976644637631784,30.108367529796897,71.23098325930198,10.768716782331467,48.80858063697815,5.103388801217079,8.462477734809443,-5.060951182039185,0
STABILIZE,1.6277318000793457,30.470788231020705,-12.352355698296757,20.286740587335828,74.04080396302088,8.52219526859775,-5.934306533119873,30.130019783879458,49.04645202777116,-0.49466860659279854,1.5021774847043616,3.7013431173665556,0.4856121176333751,-0.2517177054558208,5.400011062205989,0.4625084720971254,-4.976644637631784,30.108367529796897,71.23098325930198,9.54391062259674,47.880539298057556,-2.9956940561532974,8.462477734809443,-6.816419081759182,0
STABILIZE,1.6693975925445557,24.004761686735954,-10.962439011133636,21.945876700015425,74.0624722583415,8.4357238153901,-5.898288761452976,30.107121972870328,49.21813678496272,-0.8542508523589957,1.2939372899068378,3.8412386250599337,0.4004282094582572,-0.19659168437625046,5.913919259125629,0.4627334967899318,-5.1105558049847675,31.67519058234712,71.13889173152073,-1.3748722150921822,45.14791965484619,6.670842319726944,8.247841316926214,-4.446284529383166,0
STABILIZE,1.7033941745758057,29.42132435465769,-9.470787402914784,23.676687463889547,74.12777812278404,8.343752419983248,-5.86121584792276,30.083553369697885,49.394851053038,-0.9440888107598494,1.1841983480595355,3.9693063795449652,0.31144686070277205,-0.1367312317040287,5.761476579683026,0.46290060939538097,-3.6391765675414796,32.95762240857097,71.3217886132277,6.098341941833496,43.620651960372925,-1.9763240590691566,8.260609009382069,-4.58664790503469,0
STABILIZE,1.7293312549591064,38.562993610076774,-8.085362061380165,25.296294208436073,74.12848990875433,8.247187100931543,-5.823083846031838,30.059311465429815,49.57661364363956,-1.153299426028044,0.9628548622261651,4.206614045181065,0.22834472402769618,-0.08119894662749752,5.084044812890325,0.46317218560232787,-3.6391765675414796,32.95762240857097,71.3217886132277,6.098341941833496,43.620651960372925,-1.9763240590691566,8.260609009382069,-4.58664790503469,0
STABILIZE,1.7627789974212646,29.899302115040527,-7.066207463497316,26.607703374139163,74.0024004662145,8.131631485946347,-5.783889282812402,30.034394052173823,49.76344111125168,-1.0814475435068023,0.6355142576327488,4.425429400526179,0.16171975227864702,-0.04165986972079051,5.19638336229597,0.46364156096755577,-3.6391765675414796,32.95762240857097,71.3217886132277,7.667306810617447,39.52505588531494,-7.2705186903476715,8.260609009382069,-6.3799738357767755,0
STABILIZE,1.797229528427124,29.034161469185456,-5.861757247908073,28.794360937254353,74.01439711374886,7.953375094703499,-5.743629153815325,30.00879921989203,49.955347777085656,-1.2478759882481527,0.5397948126654265,4.633116243279225,0.05494129949017757,0.0017121390410457264,4.220149332087992,0.4639114259950052,-2.618554540863703,39.721029370864755,71.83346619442773,5.147650092840195,36.660370230674744,-3.976816311478615,7.765794408591876,-7.845512158060779,0
STABILIZE,1.8309111595153809,29.694608065246943,-4.764879907613873,30.822259459240406,74.00996526361364,7.842384056151205,-5.702300918099267,29.98252535321535,50.152345752965104,-1.125057661027099,0.279963184178608,4.798403832985772,-0.04383009126136548,0.04127655568398311,5.1067859131369895,0.4642135707340272,-2.618554540863703,39.721029370864755,71.83346619442773,8.061467111110687,32.908883690834045,-8.854278922080994,7.765794408591876,-3.977418936731648,0
STABILIZE,1.8649232387542725,29.405441785791904,-3.642932562159822,33.20415336102651,74.059629773244,7.6933606284377225,-5.659902493219783,29.955571128257912,50.354444965211165,-0.9908969509155929,0.24197177770471945,4.99902057617421,-0.15837106186736916,0.08037058684119554,4.479442318450912,0.4644422227879508,-1.3393634202969742,43.924132682557406,72.45061702498845,8.874336630105972,29.518115520477295,-10.137611627578735,7.313840235396787,-5.06907227696233,0
STABILIZE,1.8977224826812744,30.491832357965905,-2.587612020976782,35.610204785359436,74.11161430289059,7.576871301998618,-5.616432250218422,29.927935509431418,50.56165317852786,-0.9592657045390293,-0.048700989680016474,5.119567438609411,-0.2734379876946139,0.11640283368369335,4.847379795788085,0.4646750583134559,-0.8696508656345492,45.706357752843665,72.64142790603896,4.333238676190376,27.327769994735718,-8.216006308794022,7.19872911360952,-3.1767551339187805,0
STABILIZE,1.9319725036621094,29.20133116114569,-1.6195379201637818,38.08162152977356,74.12567275444987,7.413609400642346,-5.571889008611837,29.89961774625955,50.7739760198873,-0.8397009486012817,0.01662697662401199,5.219273686339611,-0.3906111189110662,0.148457580047794,4.150468437370987,0.46497245489815614,-0.6072151534303549,47.94841265530167,72.54195378420792,12.519384920597076,25.99201798439026,-8.919139951467514,6.6702739068771955,-4.589072195303221,0
STABILIZE,1.9662292003631592,29.196046220242238,-0.758579127958827,40.37068802536962,74.1053899364423,7.26510926375714,-5.52627203138089,29.870617370192363,50.99141700241498,-0.7042395143397113,-0.46533651928473746,5.458186019543841,-0.4988560082216826,0.17671778839721614,4.283397595717543,0.465329040598959,-0.6905035245407868,48.042080133974025,72.36244998717854,6.39481320977211,23.318912088871002,-1.7636366188526154,6.733100415775976,-4.1109738944411385,0
STABILIZE,1.9995999336242676,29.968947161587653,-0.02232732297073596,42.410535228066394,74.06572793771394,7.10290315501421,-5.479581019959754,29.84093419142068,51.21397754927505,-0.6887480049718877,-0.49159694245699687,5.58422819605314,-0.5950311523792209,0.20082725083491132,3.9407157598132523,0.46572237441734166,-0.6905035245407868,48.042080133974025,72.36244998717854,2.4880819022655487,21.16161435842514,-1.290333829820156,6.733100415775976,-5.369979249055004,0
STABILIZE,2.0322628021240234,30.621839659489964,0.6085593204542417,44.25879937963447,73.99130767456914,6.938320752423773,-5.431816109225018,29.810568295690455,51.4416570175556,-0.5816757717477994,-0.44471847269714326,5.726619284114512,-0.6818931576721682,0.221265919867995,3.7496430402163194,0.4661755240144797,-0.5418790589916295,48.55914982425627,72.22978327568532,3.077268972992897,18.094392120838165,1.3526338152587414,6.636193260979302,-5.727590451637123,0
STABILIZE,2.069002628326416,27.224072799968845,1.1795706327508038,46.06638352947981,73.9938277026159,6.81607450191657,-5.382977862484795,29.77952004111721,51.67445272215391,-0.5247971046302538,-0.3873661212884867,5.853040536122747,-0.7666718379513426,0.2388248153091283,4.541281155242908,0.466520937529307,-0.33538837016933337,49.78890521449977,72.84000584911226,8.575089275836945,16.062557697296143,7.750435173511505,6.540543621096168,-3.3752103356783207,0
STABILIZE,2.102065086364746,30.25211150780771,1.7208515215450957,47.70669050511186,73.91161363418257,6.783312000087621,-5.333067266467827,29.747790055000387,51.91235995966173,-0.42622872372709564,-0.5028571496339976,5.887938533913282,-0.844152021416695,0.25477255306697705,5.678694732157633,0.46700111948821876,-0.17942689743344462,49.56389480142269,72.24745522651742,5.407541245222092,14.103880524635315,9.888909757137299,6.516099692474616,1.6222681118473472,0
STABILIZE,2.13550066947937,29.912735882696943,2.1169780233920297,49.229814170108675,73.61926719864404,6.661704382238358,-5.282085726312584,29.715379230637758,52.15537203225057,-0.5836953733080075,-0.572803249294247,5.90404113176841,-0.9151377843229576,0.2655840129296341,4.321400120215355,0.4678041572504098,-0.007918754068811288,51.256945722563245,70.8159421247017,5.231063440442085,12.535665929317474,7.0549629628658295,5.953892792975699,-2.863453716360061,0
STABILIZE,2.1668741703033447,31.881301307388263,2.570382867803771,50.799738212039394,73.41421297826508,6.5729134849186295,-5.230035060556379,29.68228872413981,52.403480271556944,-0.433903882002633,-0.3908741171183758,5.947122976845088,-0.9886837190757098,0.27868049061095046,4.788803481000686,0.4684839009399378,0.5204792632286611,52.19700080313224,71.3048284511997,9.883347153663635,10.6980562210083,5.003434792160988,5.909757891971353,-0.7879952960063745,0
STABILIZE,2.2003517150878906,29.873109028232815,3.0560212871559145,52.31263562028458,73.24315437198517,6.496099636034863,-5.176917496124462,29.648519951244147,52.65667406256766,-0.2629397114047181,-0.3186396106014812,5.966798617409779,-1.0599090068670534,0.29361868346714837,4.926307422474235,0.46912027953587376,1.3302594309173548,53.25044419479457,71.50647102067717,5.126980319619179,8.327490091323853,9.82544869184494,5.804973297403603,-0.17945062728080283,0
STABILIZE,2.2341578006744385,29.586315381088422,3.527346983965753,53.694556570466005,73.07231614512656,6.433576093147076,-5.122735663319133,29.614074584129867,52.91494086750511,-0.2629765303932127,-0.00881080395707761,5.962051209049797,-1.125260141054521,0.30835921450798565,5.123445640887918,0.46976393708356784,1.8235270388636562,53.66685499969405,71.46707903068166,6.424330174922943,5.702350661158562,6.4250558614730835,5.717334543905221,0.45950183018625407,0
STABILIZE,2.2681143283843994,29.45645059344055,3.986777144652396,54.949230577100515,72.93750403022949,6.42229656185432,-5.067492590808848,29.578954548231955,53.178266249712486,-0.1541989643520161,0.15541388425063213,5.954737783996006,-1.1851364398627176,0.32217107912138376,5.899777927820952,0.4703611433292245,2.311147308788785,54.070067601872644,71.6804574974056,5.216512084007263,2.6473186910152435,14.704088866710663,5.557485631963284,3.392628812165734,0
STABILIZE,2.3019888401031494,29.549005241503693,4.33633818394695,56.072762941350305,72.82343331970979,6.403698819725344,-5.011191700617313,29.54316201905569,53.44663389753912,0.1977991300732487,0.5025087032646212,5.860291208813539,-1.2385113331956046,0.33130862986487053,5.798904451967854,0.470934800866744,2.020220375753614,54.35057296052396,71.7908472234918,-3.165021538734436,-0.12873621890321374,15.715666115283966,5.667076020355598,2.203638019186377,0
STABILIZE,2.3352136611938477,30.08135865511504,4.577231293581698,57.06790134840751,72.75054552818443,6.379348098363365,-4.953836803112601,29.506699418991012,53.72002564822571,0.5934695874537073,0.689692278624642,5.713394757220898,-1.2855246698485696,0.33579706781519314,5.712507721859535,0.4714542201800619,1.7429301829496757,54.74382889245483,72.06024772874261,2.3048732429742813,-1.5789410099387169,15.94652533531189,5.8725864871868065,0.8837103653837598,0
STABILIZE,2.3687963485717773,29.77978472636392,4.838837653898076,57.74247451267802,72.65327028464847,6.366540032441092,-4.895432091996253,29.469569414126937,53.9984215117896,1.699244343793391,0.9629162272069896,5.623821948898058,-1.3184053390232113,0.34263046455448154,5.8999457108351425,0.4720177268407117,2.4166953846534884,53.62881568218407,71.8566043351685,1.2645062059164047,-3.683244436979294,17.64313131570816,5.69670249075992,1.8527622368995362,0
STABILIZE,2.402324914932251,29.828070774307335,5.048399855883384,58.2996084197135,72.56145402979652,6.397112118793572,-4.835982139292381,29.431774911065936,54.281799694910084,2.6200272684446873,0.8958125000976703,5.4482246155262,-1.3460293249217994,0.3464029348461387,6.589148014197596,0.47258051849767035,2.4166953846534884,53.62881568218407,71.8566043351685,4.789816588163376,-5.0627075135707855,7.709506154060364,5.69670249075992,4.074764500329962,0
STABILIZE,2.4366044998168945,29.178781870673763,5.234958062814299,58.80424224535975,72.52512323356498,6.533021512139138,-4.775491890336774,29.393319053738324,54.57013662481363,3.811510653584276,0.8482674999243587,5.3109591575501005,-1.3718447419352493,0.34669098737559123,8.23478622121806,0.473067520086873,2.5850320158974727,54.02551740887695,72.22507275427114,-5.6897372007369995,-8.062642812728882,18.05940717458725,5.718411870049196,9.685221903456421,0
STABILIZE,2.4696342945098877,30.277006590582612,5.368745745413181,59.19997399922632,72.49565323134107,6.620045582727918,-4.713966658766004,29.35420522021666,54.86340697315919,5.586711396703263,0.6519114607566867,5.037034420886739,-1.3922238522490598,0.3459400882562317,7.648600079256736,0.4735516306127272,2.488979222382672,53.96374072331163,72.26132020961634,2.30990257114172,-8.997639268636703,14.298094809055328,5.858652484608049,6.169849896150503,0
STABILIZE,2.5028133392333984,30.143620996952798,5.597653675013707,59.61308473779474,72.7296365009145,6.773682498062894,-4.651412121506531,29.314437019530125,55.161583679923446,7.77381907743774,0.5401218079719409,4.770892684782607,-1.4143648239094195,0.34806152845591976,8.77964229324978,0.4736479207685134,3.657223485021044,54.97204432713382,74.18990644071759,-2.1259158849716187,-7.648517936468124,17.504125833511353,5.872676625753357,9.852722047567228,0
STABILIZE,2.536853075027466,29.382164623467602,5.656343011173885,59.864828489508334,73.03207018391109,6.8955459125851615,-4.587834313763807,29.274018288478928,55.464637977286124,8.87312692529389,0.20849152441463922,4.497309030690923,-1.4281247900581364,0.3432313882980662,8.36382177633373,0.47364885169006254,2.6581945853993987,54.45876865912532,74.8231637976885,1.0231789201498032,-2.9969220981001854,16.64234697818756,6.69360406585885,5.431349352521215,0
STABILIZE,2.5703511238098145,29.860348559061396,5.721749709553587,59.904704726292096,73.359160910811,7.008767905368979,-4.523239624011381,29.232953088448696,55.77253941351521,9.120664079872554,0.25553594642698296,4.374685363861215,-1.4324203607665462,0.3400044587266844,8.371563423133331,0.4736200677540563,2.941556107023235,53.41326448142922,75.16812648589789,-0.5663528107106686,2.542685717344284,19.31014209985733,6.796055443738532,4.754341855763197,0
STABILIZE,2.610125780105591,25.143898520490133,5.853287176169041,59.60289853365199,73.79315724831001,7.267005600558318,-4.4576347889800045,29.191245702224847,56.085255876852266,8.719810522768261,0.005954944450579252,3.9893154187185176,-1.4227448123684847,0.3382956545450003,10.0,0.47343814794281336,3.727072474465639,51.413645808321235,76.1546712466423,-2.7288012206554413,11.362939327955246,25.421124696731567,6.637522485921114,13.612911086614853,0
STABILIZE,2.6506340503692627,24.689368565424438,6.018853594715822,59.38767413325604,74.21476103882554,7.558996816984516,-4.391026888646738,29.14890063080701,56.402753619397686,7.766261473121121,-0.035268568903540146,3.6710260420749847,-1.4173892747020305,0.3369689964856146,10.0,0.4732819888708582,3.727072474465639,51.413645808321235,76.1546712466423,-2.7288012206554413,11.362939327955246,25.421124696731567,6.637522485921114,13.612911086614853,0
STABILIZE,2.681257486343384,32.66006867928642,6.114752484723308,58.981290269152105,74.61759336271476,7.6705494218235915,-4.323423341224052,29.105922590223393,56.72499728099596,7.243444643102495,-0.05417743402251138,3.507207156483402,-1.4020245596190715,0.3377936476749743,8.736153540771683,0.4731611058774218,4.030934593279204,51.33310429571011,76.39006218109222,-2.015095576643944,19.817641377449036,22.404704988002777,6.627649173730379,5.3460863935646525,0
STABILIZE,2.711498975753784,33.072890711244284,6.168774050371374,58.5996517978396,75.09203592219438,7.9193837297832985,-4.254831898148935,29.06231650834518,57.051949913120964,6.336821554374281,-0.12083079553343284,3.2447421965868526,-1.3883116072120145,0.33307580235374135,10.0,0.4729398709863899,3.7839932598622132,51.41368707358502,77.08968497738124,-5.600683763623238,24.321043491363525,30.675265192985535,6.975982362218348,11.362361193774712,0
STABILIZE,2.74592661857605,29.05065141052369,6.176430034790044,58.538505333484636,75.67543421415388,8.118229586911594,-4.185260639072,29.018087521700927,57.383573002761224,5.195738988893863,-0.16417827093580142,2.966300783891409,-1.3882683591784166,0.32529841563582385,10.0,0.472562208182911,4.1161025143145755,54.63790135235147,78.42099778980335,-7.072371989488602,25.191688537597656,27.188003063201904,7.890734006113162,8.316202691881161,0
STABILIZE,2.781367301940918,28.219767207158718,6.200816608145672,58.510153747527035,76.2228933676217,8.334575454646464,-4.1147179668465865,28.97324097229096,57.71982649630521,4.101206297041197,-0.1332854854023924,2.740405510584754,-1.3898866791357678,0.31766305430708364,10.0,0.47224539969302526,4.1161025143145755,54.63790135235147,78.42099778980335,-5.1330264657735825,25.463232398033142,27.07931101322174,7.890734006113162,8.623175298843629,0
STABILIZE,2.824343681335449,23.273760376437163,6.071986397704068,58.39031478823986,77.14753317668973,8.506585279703026,-4.043212602517865,28.92778240440174,58.06066882342654,3.0342485729717534,-0.11010388339032864,2.519039933358287,-1.3860420742423143,0.30407753084440137,9.92401204311097,0.4713697034701052,3.0708180047271956,54.12447272418649,81.45536077861942,-8.22032243013382,26.06883943080902,26.108458638191223,8.10127248446274,5.5985933645381465,0
STABILIZE,2.849062919616699,40.46251652051438,6.058529971941202,58.454659483054236,77.82969602728986,8.647289608594484,-3.970753580311945,28.881717561420285,58.40605692096935,1.9302889394040008,0.14814450858090228,2.3013701288030317,-1.3910507095530174,0.29567888837210554,10.0,0.47086454134051925,4.109140026012821,55.80255518213298,79.83962767357966,-3.1568117439746857,24.228446185588837,22.70081341266632,8.370615105574046,4.361704162456783,0
STABILIZE,2.8817601203918457,30.58789553904159,5.907467389157829,58.645423167784045,78.58302207393673,8.726592149734056,-3.8973502426249773,28.835052382648545,58.75594625683348,0.9797537107281288,0.028547132486772,2.0557311264833973,-1.4003164424138121,0.281038877986702,9.338896676638658,0.4702593862743451,3.635396410537634,57.82589313657158,81.9683498747643,-3.1568117439746857,24.228446185588837,22.70081341266632,8.44016786777299,4.361704162456783,0
STABILIZE,2.9158480167388916,29.339824841209882,5.72011337620529,59.090289895232935,79.53292317150024,8.924834980401025,-3.8230122350122606,28.78779300011779,59.11029085385981,0.38037339496056877,0.15557682161493394,1.883138009129287,-1.4211280744189123,0.25983029324151863,10.0,0.46936605152353933,2.8528998353158674,59.20068709753869,83.45413790423177,-14.702218770980835,21.4558407664299,37.13369071483612,9.333628855955993,5.770645829730768,0
STABILIZE,2.9492199420928955,29.96937543318114,5.687173622716445,59.5600088240029,80.45165870009193,9.082603627932158,-3.7477495011773474,28.739945735403015,59.46904331371549,-0.20288570001420414,0.0716482975272503,1.719276968463921,-1.4439825747773658,0.24689723452072043,10.0,0.46852607692043535,4.04131431830378,59.73901265898152,83.80305948843842,-5.065697431564331,22.09670841693878,30.327564477920532,9.129628810918703,4.4429270645192815,0
STABILIZE,2.9847185611724854,28.173894352195173,5.673568304392454,60.11330070430123,81.3676310161642,9.2827650787952,-3.671572277961146,28.691517096437327,59.83215484077923,-0.7038349323530939,0.23464896114081954,1.5459520603732677,-1.4708349888778023,0.23305310356022257,10.0,0.4676967857369225,4.308859480676965,60.90191491003746,84.51833586838274,-6.647492945194244,20.300406217575073,32.289403676986694,9.160978571280058,7.558668972355985,0
STABILIZE,3.016843795776367,31.133260590405357,5.449461128623277,60.710047392885095,82.27239490804176,9.467177245133398,-3.5944910903310263,28.642513774326314,60.199575266026585,-0.9549458233324077,0.2826337347832301,1.4107121803728995,-1.4977634319117865,0.20868390915180512,10.0,0.46689077053697725,2.7086243020220016,61.519488801425034,84.91307942155757,-8.102983981370926,13.882261514663696,29.311349987983704,9.648221012880924,5.141590102927648,0
STABILIZE,3.050421953201294,29.788456211870486,5.20545120198529,61.28301319793057,83.1807268988173,9.602812123759579,-3.516516746369928,28.59294264016248,60.571253070915205,-1.0717476076683263,0.21217120878870427,1.2730204759039083,-1.5231892458544734,0.1845908381099399,10.0,0.46608578925814687,2.6153597498865038,62.20868012672331,85.99892728589373,-3.947271406650543,11.126504093408585,22.389034926891327,9.926014115758779,3.1360920295819326,0
STABILIZE,3.083613157272339,30.129546221867837,5.135925996563475,62.15237399452267,84.31553897134057,9.753894046537972,-3.437660332265463,28.5428107418396,60.94713541127011,-1.1668695178049784,0.1345246177880076,1.1587232365592688,-1.5631928240639354,0.1662519285988478,10.0,0.4649473946598943,3.854908319646454,64.7835717582652,88.17745974716837,-5.8263130486011505,9.193479269742966,24.20443892478943,10.300384744603527,2.959923308197321,0
STABILIZE,3.11991810798645,27.548975691137546,5.0633088316934085,62.930869126436164,85.3304733116025,9.865443248121688,-3.357933207299018,28.492125300867116,61.32716814116897,-1.0699615132003681,0.08730758008666896,1.0918708390670648,-1.5989698131661325,0.14931061501151643,10.0,0.4639950422443497,3.854908319646454,64.7835717582652,88.17745974716837,-3.819897398352623,6.898257881402969,25.546616315841675,10.300384744603527,1.4170894426235758,0
STABILIZE,3.151151180267334,32.021743279662246,5.1646513773743585,63.89269873352046,86.44915496453163,9.961194559765582,-3.277346998834865,28.440893709184543,61.711295836827375,-1.0905568814254838,0.009079195706904733,1.0208509589640955,-1.6442971519949017,0.13977459839112744,10.0,0.46289321130844363,5.205559773032677,66.77346894525036,89.67648473490905,-2.556145563721657,3.7688374519348145,26.06811821460724,10.324782502074523,1.0403863672073896,0
STABILIZE,3.195178985595703,22.715010641812302,5.096449175754067,64.54671852152786,87.367455787717,10.063038781934411,-3.195913597309263,28.38912352597586,62.09946182048412,0.24981923817424098,-0.0938689773004579,1.0251849274358802,-1.674507650305969,0.12393536052432319,10.0,0.46209800904915066,4.041411998742705,65.54298341763531,89.49809530159271,-6.360922753810883,-0.14148824848234653,22.946475446224213,10.460086967842386,2.1591491551406756,0
STABILIZE,3.2198171615600586,40.59684850361996,5.181941817540159,65.453484549361,88.52686565999574,10.173035329575518,-3.113645151219564,28.33682247448388,62.49160818428645,0.2960315510466068,-0.06735749131534763,0.9751794049749243,-1.7172504932194588,0.11325645093734626,10.0,0.46094711378643605,5.172647387126424,67.61909411409415,91.56169802787274,-6.360922753810883,-0.14148824848234653,22.946475446224213,10.518270599864017,2.1591491551406756,0
STABILIZE,3.252887010574341,30.244040322464343,5.296979133846934,65.95302224106827,89.38602830439721,10.183221144243806,-3.0305540621133136,28.283998438824664,62.88767581417537,3.253083565110731,-0.1823121563779208,1.009525651546568,-1.7420177267803527,0.11012880954092774,9.661145163660834,0.46025247126466723,5.677469822884281,66.49021049803278,91.70641032916478,-11.002451181411743,-2.888954244554043,29.654395580291748,10.576787184634806,-1.3914734584716777,0
STABILIZE,3.286902904510498,29.403380372527987,5.419181058333485,66.52387539558747,90.30860029293613,10.198840122591442,-2.9466529795773653,28.230659460801903,63.28760441377088,5.205922374059528,-0.3109172813319884,1.0391237427062894,-1.7700315927104602,0.10656519883842974,9.78340343546601,0.4594685061812521,5.677469822884281,66.49021049803278,91.70641032916478,-15.921011567115784,-4.0712326765060425,17.047855257987976,10.576787184634806,-2.242303293190996,0
STABILIZE,3.319789409637451,30.411136890951276,5.4668994113150235,67.17196492781481,91.29052058378139,10.210226136598411,-2.8619547962269745,28.1768137367213,63.69133252825726,6.847587369376066,-0.3077485271243521,1.1840933339010464,-1.8008118547899354,0.0987945996355471,9.766518336179299,0.4586012179167138,5.180050491488315,67.63477953237219,92.94486657450858,-1.6009818762540817,-4.510348290205002,24.854177236557007,10.523022734449443,-1.9409451017262784,0
STABILIZE,3.358771562576294,25.65558919778573,5.319242744262695,67.78485399791658,92.23329701742132,10.147474826498474,-2.776472642694915,28.122469614204984,64.09879756826835,8.44228713018595,-0.30469775376245717,1.4334522279973991,-1.8282046461243258,0.08400225790772681,8.784183364156641,0.45779825082627057,3.700632014148896,67.97377157282772,93.51732650891421,-3.160589188337326,1.053014025092125,20.752722024917603,10.517065908261202,-5.7771993962393955,0
STABILIZE,3.39285945892334,29.3420826191892,5.1557050348816125,68.57498520473834,93.40231793139108,10.09563648659891,-2.6902198826205734,28.067635589005885,64.50993583377283,9.15448205400058,-0.44862438040703856,1.5937895313812733,-1.863373287274501,0.06669495411321746,8.826538964404754,0.45666142685357264,3.49855723597428,69.26631401329229,95.17688959785829,-5.598765984177589,7.227043807506561,18.065980076789856,10.382946304882104,-4.474743793220494,0
STABILIZE,3.426025390625,30.1633477882534,4.886432311151532,69.06336325179895,94.41971166992552,9.89969742279364,-2.60321010763906,28.012320301822122,64.92468253795947,9.556044243231263,-0.5677833270585521,1.6954054573147266,-1.88417353980287,0.051311680481122945,6.521352727498558,0.45575745630205095,2.7111475124168942,68.27237041979555,95.7859071713677,0.4960128106176853,11.822079867124557,7.129479199647903,10.417227796781864,-12.050594960207292,0
STABILIZE,3.459794282913208,29.61618957506602,4.668498670959146,69.48537626060215,95.49831554515109,9.745749313606131,-2.5154571323703143,27.956532535111407,65.34297183112243,10.151613686967925,-0.6068321588737496,2.1097316692785757,-1.902632338222381,0.03767070337521372,7.137472171885555,0.454766984428957,2.9934883480157164,68.43678871823552,97.30248588321516,-7.792267203330994,19.57501769065857,19.594667851924896,9.888149310241728,-7.74568040560458,0
STABILIZE,3.492826461791992,30.27678803453354,4.460505173905636,69.84336721064473,96.50361267412796,9.581599755724545,-2.4269749894082056,27.900281209905433,65.76473682454647,10.089061960775302,-0.6546495662010685,2.3895847966980965,-1.9184300091157895,0.025401687671465834,6.846269489564321,0.45389168622562776,2.969249983998755,68.3475272219384,97.5670218325579,-6.463875621557236,23.259423673152924,16.396139562129974,9.81666227011674,-7.9720397048879725,0
STABILIZE,3.526266098022461,29.909322988718856,4.437957505545426,70.16677955389109,97.51196861077906,9.228421450312103,-2.337777924309645,27.84357538262426,66.18990961439233,9.650108754707032,-0.6560840126484769,2.8524014030659224,-1.9342248752324327,0.028968456968028744,3.811220829811039,0.4530169115054199,4.295812999798757,68.63815968986339,98.65785703141141,-4.029766470193863,28.541681170463562,11.325205862522125,9.087459096373145,-16.401575725667154,0
STABILIZE,3.5605812072753906,29.14735232800556,4.29458294233445,69.89303815450663,98.2836167064962,8.962409550414574,-2.2478803905836786,27.7864242418907,66.6184213055819,8.62687384627919,-0.8104637902505133,3.2922391186317097,-1.9226249400265327,0.027945480784423493,5.045805894082297,0.4525022068986285,3.35181334432898,64.55532941776332,97.80691464487194,-5.780334025621414,34.44296717643738,16.44921898841858,9.330593649835336,-12.195427414010119,0
STABILIZE,3.59787917137146,26.812828823300027,4.212168301228911,70.39878710084297,99.27593200983937,8.67825340125345,-2.1572970446806075,27.72883710534473,67.05020203568355,7.467654140344626,-0.8716754653444915,3.820332696670994,-1.9462174518816666,0.025104442339691224,5.012751032247268,0.4516614050387663,3.7461701035798587,70.46439166709116,100.1160859794139,-6.396865099668503,37.62497901916504,16.999143362045288,8.639094749527704,-11.259853714711161,0
STABILIZE,3.626248836517334,35.253658331582265,4.2602448642663155,70.81925997667116,100.17099328259204,8.325780023858057,-2.0660427409810813,27.670823416457868,67.48518099879738,6.395447629341439,-0.6272022909388135,4.20689066784245,-1.9670185429160443,0.031822690120121844,2.3591948573793067,0.450971281574308,4.699323609575252,70.34772108427472,100.36244507676108,-6.830963492393494,40.554291009902954,16.451138257980347,8.229225529146875,-14.348110087554085,0
STABILIZE,3.6610138416290283,28.76870104393871,3.8869501179266184,70.77061841821244,100.79586003302941,7.954961349422991,-1.9741325267852101,27.61239274134756,67.92328646944047,5.365018824170282,-0.6173169794973953,4.722298877045728,-1.9639885694521781,0.0214551094455383,2.9959474933500827,0.4506911396546166,1.4175221658091397,67.70210631211495,100.11794141283633,-2.5688935071229935,41.7357474565506,19.493277370929718,8.25612233469463,-17.74147784081065,0
STABILIZE,3.7002980709075928,25.459370542353334,3.538492585167533,70.84633263196257,101.52438406391322,7.528719740089903,-1.8815816373016592,27.55355476559158,68.36444582643227,4.238584026251779,-0.7875647272843993,5.190179641796296,-1.9668881488952505,0.013411462882923997,1.7301170268022448,0.4502600926437786,1.4514225844813975,68.26475961370691,100.56457676340384,-1.1571841314435005,40.907615423202515,13.11592161655426,7.899093425407947,-17.814632581916072,0
STABILIZE,3.7278873920440674,36.25029385328079,3.604360977400354,71.44880696937201,102.28703461353601,7.046467010985418,-1.7884054906367703,27.49431929104243,68.80858557677968,3.492429828770668,-0.5484771036784235,5.7289056899391735,-1.996090134484416,0.02495794996422579,0.47841241822544056,0.4497823264448655,4.4512333433586955,72.62198298975215,101.77951930141789,-3.4654587507247925,41.3923054933548,15.296219289302826,6.948997023150991,-19.14298484717308,0
STABILIZE,3.762561559677124,28.8452687972381,3.66957856851364,71.97985371957745,102.93282414770289,6.686770583985543,-1.6946196827836557,27.434696232641713,69.25563137956249,2.3910234052920307,-0.581621717203821,6.309109342477424,-2.0221271230821425,0.03297488064880397,2.323125185455801,0.4494842108477894,4.4512333433586955,72.62198298975215,101.77951930141789,1.0083267465233803,40.4201477766037,15.987229347229004,6.948997023150991,-13.219962619701203,0
STABILIZE,3.7954914569854736,30.369519727172015,2.959331838345566,72.3403996932918,103.47591028802164,6.309305140876661,-1.6002399826112992,27.374695615234522,69.70550806981856,1.9128375926312067,-0.48433175561421893,6.8063825456606715,-2.036254725682179,0.004228494398058585,1.5566041372531512,0.4493443966726954,-1.5227295638691813,71.74779779846412,101.56099858372005,1.0083267465233803,40.4201477766037,15.987229347229004,6.461355330341215,-13.219962619701203,0
STABILIZE,3.8286821842193604,30.134092019426962,2.3050163067203204,72.63200617494228,103.89228781830212,5.917300680130171,-1.5052823268536697,27.31432757038386,70.15813968242915,1.3742312862422152,-0.32121547237264875,7.438392756166645,-2.0480703606527113,-0.02073704591227557,1.0943488908402248,0.44939877779619053,-1.5227295638691813,71.74779779846412,101.56099858372005,-0.07981216185726225,39.616379141807556,9.850229322910309,6.461355330341215,-15.922692379937343,0
STABILIZE,3.8632636070251465,28.921248060679194,2.6931602005118704,73.5590397343418,104.36188604286735,5.495946078300237,-1.4097628150988308,27.253602333185,70.6134494760041,1.0751353814966527,-0.23016312768170788,8.033968176318831,-2.093813600599625,0.004631767677377219,0.6521422939951194,0.4493773451497051,6.172068390220781,76.85941980431205,102.49644412971179,-4.600519686937332,36.11224591732025,12.16995120048523,5.579957551517346,-15.282059909377875,0
STABILIZE,3.895817279815674,30.72277525069403,2.7806970471468184,74.0556725510803,104.7104703107774,5.085968434277769,-1.313697704778031,27.192530239079897,71.07135995676727,0.9636395869287762,-0.05669708680526511,8.536643632248737,-2.118686965053976,0.01696415236082663,0.18577832309855946,0.4495413344689848,4.000264781538172,74.24245690445636,102.1082378065725,-4.600519686937332,36.11224591732025,12.16995120048523,5.556622568131417,-15.282059909377875,0
STABILIZE,3.938838243484497,23.247058301879473,3.5701391609441595,74.74298071895984,105.00675819232075,4.621404246632418,-1.2171034061548154,27.131121720671565,71.5317929024416,0.8468344942199783,-0.10681566757328319,9.069718552627075,-2.1548536691335816,0.06595722545516458,0.7666698162475978,0.4497875520651813,9.418351824446173,76.29593519035711,102.44601418856769,-2.764461934566498,34.8099410533905,9.95703712105751,4.8202103008831045,-17.962352498190523,0
STABILIZE,3.967971086502075,34.332263767926136,4.430877537424229,75.5673187362876,105.44556339397467,4.1399804513200165,-1.1199964773141353,27.069387304538473,71.99466938613456,0.7721682002347211,0.18077555057765307,9.575781782385306,-2.1967490828204914,0.11926404777770036,-2.418198295514074,0.44982365898823984,10.349435068600332,77.74712412469907,102.8508815455296,1.1844102293252945,34.74078178405762,-2.858172729611397,4.312379533828218,-17.59958407589822,0
STABILIZE,3.996203899383545,35.426061691273354,5.346416628878784,76.12067121357228,105.47375607864765,3.8168022139545883,-1.0223936191514529,27.007337608048946,72.45990980022333,0.8569555539094678,0.20026789661266453,10.086197550192129,-2.2263954615189845,0.17061557082297002,-0.10654267862733313,0.4504792305823635,11.55643336972011,77.45887990921658,102.62878098663245,-4.101355746388435,32.81821012496948,10.959241539239883,4.171546267490422,-16.86310697581055,0
STABILIZE,4.033480167388916,26.832554985477948,6.1339905129804295,77.02267284120863,105.65950118684435,3.42297291919437,-0.9243116703618295,26.94498333617554,72.92743388024012,0.6315367930191271,0.07371779148491127,10.499791117645788,-2.270547087027994,0.21773687525587276,0.07585079684585239,0.45090189904009365,11.135002881653545,80.2797408881224,103.43198681917583,0.14371806755661964,30.573365092277527,7.533320039510727,2.975891856551257,-14.834732037613522,0
STABILIZE,4.065106153488159,31.6219513114544,6.4840131080302355,77.68699709631122,105.98476689054678,2.9557238458910264,-0.8257676024290621,26.88233527830945,73.39716072875736,0.9439085577987845,0.15078963273912194,11.04007871778766,-2.3020145536539665,0.24711615952205762,-2.382524591932687,0.45111859075731586,7.87292494179546,78.03160983705263,103.77951055789006,-7.895533740520477,28.305521607398987,10.105527192354202,2.9319555819357976,-15.835366703851438,0
STABILIZE,4.098568677902222,29.894826873458683,6.913328156110809,78.35744235890918,106.15739478158613,2.5423462276897424,-0.7267785146147521,26.819404305074883,73.8690088392731,0.9324204997799403,0.12492508039424557,11.46051442724238,-2.33387383483781,0.27875430928960715,-1.3867354037656776,0.4515674210865305,8.852082123346579,79.36315613053495,103.77114278465378,-8.642088621854782,26.78583860397339,7.318314909934998,2.7678974049171448,-15.338205771902672,0
STABILIZE,4.132458209991455,29.51407340689034,8.150692852981814,79.48018278878358,106.33024388481019,2.068320591694594,-0.6273616289474457,26.756201365143472,74.34289612009616,0.8907636029188557,0.22758406425936695,11.900733779628043,-2.3868739431776613,0.3529876348379957,-2.5478689819686258,0.4520189783529289,15.534211532206292,83.22352153899752,103.89581756963786,-8.642088621854782,26.78583860397339,7.318314909934998,1.7722603344607228,-15.338205771902672,0
STABILIZE,4.165161848068237,30.583657814528006,8.983950738908732,80.33341258389595,106.55820286799222,1.6717750351452219,-0.5275342852117051,26.69273748204864,74.81873991823151,1.0490832257332259,0.28893375719934705,12.163302473022611,-2.4266772663936895,0.4049511261580256,-1.904186839762331,0.45239080557535893,12.963369402291956,81.92709988817766,104.6271582115466,-8.720552176237106,25.811970233917236,11.501791328191757,1.4212831848953438,-11.048992968428173,0
