Mode,Time,Freq,North-Vision,East-Vision,Down-Vision,Yaw-Vision,North-Desired,East-Desired,Down-Desired,Roll-UAV,Pitch-UAV,Yaw-UAV,Roll-Control,Pitch-Control,Yaw-Control,Thrust-Control,northVraw,eastVraw,downVraw,N-Velocity,E-Velocity,D-Velocity,yawVraw,yawRate,Q-Size
GUIDED_NOGPS,0.006901264190673828,145.2824385174922,-17.621957159585296,39.5484292256206,94.22642497274911,1.420805518198534,-22.50016977204379,43.00790015674336,96.13204089691824,-1.1397128991084193,0.7100740433556361,25.38400360692782,3.8995894360360484,4.097950979496468,10.0,0.5038112318483382,-25.299482425338297,45.74735346154313,99.38059650357152,-18.236181139945984,15.902824699878693,32.6126903295517,2.2494054071002694,-0.3653656017241996,1
GUIDED_NOGPS,0.014040231704711914,140.1886426685384,-19.12879704647169,45.04326842367164,100.37969758310511,0.3086778698095773,-22.499995431900942,43.00785820549369,96.13175320546134,-1.2237953025556265,0.6082025722976893,25.383407672922736,-3.9783922746302545,-4.021491627389308,-10.0,0.49150411124471244,-25.575996462139486,45.682450007599556,99.7922315065683,-18.236181139945984,15.902824699878693,32.6126903295517,2.249449202323353,-0.3653656017241996,0
GUIDED_NOGPS,0.041329145431518555,36.649080344270175,-20.096689173145457,45.22517600491734,100.66663411218012,0.573769943292627,-22.498798636213785,43.00757022205022,96.12976258153589,-1.3433803889783253,0.7734085198993131,25.380363116100202,-0.5765175244700332,-2.2693540589536614,2.2822748366760037,0.49092625693871156,-26.903510296108742,46.33704825184331,100.86242051242854,-6.718502938747406,11.328395456075668,31.063857674598694,2.303891684646604,-0.9780655867860778,0
GUIDED_NOGPS,0.11392331123352051,13.776478548483515,-21.154757814275246,45.618545486833035,101.35687109614302,0.783847308895939,-22.495621063759504,43.006805606780375,96.12442951331067,-1.6661134440071863,0.5517007928841108,25.402731985631995,-0.5365286795313602,-0.910506864841592,1.0493276359811827,0.4895351168343353,-26.903510296108742,46.33704825184331,100.86242051242854,-18.653880059719086,11.657004058361053,32.86997675895691,2.303891684646604,1.6952649048282122,1
GUIDED_NOGPS,0.13564038276672363,46.05885970306598,-22.62523612188473,46.25790000163293,102.80694351635775,0.8755523699800969,-22.48957289280004,43.00535024299663,96.11418281830984,-1.6416088596992962,0.44030561020435965,25.445096233959,-2.102936959533554,-4.032605132506081,1.3709332522374211,0.48661447860390417,-29.330237561742948,46.79601692475765,102.3278572912636,-20.194751024246216,9.065113216638565,32.513731718063354,2.303536480845297,-2.20204188935471,0
GUIDED_NOGPS,0.14490222930908203,108.03101094655506,-23.62231336874312,46.322427993577016,103.09221177631241,1.0021331523009087,-22.479831189329477,43.00300610912241,96.09751870093899,-1.7729514764479373,0.2760996716663344,25.444218554650654,-0.6477529346425009,-4.011942607872085,3.332060066317848,0.48601061384925315,-31.13987137059477,47.18492781468662,103.48778409550447,-27.146288752555847,9.107236564159393,31.282347440719604,2.3041018542588025,-0.7448361844147102,0
GUIDED_NOGPS,0.1793830394744873,29.008257832491875,-24.442509939981235,46.41556737908674,103.31125245362274,1.1150528766593215,-22.465638295321487,42.999590890858194,96.07299981001138,-1.7348832036654598,0.11613098505422938,25.487489510589977,-0.401762764265033,-1.8806554167005958,1.3242568486797301,0.4855234947127773,-31.13987137059477,47.18492781468662,103.48778409550447,-27.146288752555847,9.107236564159393,31.282347440719604,2.3041018542588025,-0.7448361844147102,0
GUIDED_NOGPS,0.20921730995178223,33.523054421061886,-25.72060392134427,46.81116058133318,104.26060486074513,1.1974225744459437,-22.446300216976734,42.99493759334744,96.03925429627404,-1.7735337500746808,-0.5078015662628521,25.567887667310195,-1.0884927891725953,-3.363397677816874,1.270829518614677,0.4835572988710578,-32.207967386560966,48.14786176083962,105.51446138574889,-36.321863532066345,7.924079149961472,28.971514105796814,2.34803355898978,-0.5285129943430051,0
GUIDED_NOGPS,0.24210739135742188,30.409593480609306,-26.99669924681466,47.16262357321072,105.16009655857795,1.2686988042543372,-22.42118501297029,42.988894153342606,95.99497486993386,-1.6693684560335205,-1.0301073593933436,25.65158822049412,-0.9479113376103948,-3.1987869489074208,1.193990712061229,0.48166975662271183,-33.65510030811023,48.32428414098996,106.3608129636376,-36.321863532066345,7.924079149961472,28.971514105796814,2.3063659583208516,-0.5285129943430051,0
GUIDED_NOGPS,0.28716230392456055,22.1993669881125,-28.337688582399288,47.47984227645143,106.13776005925288,1.2629510651884202,-22.389721182699073,42.981323051371156,95.93891785818376,-1.5009609639801589,-1.8130028519672459,25.772349380114527,-0.7477493127387596,-2.6887443481765216,0.7322087882728764,0.47960231559786176,-34.74520954876068,48.220151613633945,107.3773195553022,-36.157432198524475,5.86954839527607,27.231159806251526,2.223092964559757,-4.230616610584959,0
GUIDED_NOGPS,0.3184397220611572,31.976335872042938,-29.65713727797404,47.75004587822628,107.08300280078245,1.241791840543773,-22.351396054529232,42.97210092390157,95.86990226272887,-1.2167548716252243,-2.3292125411809423,25.933533306790366,-0.8657808474408908,-3.7576122595041106,0.6079179529806399,0.47757379892389284,-35.70187650641283,48.260920783474155,107.67412414846824,-34.683746099472046,4.206741601228714,26.58156156539917,2.1953573023837043,-4.472559840233382,0
GUIDED_NOGPS,0.3471236228942871,34.86826835148391,-30.80355247425292,47.84833548708682,107.73971040877686,1.1679047274247123,-22.305754174043592,42.96111817550931,95.78680881731255,-1.114773744014587,-2.6461281960276564,25.988055291839995,-0.5360480819816089,-3.637627824360502,0.1940516218973316,0.4760941968170714,-39.41953851042101,48.126658841053,109.02220093652234,-30.171427130699158,1.632903516292572,26.04268789291382,2.0386986695954596,-6.975054494100959,0
GUIDED_NOGPS,0.37712955474853516,33.33310021457522,-32.02276479105137,47.97951768251469,108.48840728068984,1.1113690883540364,-22.252395692289067,42.94827859104287,95.68857904524259,-0.377344739672197,-3.4442054915792046,26.430450059476303,-0.6148392501585721,-3.8639654609232608,0.28958105259451117,0.4744003435291055,-39.41953851042101,48.126658841053,109.02220093652234,-30.94276189804077,0.8700684644281864,24.07243549823761,2.0386986695954596,-5.953586470234035,0
GUIDED_NOGPS,0.41112637519836426,29.422562678002723,-33.029174484330156,48.07685478094837,109.38582198061285,1.0193270010559186,-22.190974754024065,42.93349894778972,95.5742143169174,-0.024685104073219444,-3.8345266835399268,26.6787889075088,-0.5448396152471302,-3.2004869187706824,0.06613941454385308,0.47237678467260913,-38.88250668486381,48.17648282539899,110.4964399370424,-21.54703438282013,-1.1704917065799236,29.900768399238586,1.93798173011891,-7.5695264118153665,0
GUIDED_NOGPS,0.44520139694213867,29.350090269127957,-34.21446212056015,48.21519509529445,110.30510676504805,0.8910425568938776,-22.121197885965916,42.91670862764234,95.44277490735202,0.29520952710782516,-4.124449857673573,27.01389677120984,-0.636263584806073,-3.677613856483708,-0.21850660144861145,0.47027533628460794,-41.03097007794189,48.5440877246584,111.62876101879836,-25.188788771629333,-0.32574490178376436,23.873096704483032,1.7540442851658993,-8.494353662228956,0
GUIDED_NOGPS,0.48144030570983887,27.598826114993354,-35.35242189069143,48.34337148683498,111.24833978793878,0.7509309576190302,-22.042822385038292,42.89784922926423,95.29337905370431,0.5836015649286256,-4.535870998084346,27.347182681949782,-0.6239257890022638,-3.5389985084115563,-0.3171616531105958,0.46809007853153106,-41.59396051276107,48.52167236466096,111.98261317390165,-25.05772113800049,0.36023075226694345,27.79584228992462,1.6515805880119312,-8.771716545365773,0
GUIDED_NOGPS,0.5123999118804932,32.30662106787442,-36.4427473191801,48.44139631128132,112.13079387646307,0.5697181734657932,-21.955654706618617,42.87687418025587,95.12520201280113,0.8023775933251587,-4.670792420514662,27.686996545988965,-0.6273570963902771,-3.9683801797759166,-0.8269550492114027,0.4659888162726761,-42.60681687414285,48.28653869964179,112.9051940298692,-22.011752426624298,0.2938652876764536,24.39046949148178,1.4043568429426156,-10.519380100185385,0
GUIDED_NOGPS,0.5452055931091309,30.488507668823143,-37.37138702336688,48.504262317706996,112.86597747353481,0.34500737388349667,-21.859548852785487,42.853748349320746,94.93747511866441,0.8398851502654605,-4.880880074760968,28.031712778304925,-0.5741170366236058,-3.60745906245358,-1.1762866970190249,0.4641429952902592,-42.89844210599759,48.07889755180756,113.91332583776524,-21.314707398414612,1.0270927101373672,21.458591520786285,1.1254478286719944,-13.004536745731707,0
GUIDED_NOGPS,0.5782208442687988,30.292969709225904,-38.34118500716394,48.56135571958219,113.6478578885966,0.1425453931393342,-21.7544047605661,42.82844765843136,94.72948484003729,1.029876306900327,-4.938108949156036,28.387680039731187,-0.5811874047197553,-3.7499380810287852,-1.128325498161346,0.4621632539028814,-44.61346234739735,47.717071522703975,115.31490715484736,-17.162781953811646,1.4259103685617447,17.90194809436798,0.4491643789495552,-9.171106734440391,0
GUIDED_NOGPS,0.6117374897003174,29.839954467842915,-39.196010546194955,48.59727725402562,114.49882170053037,-0.09545668053179088,-21.640166690183648,42.8009586949952,94.50057183791027,1.0584751627288165,-5.116372190738315,28.741920970844728,-0.5639907331027506,-3.6076267125629373,-1.4807265737443547,0.4600035002747598,-45.25894146024759,47.45549878677412,116.15237729458998,-9.4508558511734,1.044794637709856,21.236853301525116,0.1173372489483242,-10.3612245086328,0
GUIDED_NOGPS,0.6456539630889893,29.48979462697481,-39.99534442594864,48.641227171921415,115.36419350438365,-0.34714554137470566,-21.516821613304767,42.77127832402078,94.25013002304738,1.0585444251158687,-5.135340052950263,29.118602488476345,-0.6028302316450587,-3.5621730205700253,-1.6911948109902584,0.45777187303732747,-45.46177215588679,47.50715807449032,116.93681817037086,-8.790024369955063,1.711883582174778,22.353316843509674,-0.2200383496252606,-10.460050515733714,0
GUIDED_NOGPS,0.67970871925354,29.369408733159677,-40.810899285375605,48.66786403803566,116.21288142861385,-0.6030851721946703,-21.384397601286924,42.739413300283594,93.9776056135122,1.1418481869976944,-5.14578298530439,29.490236496311326,-0.5953316968284557,-3.6931737830863614,-1.8667065281527186,0.4555294483697967,-46.82232632920085,46.985041069344156,117.61828524948521,-9.102176129817963,2.6914913207292557,21.949070692062378,-0.8048059776262213,-9.211807831704498,0
GUIDED_NOGPS,0.7126965522766113,30.320562125900008,-41.522196569038584,48.682302854357516,116.89465571378724,-0.8309578302619551,-21.242962213425855,42.70537988049214,93.6824961921941,1.1237589645894446,-5.155477585057576,29.794579480443335,-0.5965500626349611,-3.6280831959562496,-1.881449784025182,0.4535756809568137,-46.82232632920085,46.985041069344156,117.61828524948521,-6.352528929710388,2.256987616419792,15.150102972984314,-0.8048059776262213,-8.200364391105037,0
GUIDED_NOGPS,0.7464303970336914,29.647171918515063,-42.15255902443015,48.70328283081579,117.53523518357882,-1.1179757085302455,-21.092620885202976,42.66920343545394,93.36434976433436,1.1801437770134866,-5.129496826115317,30.13760182584513,-0.6309541039502922,-3.5012938956085318,-2.369852839189822,0.4516582291615111,-46.10616775011288,47.20752452963838,118.66139188879102,-7.130833715200424,2.2459156811237335,12.792922556400299,-1.1430209866954504,-11.550978575251907,0
GUIDED_NOGPS,0.7879493236541748,24.088444242796676,-42.82045975612326,48.70843204171392,118.13918030127628,-1.3583637396780675,-20.933515316532805,42.63091806224148,93.02276381505226,1.0880021772324875,-5.171227147509979,30.467148208014493,-0.603489001008914,-3.351800897574508,-1.9738384381526544,0.44976716702755193,-47.04985213301086,46.73536384564669,119.23152678953974,-8.280893415212631,2.6607880368828773,9.778735786676407,-1.6808608677128818,-7.255779964743538,0
GUIDED_NOGPS,0.8132474422454834,39.537573997963875,-43.30077839676928,48.72041153746405,118.76626222897487,-1.5960148617473677,-20.765821860010373,42.59056619635829,92.65738436687121,0.9786931104160727,-5.142728183198101,30.619475086884115,-0.7002625444025413,-3.801886048952164,-2.8350688957641488,0.4477822442757927,-47.0284095586413,46.87382376007355,119.53352301325275,0.8659113198518753,1.8657336011528969,7.213956117630005,-1.8316351657708823,-5.781431979090687,0
GUIDED_NOGPS,0.8471999168395996,29.459760911402363,-43.62142064633958,48.65155610860844,119.04694279866236,-1.7490831905183974,-20.589749909158648,42.54819822390487,92.26790503724494,0.8566269044165138,-5.131440014934186,30.800154080998464,-0.5012636273098192,-3.089181039365431,-1.9564943240221828,0.4464419244771652,-48.44150627897778,46.04130612176755,119.45314209733657,3.481803834438324,2.247133292257786,5.710577592253685,-2.232428379552009,-4.6940347004865695,0
GUIDED_NOGPS,0.8810930252075195,29.51033560824597,-44.09084704343632,48.65943334935962,119.46266933778328,-1.964068758655258,-20.40554028667594,42.50387209374473,91.8540660960836,0.6907786522286443,-5.125360719686052,31.01974807790896,-0.6806215713784456,-3.4589063316263253,-2.4456955990603566,0.44478279351660066,-48.86145352325468,46.818373350694884,119.70425556418786,3.04483063519001,2.850494906306267,3.899369388818741,-2.6012825426182222,-4.886194388822062,0
GUIDED_NOGPS,0.915203332901001,29.318495736054803,-44.418868585869035,48.66629073933802,119.96085133120319,-2.1424332624588267,-20.213463632683343,42.4576529296704,91.41565352327987,0.5435353017313606,-5.0465668036471385,31.219660884726064,-0.6868880272899673,-3.2159766675210872,-2.324992172827332,0.4429096043841534,-48.55212583043402,46.987768913281826,120.05352726458605,9.406652301549911,2.2669384256005287,9.972921013832092,-2.807846791731923,-2.6032736681842925,0
GUIDED_NOGPS,0.9495830535888672,29.09498539806741,-44.705604742480034,48.67181986437899,120.43109624134657,-2.315211994683977,-20.01381879297213,42.40961264256939,90.95249806623511,0.3726632319655351,-5.105116465872957,31.29028162564941,-0.7006035791204992,-3.1892908145332584,-2.396699811913658,0.4410428036497771,-48.60250530463702,47.026673238770854,120.1183739671716,9.406652301549911,2.2669384256005287,9.972921013832092,-2.8949351566935073,-2.6032736681842925,0
GUIDED_NOGPS,0.9901578426361084,24.648742676139936,-44.92807169035076,48.69455874839686,120.76351584985699,-2.5016603578649805,-19.80693120725119,42.35982954259022,90.46447429738554,0.2733888069373534,-4.977140065168074,31.48884205501085,-0.7216576207862853,-2.972571353053093,-2.419545973616213,0.4394019168950571,-47.932537202943124,47.25128898278821,120.52295506377716,9.987622499465942,2.746891789138317,2.110554650425911,-3.0768804375646095,-3.6562869207329203,0
GUIDED_NOGPS,1.0151512622833252,40.01816620551474,-45.15863430811568,48.72581598441693,121.11374322607475,-2.644411109464208,-19.593151297394417,42.308387951308404,89.95149967172827,-0.01428251252387846,-4.976183838684272,31.575961117874364,-0.8588320974487633,-3.5077486342218673,-2.7273537699692687,0.4376755128913071,-47.644427559731184,47.190400494956805,120.75418682114932,11.902417242527008,2.4200744926929474,-2.361910231411457,-3.271578317054434,1.0126310397413967,0
GUIDED_NOGPS,1.0490758419036865,29.480674477940298,-45.13913874905909,48.69466928166652,121.13075966866896,-2.7235557598669686,-19.372852855688166,42.25537781389247,89.41353358434756,-0.08855660424038876,-4.894338108746832,31.682057861346756,-0.6542702820082175,-2.706259918503663,-2.1018395288085716,0.4365655478313572,-47.40831003602665,47.06801392874428,120.85995241467586,13.021627068519592,1.7233854159712791,-5.528237298130989,-3.354447588138888,-0.46790595107313165,0
GUIDED_NOGPS,1.0820553302764893,30.326481327500815,-45.173041879120525,48.67448093605878,121.20519467753395,-2.869592085755509,-19.146431433078636,42.20089431126994,88.85057642794084,-0.14771610097346907,-4.890820561324276,31.76235698032401,-0.697118442808105,-2.862300387329082,-2.6052411101286372,0.43529076350081375,-47.94674446870941,47.030339425173544,120.62554440432515,16.844816505908966,0.9384662844240665,-8.90669897198677,-3.4622513903528533,-2.0292159052385843,0
GUIDED_NOGPS,1.116586446762085,28.964187556108005,-45.040100805879064,48.65532117526215,121.25044544077149,-3.0005077458792067,-18.91430272741932,42.14503747229333,88.2626686503449,-0.1418204204201316,-4.862554677217824,31.80444460598963,-0.6902321021099543,-2.5198249153420726,-2.5589659399450104,0.43402444641914684,-45.67314056286918,47.36691566609057,120.70752294008797,19.66799795627594,0.2963094040751457,-8.253789693117142,-3.8206375598418525,-1.000843413894424,0
GUIDED_NOGPS,1.1490724086761475,30.78840196726125,-44.83539925236665,48.63493710174726,121.3246057222108,-3.1495925935252918,-18.67690097171838,42.08791178590617,87.64988981206204,-0.16021942925983856,-4.6884454713113835,31.848939873337677,-0.6968810264285356,-2.3900204523559765,-2.8072403484933237,0.4326505681797025,-45.67314056286918,47.36691566609057,120.70752294008797,23.795132339000702,0.15362633857876062,-6.438146531581879,-3.8206375598418525,-2.1642122463063593,0
GUIDED_NOGPS,1.1831281185150146,29.3702313595877,-44.51993371271411,48.60245788982563,121.31916539804928,-3.24262686883322,-18.43467732238612,42.029625813308996,87.01235764378612,-0.047391027432295466,-4.459890266209832,31.881857970042553,-0.6656521148004816,-2.1628528694739027,-2.492251333456286,0.4313863844914737,-45.03021014628343,47.649261483975835,120.49300866112095,27.8830885887146,-1.2009557336568832,-8.301667124032974,-3.895904918171416,0.44702579597613823,0
GUIDED_NOGPS,1.2161612510681152,30.277662277662277,-44.14342394580328,48.57703044531332,121.3359994951627,-3.3768494163792377,-18.18809824748235,41.97029180012532,86.3502271039288,-0.1051355811096989,-4.1352074056163435,31.897215650391328,-0.683194313962166,-2.0208067800750293,-2.847927917731798,0.4300284552175322,-44.28038092977126,47.84494103671711,120.12497719938867,29.354342818260193,-1.3167881406843662,-5.2923087030649185,-3.9603443671103893,-2.109838177540946,0
GUIDED_NOGPS,1.2499721050262451,29.581724699725644,-43.722410974518716,48.54075078929072,121.30903379246072,-3.460600671919345,-17.93764391496385,41.91002528856767,85.6636894361456,-0.020244040369683105,-3.7022434216765276,31.92661961476823,-0.6609284316704959,-1.9348947123350204,-2.566513787717577,0.4287093112873698,-44.69314758936234,47.68407983597055,119.65500130375479,32.82456696033478,-1.3688106089830399,-5.398167297244072,-3.9952729648279544,0.36900139679676197,0
GUIDED_NOGPS,1.284914255142212,28.624395170921797,-43.243930186417536,48.50382479090077,121.19502089623649,-3.5314344135855245,-17.683806580931748,41.84894472960357,84.95297122686208,-0.03677048347932232,-3.316637408120642,31.955675239497467,-0.6571037126288871,-1.810406844900301,-2.5269402124684173,0.42751590066125117,-43.72655596917251,47.584530605725156,119.12134333080732,33.34248960018158,-1.1215456761419773,-9.123090654611588,-4.083448036058851,1.2448319650341484,0
GUIDED_NOGPS,1.3203673362731934,28.213313243286876,-42.74680539133723,48.4846025399319,121.06538763123577,-3.6488093746319095,-17.427088977878963,41.787171095121565,84.21833346279988,-0.0962837359866417,-2.77644137520233,31.98203635459913,-0.6937274238775752,-1.7658476020836622,-2.8482022589220453,0.4263058916631282,-43.24684492439493,47.892115922579194,118.8955275334906,32.780638337135315,-0.7660117466002703,-8.900392800569534,-4.088525620291556,-1.96246446648005,0
GUIDED_NOGPS,1.3511378765106201,32.50340199314952,-42.20306860387397,48.45317822695036,120.8277237568101,-3.7388997909175776,-17.16800270293762,41.72482749009718,83.46007058850299,-0.19276402667490639,-2.361775894935801,31.998411733134237,-0.6737211818102984,-1.5567264565776215,-2.836369463345931,0.42526469366338576,-42.38479929648844,47.816080262814054,118.95317773779756,33.489468693733215,-1.1763986200094223,-14.45629894733429,-4.113157905009706,-0.4546126954009943,0
GUIDED_NOGPS,1.3869013786315918,27.96426380777129,-41.54991115451768,48.42967202233071,120.57788587337413,-3.8101118715910123,-16.907066606126463,41.66203876475893,82.6785095638638,-0.2492473165529582,-2.1322659574543286,32.011836469947895,-0.673822227889441,-1.4172299778064639,-2.679786173627746,0.4242012473809793,-40.02609438301113,47.91928375403714,118.69003303528677,34.93921458721161,-0.7970863021910191,-13.619677722454071,-4.11686221551116,-0.7268734272278113,0
GUIDED_NOGPS,1.422395944595337,28.183549364672995,-40.90769028424434,48.411294222799455,120.20957796236733,-3.916594439169679,-16.644805178598254,41.598931126754366,81.87400892164922,-0.33730099475485187,-1.6182538816060839,32.02306188584881,-0.6912518037954363,-1.3454481629120951,-2.9858281838797724,0.4233288619185638,-41.36112800562371,47.93274768695624,117.7448710751046,36.62180304527283,-0.7812729105353355,-19.428077340126038,-4.141901689158564,-2.1198960579806125,0
GUIDED_NOGPS,1.4516634941101074,34.16836925884289,-40.19927660465899,48.40065419030209,119.7909702499572,-4.00466581707106,-16.381746940887247,41.535631753316,81.04695782502685,-0.5095432645012054,-1.3939540978008618,31.982135392342094,-0.702868887506945,-1.1007759245921838,-2.9657819599974498,0.4225119751501393,-39.00416006706891,48.20745110142124,116.99224291223285,36.62180304527283,-0.7812729105353355,-19.428077340126038,-4.151792664102535,-2.1198960579806125,0
GUIDED_NOGPS,1.485400676727295,29.646124159769293,-39.5748576143319,48.3508953513325,119.41793536374338,-4.047893489064389,-16.118422831156543,41.472268403427364,80.19777512509113,-0.5350655469954274,-1.1235759368640295,31.972364806734394,-0.6368709119173852,-1.3196623433084353,-2.685178623426907,0.42155967952269546,-39.00416006706891,48.20745110142124,116.99224291223285,31.914666295051575,-3.313663974404335,-16.775716841220856,-4.151792664102535,0.2886269322952254,0
GUIDED_NOGPS,1.5202112197875977,28.73184866523726,-38.80248301242259,48.29977457392635,119.05464131875306,-4.126647241735526,-15.855364593445533,41.408969029989,79.3269084183894,-0.44094079111674445,-0.9750099309061433,31.984522543457015,-0.6131148578985042,-1.0004693340088608,-2.9280472476526103,0.4205445341992727,-37.27591165649414,48.22175315278442,116.78459213148551,35.842570662498474,-3.492717444896698,-15.760871767997742,-4.14762329649704,-1.7873104550740082,0
GUIDED_NOGPS,1.553495168685913,30.04838628792492,-37.97980153032887,48.244938265142046,118.60404941844263,-4.192487274672601,-15.593103165917329,41.34586139198443,78.4348331044481,-0.49149022075121546,-1.006329656623531,31.947612201182267,-0.5933411839241719,-0.7958460791685047,-2.910810037599176,0.41966156737201094,-35.971014210997424,48.4285784945651,116.30691291783464,36.088359355926514,-4.260113462805748,-19.93200331926346,-4.140844432000609,-1.1581852524404246,0
GUIDED_NOGPS,1.5962905883789062,23.37024159757511,-37.19871101446969,48.19459454997296,118.06606683158498,-4.249933667125904,-15.332167069106166,41.283072666646184,77.52205144329889,-0.43507045696853003,-0.9960322926760905,31.961525296521582,-0.6184627699258122,-1.0720357789724158,-2.8191423495672048,0.4189119692234278,-36.2015522338051,48.55842058223497,114.28520975713067,36.088359355926514,-4.260113462805748,-19.93200331926346,-4.136220313814613,-1.1581852524404246,0
GUIDED_NOGPS,1.6311357021331787,28.70215969123806,-36.338025674526804,48.14198495179806,117.52122668072172,-4.34743901312387,-15.073080794164824,41.220729061621796,76.58909161300477,-0.28530714019348186,-0.9952674182107549,31.979239392134012,-0.5893509779356414,-0.665499532035614,-3.166742109315384,0.4181357298645661,-36.2015522338051,48.55842058223497,114.28520975713067,33.02316963672638,-4.1857607662677765,-18.52891743183136,-4.136220313814613,-2.410900536437237,0
GUIDED_NOGPS,1.669029712677002,26.407338617776126,-35.42143003497235,48.0572417539273,117.07807091269513,-4.39923598508802,-14.816363191112039,41.15895542713979,75.6365067671862,-0.18127535500625405,-1.030949500373665,32.00466477131938,-0.525115042929245,-0.5951835916907344,-2.913319366068563,0.41711687170898215,-32.39738215577388,48.19670283888637,115.36014401470965,35.98950803279877,-5.248937755823135,-17.522384226322174,-4.124936151609416,-1.3294112647434742,0
GUIDED_NOGPS,1.6979830265045166,34.52215710805294,-34.707800882934116,48.00658924186424,116.57882718982987,-4.420115826334724,-14.562525857079937,41.097874868175694,74.66487409254728,-0.1826122844950047,-1.0571410346848427,31.983515090554437,-0.5938558246950981,-0.6548143627830441,-2.7966649432188238,0.41617209380543485,-33.48344490218058,48.692318741510974,113.54006933153461,28.63340973854065,-4.5639533549547195,-16.8105810880661,-4.1087651026061565,0.018372781980511173,0
GUIDED_NOGPS,1.7308299541473389,30.451320623212187,-33.69044386637186,47.963472390477875,116.05228302382798,-4.4167711377271175,-14.31207152456144,41.03760835661805,73.67479386640181,-0.20137441393863303,-0.9367498792183764,32.00331922405289,-0.5597082557792847,-0.05836062960339706,-2.6295924777602426,0.41524502168514765,-26.37798740117976,48.96155857009857,113.48649278583123,33.44751000404358,-5.01117967069149,-20.528516173362732,-4.033625667734197,0.6168845431455688,0
GUIDED_NOGPS,1.7639241218566895,30.22094129175433,-32.626505117164996,47.90424912640743,115.58335796006148,-4.43187125574066,-14.065492449657668,40.978274343434364,72.66688851419951,-0.16402565889653395,-0.902404379698673,31.991690826990943,-0.5146406394596855,0.08492044390298749,-2.7496672045543877,0.41416706110827606,-26.37798740117976,48.96155857009857,113.48649278583123,34.69305336475372,-5.847904086112976,-16.352088749408722,-4.033625667734197,-0.09937967931050866,0
GUIDED_NOGPS,1.7986133098602295,28.831190970456014,-31.57138616700014,47.861864376832735,114.94720498386923,-4.455045813906235,-13.823268800325412,40.91998837083719,71.64180166705209,-0.1434022228627978,-0.7396482822141153,31.984153713241835,-0.5455562633015488,0.0835509696155202,-2.8064685553272177,0.4133891933663657,-25.95828981642439,48.8885151300525,113.16681184214114,34.02356505393982,-4.462619870901108,-26.378294825553894,-4.044318877892808,-0.6442952662235936,0
GUIDED_NOGPS,1.8308753967285156,31.004383468484118,-30.496267620925444,47.784959255803024,114.4266568082227,-4.478616880060697,-13.585867044624472,40.86286268445003,70.60019721925937,-0.275857680198475,-0.6912821652365212,31.92523308636672,-0.45418446890129605,0.33788003963675606,-2.833750727701228,0.41234708082207333,-25.82385819233826,48.591784733891444,112.40269113505933,36.86048686504364,-5.851082876324654,-17.77493506669998,-4.038348338170394,-0.8003939569797989,0
GUIDED_NOGPS,1.8661866188049316,28.3228599018158,-29.39782106259082,47.70358080727491,113.86901015804855,-4.453432256318134,-13.353738338965151,40.80700584547342,69.54275838583553,-0.14027989259717638,-0.4429295501039817,31.90406633012885,-0.4477630848981784,0.30768109454146286,-2.5295330185479763,0.41134749645557395,-23.37922800887583,48.642920332371965,111.23547040454187,35.223087668418884,-6.443735957145691,-18.498003482818604,-4.05678237934147,1.8969665808776242,0
GUIDED_NOGPS,1.8988075256347656,30.661461760018714,-28.281375018449914,47.620539570039796,113.36324156340883,-4.470286554093985,-13.127316916355618,40.75252234285089,68.47018676003505,-0.15438524708945764,-0.29694778357116697,31.85852604383779,-0.41432040239969226,0.579377548730669,-2.785469268748872,0.4102138903932524,-22.288947325279885,48.64586024337477,111.04539894380825,33.391186594963074,-6.408288329839706,-14.565464854240417,-4.022201557776411,-0.6919504565581246,0
GUIDED_NOGPS,1.9354479312896729,27.30009047299804,-27.218147989013236,47.52141598416062,112.82769082510748,-4.4453754917728485,-12.90701847464937,40.69951220543496,67.38320137087904,-0.3339710107302062,-0.11437205126039242,31.73068539314266,-0.4030647115140418,0.358542987271195,-2.530924778691807,0.4091110210915431,-21.89769568758397,48.7768397311043,109.82892902060912,32.89458155632019,-8.02309513092041,-15.014387667179108,-3.9649781508974957,1.4559248310272106,0
GUIDED_NOGPS,1.9653916358947754,33.401586340904025,-26.167698493536058,47.4153542586557,112.27858636484287,-4.4092251903879855,-12.693238564792598,40.64807061415314,66.28253774068122,-0.36568304543804653,0.08730162368146503,31.630862178422927,-0.33167869802748773,0.7637737374593063,-2.4049668688502055,0.4080079027516767,-20.03437253317551,48.56656562617681,109.37207574651916,28.546082973480225,-7.854896038770676,-14.990228414535522,-3.914284017835734,1.984188096578687,0
GUIDED_NOGPS,2.000028610229492,28.876049899485032,-25.126280973195808,47.32153295763446,111.77130782081102,-4.363270189755601,-12.486350979071645,40.59828751417397,65.16894694257417,-0.416242987160537,0.3636548794609494,31.544228058990484,-0.3779012229445319,0.5851135872554393,-2.3517118127615424,0.4067952782435263,-17.74418474600204,48.64937951573874,109.00150544158723,28.546082973480225,-7.854896038770676,-14.990228414535522,-3.8158110647165797,1.984188096578687,0
GUIDED_NOGPS,2.0328404903411865,30.482968131109416,-23.965669188957406,47.20613370727371,111.13865093707668,-4.281306236979918,-12.28670613936044,40.55024722707296,64.04319465803536,-0.5889257507475034,0.5598663907585668,31.416851861158914,-0.2907505269545491,1.0192782304565684,-2.070224196132031,0.40580908744191735,-16.009431342811595,48.5882285043767,108.13451411619407,28.76371145248413,-8.563871681690216,-18.78022700548172,-3.6835555169927368,4.044170375490182,0
GUIDED_NOGPS,2.0661823749542236,29.99659576902722,-22.88783209178244,47.10739152954542,110.55522555510679,-4.181577912055435,-12.094629485367857,40.50402806299863,62.906060234413374,-0.8654404097667691,0.7665945524285792,31.212731657813084,-0.32740502066227917,0.9117173839020415,-1.9116357587226989,0.4047016693586132,-16.009431342811595,48.5882285043767,108.13451411619407,27.08747386932373,-7.712819427251816,-17.8522527217865,-3.6835555169927368,5.01950047151367,0
GUIDED_NOGPS,2.0998055934906006,29.7457820644658,-21.670718523510967,46.965949672245074,109.85476615469072,-4.061699395555232,-11.910419862885142,40.45970193283849,61.758335742453966,-0.9036703125726526,0.9438685371591164,31.09020830938681,-0.2089141004293919,1.2929469585907591,-1.722977657028858,0.40380713917552646,-13.247385574635079,48.358066034495295,107.4392516919755,30.72037696838379,-9.922370314598083,-24.45770353078842,-3.5023509821289,5.731356447190739,0
GUIDED_NOGPS,2.1336007118225098,29.59550101960895,-20.515472650621533,46.82048001161845,109.13061410756632,-3.9192719151302873,-11.734347912033414,40.41733396038508,60.60082503382627,-0.9921697139787425,1.0920366845978493,30.965362696642732,-0.19623841911760592,1.2567977472880367,-1.5076035386375077,0.4029404218525199,-11.706163545181518,48.60020764335804,106.79648982031446,24.576744437217712,-10.8729787170887,-24.928145110607147,-3.386514134613998,6.793734742865101,0
GUIDED_NOGPS,2.1729164123535156,25.43821642144079,-19.368999896647694,46.67997040231145,108.4103193651705,-3.780412829702628,-11.566654455510985,40.376982094501884,59.43434279864882,-1.0302868653024682,1.2028344124882093,30.804767873782808,-0.2378234046675754,1.0587137871872918,-1.5617607803672646,0.40204804686695667,-11.706163545181518,48.60020764335804,106.79648982031446,26.763850450515747,-10.663782805204391,-25.845572352409363,-3.386514134613998,6.588274541781478,0
GUIDED_NOGPS,2.20062255859375,36.09990876697709,-18.19657486401328,46.52296011934095,107.67226760334286,-3.6325808573881373,-11.407548886840814,40.33869672128942,58.25971362301584,-1.138926787023633,1.1807611620814322,30.590822443315915,-0.062095320231431425,1.9530754741077563,-1.114047671887653,0.401174892039346,-9.945329936933529,48.15553419002852,105.84247117897854,26.763850450515747,-10.663782805204391,-25.845572352409363,-3.174979193097429,6.588274541781478,0
GUIDED_NOGPS,2.23410964012146,29.865664096155626,-17.26151645092293,46.34275706858437,107.08786606832436,-3.4950570188638146,-11.257207558617928,40.302520276251215,57.07777104652323,-0.8779502213967647,1.2692263058199664,30.514775117096992,-0.10675044534522458,1.1056017148847161,-1.277138989374618,0.39997980995639776,-8.982612436254371,48.12016264169254,105.5324231323749,21.629619598388672,-13.909964263439178,-22.371886670589447,-3.0889103396780344,6.307502540475178,0
GUIDED_NOGPS,2.268179178237915,29.35871878149849,-16.2810962702449,46.1291232988167,106.41858858504654,-3.37759042940744,-11.115772170756877,40.26848685645977,55.88935661979481,-0.82933581637067,1.2063282676920826,30.392316655467834,-0.02206841900337571,1.2643092352471375,-1.3362262005014847,0.39894153606949656,-10.060469033594586,47.96683841531314,104.59124691676891,19.572484493255615,-14.107386767864227,-20.70551961660385,-2.9304080291282117,4.289694758697808,0
GUIDED_NOGPS,2.3015284538269043,29.988017102083422,-15.242049735405061,45.89077004493693,105.76662445674138,-3.2303940484730114,-10.983348158739027,40.236621832722584,54.69531896200836,-0.47421373749334417,1.2539439709954743,30.340789708369257,0.06489056527554664,1.5215410767298947,-1.054058086720221,0.39785738901053397,-7.702388759078175,47.8376883687594,103.67281982028348,19.634084403514862,-15.534773468971252,-18.26762557029724,-2.6826946509730414,5.543570641244993,0
GUIDED_NOGPS,2.3368775844573975,28.29286456295617,-14.374328864658485,45.650142879179015,105.0786881600381,-3.0981142509983237,-10.860003081860128,40.20694146174816,53.49651281842178,-0.4020864596103335,1.216447406390868,30.213649152064054,0.04279955576541263,1.1588709468871732,-1.1095702358232518,0.39683564931676735,-6.853995564975325,47.45417070818189,103.0188080365685,9.924959391355515,-15.066812932491302,-21.010781824588776,-2.547234152658745,4.5071312696042245,0
GUIDED_NOGPS,2.3686466217041016,31.483096138833844,-13.422642578889327,45.395941157777735,104.33761109165438,-2.965736116351889,-10.745765011477687,40.179452498312,52.2937981178993,-0.2212545332916014,1.2947730275848124,30.126041730674885,0.15519443789062676,1.5973197606760114,-0.9465633917769788,0.3959123740524898,-5.7404610891942,47.366910182551315,102.31389084757521,11.247025430202484,-15.052922070026398,-21.80546373128891,-2.4103140753980714,4.073861634699051,0
GUIDED_NOGPS,2.401649236679077,30.30741661367709,-12.597217881480066,45.14114831061443,103.60238396533377,-2.8546321277849813,-10.640620919258296,40.154151807422615,51.08803903043751,0.01792305671234815,1.3449579492331867,30.042457290706857,0.14364518394435954,1.3416963967062066,-1.0414441757019754,0.3949713101302075,-5.728190567516169,46.93376174592116,101.49285364544798,12.431486696004868,-15.705886483192444,-24.701601266860962,-2.301147206954263,3.1649418948624204,0
GUIDED_NOGPS,2.4370217323303223,28.277032812194513,-11.753624626621106,44.877247634017415,102.8411817371705,-2.7356931087999423,-10.544515065425173,40.13102597648749,49.88010302469152,0.028782390482007286,1.4124027589141834,30.016649420927962,0.15401828869469103,1.3710621732796548,-0.9659942526546944,0.394077842575042,-4.327439148466888,46.444473846847046,100.46379037656897,9.365563094615936,-14.560182392597198,-23.358578979969025,-2.1160093248224605,3.163691970244308,0
GUIDED_NOGPS,2.4696907997131348,30.613570010510337,-10.967177698014643,44.59389991190029,102.03508155890468,-2.63014917662743,-10.457347387005498,40.11005092747913,48.670859925501176,0.10842431719506003,1.5260501697923199,29.870630221756844,0.2554975217865656,1.450643421476693,-0.9283363291745649,0.393271556733193,-3.7131294799240817,46.276346963260764,100.0735056830855,5.5550482124090195,-15.344907343387604,-25.35799741744995,-2.0898520553909274,2.2841640285101232,0
GUIDED_NOGPS,2.503838539123535,29.29085512762317,-10.256887065099717,44.32290583237286,101.24482366095796,-2.4916729307141994,-10.378971886077863,40.09119152910101,47.46118097141711,0.14977340197624453,1.6766624577368594,29.80830816067506,0.2146794041313368,1.2873216892472126,-0.6908007840732728,0.3924327146209183,-3.7244341932593166,46.10526502511104,99.6633946053785,5.8715760707855225,-15.37410020828247,-27.469679713249207,-2.0369808179700355,4.795860014406766,0
GUIDED_NOGPS,2.537357807159424,29.836770407255912,-9.448810093981542,43.987979911885354,100.32327636228524,-2.347950364096021,-10.309195018019736,40.074401208953645,46.25193787222676,0.05781113468159783,1.6783358540835125,29.695360737465148,0.3902116666278092,1.6063065958804887,-0.5502840131742577,0.391857323019883,-2.3462132256757857,45.078528665533796,97.26200760459416,7.942146062850952,-16.06379896402359,-28.435879945755005,-1.7966101016812135,4.432681780764263,0
GUIDED_NOGPS,2.572155475616455,28.742480829455825,-8.772426360593306,43.67787207166101,99.48996599193025,-2.200092757556341,-10.24777407975472,40.05962156570048,45.04400186648077,0.0908536955758419,1.790730245414069,29.634524242527842,0.33219699987860235,1.3571318935345302,-0.47091142546111076,0.39110807174910106,-2.3462132256757857,45.078528665533796,97.26200760459416,3.6208122968673706,-15.543504059314728,-25.841504335403442,-1.7966101016812135,5.055682971754989,0
GUIDED_NOGPS,2.6081318855285645,27.799860811930404,-8.111816677279979,43.34948326480863,98.60778371377546,-2.0462645220528897,-10.194415598000191,40.04678198123405,43.83824277901901,0.004763630059260768,1.8212120990193665,29.48459817515148,0.37532280325228345,1.364619176559366,-0.3666794540813756,0.3904609181304871,-1.8557097762085846,44.47195837498626,96.02023912221259,3.6208122968673706,-15.543504059314728,-25.841504335403442,-1.6438379562280532,5.055682971754989,0
GUIDED_NOGPS,2.646916389465332,25.78777352179874,-7.489341016172911,43.02307173578598,97.80288055339517,-1.8753156402200428,-10.148773717514572,40.035799232841796,42.63552807849652,-0.17364237848492678,1.7071849723120598,29.329672409302663,0.344506055993805,1.2664741687596655,-0.24651487586068654,0.3896652950502027,-1.9024851598318446,44.42111908574871,95.58812403403866,1.3250980526208878,-14.788636565208435,-20.502226054668427,-1.5934653928306912,6.047553224627309,0
GUIDED_NOGPS,2.6847739219665527,26.42147833646202,-6.91714530615752,42.693556601546256,97.02058923778597,-1.7635618978045442,-10.1104485893447,40.0265771053722,41.436721934909926,-0.19901927933544802,1.735731747948128,29.272681310868077,0.3878543717963132,1.2613127426677837,-0.46887794887526335,0.3888322653942479,-1.6689325428819664,44.04970948773423,94.78109863471943,2.7673203498125076,-15.854232013225555,-21.874183416366577,-1.4931876417421914,2.898474657555655,0
GUIDED_NOGPS,2.7097184658050537,40.09314240923777,-6.405387231792521,42.315886494700585,96.13857667008597,-1.609417572870501,-10.078984759073492,40.019006003400754,40.24268427712347,-0.19901927933544802,1.735731747948128,29.272681310868077,0.8395239485177924,1.656272488635637,0.27094291619422595,0.388208215214075,-1.0852625844420936,43.63916176142575,93.95929678129733,-4.980052635073662,-16.318795084953308,-23.0375736951828,-1.402077736719555,4.787045655282864,0
GUIDED_NOGPS,2.7417261600494385,31.246677394362,-6.173256309490527,42.0646320699235,95.5474326156512,-1.5008841327200768,-10.053869555067067,40.01296256339592,39.05426985039503,-0.28579597896681375,1.5008469851983843,29.011484631723036,0.3641441044787258,0.7919864293563769,-0.22346906495712304,0.38701367446948765,-1.2241488034596482,43.428902619651126,93.56318847595327,-4.980052635073662,-16.318795084953308,-23.0375736951828,-1.354917883423866,4.787045655282864,0
GUIDED_NOGPS,2.776613473892212,28.668416447944008,-5.83947450007612,41.7107218089608,94.75960641089426,-1.3882049559346297,-10.034531476722336,40.00830926588517,37.87232727390243,-0.26000454433061093,1.2780247634097064,28.83334988307452,0.5718985365000324,1.0182155322672115,-0.16310895837067585,0.3862254417260163,-1.7388837029118758,43.10793877797974,93.13129695886133,-5.71112260222435,-17.364078760147095,-25.008615851402283,-1.3078772320540633,3.5730587178187876,0
GUIDED_NOGPS,2.8088431358337402,31.03236928358452,-5.583504447065331,41.3362489140066,93.87742146303438,-1.2261652530761558,-10.020338582714345,40.00489404762095,36.697698098269484,-0.20607401097442493,1.1472991048421877,28.717595252115725,0.6415947465230875,0.892565563530169,0.23470759581355616,0.3856405532704702,-0.9630984098948226,42.56947156569237,92.38299074889105,-12.618520855903625,-17.1920508146286,-29.206955432891846,-1.1503381139224553,6.150644684864897,0
GUIDED_NOGPS,2.8435025215148926,28.85658066735466,-5.351777791547865,40.94128981546499,92.9732339594109,-1.0604092052905516,-10.010596879243764,40.00254991374673,35.531215863092015,-0.04250730877360412,0.9102689156411197,28.572351279415404,0.6803576766269357,0.8542862789246034,0.3183294261969585,0.38511596380736224,-0.784003944825694,41.86693799927088,91.20966248542067,-12.618520855903625,-17.1920508146286,-29.206955432891846,-0.9397779134131639,6.150644684864897,0
GUIDED_NOGPS,2.8781509399414062,28.867305362845503,-5.169080055714396,40.49803559517309,92.07233397816985,-0.922990150262691,-10.004548708284275,40.00109454996298,34.373705154464304,0.09065812804999739,0.6113634024186714,28.442591345563503,0.8382974105005654,0.7932606358870112,0.27184305664023045,0.3846027423525889,-1.8324061721871798,41.0847641653829,89.91169811165483,-11.68634369969368,-18.421900272369385,-26.04396939277649,-0.7637384673049654,3.991448572173677,0
GUIDED_NOGPS,2.909968137741089,31.432369846896336,-5.069161245783447,40.051991770648165,91.16865694874102,-0.7905284926864072,-10.001371135829999,40.000329934693134,33.22598066250491,0.3108087186767823,0.5478435502720519,28.396236559213918,0.8771015307900635,0.6359096065694605,0.32395364329608833,0.38411464742752777,-1.9887264105866178,40.57180862876201,89.06493977461369,-14.4862100481987,-18.636466562747955,-27.514100074768066,-0.6527257490235845,3.9893030390006468,0
GUIDED_NOGPS,2.942702293395996,30.558033470059815,-5.070256653404546,39.64022382161987,90.35862955604058,-0.7221167372275353,-10.000174340142863,40.00004195124966,32.08884623888291,0.3516395361742656,0.31907663598665625,28.314731911848156,0.8496891283015578,0.42811523994738654,-0.015200850358480567,0.38346043336568464,-1.7005002830596503,40.33707815249479,88.7313415145529,-20.05288004875183,-17.24816858768463,-24.01716411113739,-0.5768154394400612,0.3037590029579771,0
GUIDED_NOGPS,2.9767613410949707,29.36426836183902,-5.074728660959631,39.180924822569075,89.43798455194145,-0.579425737554191,-9.999999999999986,40.0,30.963093954344103,0.5922018403107294,0.2436166526755025,28.302239495856202,0.9430915856596926,0.4242001695844766,0.4910642865694113,0.3830502188048053,-2.540173357202769,39.40941748361085,87.44857816792197,-16.841697692871094,-18.413864076137543,-29.250696301460266,-0.3843949647549727,4.690308405407504,0
GUIDED_NOGPS,3.0109705924987793,29.23797175401174,-5.176171552895663,38.748771445826506,88.57370826114399,-0.48005118097305155,-10.0,40.0,29.84950315623705,0.5975314155757493,0.018220511784207534,28.236951425127344,0.9184724995899947,0.21846539197747267,0.29411430865326155,0.3825515897901861,-2.540173357202769,39.40941748361085,87.44857816792197,-22.618892788887024,-16.834674775600433,-26.557448506355286,-0.3843949647549727,2.1597288674464807,0
GUIDED_NOGPS,3.04428768157959,30.01892329053406,-5.285532278294548,38.31587345163512,87.70685476909452,-0.38007606483242995,-10.0,40.0,28.74883952603919,0.7509796727688722,-0.13347504983228672,28.24411800111398,0.970329298828049,0.18859389220080036,0.3708076126433878,0.38208396951388934,-2.2156006352564273,38.90124351515949,86.7154007302512,-22.618892788887024,-16.834674775600433,-26.557448506355286,-0.27045169545979264,2.1597288674464807,0
GUIDED_NOGPS,3.0776526927948,29.975800976251225,-5.363186719897124,37.8344077672553,86.85715465465582,-0.3127434234661954,-10.0,40.0,27.661854136883235,0.8569460556776533,-0.21672942624476219,28.305424071556722,1.1023814473487674,0.24827184180646975,0.216234628098278,0.38160939896445484,-3.73439770435594,37.8130587037658,84.9376773842533,-15.068592131137848,-18.2263121008873,-24.24633651971817,-0.16960025965249315,0.4142590840109127,0
GUIDED_NOGPS,3.111513137817383,29.54068064007212,-5.5102702989349845,37.38087821336181,85.9872721268953,-0.2911980271718807,-10.0,40.0,26.58928251108277,0.8344633140857927,-0.3243965796177293,28.35626116954913,1.0699862119204695,0.09371713895931033,-0.047101209192942584,0.3812040207683749,-3.6636512821078218,37.09276853453927,84.1364206502449,-19.127775728702545,-15.64585268497467,-25.7816344499588,-0.11223266050748804,-2.1517413880989738,0
GUIDED_NOGPS,3.146209239959717,28.82425625201872,-5.6932533748561935,36.92860939309366,85.11698173321102,-0.27195914981016567,-10.0,40.0,25.531843677658898,0.7220969372030039,-0.5638516460567106,28.471380592915107,1.0761368671867926,0.014016531991893514,-0.052483024593364486,0.38082972388889574,-4.311793002806212,36.829365565067064,83.6404683689941,-19.127775728702545,-15.64585268497467,-25.7816344499588,-0.10102494495495803,-2.1517413880989738,0
GUIDED_NOGPS,3.178266763687134,31.199958343561477,-5.798750895816875,36.45457853572321,84.23348677065844,-0.23382900612631796,-10.0,40.0,24.490239229866134,0.7232943013810189,-0.6359730542459033,28.52429919105707,1.228011117267488,0.14265286830268242,0.09767863074736438,0.3805135049184154,-4.772742893302972,36.60229149354835,83.1918682845035,-12.249960750341415,-16.42691045999527,-25.872480869293213,-0.10002292121806186,-0.8187531319428228,0
GUIDED_NOGPS,3.2122299671173096,29.446317370944755,-6.059316326272014,36.025472698659556,83.42923211924838,-0.22563798031501608,-10.0,40.0,23.465152382718756,0.47350072977701835,-0.8256582931111471,28.68691404236403,1.1164616281398771,-0.18537358730972148,-0.0872740504687972,0.38007184052694076,-5.73717283884111,35.84652557367011,81.86874540190549,-19.18002814054489,-14.953328669071198,-23.784275352954865,-0.18969629748153405,-1.6748042193957928,0
GUIDED_NOGPS,3.2450459003448486,30.47698769092151,-6.274435185661459,35.59118835455816,82.53989368385898,-0.23807134926939397,-10.0,40.0,22.457247030516427,0.34441493026011105,-0.976797306034571,28.81499716477469,1.1942085401196876,-0.1306008438702262,-0.21896043819160793,0.37983470669331487,-5.73717283884111,35.84652557367011,81.86874540190549,-16.071711480617523,-15.076150000095367,-29.137542843818665,-0.18969629748153405,-2.934012345250643,0
GUIDED_NOGPS,3.278907299041748,29.536728097293718,-6.551489873338154,35.15432612087999,81.63947549764553,-0.3199997689591213,-10.0,40.0,21.46716680437102,0.26914942057731756,-1.071959236810891,29.03224499170529,1.196988446317153,-0.2666315263403279,-0.6738484054062965,0.379655382613451,-6.273632040924711,35.22476137478251,80.97013739391383,-18.481148779392242,-14.859294891357422,-29.85866665840149,-0.2162662784925056,-6.838392654092759,0
GUIDED_NOGPS,3.313870906829834,28.605848974247053,-6.911898660362374,34.65177382318844,80.61682434503174,-0.3866032409572092,-10.0,40.0,20.495534129732064,0.1307968953061277,-1.2303567664704815,29.25270300754579,1.3352494316854866,-0.45488950522089866,-0.6141272692281712,0.3797574195694006,-8.098608429182866,33.51030246928032,78.176148172844,-18.678894639015198,-14.670442044734955,-30.532842874526978,-0.5260921328112909,-4.886050954849492,0
GUIDED_NOGPS,3.3555147647857666,24.016857535501604,-7.298101159080437,34.13326067546375,79.61843953207695,-0.5033552751260241,-10.0,40.0,19.54294928391353,-0.029071899789365915,-1.3185763435640125,29.479079382302107,1.2616860205468132,-0.4300082155547953,-0.8738745991534909,0.37984901950367317,-8.803046455637126,32.938315768294046,77.1838377243991,-18.476511538028717,-15.46875387430191,-28.537282347679138,-0.6699217099432824,-7.371599482499445,0
GUIDED_NOGPS,3.3874051570892334,31.366552247623748,-7.704751612157172,33.58205320183569,78.44108796121242,-0.6055324961265744,-10.0,40.0,18.60998945361935,-0.02929881681628372,-1.398613460753574,29.624668279555515,1.571831855083453,-0.6821199697507838,-0.9893600591336584,0.38033780298481384,-8.823152835886113,32.75940975125414,76.76802082153898,-19.494426250457764,-16.325743496418,-31.36395812034607,-0.7399708273204448,-6.2255897893065075,0
GUIDED_NOGPS,3.4145328998565674,36.86911270898894,-8.103342654675318,33.18442406932871,77.44383090410905,-0.7334752546913418,-10.0,40.0,17.697207792470167,-0.05102364753411088,-1.637358240879727,29.904948507241574,1.4535998660599634,-0.8773580674576265,-1.3841347345950226,0.3805067537767222,-9.494308497805099,32.21839682177851,75.79721202992465,-20.24274468421936,-16.08234792947769,-32.981377840042114,-0.894071860354899,-7.041482352647565,0
GUIDED_NOGPS,3.4563510417938232,23.918111780840665,-8.475536661551189,32.75620011599166,76.61292891409377,-0.87481817858849,-10.0,40.0,16.805132478528876,0.007815123792669746,-1.8007676352862259,30.174351658674386,1.201126881249282,-0.504017836579334,-1.2006636921263683,0.38038440712887023,-10.072193086197213,31.604424023108002,74.84854576420824,-17.51629412174225,-16.337475180625916,-31.46369457244873,-1.1127392297159693,-7.461952639934958,0
GUIDED_NOGPS,3.481656074523926,39.52006482554579,-8.972790950822588,32.06275263805071,75.29362869964707,-1.0834215028518905,-10.0,40.0,15.934265771827157,0.17423359005452957,-1.9020189998727295,30.55616606346727,2.3724137891579398,-1.3443058386730873,-2.3180936566107655,0.3812812741443602,-11.513880119977564,30.11475167401977,72.43856795043139,-17.141082882881165,-17.423267662525177,-33.35370123386383,-1.6889907461385607,-9.333952104631836,0
GUIDED_NOGPS,3.5147459506988525,30.226385996267016,-9.41976655297603,31.6269549327021,74.46096628745035,-1.2214943227766888,-10.0,40.0,15.08508307189139,0.10678915389950311,-2.056873902508905,30.804231703932963,1.4545252698226043,-0.913086407992793,-1.557312760994916,0.3812482335688821,-11.513880119977564,30.11475167401977,72.43856795043139,-20.842641592025757,-16.999734938144684,-33.20741057395935,-1.6889907461385607,-6.261664287181577,0
GUIDED_NOGPS,3.548647880554199,29.50327790439211,-9.936309211957216,31.057225133479296,73.38868971927322,-1.380652418586752,-10.0,40.0,14.258031975269105,0.25898903393924755,-2.284460074521961,31.166279541267826,1.7370889583175992,-1.103101604261848,-1.7674228731361994,0.3817386845119918,-12.09497821467085,29.436248825230678,71.47482814775509,-20.842641592025757,-16.999734938144684,-33.20741057395935,-1.9659005618030982,-6.261664287181577,0
GUIDED_NOGPS,3.5830202102661133,29.097811231745812,-10.336861733766534,30.443515948662704,72.42799860326731,-1.6286377152808365,-10.0,40.0,13.453531333054471,0.3011283929517437,-2.3985244471045855,31.44426482539276,1.851899378359807,-0.8986236993131844,-2.4193679995021546,0.38205106545957435,-11.68607838436079,28.203887255498913,71.7768277515479,-14.678457379341125,-17.678652703762054,-29.450416564941406,-2.0974937272150758,-11.489565783103384,0
GUIDED_NOGPS,3.6158816814422607,30.43519022429269,-10.724841133430647,29.85170308938654,71.5053878301902,-1.8755806615355077,-10.0,40.0,12.671970308415283,0.4002944420877043,-2.5788092112377763,31.820956588308135,1.9009039934596297,-0.9539803311025401,-2.6274858073629925,0.38233316495645014,-11.68607838436079,28.203887255498913,71.7768277515479,-14.678457379341125,-17.678652703762054,-29.450416564941406,-2.0974937272150758,-11.489565783103384,0
GUIDED_NOGPS,3.652179718017578,27.555310286833013,-11.132343076671427,29.25487186484047,70.6082913076032,-2.070861509562376,-10.0,40.0,11.913707434118365,0.3903201781045172,-2.757619721727302,32.07110885156527,1.8426021857818025,-0.9559283603708099,-2.3198046284309317,0.38261083225303033,-12.631199625463204,27.34372297192683,70.16933133636468,-14.522770047187805,-17.84888058900833,-27.52750813961029,-2.481947841092739,-7.6689628670733505,0
GUIDED_NOGPS,3.6845781803131104,30.870887492087792,-11.492687342693152,28.610854544121676,69.72585417004524,-2.310729088920434,-10.0,40.0,11.179069670056165,0.4109935865769855,-2.8353675516061454,32.262279016244754,2.1118061298675217,-1.001395222484983,-2.8719928658674974,0.38290643100002186,-12.631199625463204,27.34372297192683,70.16933133636468,-9.861958771944046,-18.905925750732422,-23.31734448671341,-2.481947841092739,-9.994093303008153,0
GUIDED_NOGPS,3.71750807762146,30.37127899146277,-11.83197932594662,28.017917611240275,68.97605960087084,-2.551260666606328,-10.0,40.0,10.468351460772695,0.551354000701174,-2.9645501210297702,32.74960959843058,2.026172189293196,-0.9764035341664238,-2.989852126811426,0.3829845837198037,-13.6301329155744,25.98901322751935,68.90651602258237,-9.861958771944046,-18.905925750732422,-23.31734448671341,-2.970255829722633,-9.994093303008153,0
GUIDED_NOGPS,3.7502896785736084,30.510907913784198,-12.226763342410774,27.430165974444932,68.17882690433193,-2.7796258991565415,-10.0,40.0,9.78181379298941,0.6557507741221743,-3.0469990420482866,33.027543656136736,2.0556432560929454,-1.1448785771502776,-3.061747827427402,0.38320597377731497,-13.92670190263338,25.861060015912358,68.33838082588535,-12.923099100589752,-18.388448655605316,-24.996426701545715,-3.1627180000255652,-8.91410976786126,0
GUIDED_NOGPS,3.7835090160369873,30.106621684671428,-12.593883415618869,26.81658115589463,67.43286482441954,-2.992173085654189,-10.0,40.0,9.119683253132123,0.7242047976138933,-2.9984632909193527,33.41490075944109,2.132255927169022,-1.1188440606408567,-3.0732572545603176,0.38337363685742515,-14.049067791401287,25.134267611618483,66.9622711610107,-11.303609609603882,-19.273434579372406,-19.826681911945343,-3.6554407379716327,-6.821220704745701,0
GUIDED_NOGPS,3.8171041011810303,29.773020244754253,-12.946880955454759,26.184760332519907,66.6575433652894,-3.2259252971707872,-10.0,40.0,8.482151084856142,0.6896545525016483,-3.0520678961860823,33.66124519223594,2.200468732157605,-1.127455601736303,-3.329227873204162,0.3836492154391335,-14.351527338858293,24.426087926563042,66.10439829049973,-9.858698397874832,-18.813087046146393,-19.949449598789215,-4.003995260711396,-7.395075696450424,0
GUIDED_NOGPS,3.854365587234497,26.840110065911563,-13.23663897467477,25.496514097342875,65.73462068647258,-3.487305965027634,-10.0,40.0,7.869372246573349,0.828493942194613,-3.038516587429365,34.001911122374075,2.231994684414074,-0.9726034059112004,-3.493776881732474,0.3842695031202015,-14.845969023146871,22.813970038716292,64.53556048869339,-4.955388233065605,-19.39092129468918,-26.877593994140625,-4.662115022681337,-7.609927834529638,0
GUIDED_NOGPS,3.884326219558716,33.38510275880733,-13.558649724240032,24.804610473029364,64.80880980377249,-3.7179334260231283,-10.0,40.0,7.281464468977404,1.0623360338788719,-2.886570491605969,34.28367691620461,2.566190563842607,-1.2419291740814944,-3.770885011293481,0.3849453093304098,-15.369167125065125,22.165907723886566,63.70081024377267,-6.576681882143021,-19.21093761920929,-26.85137689113617,-4.916603001672258,-5.304774421256654,0
GUIDED_NOGPS,3.918424606323242,29.331412547116372,-13.81748109938626,24.142475934685628,64.03378407803382,-3.9288995968925002,-10.0,40.0,6.718507312570708,1.091400516509686,-2.8516665173999116,34.48540655334094,2.383118572239505,-1.0394904990592206,-3.592025775091945,0.3853694464690738,-14.988202615518382,20.768364815834765,63.81682585836013,-6.576681882143021,-19.21093761920929,-26.85137689113617,-5.170578070078762,-5.304774421256654,0
GUIDED_NOGPS,3.953014373779297,28.915067284359143,-14.027161394069633,23.421616314447714,63.1769349720745,-4.208812553317798,-10.0,40.0,6.180541225189941,1.2908137590220263,-2.7640983695984707,34.70085462542524,2.5363465365512843,-0.9765555664186976,-4.147562000398101,0.3860072125062309,-15.719958227234098,20.01125327082911,62.702364659402626,0.09743152186274529,-18.746133148670197,-24.416862428188324,-5.520648777580421,-7.866163235016312,0
GUIDED_NOGPS,4.005227565765381,19.153997205198696,-14.254908013553122,22.693415960306815,62.33169844868604,-4.4500834683345785,-10.0,40.0,5.667566599532748,1.464244428323109,-2.7358544701634098,35.10685814516372,2.678015639293404,-1.0844260340091643,-4.154477065596392,0.3866717363016934,-15.719958227234098,20.01125327082911,62.702364659402626,-1.4867858029901981,-19.660286605358124,-25.206023454666138,-5.520648777580421,-5.897042322303262,0
GUIDED_NOGPS,4.021088600158691,63.07034374906018,-14.414823344286686,22.027114888585942,61.599845864081196,-4.640558745786948,-10.0,40.0,5.179542830683161,1.5494632044934773,-2.6686370844374334,35.19328735892106,2.5017491523238324,-0.9180380279201077,-3.857318604469609,0.3871593939332039,-15.650191487263484,19.476796208775568,61.43660860622269,0.4982735961675644,-18.684092164039612,-20.724084973335266,-5.935167915448398,-2.9124046149244847,0
GUIDED_NOGPS,4.052571773529053,31.768291574514496,-14.60488049741111,21.348301787387374,60.783055730050826,-4.871446870697279,-10.0,40.0,4.716387373638341,1.683741308481343,-2.7089283703513387,35.384245787736276,2.715365025973817,-1.0702926798864696,-4.3855207415499144,0.387866663287175,-15.186225716353615,19.43321093006133,60.79396582797628,-2.07704771310091,-17.744852602481842,-21.87877744436264,-6.103884178672364,-4.568401908440647,0
GUIDED_NOGPS,4.093259811401367,24.580993014206012,-14.757156240620125,20.736949562271338,60.131743573151766,-5.0766057032090925,-10.0,40.0,4.2779748008346274,1.819219604772427,-2.7450293352094413,35.55028085627012,2.3642995716071753,-0.9066089260142806,-4.068734848268703,0.38829246245536575,-15.374625787394365,18.75669833605695,60.59978337820837,-1.6402067616581917,-17.52922832965851,-19.34443563222885,-6.220618113293121,-4.4892229404872745,0
GUIDED_NOGPS,4.125831365585327,30.705007320644217,-14.908186405313835,19.976037972766328,59.21878691286153,-5.30042208189026,-10.0,40.0,3.8641358596732545,1.8827646966024636,-2.7172063461819826,35.696634734710564,2.909677449015523,-1.033637434762356,-4.529619257999954,0.38929069789362347,-14.792208733323776,17.75081597856729,59.71534993687034,-0.06883465684950352,-16.70484095811844,-22.495390474796295,-6.424555291080282,-2.955215386868478,0
GUIDED_NOGPS,4.16031289100647,29.009461627842636,-15.014499016540963,19.308206304753327,58.50053366936614,-5.574739307270404,-10.0,40.0,3.474656530046971,1.9480775267670642,-2.7179734618031395,35.81376564878711,2.7341063150001412,-0.9374112138277197,-4.937768734134966,0.38994824572136166,-15.353512054556514,15.97047684428334,57.681837948582114,0.4952486604452133,-15.371261537075043,-18.009385466575623,-7.064895380057381,-7.060050221906245,0
GUIDED_NOGPS,4.193072319030762,30.531563009550432,-15.054915687945991,18.645345413407647,57.725707358803774,-5.761793882016945,-10.0,40.0,3.1092770818658693,1.889030541392304,-2.7501197471318046,35.876080879679726,2.847033838492326,-0.8312788261399129,-4.5984425857424345,0.3907671394461242,-15.682173367826906,15.680440471865992,57.215854760828435,5.404600128531456,-15.009067952632904,-20.807917416095734,-7.1321880363594286,-1.8506130751885095,0
GUIDED_NOGPS,4.226743698120117,29.70470254957507,-15.097544742979363,18.038634667245734,57.11681268974512,-6.023987059291084,-10.0,40.0,2.7676911325838347,1.9322265786941688,-2.5537475396257068,36.03341428721097,2.7466034957414203,-0.8403835287355508,-5.173512796737813,0.3913017568856774,-15.880653190984566,15.428048556639029,56.73409441940491,4.72341775894165,-13.78573477268219,-13.524755835533142,-7.178733844580883,-7.351272839529487,0
GUIDED_NOGPS,4.2617645263671875,28.558518932095026,-15.056169512093,17.470898562392613,56.52010857077994,-6.139022435170348,-10.0,40.0,2.449544704724147,1.8943316219618802,-2.4638985355283047,36.10427066966068,2.686576858650109,-0.6635664724900399,-4.3395634559235186,0.3918588722678884,-15.41723747472981,15.578188012775087,56.48103702903124,8.591310679912567,-12.893521785736084,-13.477295637130737,-7.208303507650447,1.2306797063521762,0
