E-kp,E-ki,E-kd,E-I-Tot,E-P,E-I,E-D,E-PID,N-kp,N-ki,N-kd,N-I-Tot,N-P,N-I,N-D,N-PID,D-kp,D-ki,D-kd,D-I-Tot,D-P,D-I,D-D,D-PID,Y-kp,Y-ki,Y-kd,Y-I-Tot,Y-P,Y-I,Y-D,Y-PID,errorN,desiredN,actualN,errorE,desiredE,actualE,errorD,desiredD,actualD,errorY,desiredY,actualY,roll,pitch,yaw-rate,thrust,dt,Time,Mode
0.035,0.005,0.05,-0.005249415499591152,-0.005261049966997331,-2.624707749795576e-05,-0.21521266205264997,-0.22049995909714526,0.04,0.006,0.05,-0.00498337751430357,-0.005707911259661247,-2.9900265085821422e-05,-0.2043057824152268,-0.21004359393997385,0.002,8e-05,0,-0.0071660857699905114,-0.0004103981841313837,-5.732868615992409e-07,-0.0,-0.00041097147099298294,0.1,0.02,0,-0.005034625886150564,-0.014416526593288223,-0.00010069251772301129,-0.0,-0.014517219111011235,-0.14269778149153117,0.0,0.14269778149153117,-0.15031571334278085,0.0,0.15031571334278085,-0.20519909206569187,0.0,0.20519909206569187,-0.14416526593288223,0,0.14416526593288223,-0.22102776352763762,0.20948811676807363,0.014517219111011235,0.4,0.03492259979248047,0.03520774841308594,STABILIZE
0.035,0.005,0.05,-0.01030334110046454,-0.005284853993422407,-5.15167055023227e-05,-0.10811432492096854,-0.11345069561989327,0.04,0.006,0.05,-0.009757340879549742,-0.005705256546580279,-5.854404527729845e-05,-0.10210331951913326,-0.10786712011099084,0.002,8e-05,0,-0.014667316154798887,-0.00044822760970357885,-1.173385292383911e-06,-0.0,-0.00044940099499596277,0.1,0.02,0,-0.009919057532023127,-0.014593186777890869,-0.00019838115064046256,-0.0,-0.014791567928531332,-0.14263141366450696,0.0,0.14263141366450696,-0.15099582838349732,0.0,0.15099582838349732,-0.22411380485178942,0.0,0.22411380485178942,-0.14593186777890868,0,0.14593186777890868,-0.11372506398258118,0.1075778125815654,0.014791567928531332,0.4,0.03347063064575195,0.06862449645996094,STABILIZE
0.035,0.005,0.05,-0.015645890566630617,-0.005591844062748392,-7.822945283315308e-05,-0.07644784752199979,-0.08211792103758134,0.04,0.006,0.05,-0.014669306875513405,-0.005875621328067071,-8.801584125308042e-05,-0.07019166968617524,-0.07615530685549539,0.002,8e-05,0,-0.023179126673014375,-0.0005090851144164,-1.8543301338411502e-06,-0.0,-0.0005109394445502412,0.1,0.02,0,-0.014810535845297932,-0.014627785659994418,-0.00029621071690595863,-0.0,-0.014923996376900376,-0.14689053320167678,0.0,0.14689053320167678,-0.1597669732213826,0.0,0.1597669732213826,-0.2545425572082,0.0,0.2545425572082,-0.14627785659994416,0,0.14627785659994416,-0.08231208000556572,0.07594540936058251,0.014923996376900376,0.4,0.03343963623046875,0.10206794738769531,STABILIZE
0.035,0.005,0.05,-0.021057591083477607,-0.005665676075891235,-0.00010528795541738804,-0.05812463064438581,-0.06389559467569443,0.04,0.006,0.05,-0.019704415527725422,-0.006024469080133352,-0.00011822649316635254,-0.05403512101080399,-0.06017781658410369,0.002,8e-05,0,-0.03284802850746346,-0.0005784383631413088,-2.627842280597077e-06,-0.0,-0.0005810662054219059,0.1,0.02,0,-0.01986793915507625,-0.015127861169459744,-0.00039735878310152503,-0.0,-0.01552521995256127,-0.1506117270033338,0.0,0.1506117270033338,-0.1618764593111781,0.0,0.1618764593111781,-0.2892191815706544,0.0,0.2892191815706544,-0.15127861169459744,0,0.15127861169459744,-0.06405425985817152,0.060008902854597264,0.01552521995256127,0.4,0.033431053161621094,0.1354990005493164,STABILIZE
0.035,0.005,0.05,-0.026568850359095595,-0.005768467354936773,-0.00013284425179547799,-0.047377978012997035,-0.05327928961972929,0.04,0.006,0.05,-0.024850674596999744,-0.006155923139793538,-0.00014910404758199848,-0.04421087512002061,-0.050515902307396145,0.002,8e-05,0,-0.044235619951995125,-0.0006810883083835146,-3.5388495961596105e-06,-0.0,-0.0006846271579796742,0.1,0.02,0,-0.025158805473979483,-0.015822253584429145,-0.0005031761094795897,-0.0,-0.016325429693908735,-0.15389807849483844,0.0,0.15389807849483844,-0.1648133529981935,0.0,0.1648133529981935,-0.3405441541917573,0.0,0.3405441541917573,-0.15822253584429144,0,0.15822253584429144,-0.053418586167599896,0.05036857889764301,0.016325429693908735,0.4,0.03343939781188965,0.16894793510437012,STABILIZE
0.035,0.005,0.05,-0.03206941707166267,-0.005751084097314521,-0.00016034708535831336,-0.004187078587264104,-0.01009850976993694,0.04,0.006,0.05,-0.0297740044955929,-0.005882923033770311,-0.0001786440269735574,-0.0013109071960581088,-0.007372474256801978,0.002,8e-05,0,-0.05616575652269145,-0.0007127703878611724,-4.493260521815317e-06,-0.0,-0.0007172636483829877,0.1,0.02,0,-0.030509019844444037,-0.015982526056505394,-0.0006101803968888808,-0.0,-0.016592706453394276,-0.14707307584425777,0.0,0.14707307584425777,-0.16431668849470057,0.0,0.16431668849470057,-0.35638519393058615,0.0,0.35638519393058615,-0.15982526056505394,0,0.15982526056505394,-0.010119035801675063,0.0073442760490832594,0.016592706453394276,0.4,0.033475399017333984,0.20244407653808594,STABILIZE
0.035,0.005,0.05,-0.03804443253632841,-0.006259892193996772,-0.00019022216268164204,-0.008335448736977238,-0.014785563093655653,0.04,0.006,0.05,-0.03501298835390108,-0.006272877805548792,-0.00021007793012340646,-0.0042489289543247944,-0.010731884689996994,0.002,8e-05,0,-0.07026197001092005,-0.0008439024353201708,-5.620957600873605e-06,-0.0,-0.0008495233929210444,0.1,0.02,0,-0.03690916978083625,-0.01915798920839966,-0.000738183395616725,-0.0,-0.019896172604016382,-0.1568219451387198,0.0,0.1568219451387198,-0.17885406268562204,0.0,0.17885406268562204,-0.42195121766008536,0.0,0.42195121766008536,-0.1915798920839966,0,0.1915798920839966,-0.014821364574874272,0.010682386303374633,0.019896172604016382,0.4,0.03340721130371094,0.23584342002868652,STABILIZE
0.035,0.005,0.05,-0.0439957175123379,-0.006222861684264124,-0.0002199785875616895,-0.005396385835499795,-0.011839226107325608,0.04,0.006,0.05,-0.04013947225468746,-0.006126196826361218,-0.00024083683352812477,-0.001879722702223962,-0.008246756362113304,0.002,8e-05,0,-0.08520167242480316,-0.0008926542956730285,-6.816133793984253e-06,-0.0,-0.0008994704294670127,0.1,0.02,0,-0.04391254221045077,-0.020922740996781847,-0.0008782508442090153,-0.0,-0.021800991840990862,-0.15315492065903044,0.0,0.15315492065903044,-0.1777960481218321,0.0,0.1777960481218321,-0.4463271478365142,0.0,0.4463271478365142,-0.20922740996781847,0,0.20922740996781847,-0.011869261842144721,0.008203468086062371,0.021800991840990862,0.4,0.033472537994384766,0.2693650722503662,STABILIZE
0.035,0.005,0.05,-0.049778225842048544,-0.006054749811746465,-0.0002488911292102427,-0.0033284379290778976,-0.009632078870034606,0.04,0.006,0.05,-0.0453011871486664,-0.006176833502617816,-0.0002718071228919984,-0.0011453467027355477,-0.007593987328245362,0.002,8e-05,0,-0.10125350365248277,-0.0009604316679826178,-8.100280292198623e-06,-0.0,-0.0009685319482748164,0.1,0.02,0,-0.05072404364437062,-0.020377680249854337,-0.0010144808728874124,-0.0,-0.02139216112274175,-0.1544208375654454,0.0,0.1544208375654454,-0.1729928517641847,0.0,0.1729928517641847,-0.48021583399130885,0.0,0.48021583399130885,-0.20377680249854335,0,0.20377680249854335,-0.009659026488110352,0.007559682149541796,0.02139216112274175,0.4,0.03342628479003906,0.3027498722076416,STABILIZE
0.035,0.005,0.05,-0.05567727508415322,-0.006175588182963916,-0.0002783863754207661,-0.0034828428005419763,-0.009936817358926658,0.04,0.006,0.05,-0.050301103776015176,-0.005982063457039082,-0.0003018066226560911,0.001293864359201785,-0.004990005720493388,0.002,8e-05,0,-0.11815278858517275,-0.0010109428054557446,-9.452223086813822e-06,-0.0,-0.0010203950285425584,0.1,0.02,0,-0.05775029837245131,-0.02101610125796584,-0.0011550059674490262,-0.0,-0.022171107225414866,-0.14955158642597705,0.0,0.14955158642597705,-0.17644537665611187,0.0,0.17644537665611187,-0.5054714027278723,0.0,0.5054714027278723,-0.21016101257965839,0,0.21016101257965839,-0.00995505382092673,0.004953523971646349,0.022171107225414866,0.4,0.033432722091674805,0.3361821174621582,STABILIZE
0.035,0.005,0.05,-0.061806490434271964,-0.006293129217253518,-0.0003090324521713598,-0.004616388911053977,-0.011218550580478855,0.04,0.006,0.05,-0.055218426308589176,-0.005770087655403388,-0.00033131055785153506,0.0008096577720439961,-0.005291740441210927,0.002,8e-05,0,-0.13621670638696384,-0.0010598286814204184,-1.0897336510957108e-05,-0.0,-0.0010707260179313755,0.1,0.02,0,-0.06512229460172936,-0.021626130966830897,-0.0013024458920345872,-0.0,-0.022928576858865485,-0.1442521913850847,0.0,0.1442521913850847,-0.17980369192152906,0.0,0.17980369192152906,-0.5299143407102092,0.0,0.5299143407102092,-0.21626130966830895,0,0.21626130966830895,-0.01123844414542161,0.005249358743136953,0.022928576858865485,0.4,0.0340883731842041,0.3702669143676758,STABILIZE
0.035,0.005,0.05,-0.06789187629761226,-0.006369706087682594,-0.0003394593814880613,-0.0009191451234540748,-0.00762831059262473,0.04,0.006,0.05,-0.06085361264986583,-0.006741111349028014,-0.000365121675899195,-0.003532089683029414,-0.010638322707956623,0.002,8e-05,0,-0.15698462418012418,-0.001242184710962347,-1.2558769934409936e-05,-0.0,-0.001254743480896757,0.1,0.02,0,-0.07237205977011285,-0.021681392279969458,-0.0014474411954022571,-0.0,-0.023128833475371716,-0.16852778372570035,0.0,0.16852778372570035,-0.18199160250521695,0.0,0.18199160250521695,-0.6210923554811735,0.0,0.6210923554811735,-0.21681392279969455,0,0.21681392279969455,-0.007668512535528243,0.010609380190596545,0.023128833475371716,0.4,0.03343772888183594,0.403705358505249,STABILIZE
0.035,0.005,0.05,-0.07376662752359227,-0.00614795896557989,-0.00036883313761796135,0.0006591343066820781,-0.005857657796515773,0.04,0.006,0.05,-0.06581111228058308,-0.005929200234141269,-0.0003948666736834985,0.0014414450521297029,-0.0048826218556950645,0.002,8e-05,0,-0.17828855954717093,-0.0012739819261282422,-1.4263084763773676e-05,-0.0,-0.001288245010892016,0.1,0.02,0,-0.08000666247527657,-0.022827580191106894,-0.0016001332495055316,-0.0,-0.024427713440612425,-0.14823000585353172,0.0,0.14823000585353172,-0.1756559704451397,0.0,0.1756559704451397,-0.6369909630641211,0.0,0.6369909630641211,-0.22827580191106892,0,0.22827580191106892,-0.005877064422067018,0.0048592452938359875,0.024427713440612425,0.4,0.03344464302062988,0.43715429306030273,STABILIZE
0.035,0.005,0.05,-0.07928787039777678,-0.005777886994052793,-0.0003964393519888839,0.002383603133482614,-0.003790723212559062,0.04,0.006,0.05,-0.0695936613180353,-0.004523855305954375,-0.00041756196790821175,0.01232494707936619,0.007383529805503604,0.002,8e-05,0,-0.20004909537340276,-0.0013012589457956582,-1.600392762987222e-05,-0.0,-0.0013172628734255303,0.1,0.02,0,-0.08795672752536611,-0.02377030912450151,-0.0017591345505073223,-0.0,-0.025529443675008832,-0.11309638264885938,0.0,0.11309638264885938,-0.1650824855443655,0.0,0.1650824855443655,-0.650629472897829,0.0,0.650629472897829,-0.2377030912450151,0,0.2377030912450151,-0.003760058616232601,-0.007399192798237465,0.025529443675008832,0.4,0.03344535827636719,0.47060537338256836,STABILIZE
0.035,0.005,0.05,-0.08496626342605829,-0.0059411137612217476,-0.00042483131713029145,0.002022169359249449,-0.004343775719102589,0.04,0.006,0.05,-0.07386734909888827,-0.005110191293212201,-0.00044320409459332964,0.0064866297442474595,0.0009332343564419287,0.002,8e-05,0,-0.2222865581013903,-0.0013295038646109526,-1.7782924648111225e-05,-0.0,-0.0013472867892590638,0.1,0.02,0,-0.09503945962226897,-0.021172648629074413,-0.0019007891924453792,-0.0,-0.023073437821519792,-0.12775478233030502,0.0,0.12775478233030502,-0.16974610746347849,0.0,0.16974610746347849,-0.6647519323054762,0.0,0.6647519323054762,-0.21172648629074411,0,0.21172648629074411,-0.0043402974653460194,-0.0009492796080290127,0.023073437821519792,0.4,0.03345227241516113,0.5040602684020996,STABILIZE
0.035,0.005,0.05,-0.09058537790556029,-0.005881314181383767,-0.00045292688952780144,0.0035182868547751767,-0.0028159542161363916,0.04,0.006,0.05,-0.07872267677109197,-0.005807871399964255,-0.00047233606062655186,-0.0002839417392292748,-0.006564149199820082,0.002,8e-05,0,-0.24469086042770039,-0.0013399848115510447,-1.9575268834216032e-05,-0.0,-0.0013595600803852606,0.1,0.02,0,-0.1015098317789914,-0.01934940952146752,-0.002030196635579828,0.0,-0.02137960615704735,-0.14519678499910638,0.0,0.14519678499910638,-0.1680375480395362,0.0,0.1680375480395362,-0.6699924057755223,0.0,0.6699924057755223,-0.1934940952146752,0,0.1934940952146752,-0.002838105963858479,0.006554602001859906,0.02137960615704735,0.4,0.03343963623046875,0.5375745296478271,STABILIZE
0.035,0.005,0.05,-0.09616153748436501,-0.005787580387948524,-0.00048080768742182506,0.004966796262866047,-0.0013015918125043012,0.04,0.006,0.05,-0.08417584157727823,-0.0064684825744838696,-0.0005050550494636694,0.002078439281947605,-0.004895098341999934,0.002,8e-05,0,-0.2672372968008389,-0.0013372164236711535,-2.1378983744067114e-05,-0.0,-0.0013585954074152207,0.1,0.02,0,-0.10738555858798832,-0.017424302137956583,-0.002147711171759766,0.0,-0.01957201330971635,-0.16171206436209673,0.0,0.16171206436209673,-0.1653594396556721,0.0,0.1653594396556721,-0.6686082118355767,0.0,0.6686082118355767,-0.17424302137956582,0,0.17424302137956582,-0.001316472324920508,0.004891117422629222,0.01957201330971635,0.4,0.0337214469909668,0.5712153911590576,STABILIZE
0.035,0.005,0.05,-0.10143570025791014,-0.005517001479421972,-0.0005071785012895507,0.005382940192275658,-0.0006412397884358653,0.04,0.006,0.05,-0.0885211682277386,-0.005194741576135661,-0.0005311270093664316,0.00552642914739861,-0.00019943943810348235,0.002,8e-05,0,-0.2902007487320065,-0.0013726148581464021,-2.3216059898560524e-05,-0.0,-0.0013958309180449626,0.1,0.02,0,-0.11253254137804411,-0.015382759250288362,-0.002250650827560882,0.0,-0.017633410077849243,-0.12986853940339152,0.0,0.12986853940339152,-0.15762861369777062,0.0,0.15762861369777062,-0.6863074290732011,0.0,0.6863074290732011,-0.1538275925028836,0,0.1538275925028836,-0.00064177293131933,0.0001977171220964449,0.017633410077849243,0.4,0.03345942497253418,0.6046802997589111,STABILIZE
0.035,0.005,0.05,-0.10645972427097682,-0.005206632737226137,-0.000532298621354884,0.004847231683401037,-0.0008916996751799841,0.04,0.006,0.05,-0.09395182720053148,-0.006432054514506271,-0.0005637109632031889,-0.014137537315484153,-0.021133302793193615,0.002,8e-05,0,-0.3139305086978664,-0.0014052724584735232,-2.5114440695829313e-05,-0.0,-0.0014303868991693525,0.1,0.02,0,-0.11795731103290595,-0.016062698064598906,-0.0023591462206581193,0.0,-0.018421844285257026,-0.16080136286265678,0.0,0.16080136286265678,-0.1487609353493182,0.0,0.1487609353493182,-0.7026362292367616,0.0,0.7026362292367616,-0.16062698064598907,0,0.16062698064598907,-0.0009509426670587134,0.021130719895533334,0.018421844285257026,0.4,0.03377246856689453,0.6385097503662109,STABILIZE
0.035,0.005,0.05,-0.11102283110994003,-0.004774737368299267,-0.0005551141555497002,0.009930536264246045,0.004600684740397078,0.04,0.006,0.05,-0.0990259224795573,-0.006067913987825309,-0.0005941555348773438,-0.007034018043019824,-0.013696087565722477,0.002,8e-05,0,-0.33804647046173114,-0.0014419672244005452,-2.7043717636938493e-05,-0.0,-0.0014690109420374836,0.1,0.02,0,-0.12202056544150189,-0.012147721370116733,-0.002440411308830038,0.0,-0.01458813267894677,-0.1516978496956327,0.0,0.1516978496956327,-0.13642106766569334,0.0,0.13642106766569334,-0.7209836122002726,0.0,0.7209836122002726,-0.12147721370116732,0,0.12147721370116732,0.004571636287192348,0.013705811042987808,0.01458813267894677,0.4,0.03344869613647461,0.6719143390655518,STABILIZE
0.035,0.005,0.05,-0.11613649486551629,-0.005348617134514639,-0.0005806824743275815,0.004519619444553049,-0.0014096801642891716,0.04,0.006,0.05,-0.10354816186278148,-0.005405736073305612,-0.0006212889711766889,0.003129109075293423,-0.0028979159691888776,0.002,8e-05,0,-0.3621649091085264,-0.0014415193754276077,-2.8973192728682113e-05,-0.0,-0.0014704925681562897,0.1,0.02,0,-0.12626756926391272,-0.012691821363680642,-0.0025253513852782545,0.0,-0.015217172748958896,-0.1351434018326403,0.0,0.1351434018326403,-0.15281763241470395,0.0,0.15281763241470395,-0.7207596877138038,0.0,0.7207596877138038,-0.12691821363680642,0,0.12691821363680642,-0.0014160959921312145,0.0028947862220102144,0.015217172748958896,0.4,0.0334625244140625,0.705437183380127,STABILIZE
0.035,0.005,0.05,-0.1217989166406906,-0.0059312940829244236,-0.000608994583203453,-0.001256970628628364,-0.007797259294756241,0.04,0.006,0.05,-0.10750293921536863,-0.004734359444883396,-0.0006450176352922117,0.013049925906040385,0.007670548825864778,0.002,8e-05,0,-0.3862123212856774,-0.0014393868834540146,-3.0896985702854195e-05,-0.0,-0.0014702838691568688,0.1,0.02,0,-0.1307012005461774,-0.013269017611439372,-0.002614024010923548,0.0,-0.01588304162236292,-0.1183589861220849,0.0,0.1183589861220849,-0.16946554522641208,0.0,0.16946554522641208,-0.7196934417270072,0.0,0.7196934417270072,-0.1326901761143937,0,0.1326901761143937,-0.007779474326985405,-0.007688585760425198,0.01588304162236292,0.4,0.03341341018676758,0.738792896270752,STABILIZE
0.035,0.005,0.05,-0.12750218472053967,-0.005907187487835678,-0.0006375109236026984,-0.003363653672074916,-0.009908352083513292,0.04,0.006,0.05,-0.11192557697926384,-0.005235163938858762,-0.000671553461875583,-0.0001722071992047902,-0.006078924599939135,0.002,8e-05,0,-0.4111739279564247,-0.0014773774167701535,-3.289391423651398e-05,-0.0,-0.0015102713310066675,0.1,0.02,0,-0.13427422375248038,-0.01057364588789444,-0.002685484475049608,0.0,-0.013259130362944047,-0.13087909847146903,0.0,0.13087909847146903,-0.16877678536673363,0.0,0.16877678536673363,-0.7386887083850767,0.0,0.7386887083850767,-0.1057364588789444,0,0.1057364588789444,-0.009919553552228252,0.006060628896994373,0.013259130362944047,0.4,0.03379178047180176,0.772585391998291,STABILIZE
0.035,0.005,0.05,-0.1328354987018996,-0.005363589632152637,-0.000664177493509498,-0.0015266418090980444,-0.007554408934760179,0.04,0.006,0.05,-0.11691658221350036,-0.005736385941955766,-0.0007014994932810022,0.005386495572398194,-0.0010513898628385747,0.002,8e-05,0,-0.4375409769434727,-0.0015152415399469956,-3.500327815547782e-05,-0.0,-0.0015502448181024735,0.1,0.02,0,-0.1367895118218707,-0.007227333194445603,-0.0027357902364374144,0.0,-0.009963123430883018,-0.14340964854889415,0.0,0.14340964854889415,-0.1532454180615039,0.0,0.1532454180615039,-0.7576207699734978,0.0,0.7576207699734978,-0.07227333194445602,0,0.07227333194445602,-0.0075557291554811815,0.0010418598400340523,0.009963123430883018,0.4,0.03480243682861328,0.8074004650115967,STABILIZE
0.035,0.005,0.05,-0.13798183111191278,-0.005380754897921584,-0.000689909155559564,-0.005362341733519201,-0.01143300578700035,0.04,0.006,0.05,-0.1207086877091947,-0.0045312469638582,-0.0007242521262551682,0.011665108803709466,0.006409609713596097,0.002,8e-05,0,-0.46318513164044783,-0.0015321303461008028,-3.705481053123583e-05,-0.0,-0.0015691851566320386,0.1,0.02,0,-0.13952317827911564,-0.008166253449868738,-0.002790463565582313,0.0,-0.010956717015451051,-0.113281174096455,0.0,0.113281174096455,-0.15373585422633096,0.0,0.15373585422633096,-0.7660651730504013,0.0,0.7660651730504013,-0.08166253449868738,0,0.08166253449868738,-0.011423858688268004,-0.0064258984334248995,0.010956717015451051,0.4,0.03347516059875488,0.8408825397491455,STABILIZE
0.035,0.005,0.05,-0.14236295533244278,-0.004588108258737483,-0.0007118147766622139,0.006313921061774062,0.0010139980263743648,0.04,0.006,0.05,-0.1252542044043425,-0.00544030557049615,-0.0007515252264260551,-8.209903549772524e-05,-0.00627392983241993,0.002,8e-05,0,-0.4888791369411163,-0.001537594618393968,-3.911033095528931e-05,-0.0,-0.0015767049493492574,0.1,0.02,0,-0.14266165345749787,-0.009390716799062088,-0.0028532330691499576,0.0,-0.012243949868212044,-0.13600763926240375,0.0,0.13600763926240375,-0.1310888073924995,0.0,0.1310888073924995,-0.768797309196984,0.0,0.768797309196984,-0.09390716799062086,0,0.09390716799062086,0.001003713765341448,0.00627558333678105,0.012243949868212044,0.4,0.03342103958129883,0.8742907047271729,STABILIZE
0.035,0.005,0.05,-0.1467927367094119,-0.004635558874847781,-0.0007339636835470595,0.010890979942093685,0.005521457383698844,0.04,0.006,0.05,-0.12918435860092167,-0.004700254189309911,-0.00077510615160553,0.0004262803095805512,-0.005049080031334889,0.002,8e-05,0,-0.5148292362904542,-0.0015517465356181062,-4.118633890323634e-05,-0.0,-0.0015929328745213425,0.1,0.02,0,-0.14504709148325848,-0.0071321406954462626,-0.0029009418296651697,0.0,-0.010033082525111432,-0.11750635473274776,0.0,0.11750635473274776,-0.13244453928136515,0.0,0.13244453928136515,-0.7758732678090531,0.0,0.7758732678090531,-0.07132140695446262,0,0.07132140695446262,0.005515168046153703,0.005055949191349963,0.010033082525111432,0.4,0.033446311950683594,0.9077322483062744,STABILIZE
0.035,0.005,0.05,-0.15127081510977022,-0.004686867875908339,-0.0007563540755488511,0.01024877753397631,0.00480555558251912,0.04,0.006,0.05,-0.13248826491414195,-0.003951943153168748,-0.0007949295894848518,0.00972564858627738,0.0049787758436237815,0.002,8e-05,0,-0.5409923843937745,-0.0015647428257655215,-4.3279390751501966e-05,-0.0,-0.0016080222165170235,0.1,0.02,0,-0.1466752539209375,-0.004868786209286123,-0.00293350507841875,0.0,-0.007802291287704873,-0.09879857882921869,0.0,0.09879857882921869,-0.13391051074023824,0.0,0.13391051074023824,-0.7823714128827608,0.0,0.7823714128827608,-0.04868786209286123,0,0.04868786209286123,0.004809784628951998,-0.0049746904608055234,0.007802291287704873,0.4,0.03344082832336426,0.9411864280700684,STABILIZE
0.035,0.005,0.05,-0.15540578499821633,-0.00433230245374922,-0.0007770289249910817,0.008818594641792521,0.003709263263052219,0.04,0.006,0.05,-0.13562819601460027,-0.003759745799670777,-0.0008137691760876016,0.014764483246239322,0.010190968270480945,0.002,8e-05,0,-0.5673709064608442,-0.0015792788817676825,-4.538967251686754e-05,-0.0,-0.00162466855428455,0.1,0.02,0,-0.14822497398964365,-0.004639077524768742,-0.002964499479792873,0.0,-0.007603577004561615,-0.09399364499176943,0.0,0.09399364499176943,-0.12378007010712057,0.0,0.12378007010712057,-0.7896394408838412,0.0,0.7896394408838412,-0.046390775247687414,0,0.046390775247687414,0.003717513385636827,-0.010187961644617102,0.007603577004561615,0.4,0.03340578079223633,0.9745779037475586,STABILIZE
0.035,0.005,0.05,-0.15971300035231029,-0.004506464048170614,-0.0007985650017615514,0.007477606741547918,0.0021725776916157527,0.04,0.006,0.05,-0.1375130718625795,-0.002253792975178562,-0.000825078431175477,0.017018643344232635,0.013939771937878596,0.002,8e-05,0,-0.5936692111938919,-0.0015722768831165418,-4.749353689551136e-05,-0.0,-0.0016197704200120531,0.1,0.02,0,-0.1497177453534682,-0.0044623597052062145,-0.0029943549070693644,0.0,-0.007456714612275579,-0.05634482437946405,0.0,0.05634482437946405,-0.12875611566201753,0.0,0.12875611566201753,-0.7861384415582708,0.0,0.7861384415582708,-0.04462359705206215,0,0.04462359705206215,0.0021834337259576085,-0.013938075644454111,0.007456714612275579,0.4,0.033452510833740234,1.0080454349517822,STABILIZE
0.035,0.005,0.05,-0.16327577636220678,-0.003728012590912312,-0.0008163788818110339,0.007350750527783176,0.0028063590550598304,0.04,0.006,0.05,-0.13910310665049344,-0.001901461009333732,-0.0008346186399029607,0.026452066629792777,0.023715986980556082,0.002,8e-05,0,-0.6199794300409026,-0.0015731685767159283,-4.9598354403272214e-05,-0.0,-0.0016227669311192005,0.1,0.02,0,-0.15221130082515805,-0.007454865987947142,-0.003044226016503161,0.0,-0.010499092004450303,-0.0475365252333433,0.0,0.0475365252333433,-0.10651464545463747,0.0,0.10651464545463747,-0.7865842883579641,0.0,0.7865842883579641,-0.07454865987947142,0,0.07454865987947142,0.0028372140056252514,-0.023712315498367213,0.010499092004450303,0.4,0.03344869613647461,1.0415294170379639,STABILIZE
0.035,0.005,0.05,-0.16663305292901914,-0.003512256356157271,-0.0008331652646450957,0.009598676236124627,0.005253254615322261,0.04,0.006,0.05,-0.14004204425751182,-0.0011226070596744987,-0.000840252265545071,0.026740484837851575,0.024777625512632004,0.002,8e-05,0,-0.6462530063035327,-0.0015706529366198612,-5.1700240504282616e-05,-0.0,-0.0016223531771241437,0.1,0.02,0,-0.15487973944836556,-0.007976057233007938,-0.003097594788967311,-0.0,-0.011073652021975248,-0.028065176491862465,0.0,0.028065176491862465,-0.10035018160449344,0.0,0.10035018160449344,-0.7853264683099306,0.0,0.7853264683099306,-0.07976057233007937,0,0.07976057233007937,0.00528774206495421,-0.02477028853187122,0.011073652021975248,0.4,0.033455610275268555,1.0749399662017822,STABILIZE
0.035,0.005,0.05,-0.16923748416845655,-0.0027249103612387252,-0.0008461874208422828,0.01676169116436872,0.01319059338228771,0.04,0.006,0.05,-0.1394838914317242,0.0006673972289394338,-0.0008369033485903452,0.03452339712917722,0.03435389100952631,0.002,8e-05,0,-0.6725335845003451,-0.001571217080082716,-5.380268676002761e-05,-0.0,-0.0016250197668427437,0.1,0.02,0,-0.15824940120610123,-0.010072971127587335,-0.0031649880241220248,-0.0,-0.01323795915170936,0.016684930723485845,0.0,-0.016684930723485845,-0.07785458174967785,0.0,0.07785458174967785,-0.785608540041358,0.0,0.785608540041358,-0.10072971127587334,0,0.10072971127587334,0.013250969343878956,-0.034330648009014406,0.01323795915170936,0.4,0.033452510833740234,1.1084015369415283,STABILIZE
0.035,0.005,0.05,-0.17259247884539472,-0.003479641136702301,-0.0008629623942269737,0.0073391833176206945,0.0029965797866914196,0.04,0.006,0.05,-0.1364875853888391,0.003551572938321409,-0.0008189255123330346,0.05445168644958821,0.05718433387557659,0.002,8e-05,0,-0.6975533912445391,-0.0014828203007785645,-5.5804271299563133e-05,0.0,-0.0015386245720781276,0.1,0.02,0,-0.16615604969058959,-0.023429715112887668,-0.0033231209938117917,-0.0,-0.02675283610669946,0.08878932345803522,0.0,-0.08878932345803522,-0.0994183181914943,0.0,0.0994183181914943,-0.7414101503892823,0.0,0.7414101503892823,-0.23429715112887667,0,0.23429715112887667,0.0032303955018830742,-0.05717160200757748,0.02675283610669946,0.4,0.03374624252319336,1.1421844959259033,STABILIZE
0.035,0.005,0.05,-0.17650074878195224,-0.0040898798703996354,-0.0008825037439097612,0.003613655219887836,-0.001358728394421561,0.04,0.006,0.05,-0.13614107433709752,0.00041441459071412057,-0.0008168464460225852,0.019747734289147622,0.019345302433839157,0.002,8e-05,0,-0.723178920287232,-0.0015323599459072888,-5.7854313622978565e-05,0.0,-0.0015902142595302672,0.1,0.02,0,-0.16997986641418772,-0.011432863645410369,-0.0033995973282837546,-0.0,-0.014832460973694124,0.010360364767853014,0.0,-0.010360364767853014,-0.11685371058284671,0.0,0.11685371058284671,-0.7661799729536444,0.0,0.7661799729536444,-0.11432863645410368,0,0.11432863645410368,-0.0013201238831430657,-0.0193479751405584,0.014832460973694124,0.4,0.03344583511352539,1.1756196022033691,STABILIZE
0.035,0.005,0.05,-0.18155913713545993,-0.005270561268381053,-0.0009077956856772996,-0.013078261127618862,-0.019256618081677217,0.04,0.006,0.05,-0.14111747922718465,-0.005925873174613579,-0.0008467048753631079,-0.030072996294545663,-0.03684557434452235,0.002,8e-05,0,-0.750289551848737,-0.0016141588944779573,-6.0023164147898966e-05,-0.0,-0.0016741820586258563,0.1,0.02,0,-0.16576494193119679,0.012547767152413423,-0.003315298838623936,0.0,0.009232468313789488,-0.14814682936533946,0.0,0.14814682936533946,-0.1505874648108872,0.0,0.1505874648108872,-0.8070794472389786,0.0,0.8070794472389786,0.12547767152413422,0,-0.12547767152413422,-0.019175880215165517,0.036887657918264816,-0.009232468313789488,0.4,0.03359103202819824,1.2091999053955078,STABILIZE
0.035,0.005,0.05,-0.18758661501207424,-0.006307068847860009,-0.0009379330750603713,-0.023774613260444007,-0.031019615183364387,0.04,0.006,0.05,-0.14604067681021315,-0.005887503244006976,-0.000876244060861279,-0.03560626715706993,-0.04237001446193819,0.002,8e-05,0,-0.7769526155037642,-0.0015942776124330492,-6.215620924030114e-05,-0.0,-0.0016564338216733504,0.1,0.02,0,-0.16073383229428728,0.015041380022187904,-0.0032146766458857456,0.0,0.011826703376302159,-0.14718758110017438,0.0,0.14718758110017438,-0.18020196708171451,0.0,0.18020196708171451,-0.7971388062165246,0.0,0.7971388062165246,0.15041380022187903,0,-0.15041380022187903,-0.03090827797913999,0.04245130155829231,-0.011826703376302159,0.4,0.03344845771789551,1.2426674365997314,STABILIZE
0.035,0.005,0.05,-0.19413500592954433,-0.006854343574630622,-0.0009706750296477217,-0.035175531196004826,-0.04300054980028317,0.04,0.006,0.05,-0.15087959210980822,-0.005788569333395931,-0.0009052775526588494,-0.048243783742101067,-0.05493763062815585,0.002,8e-05,0,-0.8057313726929877,-0.0017213344417573006,-6.445850981543902e-05,-0.0,-0.0017857929515727397,0.1,0.02,0,-0.15337915141414762,0.0219951567468294,-0.0030675830282829524,0.0,0.018927573718546448,-0.14471423333489827,0.0,0.14471423333489827,-0.1958383878465892,0.0,0.1958383878465892,-0.8606672208786503,0.0,0.8606672208786503,0.21995156746829397,0,-0.21995156746829397,-0.04278933455016437,0.05510229932513189,-0.018927573718546448,0.4,0.03343772888183594,1.2760889530181885,STABILIZE
0.035,0.005,0.05,-0.19895015870436525,-0.0048903275752814794,-0.0009947507935218263,-0.012502474939844022,-0.018387553308647327,0.04,0.006,0.05,-0.15721857035398987,-0.0073576493816371715,-0.0009433114221239393,-0.08099311801089672,-0.08929407881465783,0.002,8e-05,0,-0.836180141247864,-0.0017670936426941548,-6.689441129982913e-05,-0.0,-0.001833988053993984,0.1,0.02,0,-0.14754629496566926,0.016925485065639942,-0.002950925899313385,0.0,0.013974559166326558,-0.18394123454092928,0.0,0.18394123454092928,-0.13972364500804227,0.0,0.13972364500804227,-0.8835468213470774,0.0,0.8835468213470774,0.16925485065639942,0,-0.16925485065639942,-0.018123693895324384,0.08934800695944622,-0.013974559166326558,0.4,0.03446197509765625,1.3105394840240479,STABILIZE
0.035,0.005,0.05,-0.20315411028336286,-0.003756217520044916,-0.0010157705514168144,0.000982579313048646,-0.0037894087584130843,0.04,0.006,0.05,-0.16503147249501193,-0.00797806114503373,-0.0009901888349700715,-0.06150311644075133,-0.07047136642075513,0.002,8e-05,0,-0.8717223266563071,-0.0018146760531393919,-6.973778613250458e-05,-0.0,-0.0018844138392718965,0.1,0.02,0,-0.1409223600679987,0.016909900021935174,-0.002818447201359974,0.0,0.0140914528205752,-0.19945152862584326,0.0,0.19945152862584326,-0.10732050057271188,0.0,0.10732050057271188,-0.9073380265696959,0.0,0.9073380265696959,0.16909900021935173,0,-0.16909900021935173,-0.0035814079947890333,0.07048224330085935,-0.0140914528205752,0.4,0.03917193412780762,1.349710464477539,STABILIZE
0.035,0.005,0.05,-0.20661337671396943,-0.003617639491241685,-0.001033066883569847,0.012208107867235474,0.007557401492423942,0.04,0.006,0.05,-0.17049963193112777,-0.006535433341085516,-0.0010229977915867667,-0.0035395148221064247,-0.011097945954778707,0.002,8e-05,0,-0.9021979850102285,-0.001821194462457237,-7.217583880081829e-05,-0.0,-0.0018933703012580553,0.1,0.02,0,-0.1375344722699481,0.010122837094415464,-0.0027506894453989622,-0.0,0.007372147649016502,-0.1633858335271379,0.0,0.1633858335271379,-0.10336112832119099,0.0,0.10336112832119099,-0.9105972312286185,0.0,0.9105972312286185,0.10122837094415463,0,-0.10122837094415463,0.007576997187001784,0.011084576462862608,-0.007372147649016502,0.4,0.033467769622802734,1.3832428455352783,STABILIZE
0.035,0.005,0.05,-0.20948075656876042,-0.0028903299193629617,-0.001047403782843802,0.027046621589325914,0.02310888788711915,0.04,0.006,0.05,-0.17622360427097097,-0.006594041289770637,-0.001057341625625826,-0.0042482776669494305,-0.011899660582345893,0.002,8e-05,0,-0.9328868217892158,-0.0017676837416479999,-7.463094574313727e-05,-0.0,-0.0018423146873911371,0.1,0.02,0,-0.1359647268418023,0.004520884078864049,-0.0027192945368360462,-0.0,0.001801589542028003,-0.16485103224426592,0.0,0.16485103224426592,-0.08258085483894176,0.0,0.08258085483894176,-0.8838418708239999,0.0,0.8838418708239999,0.045208840788640486,0,-0.045208840788640486,0.023118270037820784,0.011881422970876705,-0.001801589542028003,0.4,0.034722089767456055,1.4179160594940186,STABILIZE
0.035,0.005,0.05,-0.21156641546755364,-0.0021829178751214973,-0.0010578320773377682,0.037766986108676175,0.03452623615621691,0.04,0.006,0.05,-0.18174326134881122,-0.006602344149497683,-0.0010904595680928672,-0.005050037113311548,-0.012742840830902099,0.002,8e-05,0,-0.9613826715177413,-0.0017042671681128394,-7.691061372141931e-05,0.0,-0.0017811777818342587,0.1,0.02,0,-0.13631306957192516,-0.001041676391220038,-0.0027262613914385034,-0.0,-0.003767937782658541,-0.16505860373744208,0.0,0.16505860373744208,-0.06236908214632849,0.0,0.06236908214632849,-0.8521335840564197,0.0,0.8521335840564197,-0.01041676391220038,0,0.01041676391220038,0.03452391885015237,0.012749117725735332,0.003767937782658541,0.4,0.033440589904785156,1.4513828754425049,STABILIZE
0.035,0.005,0.05,-0.21326500575604343,-0.0017767353178481924,-0.0010663250287802173,0.024952217458014833,0.022109157111386425,0.04,0.006,0.05,-0.18580207525088438,-0.004852049075050185,-0.0011148124515053062,0.019409931155077706,0.013443069628522215,0.002,8e-05,0,-0.9895326178503264,-0.0016825718591824002,-7.916260942802612e-05,0.0,-0.0017617344686104263,0.1,0.02,0,-0.13817940268509235,-0.005577700822186631,-0.002763588053701847,-0.0,-0.008341288875888479,-0.12130122687625461,0.0,0.12130122687625461,-0.05076386622423407,0.0,0.05076386622423407,-0.8412859295912001,0.0,0.8412859295912001,-0.055777008221866306,0,0.055777008221866306,0.022122233359692885,-0.013421540164696325,0.008341288875888479,0.4,0.03346061706542969,1.4848239421844482,STABILIZE
0.035,0.005,0.05,-0.21421084979864607,-0.0009892314928132667,-0.0010710542489932304,0.02340368011270334,0.021343394370896843,0.04,0.006,0.05,-0.18987961752696134,-0.004873812535791365,-0.0011392777051617681,0.023206889534362892,0.017193799293409757,0.002,8e-05,0,-1.0186195681010177,-0.0017383552782701238,-8.148956544808143e-05,0.0,-0.0018198448437182053,0.1,0.02,0,-0.14105422775610524,-0.008590566032579811,-0.0028210845551221047,-0.0,-0.011411650587701916,-0.12184531339478413,0.0,0.12184531339478413,-0.028263756937521905,0.0,0.028263756937521905,-0.8691776391350619,0.0,0.8691776391350619,-0.0859056603257981,0,0.0859056603257981,0.02136914966405415,-0.017161779046734736,0.011411650587701916,0.4,0.033464908599853516,1.5182921886444092,STABILIZE
0.035,0.005,0.05,-0.2151626372209677,-0.0009952844160043182,-0.0010758131861048385,0.022168969999132752,0.020097872397023597,0.04,0.006,0.05,-0.19374176176763694,-0.004615594839118895,-0.0011624505706058217,0.014359344915183925,0.008581299505459208,0.002,8e-05,0,-1.047722995926389,-0.001739055080552274,-8.381783967411113e-05,0.0,-0.0018228729202263852,0.1,0.02,0,-0.14317920461129216,-0.00634882567483556,-0.0028635840922258435,-0.0,-0.009212409767061404,-0.11538987097797236,0.0,0.11538987097797236,-0.028436697600123375,0.0,0.028436697600123375,-0.869527540276137,0.0,0.869527540276137,-0.06348825674835559,0,0.06348825674835559,0.020107368815375292,-0.008559024209097132,0.009212409767061404,0.4,0.03347039222717285,1.5517992973327637,STABILIZE
0.035,0.005,0.05,-0.21569052214884604,-0.0005519386712455825,-0.0010784526107442303,0.019968288434745903,0.01833789715275609,0.04,0.006,0.05,-0.1966865460231358,-0.003518819507268603,-0.0011801192761388148,0.02297240436176619,0.01827346557835877,0.002,8e-05,0,-1.076747967247088,-0.0017341446167146574,-8.613983737976706e-05,0.0,-0.0018202844540944245,0.1,0.02,0,-0.1459951161712616,-0.008412063217756059,-0.002919902323425232,-0.0,-0.01133196554118129,-0.08797048768171507,0.0,0.08797048768171507,-0.015769676321302356,0.0,0.015769676321302356,-0.8670723083573286,0.0,0.8670723083573286,-0.08412063217756059,0,0.08412063217756059,0.018364706152163447,-0.018246522522749716,0.01133196554118129,0.4,0.03347468376159668,1.585219144821167,STABILIZE
0.035,0.005,0.05,-0.21611171864322035,-0.0004406618984285732,-0.0010805585932161018,0.014874566928804398,0.013353346437159724,0.04,0.006,0.05,-0.19875683281642995,-0.0024753876046240794,-0.0011925409968985797,0.030832002028495915,0.027164073426973256,0.002,8e-05,0,-1.1057055547261552,-0.0017311913822201483,-8.845644437809242e-05,-0.0,-0.0018196478265982408,0.1,0.02,0,-0.1495501442126821,-0.010626634406797612,-0.002991002884253642,-0.0,-0.013617637291051254,-0.061884690115601985,0.0,0.061884690115601985,-0.01259033995510209,0.0,0.01259033995510209,-0.8655956911100742,0.0,0.8655956911100742,-0.10626634406797611,0,0.10626634406797611,0.013403704582639186,-0.02713926030086557,0.013617637291051254,0.4,0.033453941345214844,1.6186885833740234,STABILIZE
0.035,0.005,0.05,-0.21685907069515098,-0.0007820968179751119,-0.0010842953534757548,0.008489442731457087,0.00662305056000622,0.04,0.006,0.05,-0.20140870427067423,-0.0031716094491756087,-0.0012084522256240453,0.012550513695740307,0.008170452020940654,0.002,8e-05,0,-1.1346433905021953,-0.001730466860282554,-9.077147124017563e-05,-0.0,-0.0018212383315227296,0.1,0.02,0,-0.1524127659065861,-0.00855916111551149,-0.003048255318131722,-0.0,-0.011607416433643212,-0.07929023622939022,0.0,0.07929023622939022,-0.022345623370717483,0.0,0.022345623370717483,-0.865233430141277,0.0,0.865233430141277,-0.0855916111551149,0,0.0855916111551149,0.0066352486395452135,-0.008160549027994703,0.011607416433643212,0.4,0.033445119857788086,1.6521341800689697,STABILIZE
0.035,0.005,0.05,-0.21681656085775644,4.446205219488097e-05,-0.0010840828042887822,0.008823236036431826,0.007783615284337925,0.04,0.006,0.05,-0.204186708367201,-0.003320663658317447,-0.001225120250203206,0.011599531102428173,0.00705374719390752,0.002,8e-05,0,-1.1637147605871867,-0.0017375107952400692,-9.309718084697495e-05,0.0,-0.001830607976087044,0.1,0.02,0,-0.15594488798056025,-0.010555230482247263,-0.003118897759611205,-0.0,-0.013674128241858468,-0.08301659145793618,0.0,0.08301659145793618,0.0012703443484251703,0.0,-0.0012703443484251703,-0.8687553976200345,0.0,0.8687553976200345,-0.10555230482247263,0,0.10555230482247263,0.007796596730595902,-0.0070393959819432285,0.013674128241858468,0.4,0.033463239669799805,1.6855976581573486,STABILIZE
0.035,0.005,0.05,-0.21689057125592134,-7.746940245897718e-05,-0.0010844528562796068,0.007833027147643676,0.0066711048889050925,0.04,0.006,0.05,-0.20588060217949597,-0.0020263552878468116,-0.001235283613076976,0.019347972441185315,0.016086333540261528,0.002,8e-05,0,-1.19278367144528,-0.0017387141036142829,-9.54226937156224e-05,0.0,-0.0018341367973299053,0.1,0.02,0,-0.16031460057512467,-0.013068396256743144,-0.0032062920115024933,-0.0,-0.016274688268245636,-0.05065888219617029,0.0,0.05065888219617029,-0.0022134114988279193,0.0,0.0022134114988279193,-0.8693570518071414,0.0,0.8693570518071414,-0.13068396256743142,0,0.13068396256743142,0.0067077782664068395,-0.01607107581763077,0.016274688268245636,0.4,0.033437252044677734,1.7190358638763428,STABILIZE
0.035,0.005,0.05,-0.21772630915120156,-0.0008739749668708084,-0.0010886315457560077,-0.0027506056157458932,-0.00471321212837271,0.04,0.006,0.05,-0.20780451049171877,-0.002299350704409325,-0.0012468270629503128,0.00911770875832513,0.005571530990965493,0.002,8e-05,0,-1.2218432303501436,-0.0017365203116286741,-9.77474584280115e-05,-0.0,-0.0018342677700566856,0.1,0.02,0,-0.1635006139929346,-0.009519375416642134,-0.0032700122798586923,-0.0,-0.012789387696500827,-0.057483767610233126,0.0,0.057483767610233126,-0.02497071333916595,0.0,0.02497071333916595,-0.868260155814337,0.0,0.868260155814337,-0.09519375416642134,0,0.09519375416642134,-0.004703948838289663,-0.005579354037617784,0.012789387696500827,0.4,0.03346872329711914,1.7525477409362793,STABILIZE
0.035,0.005,0.05,-0.21796801147278627,-0.00025302576105228265,-0.0010898400573639314,0.00160548002092001,0.00026261420250379584,0.04,0.006,0.05,-0.21002011020218803,-0.0026507402009598425,-0.001260120661213128,-0.0013073288851122246,-0.005218189747285195,0.002,8e-05,0,-1.2509653502342468,-0.0017420830475197895,-0.00010007722801873975,-0.0,-0.0018421602755385293,0.1,0.02,0,-0.16691030625842482,-0.010198376898057195,-0.0033382061251684965,0.0,-0.013536583023225692,-0.06626850502399606,0.0,0.06626850502399606,-0.007229307458636647,0.0,0.007229307458636647,-0.8710415237598947,0.0,0.8710415237598947,-0.10198376898057195,0,0.10198376898057195,0.0002533256612380669,0.005218648921645078,0.013536583023225692,0.4,0.03343367576599121,1.785984754562378,STABILIZE
0.035,0.005,0.05,-0.21844698634032428,-0.0005012283533891912,-0.0010922349317016213,0.002402003697427196,0.0008085404123363835,0.04,0.006,0.05,-0.21193685123331463,-0.002292336084577168,-0.0012716211073998877,0.006575852173580566,0.00301189498160351,0.002,8e-05,0,-1.279979793506384,-0.0017349984741429493,-0.00010239838348051072,-0.0,-0.00183739685762346,0.1,0.02,0,-0.17034276579598076,-0.010262668155235553,-0.0034068553159196154,-0.0,-0.013669523471155168,-0.057308402114429204,0.0,0.057308402114429204,-0.014320810096834034,0.0,0.014320810096834034,-0.8674992370714746,0.0,0.8674992370714746,-0.10262668155235552,0,0.10262668155235552,0.000813933938887125,-0.0030104419146891356,0.013669523471155168,0.4,0.03344607353210449,1.819396734237671,STABILIZE
0.035,0.005,0.05,-0.21910990198307473,-0.0006937645920581818,-0.0010955495099153737,-0.006300148025270483,-0.008089462127244039,0.04,0.006,0.05,-0.21328072903463222,-0.0016073319990525913,-0.0012796843742077933,0.012809997004813861,0.009922980631553478,0.002,8e-05,0,-1.3089341766855613,-0.0017315304468565774,-0.00010471473413484492,0.0,-0.0018362451809914222,0.1,0.02,0,-0.17381837471691203,-0.01039242077912192,-0.0034763674943382407,0.0,-0.01386878827346016,-0.040183299976314785,0.0,0.040183299976314785,-0.019821845487376623,0.0,0.019821845487376623,-0.8657652234282887,0.0,0.8657652234282887,-0.10392420779121918,0,0.10392420779121918,-0.008071450333443074,-0.009937637125447015,0.01386878827346016,0.4,0.03344368934631348,1.8528470993041992,STABILIZE
0.035,0.005,0.05,-0.21940094684396624,-0.00030284641230214084,-0.0010970047342198311,-0.0019377021653014016,-0.0033375533118233736,0.04,0.006,0.05,-0.21464435565491397,-0.001621623075688765,-0.0012878661339294837,0.0030266349996643394,0.00011714579004609097,0.002,8e-05,0,-1.337482841252871,-0.0016975018144219564,-0.00010699862730022969,0.0,-0.001804500441722186,0.1,0.02,0,-0.1773948973047926,-0.010632990499317978,-0.003547897946095852,0.0,-0.01418088844541383,-0.04054057689221912,0.0,0.04054057689221912,-0.008652754637204023,0.0,0.008652754637204023,-0.8487509072109782,0.0,0.8487509072109782,-0.10632990499317976,0,0.10632990499317976,-0.0033373301646810365,-0.00012333943934823304,0.01418088844541383,0.4,0.03363609313964844,1.8864786624908447,STABILIZE
0.035,0.005,0.05,-0.21931749958158353,8.723410946555893e-05,-0.0010965874979079176,0.008190706684451314,0.007181353296008955,0.04,0.006,0.05,-0.21602081392536837,-0.0016444824193465781,-0.0012961248835522102,0.004895127336918629,0.001954520034019841,0.002,8e-05,0,-1.3653235616677415,-0.0016630934713728414,-0.00010922588493341933,0.0,-0.0017723193563062608,0.1,0.02,0,-0.18102984538635242,-0.010856864213887978,-0.0036205969077270483,-0.0,-0.014477461121615026,-0.041112060483664455,0.0,0.041112060483664455,0.002492403127587398,0.0,-0.002492403127587398,-0.8315467356864207,0.0,0.8315467356864207,-0.10856864213887976,0,0.10856864213887976,0.007185043982665474,-0.00194090872857182,0.014477461121615026,0.4,0.03348064422607422,1.919961929321289,STABILIZE
0.035,0.005,0.05,-0.2192896426923097,2.8183579306616862e-05,-0.0010964482134615484,0.002396560476777148,0.0013282958426222163,0.04,0.006,0.05,-0.21629532102431354,-0.0003174015597996106,-0.0012977719261458812,0.017112954193441686,0.015497780707496195,0.002,8e-05,0,-1.3927934329559406,-0.001588115576586728,-0.00011142347463647526,0.0,-0.0016995390512232033,0.1,0.02,0,-0.1850417228380402,-0.011596932882462236,-0.003700834456760804,-0.0,-0.01529776733922304,-0.007935038994990266,0.0,0.007935038994990266,0.000805245123046196,0.0,-0.000805245123046196,-0.7940577882933639,0.0,0.7940577882933639,-0.11596932882462235,0,0.11596932882462235,0.0013596613309952688,-0.015495060431252433,0.01529776733922304,0.4,0.03459429740905762,1.9545619487762451,STABILIZE
0.035,0.005,0.05,-0.21912861819349275,0.00016843016175740547,-0.0010956430909674637,0.005714363720706454,0.004787150791496396,0.04,0.006,0.05,-0.2171299027113245,-0.000997674122000446,-0.0013027794162679472,0.009351420469394118,0.007050966931125725,0.002,8e-05,0,-1.418785642334727,-0.0015535779825044018,-0.00011350285138677816,0.0,-0.00166708083389118,0.1,0.02,0,-0.1897681514856037,-0.0141251468386631,-0.003795363029712074,-0.0,-0.017920509868375175,-0.024941853050011148,0.0,0.024941853050011148,0.00481229033592587,0.0,-0.00481229033592587,-0.7767889912522009,0.0,0.7767889912522009,-0.141251468386631,0,0.141251468386631,0.004804518997729725,-0.007039143738041385,0.017920509868375175,0.4,0.03346109390258789,1.9880199432373047,STABILIZE
0.035,0.005,0.05,-0.2191813489016513,-5.508676011818769e-05,-0.0010959067445082565,0.005453074886109844,0.0043020813814834,0.04,0.006,0.05,-0.2181138115400203,-0.0011747093653190204,-0.0013086828692401218,0.0029098043864033965,0.00042641215184425433,0.002,8e-05,0,-1.4450837070386233,-0.001569890522193136,-0.00011560669656308987,0.0,-0.0016854972187562258,0.1,0.02,0,-0.19513948971898135,-0.01603238314115146,-0.003902789794379627,-0.0,-0.019935172935531088,-0.02936773413297551,0.0,0.02936773413297551,-0.0015739074319482196,0.0,0.0015739074319482196,-0.7849452610965679,0.0,0.7849452610965679,-0.1603238314115146,0,0.1603238314115146,0.004303257715122372,-0.00041437250558687134,0.019935172935531088,0.4,0.033503055572509766,2.0215399265289307,STABILIZE
0.035,0.005,0.05,-0.21913524834561823,3.59702734608058e-05,-0.0010956762417280912,0.002712490287311591,0.0016527843190443055,0.04,0.006,0.05,-0.21917653927198724,-0.0009476577891614583,-0.0013150592356319234,0.004281440857960182,0.0020187238331668004,0.002,8e-05,0,-1.4802368965823374,-0.0015673437740874833,-0.000118418951726587,0.0,-0.0016857627258140702,0.1,0.02,0,-0.20379267507097462,-0.019290591214498914,-0.004075853501419493,-0.0,-0.023366444715918408,-0.023691444729036455,0.0,0.023691444729036455,0.0010277220988801656,0.0,-0.0010277220988801656,-0.7836718870437416,0.0,0.7836718870437416,-0.19290591214498912,0,0.19290591214498912,0.0016595716653728043,-0.0020131477361003945,0.023366444715918408,0.4,0.044857025146484375,2.0664186477661133,STABILIZE
0.035,0.005,0.05,-0.21910293376010773,3.3787281052107524e-05,-0.0010955146688005387,-0.000634978313008861,-0.0016967057007572922,0.04,0.006,0.05,-0.21931088486462402,-0.0001605351082118091,-0.0013158653091877442,0.010330665751306242,0.008854265333906689,0.002,8e-05,0,-1.5061453512266167,-0.0015479542306850204,-0.00012049162809812934,0.0,-0.0016684458587831498,0.1,0.02,0,-0.20995723405971972,-0.018415716602847184,-0.0041991446811943944,-0.0,-0.02261486128404158,-0.004013377705295227,0.0,0.004013377705295227,0.0009653508872030721,0.0,-0.0009653508872030721,-0.7739771153425101,0.0,0.7739771153425101,-0.18415716602847185,0,0.18415716602847185,-0.001668238058561319,-0.008859673053683842,0.02261486128404158,0.4,0.03347444534301758,2.099858283996582,STABILIZE
0.035,0.005,0.05,-0.21934161330440102,-0.0002328776792006012,-0.0010967080665220052,-0.0022712214058719904,-0.003600807151594597,0.04,0.006,0.05,-0.2196669919598062,-0.00039708660589694167,-0.0013180019517588374,-0.0009082305623406817,-0.0026233191199964605,0.002,8e-05,0,-1.5340899549929041,-0.0015580183620060586,-0.00012272719639943233,0.0,-0.0016807455584054909,0.1,0.02,0,-0.21567673655159367,-0.01594420514673655,-0.004313534731031874,-0.0,-0.020257739877768424,-0.009927165147423542,0.0,0.009927165147423542,-0.006653647977160034,0.0,0.006653647977160034,-0.7790091810030293,0.0,0.7790091810030293,-0.15944205146736548,0,0.15944205146736548,-0.003608093342984586,0.0026132886898741423,0.020257739877768424,0.4,0.03587198257446289,2.1357624530792236,STABILIZE
0.035,0.005,0.05,-0.2193358001756007,6.0762369933290395e-06,-0.0010966790008780035,-0.0014298127017870247,-0.002520415465671699,0.04,0.006,0.05,-0.2199711598243309,-0.0003633540744631103,-0.0013198269589459854,0.004426185263922232,0.0027430042305131366,0.002,8e-05,0,-1.55999772491257,-0.0015474504144731634,-0.00012479981799300562,0.0,-0.001672250232466169,0.1,0.02,0,-0.2218872942319507,-0.018547582610116648,-0.004437745884639014,-0.0,-0.022985328494755663,-0.009083851861577757,0.0,0.009083851861577757,0.00017360677123797255,0.0,-0.00017360677123797255,-0.7737252072365817,0.0,0.7737252072365817,-0.18547582610116647,0,0.18547582610116647,-0.00251152272105449,-0.0027511488418181054,0.022985328494755663,0.4,0.033484458923339844,2.1692330837249756,STABILIZE
0.035,0.005,0.05,-0.21941685090711344,-8.482970503943966e-05,-0.0010970842545355672,-0.0003003479556037356,-0.0014822619151787424,0.04,0.006,0.05,-0.22000805851960983,-4.413610203923849e-05,-0.0013200483511176591,0.008133662189241504,0.006769477736084607,0.002,8e-05,0,-1.5857840371569643,-0.001542205354188425,-0.00012686272297255714,0.0,-0.0016690680771609821,0.1,0.02,0,-0.22732726700015138,-0.016267458196900925,-0.004546545340003027,0.0,-0.020814003536903953,-0.001103402550980962,0.0,0.001103402550980962,-0.0024237058582697044,0.0,0.0024237058582697044,-0.7711026770942124,0.0,0.7711026770942124,-0.16267458196900925,0,0.16267458196900925,-0.0014630360176643175,-0.006773658894242569,0.020814003536903953,0.4,0.03344082832336426,2.202662944793701,STABILIZE
0.035,0.005,0.05,-0.21971563201019528,-0.00030475290536894544,-0.0010985781600509764,-0.002711504891086163,-0.004114835956506085,0.04,0.006,0.05,-0.21982228888500605,0.00021655160265062875,-0.0013189337333100364,0.008767516362035226,0.007665134231375818,0.002,8e-05,0,-1.6124696387067152,-0.0015553698524572296,-0.00012899757109653722,0.0,-0.001684367423553767,0.1,0.02,0,-0.2326656489803035,-0.015557375345932573,-0.0046533129796060705,0.0,-0.020210688325538642,0.0054137900662657185,0.0,-0.0054137900662657185,-0.008707225867684154,0.0,0.008707225867684154,-0.7776849262286147,0.0,0.7776849262286147,-0.15557375345932573,0,0.15557375345932573,-0.0040940078719062635,-0.007676278869265645,0.020210688325538642,0.4,0.03431415557861328,2.2370123863220215,STABILIZE
0.035,0.005,0.05,-0.21982249088021424,-0.00011177499934774268,-0.0010991124544010712,-0.001045068228246334,-0.002255955681995148,0.04,0.006,0.05,-0.21984332414164748,-2.514628657361382e-05,-0.001319059944849885,0.0010831436549033023,-0.00026106257652019644,0.002,8e-05,0,-1.6382862409731995,-0.0015431037757613385,-0.00013106289927785597,0.0,-0.0016741666750391944,0.1,0.02,0,-0.23749208171104366,-0.014424219138883285,-0.004749841634220873,0.0,-0.019174060773104157,-0.0006286571643403455,0.0,0.0006286571643403455,-0.003193571409935505,0.0,0.003193571409935505,-0.7715518878806692,0.0,0.7715518878806692,-0.14424219138883285,0,0.14424219138883285,-0.0022566057577323257,0.0002553823841905934,0.019174060773104157,0.4,0.03346061706542969,2.27046799659729,STABILIZE
0.035,0.005,0.05,-0.22008975860506758,-0.0002797429881487402,-0.0011004487930253379,-0.0003562961041338314,-0.0017364878853079095,0.04,0.006,0.05,-0.21954977615756344,0.0003511427791964844,-0.0013172986569453806,0.005544961389672906,0.00457880551192401,0.002,8e-05,0,-1.6642002058937535,-0.0015499172461696544,-0.00013313601647150028,0.0,-0.0016830532626411546,0.1,0.02,0,-0.24216505423607562,-0.013974551423582693,-0.004843301084721512,0.0,-0.018817852508304207,0.00877856947991211,0.0,-0.00877856947991211,-0.00799265680424972,0.0,0.00799265680424972,-0.7749586230848272,0.0,0.7749586230848272,-0.13974551423582693,0,0.13974551423582693,-0.0017253149361701804,-0.004583027216030352,0.018817852508304207,0.4,0.03343915939331055,2.3038763999938965,STABILIZE
0.035,0.005,0.05,-0.22020737932932824,-0.0001231416398542817,-0.0011010368966466412,-0.001056845236364239,-0.0022810237728651617,0.04,0.006,0.05,-0.21940472184230797,0.0001735576190653939,-0.0013164283310538479,0.003965104216127319,0.0028222335041388647,0.002,8e-05,0,-1.6902586598458842,-0.0015589481831312136,-0.00013522069278767076,-0.0,-0.0016941688759188843,0.1,0.02,0,-0.24687692316174795,-0.014094388551068785,-0.004937538463234959,0.0,-0.019031927014303743,0.004338940476634847,0.0,-0.004338940476634847,-0.0035183325672651913,0.0,0.0035183325672651913,-0.7794740915656068,0.0,0.7794740915656068,-0.14094388551068784,0,0.14094388551068784,-0.0022740743677267,-0.0028278361293236852,0.019031927014303743,0.4,0.03343081474304199,2.337351083755493,STABILIZE
0.035,0.005,0.05,-0.22045861847576295,-0.00026285566903757923,-0.0011022930923788147,-0.001473413088756802,-0.002838561850173196,0.04,0.006,0.05,-0.2193319041643684,8.70680486776542e-05,-0.0013159914249862104,0.0009323183214965735,-0.00029660505481198267,0.002,8e-05,0,-1.7163673110974842,-0.0015609048395970587,-0.00013730938488779875,-0.0,-0.0016982142244848573,0.1,0.02,0,-0.25151685549622016,-0.013869909951470106,-0.005030337109924403,0.0,-0.01890024706139451,0.002176701216941355,0.0,-0.002176701216941355,-0.007510161972502263,0.0,0.007510161972502263,-0.7804524197985293,0.0,0.7804524197985293,-0.13869909951470105,0,0.13869909951470105,-0.0028392715408585116,0.00028973272695646867,0.01890024706139451,0.4,0.03345322608947754,2.3707704544067383,STABILIZE
0.035,0.005,0.05,-0.22084592686001947,-0.00040515569061112247,-0.0011042296343000974,-0.0008574000586803768,-0.0023667853835915966,0.04,0.006,0.05,-0.2193365806241195,-5.5908030384253445e-06,-0.0013160194837447171,-0.0016593011796219173,-0.0029809114664050597,0.002,8e-05,0,-1.742510462241742,-0.0015627335273984287,-0.00013940083697933938,-0.0,-0.001702134364377768,0.1,0.02,0,-0.2560803277633732,-0.013639310490692912,-0.005121606555267464,0.0,-0.018760917045960376,-0.00013977007596063361,0.0,0.00013977007596063361,-0.011575876874603498,0.0,0.011575876874603498,-0.7813667636992143,0.0,0.7813667636992143,-0.1363931049069291,0,0.1363931049069291,-0.0023738747566685856,0.0029752688722499768,0.018760917045960376,0.4,0.03345823287963867,2.4042375087738037,STABILIZE
0.035,0.005,0.05,-0.22126536945924202,-0.0004342038079764004,-0.0011063268472962101,-0.0027506768197954456,-0.004291207475068056,0.04,0.006,0.05,-0.21897237782057444,0.0004308799875101395,-0.0013138342669234467,0.003373903537113454,0.002490949257700147,0.002,8e-05,0,-1.7688750769512223,-0.0015595685626462446,-0.00014151000615609779,-0.0,-0.0017010785688023424,0.1,0.02,0,-0.26043726267932066,-0.01288647454036966,-0.005208745253586413,0.0,-0.018095219793956074,0.010771999687753487,0.0,-0.010771999687753487,-0.01240582308504001,0.0,0.01240582308504001,-0.7797842813231223,0.0,0.7797842813231223,-0.1288647454036966,0,0.1288647454036966,-0.004285594197138437,-0.0025005943645402054,0.018095219793956074,0.4,0.03381013870239258,2.438061475753784,STABILIZE
0.035,0.005,0.05,-0.22171964107794312,-0.00047488990264805394,-0.0011085982053897156,-0.0016627135716478566,-0.003246201679685626,0.04,0.006,0.05,-0.21877471650667943,0.00023615163451903886,-0.0013126482990400766,-0.0008933801819964934,-0.001969876846517531,0.002,8e-05,0,-1.7948769441570058,-0.0015532587839758303,-0.0001435901555325605,-0.0,-0.0016968489395083907,0.1,0.02,0,-0.2643644358740825,-0.011729765813897753,-0.00528728871748165,0.0,-0.017017054531379402,0.005903790862975971,0.0,-0.005903790862975971,-0.01356828293280154,0.0,0.01356828293280154,-0.7766293919879151,0.0,0.7766293919879151,-0.11729765813897752,0,0.11729765813897752,-0.0032502276658536427,0.001963227000567997,0.017017054531379402,0.4,0.03348040580749512,2.471526861190796,STABILIZE
0.035,0.005,0.05,-0.22211022544748854,-0.000408538966599441,-0.0011105511272374428,-0.0024345581050438277,-0.003953648198880711,0.04,0.006,0.05,-0.21842718320526255,0.0004154387466290567,-0.0013105630992315753,0.0017741154210430148,0.0008789910684404963,0.002,8e-05,0,-1.8209758774182623,-0.0015599236214496924,-0.00014567807019346099,-0.0,-0.0017056016916431535,0.1,0.02,0,-0.2682126374804079,-0.011500279581769204,-0.0053642527496081584,0.0,-0.016864532331377365,0.010385968665726417,0.0,-0.010385968665726417,-0.011672541902841171,0.0,0.011672541902841171,-0.7799618107248462,0.0,0.7799618107248462,-0.11500279581769203,0,0.11500279581769203,-0.003951875944876652,-0.0008869249659447653,0.016864532331377365,0.4,0.033461809158325195,2.504991054534912,STABILIZE
0.035,0.005,0.05,-0.22252253678080441,-0.0004320681829280392,-0.0011126126839040222,-0.0014425801331182967,-0.002987260999950358,0.04,0.006,0.05,-0.21794721767361086,0.000574816215312899,-0.0013076833060416651,0.003613422487206301,0.002880555396477535,0.002,8e-05,0,-1.8471201284074645,-0.0015655436083178392,-0.00014776961027259717,-0.0,-0.0017133132185904363,0.1,0.02,0,-0.27184511320353016,-0.01087581195776554,-0.0054369022640706035,0.0,-0.016312714221836142,0.014370405382822476,0.0,-0.014370405382822476,-0.012344805226515406,0.0,0.012344805226515406,-0.7827718041589196,0.0,0.7827718041589196,-0.1087581195776554,0,0.1087581195776554,-0.002981787787914896,-0.0028862205844047773,0.016312714221836142,0.4,0.03339958190917969,2.538377285003662,STABILIZE
0.035,0.005,0.05,-0.2230174687655996,-0.0005176427196096053,-0.001115087343827998,-0.0009580413799923662,-0.00259077144342997,0.04,0.006,0.05,-0.21759967248363063,0.0004154203991207879,-0.0013055980349017838,0.003114984340754778,0.0022248067049737822,0.002,8e-05,0,-1.8730852369016873,-0.0015518033402358627,-0.000149846818952135,0.0,-0.0017016501591879977,0.1,0.02,0,-0.2752556607905801,-0.010191559836530351,-0.005505113215811603,0.0,-0.015696673052341955,0.010385509978019698,0.0,-0.010385509978019698,-0.014789791988845866,0.0,0.014789791988845866,-0.7759016701179313,0.0,0.7759016701179313,-0.1019155983653035,0,0.1019155983653035,-0.002586809943627356,-0.002229411550642712,0.015696673052341955,0.4,0.03346443176269531,2.5718579292297363,STABILIZE
0.035,0.005,0.05,-0.22363575870895092,-0.000610684048130156,-0.0011181787935447547,-0.001462746595377625,-0.0031916094370525354,0.04,0.006,0.05,-0.21735624230618752,0.0002747835663216034,-0.0013041374538371251,-0.0011045731690822352,-0.0021339270565977567,0.002,8e-05,0,-1.9006227661915776,-0.0015542157889873924,-0.00015204982129532623,0.0,-0.0017062656102827187,0.1,0.02,0,-0.27864615633987516,-0.009567963886179906,-0.0055729231267975035,0.0,-0.01514088701297741,0.006869589158040085,0.0,-0.006869589158040085,-0.017448115660861598,0.0,0.017448115660861598,-0.7771078944936962,0.0,0.7771078944936962,-0.09567963886179905,0,0.09567963886179905,-0.00319516848281248,0.002128594336176944,0.01514088701297741,0.4,0.03543591499328613,2.607282876968384,STABILIZE
0.035,0.005,0.05,-0.22414276954664325,-0.0005247279790486082,-0.0011207138477332163,-0.0003893385812227906,-0.0020347804080046153,0.04,0.006,0.05,-0.21707696443088217,0.0003303280532147295,-0.001302461786585293,0.0007600843289379228,-0.00021204940443264077,0.002,8e-05,0,-1.9270149481743806,-0.0015608250537096965,-0.00015416119585395045,-0.0,-0.001714986249563647,0.1,0.02,0,-0.28190866683545596,-0.009647190449829786,-0.00563817333670912,0.0,-0.015285363786538907,0.008258201330368238,0.0,-0.008258201330368238,-0.014992227972817377,0.0,0.014992227972817377,-0.7804125268548482,0.0,0.7804125268548482,-0.09647190449829786,0,0.09647190449829786,-0.0020351345622000357,0.0002086230391364649,0.015285363786538907,0.4,0.03381824493408203,2.64113712310791,STABILIZE
