Mode,Time,Freq,North-Vision,East-Vision,Down-Vision,Yaw-Vision,North-Desired,East-Desired,Down-Desired,Roll-UAV,Pitch-UAV,Yaw-UAV,Roll-Control,Pitch-Control,Yaw-Control,Thrust-Control,northVraw,eastVraw,downVraw,yawVraw,zGyro
GUIDED_NOGPS,0.002627134323120117,383.5668952903521,28.072185196997065,-4.375666338250484,83.05382731319112,4.91591544199218,28.391778066895643,-7.489047872927441,74.18352400602282,0.18534896253657163,-0.2157191452169821,21.56941979510386,1.9248306582882122,-0.953369855080541,-7.0,0.48669454503924753,28.072185196997065,-4.375666338250484,83.05382731319112,8.49323122179856,-3.8388172273765155
GUIDED_NOGPS,0.017235279083251953,68.50303782583131,28.51272583527262,-4.2855371087984615,84.13226982801055,5.047810526434622,28.39169309967847,-7.489025460679939,74.18353361555191,0.19510631465275796,-0.3089170764418061,21.52531214099121,0.14771757845708147,0.11065503500124788,-7.0,0.485076895681312,28.953266473548172,-4.1954078793464396,85.21071234282998,8.473116624514258,-3.896113006889598
GUIDED_NOGPS,0.056591033935546875,25.416789378321546,28.892995202185435,-4.256124511671003,85.2760319329518,5.049667164906693,28.39110518588637,-7.488870383582484,74.18360049620254,0.2047635618089213,-0.45094616447716684,21.39184341441999,0.12399423891198313,0.048078066605470156,-4.091502408303167,0.48336135284487614,29.653533936011076,-4.197299317416086,87.5635561428343,8.443240087761906,-4.010704565915763
GUIDED_NOGPS,0.08966803550720215,30.235973442715128,29.099032819662643,-4.235969388566725,86.45792694145219,4.960411312503914,28.38953010968854,-7.488454917491517,74.18378086095058,0.3005174378665713,-0.6972468413726464,21.264468924135716,0.12361721826894026,0.04229088167469776,-2.6826216705012262,0.4815887808792476,29.717145672094258,-4.175504019253892,90.00361196695334,8.374048680393823,-4.239887683968092
GUIDED_NOGPS,0.1370851993560791,21.095137505783892,29.066795758051917,-4.376150863049538,87.76187429268126,4.863209486747729,28.386503835746275,-7.487656661377483,74.18412977550217,0.43058803860400335,-1.115367650307261,20.883829311880078,0.10341534351878313,0.015962047040901317,-2.9308229416511944,0.4796333832242314,28.937847511608997,-4.936876760980788,92.9776636975975,8.28817187804064,-5.271211715203574
GUIDED_NOGPS,0.18256711959838867,21.992407558883365,29.119786420683774,-4.112391545649951,90.15060180208528,4.689873743037804,28.381582230861373,-7.486358463902572,74.1847011660718,0.41816467155569065,-1.2987550278709297,20.598868697065267,0.14576091306801525,0.022849762561271088,-1.8771852211147533,0.4760511490459798,28.337138510156336,-3.0568697512525467,94.99746486021125,8.123078734338351,-5.385803274229739
GUIDED_NOGPS,0.21850180625915527,27.83639175189312,28.687266168017164,-3.5410541176603365,92.53862881250991,4.5386221766885955,28.374340785624508,-7.484448349998459,74.18554782716048,0.48356197195041734,-1.4144865002195663,20.397265418428585,0.19440003760076527,-0.048292904404616525,-1.7065859990828507,0.4724703785219758,26.790665210215128,-1.338720739398372,97.1508473949531,7.832916954763582,-4.18259190445501
GUIDED_NOGPS,0.25948381423950195,24.406347285179777,28.106771540001517,-2.774525236654582,94.8482742468764,4.442019810849594,28.364374336063623,-7.481819447444039,74.18672142933373,0.4558207317495874,-1.340053233078883,20.267621597792573,0.23158618805665446,-0.08362173860921744,-2.4983356438143245,0.469007670773686,26.751060795932865,-0.36465491238731346,99.11178331466667,7.621933518411336,-3.552338329811104
GUIDED_NOGPS,0.30204010009765625,23.50171459309232,27.655577769267733,-1.6144244821665097,97.4211656137309,4.334839215341246,28.351296785292302,-7.4783699134431645,74.1882725269998,0.5578082626625716,-1.4045556186097792,20.104911123837237,0.3036281354576128,-0.09155913499466747,-2.3542110828255627,0.4651506603699033,27.461176818425347,1.6249997531864686,102.86806880122597,7.160606043999173,-3.4377467707849396
GUIDED_NOGPS,0.3418734073638916,25.110630833428125,27.360243630631004,-0.3020491793330583,99.3992466344566,4.252361249014176,28.334740825158175,-7.4740028612023846,74.19025056618766,0.6513655792316146,-1.3594898170226235,19.999791097416157,0.37181681775381903,-0.09434291774117615,-2.524504737376139,0.4621865058975966,27.461176818425347,1.6249997531864686,102.86806880122597,7.160606043999173,-2.291831180523293
GUIDED_NOGPS,0.3788294792175293,27.06543889423046,27.037058165182493,0.9855675117815051,101.32323112681543,4.220373224195813,28.31435765789128,-7.468626286508682,74.19270389232517,0.6894097329085856,-1.375654740353928,20.009496796226745,0.42353042585640394,-0.1148178918317758,-3.117864168047429,0.45930420914826464,26.721211182913777,3.381213704320271,104.61738732200543,6.925237205060962,-0.5729577951308232
GUIDED_NOGPS,0.41289806365966797,29.362829380302987,26.936361901320947,2.041278098901041,103.27543449515952,4.241796913589141,28.289816717752455,-7.462152994307213,74.19567975801718,0.7382292036923394,-1.535698238881786,20.009032343363184,0.4492234192945927,-0.09620595008604783,-3.897430757587326,0.4563803678942865,26.287183890907407,3.939832196199306,106.91186423667352,6.753695325710997,0.8594366926962349
GUIDED_NOGPS,0.45284175872802734,25.04077039265906,26.89168668847746,2.8441797605778776,105.25044183737425,4.316094429858907,28.260805392681743,-7.454500525279042,74.19922433082355,0.8205382125545763,-1.6096732430178438,20.108182784449674,0.4400497341596742,-0.0894154543199462,-4.600260135847994,0.45342317374017393,26.527684731715432,3.649853395996872,108.98682002574043,6.693605300814462,2.635605857601787
GUIDED_NOGPS,0.5037407875061035,19.650514183981823,26.55755114560692,3.8326430063554517,106.61436729131317,4.433448477100845,28.227028745946743,-7.445591082418881,74.2033827010374,0.8771481010561113,-1.5286637843669075,20.26296511632592,0.468932890312893,-0.12630520741268655,-4.916127427900266,0.45138352311458635,25.790499104072637,6.567315982074339,109.68769607092057,6.515954095517626,3.896113006889598
GUIDED_NOGPS,0.5247831344604492,47.539375255021085,26.501360631657057,5.115826777646615,108.15978623185872,4.594407559344582,28.188209237791018,-7.435351457612828,74.20819888946302,0.929665585666898,-1.4896736494898897,20.386193681783997,0.6643897263768392,-0.12398724960974955,-7.0,0.44907261898640644,27.180224248676037,8.040918609642283,110.59516350395374,6.592606404494492,4.8128454790989155
GUIDED_NOGPS,0.5724058151245117,21.011336482634594,27.454326917354535,4.402354809098088,110.32681370520046,4.748734075386988,28.144086447082472,-7.423712958216106,74.21371585519414,0.9879634913887783,-1.431692387069063,20.655458521886114,0.3773340502665356,0.025249824954003516,-5.6951994621846165,0.44583035322499054,31.486042611401157,-0.18614613842236163,115.45252468871426,7.107941469410927,6.703606203030632
GUIDED_NOGPS,0.6172289848327637,22.31238263441518,28.249989205774767,5.576639513430944,111.60853597591829,5.036750186855943,28.094416792961738,-7.410611333630795,74.21997550339192,1.1051929095997632,-1.3153918745851998,20.982376988772312,0.5692295337576637,0.03068096934254321,-7.0,0.44391715929121045,30.265495333008587,9.811255717863585,113.32047559026266,6.9299563711905074,7.563042895726867
GUIDED_NOGPS,0.6558108329772949,25.923089284169148,28.818348074637537,7.113523282665421,112.42236910509337,5.356842502570479,28.038973256490557,-7.395986701883577,74.22701869306312,1.1537901324312272,-1.0294163363484088,21.312413437014623,0.6747202828228165,0.03212506108573539,-7.0,0.4427069743819546,29.369479076029275,11.334272242169249,113.05598567161583,7.080865359058554,7.505747116213785
GUIDED_NOGPS,0.6892833709716797,29.885454519544552,29.481893210334693,6.437222208580455,114.15313090246703,5.650543156130263,27.977545102300162,-7.37978347620347,74.23488524483814,1.192053599213579,-1.0232201808324437,21.585112154721966,0.44023853634136595,0.10259686929916945,-7.0,0.4401226315135567,29.108224782558413,3.1858106116495164,118.34150505778884,7.5432876178484545,7.563042895726867
GUIDED_NOGPS,0.7267360687255859,26.706466647989203,29.867493317111165,5.466200608981902,115.70239921323405,5.924883650719603,27.90993760023968,-7.361950291599567,74.24361394874917,1.2879659970249542,-1.2598476023158927,21.86101593869734,0.3831987590904233,0.0863960080050411,-7.0,0.4378118221032727,29.108224782558413,3.1858106116495164,118.34150505778884,7.5432876178484545,8.36518380891002
GUIDED_NOGPS,0.7789881229400635,19.14219603583539,29.787864124766553,8.043277140596572,115.82474333507336,6.222591461758851,27.83597174702449,-7.342439931438772,74.25324257200826,1.3417054985277914,-1.2560691203227003,22.213358077221617,0.7406704436994326,-0.003095177360742926,-7.0,0.43764274885540233,31.087896649678108,12.699236519650993,116.06424529791077,8.04407633042193,7.448451336700702
GUIDED_NOGPS,0.8166999816894531,26.521049636421118,31.10779718110366,8.152027881019496,116.90378241996527,6.623073263902112,27.755483987884627,-7.321209254023541,74.26380786678541,1.300225652976598,-1.1106412661233178,22.44481952781501,0.6006585892296022,0.21059902866442493,-7.0,0.43604003817023024,36.86516061469414,10.355009419978199,118.71567101472219,8.978623345307524,6.932789321082962
GUIDED_NOGPS,0.8615984916687012,22.281801327036373,31.70124845855805,9.312114811479484,117.2885805017747,6.873056586131692,27.668325938213158,-7.298219119169618,74.27534557798673,1.366047225512659,-1.0868146848122573,22.76734106042301,0.7187036283802243,0.13506116005543162,-7.0,0.435480147614318,32.336735463301245,17.13470689446919,114.97997608066305,8.555913449863244,5.328507494716656
GUIDED_NOGPS,0.8975141048431396,27.84692603903864,37.07298315996348,12.86782338405742,116.03410477679552,7.18490648491271,27.574364105214574,-7.27343431478377,74.28789045103245,1.3456407547067766,-0.7223740401120654,22.977931160460138,1.1995863210643372,0.827863855049494,-7.0,0.4373806785113554,55.96689828958555,20.964353474539198,112.06912643289287,11.118270279732787,6.016056848873644
GUIDED_NOGPS,0.9411976337432861,22.896422215671503,40.152120870927874,16.724434784871047,114.7150851030159,7.428803349981244,27.473479609553166,-7.246823483441531,74.30147623963511,1.4702749517517015,-0.6714631974209656,23.26283201111971,1.280614275374194,0.6270052123388865,-7.0,0.4393795867049288,44.50391333738038,22.468867615717656,111.74640668889067,10.000329536590884,6.130648407899809
GUIDED_NOGPS,0.9769821166992188,27.955876373864417,40.418192253634025,17.539957493693088,114.95482898688033,7.701567699055437,27.365567907001417,-7.2183590489649365,74.31613571357758,1.6221468759895796,-0.5530936712271174,23.463504676481975,1.0474249239854208,0.42025382580927684,-7.0,0.43904196009004587,32.418253563208836,16.776850063761195,117.26296471723302,9.208805498813652,5.7868737308213145
GUIDED_NOGPS,1.0139760971069336,27.035780815913473,46.47661263029017,11.354314676516722,114.46394203218237,7.969949352457568,27.250538510088376,-7.18801714300026,74.33190066649122,1.8985558805201215,-0.46058078663170454,23.63623503794972,0.2731198403135491,1.3853942741297498,-7.0,0.4398019379514633,67.15726249797483,-20.573204665903617,116.26123624123238,14.501683978356757,5.443099053742821
GUIDED_NOGPS,1.0510849952697754,26.95810677053205,53.44071803722488,3.812732364442161,114.72019406429624,8.237262980056993,27.12831470974806,-7.155777531595752,74.34880192363397,2.0161597851966935,-0.19634019099436342,23.774894708290148,-0.06741359575313766,1.813429401452247,-7.0,0.43944291178900663,67.15726249797483,-20.573204665903617,116.26123624123238,14.501683978356757,5.213915935690491
GUIDED_NOGPS,1.0875654220581055,27.425044299286636,49.148026468218056,3.6076612946518276,119.29881364229963,8.422994177931534,26.998833296967824,-7.121623541779379,74.36686934966842,2.1145563441535433,0.09786914028687801,24.03922815181152,0.4326412615773959,0.3629268721968062,-7.0,0.4326020835610532,34.5034404445514,19.93899812558753,134.96222432290983,8.643037025777938,4.870141258611998
GUIDED_NOGPS,1.1219313144683838,29.106292027230523,47.52913159443794,-12.720560515997056,123.75708509144553,8.648940381797075,26.86204428443675,-7.085541988136561,74.3861318564399,2.041459232769244,0.3181188353576942,24.218757966598012,-1.771589953183695,0.9193445273098416,-7.0,0.42594357014749157,36.40943896847981,-59.172241437526765,134.0377639346202,14.674086229671005,4.18259190445501
GUIDED_NOGPS,1.1573677062988281,28.225844224013784,36.994213287222195,-25.89384794844927,127.92665873205758,8.693140381251908,26.717910628194034,-7.047523099387907,74.40661741075465,1.856122476527771,0.5122733658176535,24.364734477086817,-2.0912912025599812,-0.4312551215584264,-7.0,0.41971993801804564,-20.256337972869947,-49.089587098499855,138.11083292029318,0.9633209321486951,3.2658594322456924
GUIDED_NOGPS,1.193993330001831,27.308622362278548,36.86465740213381,-19.151011554195442,129.43057603746826,8.881276642982153,26.566407949277366,-7.007560444966956,74.42835304215787,1.5288915284870452,0.6460517987790505,24.540794555774944,0.29425064832462927,0.36948547586558783,-7.0,0.4174966655070344,66.50948307253292,13.14097730536551,123.7808227682858,13.921168355462516,3.724225668350351
GUIDED_NOGPS,1.2321951389312744,26.186086294194403,38.36206217291766,-17.223677651195473,131.62184629737857,9.101571030404948,26.40752425537132,-6.965650861597913,74.45136485071181,1.1234108383851855,0.6882331261023451,24.669425800866502,-0.07543141211201204,0.6616251698443348,-7.0,0.41424427782999984,74.64428635189411,-10.936535150903762,127.21758754078378,17.126210139868697,3.6096341093241864
GUIDED_NOGPS,1.265484094619751,30.043651106319885,40.56820897409335,-16.635722641982838,127.60628118479617,9.260486110770238,26.241259662455736,-6.921794379873388,74.47567801477389,0.7707923973646396,0.49406002606557986,24.762615194354865,-0.13938730441136477,0.8743359372389506,-7.0,0.4203040952449666,45.534174450429845,22.87877317165071,114.88439875999785,10.994599616708776,3.896113006889598
GUIDED_NOGPS,1.3109447956085205,22.003137082093975,42.553169167719275,0.6881397942028371,122.9684209615223,9.396142154078689,26.067626116454107,-6.875994150832131,74.50131679877481,0.2516256631271507,0.19318314949393658,24.96797336948776,1.7734240053495,0.5563967060709569,-7.0,0.42729934375587875,46.334239936609436,27.44707074340161,110.84846281825082,10.981903102039952,3.552338329811104
GUIDED_NOGPS,1.3547046184539795,22.85923568267533,56.13367744705272,16.078680526779717,117.47966145241647,9.592270217012343,25.886647114881956,-6.828256372536774,74.52830456099662,0.28685124319358074,0.3982119814427909,25.115633521606973,2.3053085024171653,1.5878903017295023,-7.0,0.4355729646628702,47.64620342379721,27.863116564384544,110.66703537476405,11.169283606456053,4.755549699585833
GUIDED_NOGPS,1.3933374881744385,25.89172438485376,52.47062136844843,19.05300404694784,114.92213379426578,9.778303213598699,25.698357428495232,-6.7785902166515655,74.55666376135083,0.5254528561514278,0.39346841506421704,25.253745069266508,1.320137718007031,0.48341456436640984,-7.0,0.4394517949506276,48.19420267951147,28.012594906206136,110.99318447753244,11.424675603995752,3.6096341093241864
GUIDED_NOGPS,1.435683250427246,23.61750744680252,47.1806046339719,26.84283005836982,111.6772531816155,9.94975498255554,25.502802822938683,-6.727007755020111,74.58641596915656,1.1844431676525982,0.5612607632054544,25.455694980003567,1.9144672791103832,0.06370924601032141,-7.0,0.4443637441813116,48.19420267951147,28.012594906206136,110.99318447753244,11.424675603995752,4.92743703812508
GUIDED_NOGPS,1.4765980243682861,24.447744838600624,47.71261027978823,27.869594405280907,110.89901032512239,10.109674861988749,25.300039780394258,-6.673523886243108,74.61758187091856,1.7291606790797527,0.7208519751442104,25.60888075516132,1.4947007584075835,0.702609442391519,-7.0,0.44557785731869426,48.19420267951147,28.012594906206136,110.99318447753244,11.424675603995752,2.3491269600363753
GUIDED_NOGPS,1.5144703388214111,26.411662101319227,48.08460282836863,27.982699237841814,110.9279546569787,10.227784361425817,25.09013522122946,-6.618156262256084,74.65018127810532,2.243277875808192,0.482419462729174,25.75440476561761,1.4224392214068078,0.7250813300978474,-7.0,0.4455833399316899,48.19420267951147,28.012594906206136,110.99318447753244,11.424675603995752,2.0053522829578814
GUIDED_NOGPS,1.5463542938232422,31.37570317175344,48.19420267951149,28.012594906206136,110.99318447753237,10.333365823965254,24.87316622564577,-6.56092521490714,74.68423313492725,2.4817270368093305,0.7473957978061725,25.78780097556439,1.4143657408656174,0.7187270317669685,-7.0,0.44553657298609234,48.19420267951147,28.012594906206136,110.99318447753244,11.424675603995752,2.5783100780887045
GUIDED_NOGPS,1.581148624420166,28.750558655388453,48.19420267951149,28.012594906206136,110.99318447753237,10.401731277313232,24.649219755327014,-6.501853682534681,74.7197555261147,2.7741801557002326,0.3496956536643094,25.82956416724443,1.410152691024654,0.7102286809651368,-7.0,0.4455898565728735,48.19420267951147,28.012594906206136,110.99318447753244,11.424675603995752,1.604281826366305
GUIDED_NOGPS,1.6089622974395752,35.96648859085725,48.19420267951149,28.012594906206136,110.99318447753237,10.442738307173874,24.418392375087727,-6.440967136545156,74.75676568469608,2.911952541778794,0.3399805633436125,25.804423948456908,1.410791306856101,0.7260802713371705,-7.0,0.4456453718107456,48.19420267951147,28.012594906206136,110.99318447753244,11.424675603995752,-0.17188733853924698
GUIDED_NOGPS,1.643120288848877,29.284719846395532,48.19420267951149,28.012594906206136,110.99318447753237,10.458827115856264,24.180789974521574,-6.378293507990796,74.79527999977597,2.9595662173697765,0.25759460813150714,25.78136181472436,1.411956133092576,0.7307379425276671,-7.0,0.4457031432833654,48.19420267951147,28.012594906206136,110.99318447753244,11.424675603995752,-0.2291831180523293
GUIDED_NOGPS,1.673011064529419,33.459140368231274,48.19420267951149,28.012594906206136,110.99318447753237,10.441811588864159,23.93652748964971,-6.313863114147358,74.83531402431322,2.9570708504451946,0.418310026518965,25.71084864928044,1.4120142073401991,0.7462176963094438,-7.0,0.4457631943201713,48.19420267951147,28.012594906206136,110.99318447753244,11.424675603995752,-2.0626480624709638
GUIDED_NOGPS,1.7098712921142578,27.140923268063517,48.19420267951149,28.012594906206136,110.99318447753237,10.403061613845923,23.68572862456918,-6.24770858509185,74.87688248289905,2.8623850051983655,0.21580644357231132,25.653790956501446,1.412494368876933,0.7529600898569127,-7.0,0.44582554700805,48.19420267951147,28.012594906206136,110.99318447753244,11.424675603995752,-2.4064227395494577
GUIDED_NOGPS,1.7462291717529297,27.507961908759412,52.75323273369098,25.72670207067633,112.34545488682036,10.346960530881303,23.428525573101282,-6.179864790280281,74.91999927953513,2.723377848983912,0.48002099911344176,25.47516614177998,1.232706411131879,1.4672191955390639,-7.0,0.44386181658907214,70.98935295040896,16.583130728557123,117.75453652397236,16.36075684412073,-5.328507494716656
GUIDED_NOGPS,1.7777698040008545,31.717122526296684,53.88038109344849,27.889924369282717,115.00390525928064,10.214612937961691,23.165058740439985,-6.110368765125391,74.9646775054117,2.6635447515243658,0.19789726068171476,25.271269627129467,1.7193562532010835,1.0993517628108083,-7.0,0.43994115836919656,53.82994447829901,38.82870639923807,124.28543633983384,12.594167647615171,-5.67228217179515
GUIDED_NOGPS,1.815514087677002,26.50094142920326,59.28331815381527,27.692038563243834,114.95562843790694,10.09331099304217,22.89547646480028,-6.0392596375743945,75.01092944668565,2.515407339936898,0.2419387473367801,25.026328798209054,1.5449160015181238,1.6982980000383874,-7.0,0.44008295151316806,75.20888798134544,27.02316587601173,110.75180037066391,15.30365852513982,-6.818197762056797
GUIDED_NOGPS,1.852299690246582,27.192479496904276,61.18824673768465,29.546514777953128,114.32510781464725,9.87825521977644,22.61993473906658,-5.966578554686712,75.05876659225868,2.3240666339715723,0.47942506510835814,24.724586408603525,1.765506680403666,1.4721596971460245,-6.3400395310347095,0.4411004881664171,57.71884559885834,37.28497597975261,107.84058136123393,12.126503121999972,-7.62033867523995
GUIDED_NOGPS,1.8915698528289795,25.4726677557862,63.09317532155403,31.400990992662418,113.69458719138757,9.637245677373642,22.338596932441114,-5.892368609211715,75.1081996415553,2.279046509274491,0.5989382211013603,24.42395392473812,1.825391307245487,1.544696334024056,-6.034182082136857,0.4421204186752516,57.71884559885834,37.28497597975261,107.84058136123393,12.126503121999972,-8.422479588423101
GUIDED_NOGPS,1.9248473644256592,30.058938195161105,65.82194685583165,32.39379029590661,111.61384071125903,9.374206484925946,22.051633512092288,-5.816674766166459,75.15923851230102,2.3329661570166875,0.6717322428412406,24.047200690120217,1.8081534424690582,1.6787758725085666,-4.9868310550122334,0.44531809670156297,84.63321062179706,21.54712724477814,107.35080412332967,15.820992960364153,-9.682986737710912
GUIDED_NOGPS,1.965151071548462,24.818073158897526,71.98260008453126,28.937474465014635,108.22691426795821,9.115008020381605,21.759221764803097,-5.739543789413423,75.2118923483004,2.3949718949625325,1.1127752733521237,23.642276340270598,1.2662946938726622,1.7741424579329366,-5.540198571727917,0.4504774671205133,84.63321062179706,21.54712724477814,107.35080412332967,15.820992960364153,-11.115381225537972
GUIDED_NOGPS,1.9947683811187744,33.77328287301715,73.86746461262157,27.842266738767922,107.54671501849137,8.78060102031018,21.461545518619488,-5.661024168238244,75.26616952721514,2.4665569732193204,1.1980030141457774,23.39279002045754,1.3859382182021087,1.7649950608186795,-2.869949527890852,0.45157918176308565,84.63321062179706,21.54712724477814,107.35080412332967,15.820992960364153,-10.714310768946394
GUIDED_NOGPS,2.034512519836426,25.165773668452662,79.25033761720931,24.694696991773032,107.44875957091051,8.535396987198002,21.15879486449875,-5.58116604392746,75.32207766834227,2.6390484915095267,1.3542862800921316,22.99536863341118,1.1170373744721376,1.812057593938293,-5.277374551760999,0.4518099771461476,84.63321062179706,21.54712724477814,107.35080412332967,15.820992960364153,-11.516451682129548
GUIDED_NOGPS,2.065298080444336,32.49207123877695,84.63321062179705,21.547127244778135,107.35080412332965,8.14869338847059,20.851165877957904,-5.500021136346248,75.37962364039211,2.8516675846169695,1.3822209000238377,22.490146370694507,0.9053528632362933,1.851480073055254,-1.793498404460233,0.4520432292755937,84.63321062179706,21.54712724477814,107.35080412332967,15.820992960364153,-13.006141949469688
GUIDED_NOGPS,2.094548463821411,34.20291935089293,84.63321062179705,21.54712724477813,107.35080412332965,7.83861405598334,20.538860340722096,-5.417642670516157,75.4388135692665,2.8873299232643097,1.7024470621838923,22.26847941137091,1.2566265454222147,1.8099294915149429,-2.521710970288791,0.45213201416890525,84.63321062179706,21.54712724477814,107.35080412332967,15.820992960364153,-13.750987083139758
GUIDED_NOGPS,2.1318774223327637,26.794500945469412,84.63321062179705,21.54712724477813,107.35080412332965,7.519564526293733,20.222085462372945,-5.334085303192845,75.49965284583679,2.9405321877002435,1.8404693904973943,21.554649511023708,1.2463468934476216,1.819697618688648,-3.3440781414339833,0.4522232730837607,84.63321062179706,21.54712724477814,107.35080412332967,15.820992960364153,-14.896902673401405
GUIDED_NOGPS,2.156428098678589,40.7578030862518,84.63321062179705,21.54712724477813,107.35080412332965,7.073323649842527,19.90105360199698,-5.249405049443826,75.56214613372205,2.8854520481293795,1.9271790688975294,21.135542273362557,1.225179710604516,1.8339108082944278,1.7651243960503917,0.4523170130155886,84.63321062179706,21.54712724477814,107.35080412332967,15.820992960364153,-16.157409822689214
GUIDED_NOGPS,2.189903497695923,29.880131936083664,84.63321062179705,21.54712724477813,107.35080412332965,6.7536357919950625,19.57598198983399,-5.1636592092262,75.62629737706706,2.7387596484381924,2.091261130215569,20.540398862675374,1.2155837102187164,1.8431688454128803,-2.257352652947489,0.4524132398806061,84.63321062179706,21.54712724477814,107.35080412332967,15.820992960364153,-17.704395869542438
GUIDED_NOGPS,2.2180821895599365,35.50523143602072,84.63321062179705,21.54712724477813,107.35080412332965,6.2943701514595105,19.247092448925404,-5.07690629396439,75.69210980832051,2.5651932291273556,2.2544411796763435,20.00916040941012,1.1962653997846364,1.8567889417307235,1.4753268400649064,0.45251195852748627,84.63321062179706,21.54712724477814,107.35080412332967,15.820992960364153,-17.933578987594768
GUIDED_NOGPS,2.2534914016723633,28.250559043026108,84.63321062179705,21.54712724477813,107.35080412332965,5.89014780526226,18.914611116762707,-4.989205953127886,75.75958595601301,2.347303364414779,2.3190927621519224,19.298969292343244,1.182878646870169,1.8680521831810335,-0.698333975092952,0.452613172749025,84.63321062179706,21.54712724477814,107.35080412332967,15.820992960364153,-19.022198798343332
GUIDED_NOGPS,2.2915167808532715,26.324799628441777,84.63321062179705,21.54712724477813,107.35080412332965,5.3544289586699785,18.578768166935788,-4.9006189008089756,75.82872765253526,2.1850462442656022,2.4210811468385525,18.668986794247118,1.163224975913409,1.8827249763751732,1.1945632352793991,0.45271688529380844,84.63321062179706,21.54712724477814,107.35080412332967,15.820992960364153,-18.850311459804086
GUIDED_NOGPS,2.3253262042999268,29.567544323428855,84.63321062179705,21.54712724477813,107.35080412332965,4.779464887163611,18.23979753078136,-4.811206842300491,75.89953604191612,1.9707392406595203,2.577028025968284,17.964061753030318,1.1409868312960147,1.8979777620420926,2.7456174446968236,0.4528230978778797,84.63321062179706,21.54712724477814,107.35080412332967,15.820992960364153,-19.7670439320134
GUIDED_NOGPS,2.3560550212860107,32.55764707708788,84.63321062179705,21.54712724477813,107.35080412332965,4.2323407610898665,17.897936619031313,-4.721032400673537,75.9720115876007,1.8894913657178682,2.5499373612858975,17.359779549233657,1.1188237162854477,1.911975511730076,3.8351824777280523,0.4529318111964066,84.63321062179706,21.54712724477814,107.35080412332967,15.820992960364153,-19.48056503444799
GUIDED_NOGPS,2.384974718093872,34.58307085964941,84.63321062179705,21.54712724477813,107.35080412332965,3.7646291273273205,17.55342604346113,-4.630159043355235,76.04615408022849,1.8023264125208698,2.604922945425439,16.88271986401224,1.0998871957059955,1.9234680920766614,3.287062826448503,0.45304302493534826,84.63321062179706,21.54712724477814,107.35080412332967,15.820992960364153,-19.595156593474155
GUIDED_NOGPS,2.4136412143707275,34.89873112285227,84.63321062179705,21.54712724477813,107.35080412332965,3.3371768115244924,17.20650933853823,-4.53865100870646,76.12196264541141,1.7331098090804893,2.7218361472221932,16.43784744525451,1.0824987579271956,1.9335943136260425,3.0864960312024046,0.45315673778312265,84.63321062179706,21.54712724477814,107.35080412332967,15.820992960364153,-18.793015680291003
GUIDED_NOGPS,2.4465322494506836,30.407829774893973,84.63321062179705,21.54712724477813,107.35080412332965,2.944743061958783,16.857432683070396,-4.446573232599575,76.19943575151198,1.7368324756215578,2.5989969025468067,15.686034862932864,1.068203223281756,1.9424824564804821,1.8105635871665484,0.4532729474422735,84.63321062179706,21.54712724477814,107.35080412332967,15.820992960364153,-17.876283208081684
GUIDED_NOGPS,2.4955198764801025,20.418385925284056,84.63321062179705,21.54712724477813,107.35080412332965,2.4767593635894416,16.506444621854154,-4.353991274996176,76.27857121742136,1.6395342964606106,2.6795773399405016,15.045400684826102,1.0531618142617023,1.9526201785326949,1.091687053223822,0.45339165064113757,84.63321062179706,21.54712724477814,107.35080412332967,15.820992960364153,-17.1887338539247
GUIDED_NOGPS,2.510753631591797,65.91915508895455,84.63321062179705,21.54712724477813,107.35080412332965,1.7993520616588383,16.1537957873231,-4.260971246524819,76.35936622033746,1.6223799561950063,2.6295782207818923,14.674410422320397,1.0115621415688771,1.9672513300763657,7.0,0.4535128431455117,84.63321062179706,21.54712724477814,107.35080412332967,15.820992960364153,-17.24602963343778
GUIDED_NOGPS,2.5409679412841797,33.05152007060566,84.63321062179705,21.54712724477813,107.35080412332965,1.6780280539230645,15.799738621196386,-4.167579735058769,76.44181730354309,1.6118269937622192,2.6226280764145815,14.329125576756036,1.0161868414512516,1.9693854002244775,-1.1635194432626523,0.45363651977032016,84.63321062179706,21.54712724477814,107.35080412332967,15.820992960364153,-17.01684651538545
GUIDED_NOGPS,2.579434871673584,26.0023185890084,84.63321062179705,21.54712724477813,107.35080412332965,1.3047712117110912,15.44452709612699,-4.07388373229373,76.52592038418399,1.4645806016963208,2.6093472004603147,13.476228756039141,1.0029177211993168,1.9766444095783402,2.0292822476842263,0.4537626743912815,84.63321062179706,21.54712724477814,107.35080412332967,15.820992960364153,-15.641747807071475
GUIDED_NOGPS,2.610424518585205,32.28150759260827,84.63321062179705,21.54712724477813,107.35080412332965,0.8470609076543546,15.088416437350219,-3.9799505603255874,76.61167076104697,1.3397959270462438,2.538870320396361,13.026426648247952,0.982338062522638,1.9852590786144613,4.886922913681884,0.45389129995657596,84.63321062179706,21.54712724477814,107.35080412332967,15.820992960364153,-14.725015334862157
GUIDED_NOGPS,2.6476495265960693,26.867618986612005,84.63321062179705,21.54712724477813,107.35080412332965,0.530811643058812,14.731662844331975,-3.885847798228146,76.69906312233799,1.1499819818038277,2.589344137702286,12.460908329312053,0.9706051966897434,1.9909222145914254,2.026859356156233,0.4540223884985125,84.63321062179706,21.54712724477814,107.35080412332967,15.820992960364153,-13.521803965087429
GUIDED_NOGPS,2.6852474212646484,26.606682271744027,84.63321062179705,21.54712724477813,107.35080412332965,0.1815209003278184,14.374523212417245,-3.791643208630859,76.78809155346029,1.009804515363775,2.6696039830918132,12.129131036605036,0.9559341128647123,1.9969614373922147,2.7317528291186317,0.454155931145196,84.63321062179706,21.54712724477814,107.35080412332967,15.820992960364153,-11.000789666511807
GUIDED_NOGPS,2.7208163738250732,28.12062700296338,84.63321062179705,21.54712724477813,107.35080412332965,-0.07527247901494272,14.017254854478416,-3.6974046642965854,76.87874954479246,0.9230761606651282,2.6926370885203887,11.72393006409403,0.9439358960772792,2.001238371930581,1.872336708443927,0.4542919181321942,84.63321062179706,21.54712724477814,107.35080412332967,15.820992960364153,-9.224620501606255
GUIDED_NOGPS,2.7523553371429443,31.713045713680835,84.63321062179705,21.54712724477813,107.35080412332965,-0.2790407809003786,13.660115222563693,-3.603200074699302,76.97102999946655,0.908894126627243,2.7267679706897656,11.534891772209233,0.9329432901501966,2.0045198655304595,1.6520888279219637,0.45443033881420536,84.63321062179706,21.54712724477814,107.35080412332967,15.820992960364153,-7.849521793292278
GUIDED_NOGPS,2.7859010696411133,29.821496370345617,84.63321062179705,21.54712724477813,107.35080412332965,-0.40106012338584346,13.303361629545446,-3.509097312601858,77.06492524114617,0.8704981648471635,2.8295926266628997,11.324615007100283,0.9265932849669759,2.0064369356439773,0.36142563685882156,0.4545711816767248,84.63321062179706,21.54712724477814,107.35080412332967,15.820992960364153,-6.818197762056797
GUIDED_NOGPS,2.8259103298187256,25.07565195556778,84.63321062179705,21.54712724477813,107.35080412332965,-0.48738615137831065,12.947250970768668,-3.415164140633716,77.16042702180461,0.9023557146008367,2.9363019527264784,11.045081831354695,0.9225940207177626,2.0077755850082317,-0.2952532124954599,0.4547144343477124,84.63321062179706,21.54712724477814,107.35080412332967,15.820992960364153,-4.870141258611998
GUIDED_NOGPS,2.8590126037597656,30.14882116158712,84.63321062179705,21.54712724477813,107.35080412332965,-0.5657445676668393,12.592039445699285,-3.3214681378686777,77.25752652950288,0.937291598596923,2.9153281493326615,10.94349301273451,0.9158466711161233,2.008945522475709,-0.1693547605127106,0.45486008360925984,84.63321062179706,21.54712724477814,107.35080412332967,15.820992960364153,-3.380450991271857
GUIDED_NOGPS,2.898408889770508,25.38863465775647,84.63321062179705,21.54712724477813,107.35080412332965,-0.5511800118170584,12.23798227957256,-3.2280766264026264,77.35621439616789,1.0027664323109,2.888479956365811,10.85624332250312,0.9154218228019562,2.0087135941624257,-1.5254171131085759,0.45500811540925734,84.63321062179706,21.54712724477814,107.35080412332967,15.820992960364153,-1.776169164905552
GUIDED_NOGPS,2.937640428543091,25.496668774011574,84.63321062179705,21.54712724477813,107.35080412332965,-0.5050853960474943,11.885333445041514,-3.1350565979312703,77.45648070537048,1.0770639494418293,2.93631860131258,10.824950810820708,0.914481617885372,2.0079837089071657,-1.9652204129784963,0.45515851487306125,84.63321062179706,21.54712724477814,107.35080412332967,15.820992960364153,0.0
GUIDED_NOGPS,2.96875262260437,32.1535654600371,84.63321062179705,21.54712724477813,107.35080412332965,-0.4011028862321414,11.534345383825258,-3.0424746403278684,77.55831500010356,1.117700693517349,2.917684991483139,10.860059690701865,0.9133271008622207,2.006344746704198,-3.128356789553671,0.45531126631516083,84.63321062179706,21.54712724477814,107.35080412332967,15.820992960364153,1.260507149287811
GUIDED_NOGPS,2.9991860389709473,32.868660272083254,84.63321062179705,21.54712724477813,107.35080412332965,-0.2597148327279639,11.185268728357428,-2.9503968642209832,77.66170629056022,1.1215400068828367,2.982098797998237,10.910131807507229,0.915431756989172,2.0041289801725557,-3.896239198695536,0.45546635325084583,84.63321062179706,21.54712724477814,107.35080412332967,15.820992960364153,1.604281826366305
GUIDED_NOGPS,3.030010938644409,32.446576105455335,84.63321062179705,21.54712724477813,107.35080412332965,-0.11342127293175089,10.838352023434542,-2.858888829572213,77.76664306191176,1.1274151435078112,2.857837593315018,10.926642936052088,0.9181121137844495,2.001813551568844,-4.067453924352424,0.45562375840787317,84.63321062179706,21.54712724477814,107.35080412332967,15.820992960364153,1.4896902673401404
GUIDED_NOGPS,3.06441593170166,29.07401066108427,84.63321062179705,21.54712724477813,107.35080412332965,0.04161822188550851,10.493841447864344,-2.768015472253908,77.87311328208591,1.10189841054229,2.9279742445809402,11.007346743737667,0.9222692775906941,1.9993295590911104,-4.0533456512370085,0.4557834637381344,84.63321062179706,21.54712724477814,107.35080412332967,15.820992960364153,1.8334649444186344
GUIDED_NOGPS,3.0944571495056152,33.30028423075091,84.63321062179705,21.54712724477813,107.35080412332965,0.21250415228856823,10.151980536114298,-2.6778410306269533,77.9811044095448,1.117355021912323,2.6244880223029403,11.10360374593701,0.9242661288538965,1.9965582439629268,-4.799374813318026,0.4559454504293227,84.63321062179706,21.54712724477814,107.35080412332967,15.820992960364153,2.46371851906254
GUIDED_NOGPS,3.131605625152588,26.926608802834984,84.63321062179705,21.54712724477813,107.35080412332965,0.38114948925566317,9.813009899959876,-2.5884289721184706,78.09060340106313,1.1813431155430585,2.422331071456665,11.17254767541912,0.9298881310615461,1.993769885116773,-4.356120731898421,0.45610969891660025,84.63321062179706,21.54712724477814,107.35080412332967,15.820992960364153,2.3491269600363753
GUIDED_NOGPS,3.1656453609466553,29.65996054111008,84.63321062179705,21.54712724477813,107.35080412332965,0.5504869643127771,9.47716695013295,-2.4998419197995583,78.20159671950628,1.1221549373515494,2.3422782661763537,11.253862785035412,0.9323935455993866,1.9909495684722012,-4.766817751261548,0.45627618889426497,84.63321062179706,21.54712724477814,107.35080412332967,15.820992960364153,1.432394487827058
GUIDED_NOGPS,3.1922767162323,37.19937562083156,84.63321062179705,21.54712724477813,107.35080412332965,0.6993572779993693,9.144685617970257,-2.4121415789630563,78.31407034160837,1.1534695404270596,2.101520928122574,11.269377559735098,0.9329759330800615,1.9884633105171547,-5.078728092901674,0.45644489932741805,84.63321062179706,21.54712724477814,107.35080412332967,15.820992960364153,1.088619810748564
GUIDED_NOGPS,3.2248947620391846,30.650034710804196,84.63321062179705,21.54712724477813,107.35080412332965,0.8321871164244211,8.815796077061673,-2.325388663701246,78.42800976575039,1.136208371733968,2.0334282109657784,11.322715360737373,0.9373007900788706,1.9861757875678154,-4.466499986959678,0.4566158084636311,84.63321062179706,21.54712724477814,107.35080412332967,15.820992960364153,1.088619810748564
GUIDED_NOGPS,3.2652719020843506,24.770584552874336,84.63321062179705,21.54712724477813,107.35080412332965,0.954841476687858,8.490724464898673,-2.239642823483618,78.54340001973827,1.2084643026332982,1.4979554673019417,11.321588379524322,0.9411471463159754,1.9840386686457594,-4.074735944885743,0.4567888938446129,84.63321062179706,21.54712724477814,107.35080412332967,15.820992960364153,0.11459155902616465
GUIDED_NOGPS,3.297362804412842,31.173059628834103,84.63321062179705,21.54712724477813,107.35080412332965,1.0678571729728916,8.16969260452272,-2.1549625697345975,78.66022566858103,1.1891634686993116,1.4697843520702243,11.317050572594493,0.9406848362504733,1.9821215341067042,-4.43764988326804,0.4569641323178771,84.63321062179706,21.54712724477814,107.35080412332967,15.820992960364153,-0.2291831180523293
GUIDED_NOGPS,3.3362205028533936,25.740137958121608,84.63321062179705,21.54712724477813,107.35080412332965,1.1342804982003212,7.852917726173569,-2.071405202411289,78.77847082226882,1.1878278465514567,1.1633427923157247,11.225348452797903,0.9427956522602225,1.9809448546174615,-3.5525110179395814,0.45714150004840876,84.63321062179706,21.54712724477814,107.35080412332967,15.820992960364153,-2.0626480624709638
GUIDED_NOGPS,3.362037420272827,38.74753110940719,84.63321062179705,21.54712724477813,107.35080412332965,1.1741311333052824,7.540612188937761,-1.989026736581196,78.89811914355104,1.1431147602019087,1.1170473432345551,11.183370110159004,0.9378974317019649,1.9803615990942771,-3.515300942209712,0.4573209725303321,84.63321062179706,21.54712724477814,107.35080412332967,15.820992960364153,-2.4064227395494577
GUIDED_NOGPS,3.3970680236816406,28.55463043019464,84.63321062179705,21.54712724477813,107.35080412332965,1.2120768907860273,7.2329832023969125,-1.9078818289999804,79.01915385571449,1.1240068791119748,1.1534134048098186,11.08851158919222,0.9402110163278531,1.9796640649054122,-3.317337373267718,0.45750252459857726,84.63321062179706,21.54712724477814,107.35080412332967,15.820992960364153,-2.7501974166279517
GUIDED_NOGPS,3.431851863861084,28.758443838020927,84.63321062179705,21.54712724477813,107.35080412332965,1.202286379097367,6.930232548276177,-1.8280237046892056,79.14155775036141,1.1346581322357867,1.0069113966417458,10.922570435759468,0.9378158746633523,1.9798821449569928,-2.6316016093061005,0.4576861304405476,84.63321062179706,21.54712724477814,107.35080412332967,15.820992960364153,-4.239887683968092
GUIDED_NOGPS,3.463444232940674,31.687409813772522,84.63321062179705,21.54712724477813,107.35080412332965,1.157130977750214,6.6325563020925635,-1.749504083514025,79.26531319518756,1.0658293554742162,1.1113328227767816,10.776035557306015,0.9332633756389811,1.9807454773876954,-2.0150355155488167,0.45787176360778686,84.63321062179706,21.54712724477814,107.35080412332967,15.820992960364153,-5.328507494716656
GUIDED_NOGPS,3.4895894527435303,38.245468140204984,84.63321062179705,21.54712724477813,107.35080412332965,1.0890970881187354,6.340144554803377,-1.6723731067609853,79.39040214176042,1.045651696005529,1.1216257044125792,10.582322854707991,0.9273015331841274,1.982013302093838,-1.4068087189619567,0.45805939702764614,84.63321062179706,21.54712724477814,107.35080412332967,15.820992960364153,-6.531718864491385
GUIDED_NOGPS,3.528573513031006,25.65558919778573,81.7127663805593,24.206900597241518,106.83450310320973,0.9348448600924828,6.053181134454558,-1.5966792637157292,79.51680613329717,1.0463907438180657,1.1917486953001615,10.321134713299411,1.2653076150915576,1.9790897941938492,-0.5868026304123368,0.45902345454513116,70.03098941560832,34.84599400709506,104.76929902273002,1.8359480442398208,-6.932789321082962
GUIDED_NOGPS,3.565699577331543,26.94096412628063,76.87215015874094,28.04803932517033,105.80215366658524,0.6693117376084436,5.771843327829078,-1.5224693182407352,79.64450631244287,1.0363057560651303,1.201669971956428,9.982520401233213,1.518857846888983,1.9821211112184505,1.2166905441722213,0.4607635289687865,60.43012951270524,40.75282088442217,102.18905694020722,-0.1339295530997412,-8.250592249883855
GUIDED_NOGPS,3.599268913269043,29.800943557096573,71.10539541147406,32.50012168888416,104.3628604829152,0.37961475336226946,5.496301602095375,-1.449788235353048,79.77348342904857,0.9846351615505722,1.2727030855509145,9.729356878325751,1.771453189081669,1.9882193768900944,2.1821420789513937,0.46311593441920007,55.799436885462605,43.80753906334727,100.15433820497945,-1.221062234346429,-8.59436692696235
GUIDED_NOGPS,3.6361165046691895,27.144787594812186,65.01864438662031,36.82012918632462,103.18381134161791,0.10559551214670143,5.226719326455683,-1.378679107802058,79.90371784794932,1.0950635256172228,1.2149094398888516,9.380369216457595,1.8620160258667735,1.901012763279403,1.8096185960887878,0.4650798597594971,54.19945549752834,43.14716473198046,101.45555841684322,-1.4635513771345365,-8.537071147449266
GUIDED_NOGPS,3.6710500717163086,28.630256861821582,56.41605634471257,42.04248918491588,101.7927261972469,-0.2241574086317609,4.963252493794375,-1.3091830826471673,80.03518955674237,1.1140000116476716,1.1825740436975418,9.060412419882933,1.995085522930642,1.2600521152448194,3.061038141348698,0.4673636950392432,41.6202704122583,47.65892723773448,100.39537840147467,-4.481525027664072,-8.88084582452776
GUIDED_NOGPS,3.7103421688079834,25.45488972774831,50.733912544042575,44.60507583104377,100.91794207299583,-0.5399561377065647,4.706049442326478,-1.241339287835598,80.16787817356519,1.2557032783152815,1.1919877519211117,8.699055285427885,1.9365822835789248,1.4549990164254911,2.628663337519133,0.46887490415085403,41.6202704122583,47.65892723773448,100.39537840147467,-4.481525027664072,-8.708958485988513
GUIDED_NOGPS,3.7525157928466797,23.718072834200406,47.37016204104054,46.44765593408064,99.40126624609373,-0.8902859995427495,4.455250577245938,-1.1751847587800848,80.30176295487364,1.2913564388959249,1.242372563324415,8.416731977406346,1.9186520172075356,1.5925414421534099,3.161908061419266,0.4713507450631699,43.611376997695075,49.96572139960652,94.60567780569666,-4.044649640974134,-8.823550045014677
GUIDED_NOGPS,3.7887771129608154,27.591926953135278,44.75694959989766,47.603047558935515,98.63087219293614,-1.2380392661093755,4.210988092374098,-1.1107543649366471,80.43682280322001,1.3575322207734746,1.2277506224152985,8.210437212583512,1.9004306803242006,1.55938869262178,3.8444771440179393,0.4727089259154258,42.733374679748216,49.5844971876216,96.30236793919156,-4.4071092865253,-8.13600069085769
GUIDED_NOGPS,3.8267924785614014,26.311423373690484,44.609851255167484,47.59005004283366,99.25446784864883,-1.538117511374839,3.9733856918079375,-1.04808073638229,80.57303627503117,1.4832049267373588,0.9316439926486746,7.806017442958827,1.7713992815813564,1.8346383891093148,3.369995556673116,0.47197785263957354,53.46396377387744,43.0821771514712,104.57353669540674,-2.479445907413968,-7.849521793292278
GUIDED_NOGPS,3.860287666320801,29.868003532059134,47.151429991927394,46.430373455566084,100.36414845799109,-1.811500533884716,3.742558311568647,-0.9871941903927679,80.71038158838665,1.4743245068775785,1.037095496687913,7.576337817965161,1.588510067107571,2.0492154686676463,3.75795591594956,0.47051934969559334,54.32816409605783,41.86054430139658,105.94378144818593,-2.4393929599888087,-6.589014644004467
GUIDED_NOGPS,3.8921592235565186,31.38392008679711,50.736397630195626,43.86558905035857,102.14541961120229,-1.9923719322213853,3.518611841249882,-0.9281226580203006,80.8488366307967,1.5488504084588803,0.8767495488458705,7.36949578423508,1.3261211109599105,2.0448954424874426,2.623280737853433,0.4680551255293916,59.54510860359945,34.835005211696895,109.30173416753061,-1.4620232854129767,-4.870141258611998
GUIDED_NOGPS,3.930060386657715,26.392051496636736,49.463052471262586,44.85223252724033,101.22020509176193,-2.1633965117199043,3.3016428456661977,-0.8708916106713582,80.98837896698045,1.5238646159796216,0.9413750912252387,7.237212095484859,1.741983251200168,1.9569629375369757,2.1974247664805096,0.4696522608128278,37.24465120302984,54.89893878401537,89.97960520849485,-6.028833317383366,-3.8388172273765155
GUIDED_NOGPS,3.959411859512329,34.088669630448386,48.36530777591891,45.915120846519095,99.9556525456226,-2.336831617626004,3.091738286501414,-0.815523986684334,81.12898584664397,1.5227922762799295,0.9670666343448301,7.138804010583784,1.8108529912153024,1.9208572537872768,3.0481088063292967,0.47175999995153206,37.24465120302984,54.89893878401537,89.97960520849485,-6.028833317383366,-3.0366763141933633
GUIDED_NOGPS,3.9965062141418457,26.961399268482392,45.60625897026789,47.45239453073687,97.90908408843094,-2.4209854283376795,2.888975243956981,-0.7620401179073371,81.27063421225843,1.4360376680416607,1.0724327610194433,7.07521964516602,1.8949847175778352,1.6702810140821647,1.3071043889635343,0.47504232518574124,39.66871974562233,50.76854557256009,94.34069440944843,-5.486447074315028,-1.3178029288008934
GUIDED_NOGPS,4.035226345062256,25.829857989185992,42.307808152455586,49.278953760861775,95.42555022075229,-2.485874977635863,2.6934206384004433,-0.7104576562758824,81.41330070683809,1.3677098429670282,1.1470781909112202,7.078177970850281,1.9361193488310826,1.512054339657041,1.056069114645485,0.4789816257291287,37.835910006996315,50.99334045202108,93.5261121097927,-5.901887191569655,0.34377467707849396
GUIDED_NOGPS,4.073593378067017,26.10833488951136,37.731649769384084,52.57218909035085,92.05698086639192,-2.517875197700852,2.5051309520137046,-0.6607915003906628,81.55696168171852,1.295510581293468,1.3427044136939057,7.131535408646421,1.949153630593118,1.198013657029884,0.6807756867130716,0.4842499712229899,36.66431668824198,51.30118185914225,92.45888739572881,-6.077203979515007,0.9740282517223995
GUIDED_NOGPS,4.110534906387329,27.0370007477503,37.35665203510244,51.808052346173326,92.52883327631196,-2.5086697427123292,2.324151950441564,-0.6130537220953132,81.70159320433461,1.2462224421387749,1.4984092479949245,7.199167088034241,1.8259672378223522,1.6229216794248833,0.13758170186827093,0.483759139892034,35.36966253162164,51.078255063127784,92.338867258095,-6.2218337049690575,1.948056503444799
GUIDED_NOGPS,4.146131277084351,28.100468307193438,36.69034857126642,51.13788509689478,93.02128645070636,-2.4769107348927863,2.150518404439911,-0.5672534930540509,81.84717106599872,1.2591735480221768,1.4752792392574994,7.263080583192635,1.8122446832883194,1.568286159142337,-0.20355064306593812,0.48323882692293857,33.913133883849696,51.54810253762264,92.44187108046687,-6.344349236444516,2.177239621497128
GUIDED_NOGPS,4.179659605026245,29.83570920472329,36.83503384282427,49.445844269622825,95.2708771886972,-2.416010691520698,1.9842538115243435,-0.523397011329533,81.99367078967877,1.2253502378088623,1.608739428092256,7.366084104744659,1.6406590091765463,1.664793182958169,-0.6758949433662994,0.4800841904014724,40.392146103411555,42.308341436200344,105.58864809940263,-4.860552003612924,2.807493196141034
GUIDED_NOGPS,4.226101875305176,21.537194411210443,35.91574029064884,49.6066492292279,95.16180019139264,-2.3347276790549008,1.8253701176182808,-0.48148742796048527,82.14106763777635,1.3086913522877115,1.3572096010568973,7.545683928970144,1.8450094527650942,1.5404564120288369,-0.724007836461628,0.4804689011695755,33.23944224611918,51.79736525004647,92.98072712327001,-5.874522362984853,3.896113006889598
GUIDED_NOGPS,4.263372182846069,26.837190553276983,37.74393016558431,45.17469904525082,99.57030813503913,-2.1793388867175705,1.673867438701624,-0.44152477353953845,82.28933661990473,1.3431161460348104,1.293062598806253,7.6790638630821535,1.23654736610585,1.8702705010806513,-2.0421359174835567,0.4740785427272984,45.8052660629193,29.141430939256857,114.50142711396121,-3.080376063658689,4.5263665815335035
GUIDED_NOGPS,4.298765182495117,28.26369449928908,39.83105087184384,40.78733422047664,104.00282010621238,-2.0369630234561074,1.5297337824589086,-0.4035058847908859,82.43845250066711,1.4224216859312402,1.096058171915106,7.818840269351879,1.05944671015948,1.9917939718482953,-2.0806034511268576,0.4676534485916821,45.8052660629193,29.141430939256857,114.50142711396121,-3.080376063658689,4.411775022507339
GUIDED_NOGPS,4.339063882827759,24.82115740822933,38.736430610247055,41.59373152777514,104.5536161981,-1.9167369806159273,1.3929447699278406,-0.3674243311480696,82.58838980743464,1.4571460475064677,0.9374383409423725,8.018959689391375,1.6258866429945142,1.6226161714904157,-1.6856493144390128,0.46705216041400194,28.440032575865764,55.580089074115186,95.19585153990501,-8.044105330158082,4.92743703812508
GUIDED_NOGPS,4.364627361297607,39.13619228903072,36.346007904737895,44.2480810553581,102.47505688620049,-1.7690306552626447,1.263463357147561,-0.3332703413316951,82.73912283812449,1.4106173047764599,0.9982688594641523,8.164937053653826,1.9609284634241102,1.294727647111379,-3.0661133662686963,0.470396098927886,28.440032575865764,55.580089074115186,95.19585153990501,-8.044105330158082,5.213915935690491
GUIDED_NOGPS,4.398985147476196,29.113363134075577,35.38612597068721,45.00462582017184,102.9180817695275,-1.678817141522285,1.141239556807239,-0.3010307299271888,82.89062566897798,1.428247410406438,0.839601217167229,8.317201607047274,1.764246446135789,1.4984008902784478,-1.647897374799031,0.4699588158491757,28.440032575865764,55.580089074115186,95.19585153990501,-8.044105330158082,5.099324376664327
GUIDED_NOGPS,4.423947811126709,40.06595023164732,31.9130792732765,50.2923574471435,99.05696665471626,-1.5549919517868227,1.0262101598942088,-0.27068882396249894,83.04287216233874,1.4555770249880688,0.8618561079172461,8.471456306810135,1.9755217502626075,0.928189874325024,-2.904897529211623,0.4759788582614337,28.440032575865764,55.580089074115186,95.19585153990501,-8.044105330158082,4.698253920072751
GUIDED_NOGPS,4.467343807220459,23.051452564933996,28.440032575865793,55.580089074115165,95.19585153990502,-1.475217206534801,0.9182984573424626,-0.2422243894859024,83.1958359744307,1.604089243206241,0.6806712529174948,8.675351967687002,1.9744564308634645,1.0169555134198085,-1.4132004646288827,0.4819999766517885,28.440032575865764,55.580089074115186,95.19585153990501,-8.044105330158082,4.92743703812508
GUIDED_NOGPS,4.498938798904419,31.660142362185706,28.440032575865793,55.580089074115165,95.19585153990502,-1.2993805221928676,0.8174139616810585,-0.21561355814367733,83.34949056313624,1.7094282625675858,0.5159552646671135,8.842730022166396,1.9701130266076257,1.3396325549522825,-3.4022061921036295,0.4822304585348468,28.440032575865764,55.580089074115186,95.19585153990501,-8.044105330158082,5.500394833255903
GUIDED_NOGPS,4.531294345855713,30.919816293282025,28.440032575865793,55.580089074115165,95.19585153990502,-1.1678034448171253,0.7234521286825277,-0.19082875375783193,83.50380919577434,1.8839136624869066,0.3391763085688435,8.9507375110591,1.9731130051168948,1.3388049975868637,-2.7690339534967077,0.482461936483804,28.440032575865764,55.580089074115186,95.19585153990501,-8.044105330158082,5.901465289847479
GUIDED_NOGPS,4.558729887008667,36.46079488160228,28.440032575865793,55.580089074115165,95.19585153990502,-1.033157146617096,0.6362940790110265,-0.16783861890390472,83.65876495687861,1.954907289050254,0.26990410311975105,9.017832166823428,1.9761518610459992,1.340004994225342,-3.3742767806091623,0.4826943701254604,28.440032575865764,55.580089074115186,95.19585153990501,-8.044105330158082,5.729577951308232
GUIDED_NOGPS,4.588607311248779,33.47542998523485,28.440032575865793,55.580089074115165,95.19585153990502,-0.9274057664049,0.55580631987117,-0.1466079414886723,83.81433075597539,2.107102900221767,0.07608254438182985,9.204123868888233,1.9786009055098182,1.3377759065162398,-2.625430308658,0.48292771882410557,28.440032575865764,55.580089074115186,95.19585153990501,-8.044105330158082,6.0733526283867265
GUIDED_NOGPS,4.622887849807739,29.176752112969982,28.440032575865793,55.580089074115165,95.19585153990502,-0.7795738631421619,0.481840466655985,-0.12709758132786408,83.9704793353619,2.3192773907029243,-0.09678207299178818,9.530831453683806,1.9820151347819974,1.335100777922707,-3.242284663994692,0.4831619416931853,28.440032575865764,55.580089074115186,95.19585153990501,-8.044105330158082,6.64631042351755
GUIDED_NOGPS,4.64838719367981,39.23650582798555,28.440032575865793,55.580089074115165,95.19585153990502,-0.6179396902962584,0.4142329645954881,-0.10926439672397681,84.12718327788431,2.3140117417396673,0.05755992512640152,9.588635344629624,1.985718921001738,1.334730978991097,-4.316211415775452,0.4833969976069689,28.440032575865764,55.580089074115186,95.19585153990501,-8.044105330158082,6.531718864491385
GUIDED_NOGPS,4.677517890930176,34.34210246207004,28.440032575865793,55.580089074115165,95.19585153990502,-0.4849567525448249,0.35280481040509315,-0.09306117104386846,84.28441501471582,2.4156744117802527,-0.1836842773491529,9.870634218665588,1.9888033144167354,1.3311832233651615,-3.504413581290736,0.48363284521221617,28.440032575865764,55.580089074115186,95.19585153990501,-8.044105330158082,7.62033867523995
GUIDED_NOGPS,4.710136890411377,30.663030843574315,28.440032575865793,55.580089074115165,95.19585153990502,-0.3200118577228517,0.2973612739338485,-0.07843653929662953,84.44214683313484,2.377126318208582,-0.19929595535768643,10.205940157852561,1.9926184206350595,1.3271480307150552,-3.917520701587994,0.48386944293984474,28.440032575865764,55.580089074115186,95.19585153990501,-8.044105330158082,7.677634454753031
GUIDED_NOGPS,4.734241008758545,41.49653725909217,28.440032575865793,55.580089074115165,95.19585153990502,-0.12260032478360686,0.24769161981312848,-0.06533491471132624,84.60035088430296,2.4148897937993477,-0.17069219033073085,10.332631629219835,1.9971706362177999,1.324400663624554,-5.628766559413143,0.4841067490165969,28.440032575865764,55.580089074115186,95.19585153990501,-8.044105330158082,8.13600069085769
GUIDED_NOGPS,4.765245676040649,32.26660717445322,28.440032575865793,55.580089074115165,95.19585153990502,0.026960793284407147,0.20356882910461493,-0.053696415314616,84.75899919104316,2.316774339815526,-0.04846019216124047,10.693797518378123,2.000621047195145,1.3193486465300284,-4.100192404073539,0.4843447214767072,28.440032575865764,55.580089074115186,95.19585153990501,-8.044105330158082,8.88084582452776
GUIDED_NOGPS,4.792524337768555,36.66958673206214,28.440032575865793,55.580089074115165,95.19585153990502,0.2407719384636713,0.1647493209489319,-0.04345679050856166,84.91806365561789,2.293851371187317,-0.06763722891652064,10.810358111658974,2.005540063998407,1.314119182823467,-5.748750789678464,0.4845833181735693,28.440032575865764,55.580089074115186,95.19585153990501,-8.044105330158082,9.339212060632418
GUIDED_NOGPS,4.822890996932983,32.9373184024124,28.440032575865793,55.580089074115165,95.19585153990502,0.43838032250489073,0.13097267421391123,-0.03454734764841039,85.07751606750709,2.31151018495615,-0.13060218155392944,11.237393491399219,2.0100679981451224,1.3081212905731154,-5.250115529258617,0.4848224967914031,28.440032575865764,55.580089074115186,95.19585153990501,-8.044105330158082,9.682986737710912
GUIDED_NOGPS,4.858928442001343,27.758097179388756,28.440032575865793,55.580089074115165,95.19585153990502,0.6584660386290895,0.10196134914314214,-0.026894878620223217,85.23732811118643,2.293520320455983,0.07227044505131648,11.579432289560533,2.0150894031074755,1.3012659386026681,-5.248649046605356,0.48506221485692214,28.440032575865764,55.580089074115186,95.19585153990501,-8.044105330158082,9.224620501606255
GUIDED_NOGPS,4.889791250228882,32.40771732999544,28.440032575865793,55.580089074115165,95.19585153990502,0.9349175758682419,0.07742040900437885,-0.020421586418767568,85.39747137390528,2.3063382376505697,0.051925445947964124,11.864195682663059,2.021374718114951,1.2931520952141442,-6.876914801497,0.4853024297510004,28.440032575865764,55.580089074115186,95.19585153990501,-8.044105330158082,9.740282517223996
GUIDED_NOGPS,4.919553279876709,33.61520829660025,28.440032575865793,55.580089074115165,95.19585153990502,1.1748449798432081,0.05703724173752178,-0.015045011725068669,85.55791735346486,2.2370470357378482,0.2899110078591878,12.184651083047132,2.0267987380617005,1.2857040164359261,-6.641356759347628,0.48554309872033974,28.440032575865764,55.580089074115186,95.19585153990501,-8.044105330158082,9.969465635276325
GUIDED_NOGPS,4.945625066757202,38.36861941527315,28.440032575865793,55.580089074115165,95.19585153990502,1.391492182478904,0.04048128160336617,-0.010677959484273636,85.7186374659964,2.2499582277032877,0.1425086953811426,12.399492122068944,2.031676972908067,1.2790111519987903,-6.940502327689791,0.48578417888913705,28.440032575865764,55.580089074115186,95.19585153990501,-8.044105330158082,9.281916281119337
GUIDED_NOGPS,4.9766271114349365,32.26635895068851,28.440032575865793,55.580089074115165,95.19585153990502,1.5555515334067247,0.02740373083198122,-0.007228425483408962,85.87960305373907,2.1641535493681796,0.08993459490543883,12.703027436331604,2.0353479588306227,1.2735441396199,-5.558642216436372,0.4860256272707511,28.440032575865764,55.580089074115186,95.19585153990501,-8.044105330158082,8.193296470370772
GUIDED_NOGPS,5.0108866691589355,29.198281923299152,28.440032575865793,55.580089074115165,95.19585153990502,1.7634403651466257,0.017437281271146077,-0.004599522928967481,86.04078539281832,2.0589812293112653,0.23814479069624958,12.965485992925807,2.039985033129902,1.2667290793646657,-6.11619749388087,0.48626740077937,28.440032575865764,55.580089074115186,95.19585153990501,-8.044105330158082,8.479775367936185
GUIDED_NOGPS,5.0395495891571045,34.90018305874521,28.440032575865793,55.580089074115165,95.19585153990502,1.978347612927443,0.010195836034331052,-0.002689409024871914,86.20215570102377,1.987002774846967,0.17996246458173065,13.09028464811934,2.044759539731956,1.2597078635605927,-7.0,0.48650945624167813,28.440032575865764,55.580089074115186,95.19585153990501,-8.044105330158082,7.505747116213785
GUIDED_NOGPS,5.0681047439575195,35.033402103188195,28.440032575865793,55.580089074115165,95.19585153990502,2.129301060291732,0.0052742311494178296,-0.0013912115499694622,86.36368514558741,1.914294984245358,0.2812812772862882,13.285272888544863,2.04810069565933,1.254755188850128,-6.021037166625343,0.4867517504085236,28.440032575865764,55.580089074115186,95.19585153990501,-8.044105330158082,7.505747116213785
GUIDED_NOGPS,5.093300104141235,39.703372743537074,28.440032575865793,55.580089074115165,95.19585153990502,2.2645406963802133,0.0022479572071354426,-0.0005929554359385136,86.52534485096167,1.8935593836988456,0.1534214166841189,13.45480074506552,2.0510858796333573,1.2503176553431814,-6.188096433510623,0.486994239966585,28.440032575865764,55.580089074115186,95.19585153990501,-8.044105330158082,6.0733526283867265
GUIDED_NOGPS,5.12235426902771,34.43373177459608,28.440032575865793,55.580089074115165,95.19585153990502,2.356894427268195,0.0006728810092120341,-0.00017748934494665747,86.68710590659757,1.898653851046029,0.11518516393674129,13.659404184295129,2.0531275528436614,1.2474687611762711,-5.175830906032017,0.4872368815500388,28.440032575865764,55.580089074115186,95.19585153990501,-8.044105330158082,6.245239966925974
