Mode,Time,Freq,North-Vision,East-Vision,Down-Vision,Yaw-Vision,North-Desired,East-Desired,Down-Desired,Roll-UAV,Pitch-UAV,Yaw-UAV,Roll-Control,Pitch-Control,Yaw-Control,Thrust-Control,northVraw,eastVraw,downVraw,yawVraw,zGyro
GUIDED_NOGPS,0.002608060836791992,386.6074292561526,226.6690284122506,-53.78231215708631,17.452854717501474,-4.292483664127282,227.4655801653932,-52.199837511616124,3.046094010025155,0.6361691020194238,1.9107787174832709,90.66527659001575,-0.8738347234868383,0.4596153306270964,0.21462418320636412,0.4927966196462618,226.6690284122506,-53.78231215708631,17.452854717501474,-6.457416199043024,-1.3750987083139758
GUIDED_NOGPS,0.005226612091064453,385.18725319129396,226.09737996953157,-54.113214708293235,18.5382847305787,-5.808159070151828,227.4656476034712,-52.19968129473813,3.046111487427019,0.6361691020194238,1.9107787174832709,90.66527659001575,-0.2038576703244883,0.261220815170645,0.2904079535075914,0.49225391337842417,225.52573152681256,-54.44411725950016,19.623714743655924,-6.269288519696985,-1.3750987083139758
GUIDED_NOGPS,0.02972102165222168,40.82246338021315,226.10753371885997,-54.78179261325007,20.283961147062648,-5.818263851310936,227.46611422786458,-52.19860038306201,3.046233127103286,0.6459602849163428,1.7689463175516653,90.6793194589493,-0.13126799376355944,0.05390063655007558,0.2909131925655468,0.4913811359900203,226.12784121751676,-56.11894842316372,23.775313980030546,-6.902244993332118,0.5156620156177409
GUIDED_NOGPS,0.0670475959777832,26.799979553238256,226.05486099841758,-55.873184530385856,23.02522501059326,-5.832261090380891,227.46736435838582,-52.19570451928759,3.046561166818126,0.49448168352512234,1.7115419926722932,90.72171444312757,-0.17715402375144193,0.05374474240563299,0.29161305451904457,0.49001066807811244,225.89684283709042,-57.05648790849369,25.676646308093318,-6.848206669365993,0.5156620156177409
GUIDED_NOGPS,0.10292339324951172,27.87709445223552,225.9149379669017,-57.11039488697909,25.613485449620246,-5.839318069637983,227.4697662976863,-52.19014054905368,3.0471957577304325,0.42665219545563643,1.3328436482448172,90.73781319900128,-0.2316846957165458,0.057765637591850286,0.29196590348189916,0.4887168551540551,225.3552458408382,-58.155748329279845,27.388496060736877,-6.943374782578701,0.5156620156177409
GUIDED_NOGPS,0.13959670066833496,27.273994693856316,225.60578233533425,-58.13696831735379,27.348061398346687,-5.839975637390364,227.47367255218276,-52.181091909173404,3.048234978540298,0.28739152182909933,1.1944852532798094,90.7564186343004,-0.2701939232941743,0.07405267698354157,0.2919987818695182,0.4878500867900968,225.12325025441316,-59.198668714287834,28.979041826209862,-7.020866653476588,0.5156620156177409
GUIDED_NOGPS,0.17507719993591309,28.21008736825822,225.49713666276756,-59.25905008933876,28.886078491789476,-5.836480457916717,227.4794200529836,-52.167778115869474,3.049774849635494,0.10228092889249718,0.9254381254574833,90.75723825700081,-0.31874919097766663,0.0695782791702185,0.29182402289583587,0.487081848178923,224.98250316397906,-60.42273322444858,30.290697588421697,-6.942867213440707,0.5156620156177409
GUIDED_NOGPS,0.20491290092468262,33.50805684932054,225.19397958496694,-60.43509732369099,30.2055516059978,-5.834119624038613,227.48733037681527,-52.149454253009594,3.0519093472379435,-0.17501219159927134,0.8929542793734315,90.74816776578302,-0.3740972609829524,0.08639253421035314,0.29170598120193064,0.4864231788706201,224.61205582851352,-61.68389003233654,31.34691540336187,-7.093137459283952,0.5156620156177409
GUIDED_NOGPS,0.2409834861755371,27.73331922743773,224.82300073648398,-61.689967222431726,31.280770001257682,-5.830214681212318,227.49770996694852,-52.12541046034172,3.054730417550199,-0.47791473952813907,0.5935708663524939,90.71706991449196,-0.42421779668981763,0.1007431008422125,0.29151073406061595,0.48588698020814625,224.04194859467563,-62.96327841051004,32.204697011989516,-6.8572845159269065,0.5156620156177409
GUIDED_NOGPS,0.27837157249450684,26.773292480531087,224.54341734870664,-62.994646267179974,32.17220155732601,-5.861191186327305,227.510850354125,-52.09497142172941,3.05832799090192,-0.5408523714088678,0.4940025030661636,90.70327293236853,-0.479319300938318,0.10684275449317499,0.2930595593163653,0.48544306321678793,223.9573289019515,-64.33677035869333,32.964992256626665,-7.113896479804552,-1.604281826366305
GUIDED_NOGPS,0.3130812644958496,28.804263326328513,224.27387688538383,-64.30544039648136,32.97284512067298,-5.909115419429293,227.52702837748336,-52.05749585338715,3.062789995896348,-0.9346148047725128,0.47432846332705925,90.60657794428866,-0.53618076821377,0.11496713181027793,0.29545577097146464,0.4850449724376117,223.77554793779902,-65.61627242024069,33.748846093402754,-7.0299669697092355,-1.604281826366305
GUIDED_NOGPS,0.347792387008667,28.816334943285263,223.92363513075148,-65.620004510757,33.768058957535864,-5.9640000403624835,227.54650640548573,-52.012375992115686,3.068202373556783,-1.1687884807966347,0.484096380892118,90.50476031433128,-0.5936470933009698,0.12949099412253243,0.2982000020181242,0.48465007170801044,223.23129439081737,-66.90697075333695,34.590338522578186,-6.984510836791415,-1.604281826366305
GUIDED_NOGPS,0.3813154697418213,29.838256217631326,223.5406074740969,-67.31852913606402,35.040882817680505,-6.019983298523601,227.5695325568441,-51.9590370835373,3.0746490914730615,-1.291322821558604,0.4083997955592467,90.42699178044151,-0.6762507078793935,0.14190659902045455,0.30099916492618006,0.4840168831368963,222.69691754524067,-69.43234423461442,36.78346383706056,-6.728956110991803,-1.604281826366305
GUIDED_NOGPS,0.4126274585723877,31.95343699290737,223.2716012642099,-68.5905530741886,36.05242206556644,-6.07636288964231,227.59634092144663,-51.89693687033121,3.082212157948031,-1.5015642617829414,0.396319218629904,90.37508234274942,-0.7233363228603079,0.14837945056079782,0.3038181444821155,0.4835148950461908,222.69691754524067,-69.43234423461442,36.78346383706056,-6.728956110991803,-1.604281826366305
GUIDED_NOGPS,0.4474911689758301,28.70687436690667,222.9400381120708,-69.83943389856279,37.2671631562605,-6.130706873676482,227.62715178128406,-51.825565080468834,3.090971636144026,-1.4779120637391279,0.38620418871679113,90.31916358401452,-0.77469039246974,0.1612862041563085,0.3065353436838241,0.48291190423994174,222.299513141256,-70.65361322645956,38.23456179466037,-6.942371071166448,-1.604281826366305
GUIDED_NOGPS,0.48216843605041504,28.86273646254103,222.62150607011077,-70.63643593813188,38.257540359744844,-6.191394772985892,227.66217183137596,-51.74444291544914,3.101005658229349,-1.5019110006050254,0.32870658906656597,90.28681580810535,-0.8018295640782862,0.17494290149084835,0.3095697386492946,0.48242173264924226,222.18288772799895,-71.8233503533217,39.754595447513594,-7.002681723429916,-1.604281826366305
GUIDED_NOGPS,0.5181565284729004,27.78199931113054,222.23059498447202,-71.82318754416055,39.821705864599956,-6.220717641295946,227.70159440069722,-51.65312253853398,3.11239043952474,-1.464160545062365,0.3140699739229047,90.29677422391522,-0.8634145702775117,0.1909810115898546,0.3110358820647973,0.48164534228746236,221.27673896262357,-72.99259905270041,41.4759603516259,-6.8777007151240355,0.057295779513082325
GUIDED_NOGPS,0.5532214641571045,28.52511238514952,221.82685537758488,-73.34463987448137,41.93350176255263,-6.248276186617707,227.74559967310438,-51.55118656298338,3.12520029264986,-1.328965061291602,-0.06001740584543095,90.30154852614506,-0.9396799256026904,0.20550043417971603,0.31241380933088536,0.4805958492650486,220.6782195108051,-75.21797021742206,44.5699494885184,-7.705983506447268,0.057295779513082325
GUIDED_NOGPS,0.5884792804718018,28.37037087140915,221.23899856438348,-74.84343678873181,44.016995274464904,-6.266922475708192,227.79435490826188,-51.4382475402909,3.1395076416697614,-1.0738707292831426,-0.35377034175189803,90.30452648862318,-1.0077934142878278,0.23477567236872338,0.3133461237854096,0.4795612561836024,219.7576334792336,-76.31974109607297,46.00507598325039,-7.657943332766976,0.057295779513082325
GUIDED_NOGPS,0.6226038932800293,29.311324644466964,220.5299975446343,-76.31107324675365,45.92762988495162,-6.28210803861909,227.84801466256857,-51.31394744841894,3.1553830362413686,-0.6777354455131529,-0.7048766429232266,90.30617256421316,-1.0769255669500524,0.2692524737923462,0.31410540193095454,0.47861387657564486,218.75450804251022,-77.39550842676594,47.207864183086045,-7.695383507116688,0.057295779513082325
GUIDED_NOGPS,0.6591329574584961,27.383504495034895,219.7925503523581,-77.36744921304052,47.07135798252196,-6.2999744069080865,227.906721010084,-51.17795718003406,3.172895165759952,-0.27977900919485565,-0.8623862479907155,90.33063147163098,-1.117890909479386,0.3035168038176228,0.3149987203454043,0.478050768591619,218.49565176661778,-78.38709811628267,48.0011337812294,-8.216536124490787,0.057295779513082325
GUIDED_NOGPS,0.6976714134216309,25.952121373370375,219.11387162115483,-78.39594327427885,47.97247636726795,-6.315573735153934,227.97060376345473,-51.02997603074233,3.1921108735056065,0.25311875315188603,-1.4344814521279554,90.38085385259808,-1.167417648462328,0.3323927161738631,0.3157786867576967,0.47760981725311885,217.88334530660717,-79.40522327978795,48.70843113748838,-8.097536850839916,0.057295779513082325
GUIDED_NOGPS,0.7312860488891602,29.75696691072138,218.38937096158557,-79.35031921289391,48.67769869072513,-6.332555335591104,228.03978069484083,-50.869731187324625,3.2130951707897255,0.5800101660856682,-1.5852938432708352,90.40233479753776,-1.2190218997352202,0.37014156054266234,0.31662776677955523,0.4772676982400323,217.05571621295874,-80.25863624261113,49.32353115345756,-8.34645998309584,0.057295779513082325
GUIDED_NOGPS,0.7705833911895752,25.453344984949997,217.72183291030228,-80.25312672835166,49.29499281060686,-6.336203612717505,228.11435775684203,-50.69697721597196,3.2359112511014807,1.0848723497670347,-1.9089627409376937,90.41152140197144,-1.261351811006686,0.39784757436210816,0.3168101806358753,0.47697045922024733,216.4199432228171,-81.09552066265596,49.85301614087458,-8.452631242950417,0.8594366926962349
GUIDED_NOGPS,0.8036189079284668,30.277880846333204,217.1390106408493,-81.11860504435072,49.8579876248158,-6.332030203304821,228.1944293034243,-50.51149555052083,3.260620504254294,1.172899934511865,-2.182677449284077,90.42713521441408,-1.3108434124187651,0.42678097529157033,0.3166015101652411,0.47670131643971925,215.84039669524537,-82.0016582277851,50.397415580115215,-8.518416977281333,0.8594366926962349
GUIDED_NOGPS,0.8409373760223389,26.805974346356148,216.4759185725189,-81.9968488443551,50.395819526375355,-6.3267744840555675,228.28007831084605,-50.31309398068849,3.2872825305323192,1.2539200653333793,-2.20901380495,90.39604419331219,-1.3561596079119844,0.459569715464839,0.3163387242027784,0.4764457315020785,215.18019142496578,-82.89336764262427,50.937026858136214,-8.467788873175692,0.8594366926962349
GUIDED_NOGPS,0.8729603290557861,31.23597313037132,215.76606100596436,-82.92658838671072,50.8865714915077,-6.3164800133699215,228.3713765985846,-50.10160614030836,3.3159551548369133,1.091739891534071,-2.0653670292984043,90.31968267839144,-1.4114781884373215,0.49807029073276676,0.3158240006684961,0.4762146918316646,214.33405747383455,-83.88473928972282,51.32527203627162,-8.370710789916103,0.8594366926962349
GUIDED_NOGPS,0.9070255756378174,29.362418268624953,215.0327852930731,-83.91004384999827,51.33614241596886,-6.308014148249799,228.4683850502624,-49.87689099556525,3.346694440833117,0.8022439243886673,-1.9071794212340858,90.22262569028557,-1.4647051280458938,0.5336314419329595,0.31540070741249,0.47600527601243214,213.3893376485023,-84.9520246176478,51.7461283534987,-8.299012803050502,0.8594366926962349
GUIDED_NOGPS,0.9431116580963135,27.717557806810596,214.2705490381064,-85.01266666048544,51.725352008983606,-6.296426686079567,228.57115383457358,-49.63883233323076,3.379554705096129,0.46488204490066715,-1.8489849288451077,90.09139726576211,-1.5245463505811714,0.5702783619651053,0.31482133430397835,0.4758271013480563,212.60876194798377,-86.20123607408574,52.104655637180464,-8.137091709139298,0.8594366926962349
GUIDED_NOGPS,0.9748005867004395,31.562224396117088,213.4396723987098,-86.22717282423241,52.08888035947507,-6.283654107688727,228.67972262621015,-49.38733824889858,3.4145885312577837,0.10744575252421687,-1.4367065996934987,89.90309578053403,-1.5963897902161817,0.6154808502453445,0.3141827053844364,0.4756628540858914,211.68601349826238,-87.52825778096376,52.41585708774602,-8.136665517655985,0.8594366926962349
STABILIZE,1.0161213874816895,24.206473059698048,212.44971092626255,-87.53111415598447,52.44892857142266,-6.388386672645687,228.79412082678843,-49.12234063521979,3.4518467841530254,-0.399306252453021,-1.2211575688755323,89.74475833519479,-1.6595052721909844,0.657493421872301,0.31941933363228436,0.4755014591063652,210.2303840627297,-88.86384861290396,52.82627298934147,-7.9733838473609495,-6.016056848873644
STABILIZE,1.0525634288787842,27.448555684986193,211.06212131877223,-89.29454351072285,52.98601344168957,-6.555624284996205,228.91436778577534,-48.843794670138244,3.4913786239663875,-0.9799703557908651,-0.9305589530659946,89.41500363225575,-1.759108977053806,0.7272628014336908,0.32778121424981027,0.4752526825911384,207.39610943638294,-91.49152413830087,53.71591024798117,-8.018472599327751,-6.016056848873644
STABILIZE,1.0894532203674316,27.113903757143227,209.58752750047339,-91.06301193324049,53.52529571506496,-6.746684112992157,229.0404730214149,-48.551678305125826,3.533231520378467,-1.266720480168218,-0.649053720280124,89.17033942599672,-1.8530121074694603,0.7916042974968426,0.33733420564960787,0.47500396790265675,206.01636855700795,-92.83366304851674,54.03370390787218,-8.1328065846387,-6.016056848873644
STABILIZE,1.119987964630127,32.75955417743863,207.9167089313813,-92.76106912318777,53.96931936420143,-6.95516346438053,229.17243644165444,-48.24599175341782,3.5774512667124037,-1.5049063587211933,-0.21071749907340226,88.96533812824795,-1.9562460945088254,0.8772163018532242,0.3477581732190265,0.47480406595125546,204.25466910252342,-93.95802018274577,54.158343936750896,-8.402900455892706,-6.016056848873644
STABILIZE,1.1560592651367188,27.73001884235232,206.4304400522335,-93.58323447133607,54.11679726045801,-7.1358349375359,229.31024856507108,-47.92675697824821,3.6240819940803517,-1.6454845651664554,0.12037514721059894,88.71205422325637,-1.9857684185438087,0.933729474127195,0.356791746876795,0.47475364236681117,204.25466910252342,-93.95802018274577,54.158343936750896,-8.402900455892706,-6.016056848873644
STABILIZE,1.190901279449463,28.71198368039868,204.65610220221967,-94.67602084247403,54.29272813173708,-7.349654105396684,229.45389074179792,-47.594017181085036,3.673166185529961,-1.7171016599349778,0.6325527836581665,88.47861884799285,-2.06643130744404,1.0201038290618305,0.36748270526983423,0.47469021902689645,201.3586948126606,-96.11202216193061,54.56149652170937,-8.865678283931388,-6.016056848873644
STABILIZE,1.2232933044433594,30.878842090538978,203.14143016213004,-95.73634458666619,54.589942020797764,-7.561190212358671,229.60333537445067,-47.247836289865674,3.7247446901908505,-1.8571721912258374,1.3679414290685739,88.30640245826015,-2.138592962703448,1.0814660505377915,0.3780595106179336,0.47456740133469655,199.8227492359347,-97.13899141532227,55.04998560393294,-8.92348114862719,-6.016056848873644
STABILIZE,1.2625789642333984,25.46029780440576,201.5813991302374,-97.09880072694123,55.18084055733387,-7.757438612775377,229.75854613905366,-46.8882984472322,3.7788567374210866,-2.008296743358128,2.623219954994845,88.0845647442073,-2.1778348529820146,1.1458332415285337,0.38787193063876885,0.4742990080900436,198.21621339754478,-98.04538860357086,55.93103954635923,-9.01226518490219,-6.016056848873644
STABILIZE,1.2988982200622559,27.53794235440877,200.05926360154712,-98.0966598170928,56.05165375718599,-7.955701837235146,229.91947820596658,-46.5155074987667,3.8355399509536583,-2.423566481922791,4.267088540092358,87.84798748192557,-2.193861659945651,1.2212698613667934,0.3977850918617573,0.4738919430968838,196.643991459072,-99.1055994323853,57.17393612126572,-8.857117135909562,-3.8388172273765155
STABILIZE,1.3358101844787598,27.099013419306488,198.2487254086875,-99.14497804691088,57.39736170304334,-8.114484435663407,230.08607846081054,-46.129586481226575,3.8948303630429537,-3.0138589641953843,6.07226143394983,87.64399705217397,-2.2124682834574756,1.3183274101692197,0.40572422178317036,0.4732487343299998,195.2019781382252,-100.28394610477653,59.08710944150498,-8.735443168653617,-3.8388172273765155
STABILIZE,1.3663105964660645,32.791312573782925,196.71383524440165,-100.38433635217781,59.4743534232727,-8.259537782622715,230.25828572539453,-45.7306771107799,3.9567624286112375,-3.60232714562935,7.319569662723226,87.45075734017597,-2.228144269978395,1.3944603746130084,0.4129768891311358,0.47224120450266927,193.68424399123128,-101.76346351937168,62.16201470704731,-8.658566953818237,-3.8388172273765155
STABILIZE,1.3959321975708008,33.767301065919554,195.486134195461,-101.27029104783993,61.13704628519991,-8.380679269532862,230.4360309786418,-45.31893927124073,4.021369039395126,-4.4333404671323455,8.45482138108657,87.28026215811411,-2.2403363333890898,1.4498001800893645,0.4190339634766431,0.4714421613770976,193.68424399123128,-101.76346351937168,62.16201470704731,-8.658566953818237,-3.8388172273765155
STABILIZE,1.4315366744995117,28.09406878997957,194.57974031419832,-101.76346351937165,62.162014707047355,-8.492081075776712,230.6192375775163,-44.89455050230442,4.088681538092066,-5.13392193492384,9.314745612685758,87.10795697592219,-2.2488057327563653,1.481144951750326,0.4246040537888356,0.4709633334155224,193.68424399123128,-101.76346351937168,62.16201470704731,-8.658566953818237,-3.8388172273765155
STABILIZE,1.458864450454712,36.606538777077624,191.25394301769524,-103.95134101477885,65.650143893934,-8.616078855938973,230.80782147794875,-44.45770548778296,4.158729732506807,-5.3382355180005465,9.53513105776633,86.96688624880476,-2.277054378812781,1.6362968384848011,0.43080394279694867,0.4692542929192864,180.01500497655658,-108.32709600559326,72.62640226770722,-7.5821231417461945,-3.8388172273765155
STABILIZE,1.4915037155151367,30.64645150919546,186.79062798943522,-106.34988601303854,69.78428603563744,-8.720299033561687,231.00169145576336,-44.00861554384029,4.231541909697883,-5.647017698206245,9.220014303992267,86.9655543619166,-2.280102509224632,1.6311918052014083,0.4360149516780844,0.4672236279370302,172.88540299692514,-108.95909851415077,74.56444113215765,-9.186870567321435,-3.8388172273765155
STABILIZE,1.5250284671783447,29.836133676677715,183.1147854978588,-108.89588850718837,74.61804964532337,-8.817696552340571,231.200749327604,-43.54750810722764,4.307144850124085,-5.462395977393507,8.88420378458036,86.98517749540206,-2.282944277796408,1.6264072255161095,0.4408848276170286,0.46484454760240035,175.30503153334925,-109.40147100182115,76.6633055361051,-10.065923221860047,-1.8907607239317168
STABILIZE,1.5664217472076416,24.165052515138072,179.43894300628241,-109.25401350593101,75.96368406812266,-8.905029189272135,231.4048901718605,-43.074626223518834,4.385563841790939,-5.049932379360662,7.059218219487972,87.16020109288363,-2.28548677379884,1.6221058286370265,0.4452514594636068,0.46421093988683415,175.30503153334925,-109.40147100182115,76.6633055361051,-10.065923221860047,-1.8907607239317168
STABILIZE,1.5974376201629639,32.249736653928665,175.22835076067366,-109.76315573818658,75.7392005397485,-9.01909348346121,231.6140025495952,-42.59022803534563,4.4668226943971785,-4.635449606654431,6.049183505404827,87.26685449677338,-2.2887995051895755,1.6164718648925023,0.45095467417306057,0.46436381107732433,172.63128276318733,-110.48652521091746,73.89099054703514,-12.3041835484145,-1.8907607239317168
STABILIZE,1.6268012523651123,34.063476594224085,174.20991404710753,-110.43737470734806,73.96095828325463,-9.097717810665266,231.82796872546908,-42.094586270633044,4.5509437534812305,-4.110056514658241,4.687985714202877,87.4302053009634,-2.2910776848316767,1.612577902049946,0.45488589053326334,0.4652949927351133,174.922821408726,-111.4241279093056,71.32857876662348,-11.65693250867291,-1.8907607239317168
STABILIZE,1.6604230403900146,29.751056887501772,174.61739772946768,-111.11159367650953,72.18271602676076,-9.170615791659312,232.04666488866835,-41.58798773083465,4.6379479145676825,-3.657197043439824,3.5707977117601017,87.61448380477034,-2.2931860863913105,1.6089599287262635,0.4585307895829656,0.46622761594390344,174.922821408726,-111.4241279093056,71.32857876662348,-11.65693250867291,-1.8907607239317168
STABILIZE,1.6967432498931885,27.538484770890374,174.54095570454302,-111.42412790930557,71.32857876662354,-9.249239335781622,232.26996137383063,-41.07073277916795,4.727854637313763,-2.9550194458166636,2.238515526409401,87.81739506463308,-2.2954559252777247,1.605049604796028,0.46246196678908114,0.46669963793534514,174.922821408726,-111.4241279093056,71.32857876662348,-11.65693250867291,-1.8907607239317168
STABILIZE,1.7246105670928955,35.8907780905847,174.4645136796184,-111.42412790930557,71.32857876662354,-9.334013050378465,232.49772288197144,-40.543134828849645,4.820681959655818,-2.6533240137616767,1.3454899569365073,88.00510915359254,-2.2978984748407427,1.6008239142539704,0.46670065251892323,0.46674605159651616,174.922821408726,-111.4241279093056,71.32857876662348,-11.65693250867291,-1.8907607239317168
STABILIZE,1.7570130825042725,30.871569154221532,174.92282140872612,-111.42412790930557,71.32857876662354,-9.40059630713002,232.72980870141043,-40.00551983133102,4.916446511955785,-2.5108121167293604,0.6831782525080068,88.1913206009346,-2.299813383479764,1.5974980756970725,0.470029815356501,0.4667939338726661,174.922821408726,-111.4241279093056,71.32857876662348,-11.65693250867291,-1.8907607239317168
STABILIZE,1.7919621467590332,28.61970754607548,174.92282140872615,-111.42412790930557,71.32857876662354,-9.362392052519308,232.96607292869786,-39.4582257645332,5.015163531147673,-2.6250617581932216,0.14921615458950668,88.39976431402505,-2.298715023544168,1.5994071203086575,0.4681196026259654,0.4668432923822621,174.922821408726,-111.4241279093056,71.32857876662348,-11.65693250867291,4.984732817638163
STABILIZE,1.822993278503418,32.231149909322845,176.23688717479698,-111.59720357278123,61.27246974718267,-9.31220875387092,233.2063646895409,-38.90160212108254,5.116846874884038,-2.958699210232008,-0.079946510461353,88.57458983602069,-2.2972707170936246,1.6019117254292432,0.465610437693546,0.4719221885638507,181.4931502390801,-111.94335489973258,41.160251708300876,-16.60837047295263,4.984732817638163
STABILIZE,1.8595619201660156,27.35314564461748,176.27169379756566,-112.40416932922942,50.51471312416834,-9.208527395617097,233.45052835972993,-38.3360093965459,5.221509035682455,-3.3746568769121383,0.06824650313482694,88.81770358933812,-2.2942811227376496,1.6070754629506467,0.4604263697808548,0.47735339795575704,175.09685452256946,-113.84502517865012,39.05530889758049,-11.860980739572057,4.984732817638163
STABILIZE,1.89103364944458,31.782253542471775,176.37447456542193,-113.70478772891568,38.41556109880221,-9.070094860944362,233.69840378606506,-37.76181857766599,5.329161155072003,-3.539036478345896,0.29784395241504025,89.05742956882723,-2.2902777872793747,1.613946933818526,0.4535047430472181,0.4834568000281349,175.43672524800724,-115.32598310836438,35.03112269052509,-11.374691708858492,4.984732817638163
STABILIZE,1.9255564212799072,28.97259062776304,176.3185664803061,-115.36514762587312,35.31396193324537,-8.938836726703252,233.94982650728235,-37.179410630596706,5.439813037739734,-3.41516758265313,0.9464960255554558,89.25245196019861,-2.286469579958308,1.6204378581403325,0.44694183633516266,0.48506292555224717,174.6432809831469,-116.9244345906049,31.855454211630402,-10.549718210446429,4.984732817638163
STABILIZE,1.9570698738098145,31.74977480034821,176.01008184454255,-116.83687424829554,32.17673266670058,-8.788222220594754,234.2046279749802,-36.58917598913843,5.5534731656771505,-3.1220252549862915,2.089447928434342,89.48557997694948,-2.282085000606787,1.6278565276545793,0.43941111102973773,0.4866883702494883,173.38039822990834,-118.2602050459174,29.64362109794609,-10.175204793040677,4.984732817638163
STABILIZE,1.9945921897888184,26.65690461663616,174.19639229849497,-118.32648422240673,30.05358941674453,-8.646242728890842,234.46263577454576,-35.99151404297338,5.670148712326688,-2.6720888912892287,3.6279698102076936,89.7217269373135,-2.2779373576081383,1.6348208834795226,0.43231213644454214,0.48780827964779105,172.4247025088423,-119.79481303069795,28.661692940656952,-9.402619284614872,4.984732817638163
STABILIZE,2.0327563285827637,26.2081755583049,173.4705509967269,-119.80399404640549,29.198949232330975,-8.398585216529685,234.72367384608123,-35.38683262590088,5.78984555672818,-2.246898302955122,5.450606217112419,89.95178819912705,-2.2706690812359267,1.6469011308258241,0.4199292608264843,0.4882954481621986,171.467648013729,-121.3569640626012,29.29153365838973,-8.443826947874683,9.11002894258009
STABILIZE,2.0667359828948975,29.43639770645743,171.950245299161,-121.30525372953569,29.895751997279262,-8.103350725817107,234.98756270533022,-34.77554750407279,5.912568297665347,-1.9426863730778086,6.972827425544712,90.22593833203302,-2.2619490908335482,1.6611884571612485,0.40516753629085533,0.48800840815019303,167.8351967601777,-122.76398409530799,31.73402939279095,-6.621407377796501,9.11002894258009
STABILIZE,2.100135564804077,29.947335351573656,169.10041475383522,-122.79392046979758,31.99686732337919,-7.801574630591692,235.25411966460416,-34.158081864228706,6.038320267812269,-1.5915061137643736,7.958766939783345,90.39755366511876,-2.2529738217893387,1.6756632443453783,0.3900787315295846,0.48702072647221656,160.39412825651803,-124.26081325148364,34.96503891895672,-5.5612606032999,9.11002894258009
STABILIZE,2.138854503631592,25.832562436485695,167.32943911016497,-123.87507392976619,35.39938642301349,-7.51930720624946,235.52315905370864,-33.534865801931375,6.167103547879853,-1.4846962558539487,8.63041786068478,90.68069915716164,-2.244522194738531,1.6890828477458872,0.375965360312473,0.48538385856243316,164.52552001155695,-124.60042444250703,39.499090957292665,-5.983893655128497,9.11002894258009
STABILIZE,2.167569398880005,34.836701301505826,165.00066171153304,-124.63518510301923,39.09477107300876,-7.172037914486549,235.79449244086973,-32.90633580980199,6.298918980762321,-1.188722281167611,8.701831757325495,90.83891365909581,-2.234049572131143,1.7054325627013869,0.3586018957243275,0.4836020739538768,160.78081551568266,-125.04431761506711,42.820183342776744,-5.704497081281488,9.11002894258009
STABILIZE,2.197981834411621,32.892632239344394,162.32891267467716,-124.83130825337899,42.52652345963917,-6.923347404391579,236.06792885366042,-32.27293426575549,6.433766185683684,-1.225223345700688,8.40393049535445,91.04751446653717,-2.2264993433646243,1.7170313364816407,0.34616737021957894,0.4819536213630223,158.10890282944965,-124.84918270256293,45.260296078847965,-6.6689358255977425,9.11002894258009
STABILIZE,2.234069585800171,27.717191475301505,160.39742143651114,-124.95459575145473,44.719141496471615,-6.661230484952206,236.34327499992682,-31.635108921235933,6.571643572344214,-1.0195324122891656,7.66215487601814,91.25946889686101,-2.2184960879101707,1.7291561275377587,0.3330615242476103,0.4809262510379363,158.1777405693476,-124.97028693673423,46.07694506778998,-7.150966807695767,9.11002894258009
STABILIZE,2.2686142921447754,28.95538956466511,159.74045892159282,-124.92294140330421,45.56011336792334,-6.361716910098574,236.62033548871474,-30.993312389451766,6.7125483550669225,-0.8660598225471245,7.207272815031754,91.37850543371599,-2.20929416508236,1.7428837230207002,0.3180858455049287,0.48057621749357177,157.10931568192638,-124.94935457061555,45.34309895713194,-7.781251835266886,9.11002894258009
STABILIZE,2.2962372303009033,36.209610304401124,158.70830333927836,-125.09141937189594,44.707975156422066,-6.157190004930971,236.8989130511959,-30.348001633611233,6.856476566944039,-0.8077012988963604,6.857600426699305,91.49558170627918,-2.202975802875578,1.752179242439457,0.30785950024654857,0.481074250705261,159.36474209998468,-125.35461660833815,42.703881444344134,-9.281820503808447,4.755549699585833
STABILIZE,2.332240104675293,27.782551384721366,158.42508865613877,-125.21952926243058,43.58362061527345,-6.0306083823079435,237.1788087615943,-29.699637455157568,7.003423073983487,-0.580493241886888,5.806687884207279,91.75562749854907,-2.1990513029026078,1.7579000694763849,0.3015304191153972,0.48170990122935503,159.36474209998468,-125.35461660833815,42.703881444344134,-9.281820503808447,4.755549699585833
STABILIZE,2.360196113586426,35.78330233589844,158.67625651024576,-125.35461660833812,42.7038814443442,-5.863431744653275,237.4598222581126,-29.048683982004455,7.153381589255355,-0.4736769806741164,5.2757738649276025,91.86764943112645,-2.193851761510585,1.7654176779430835,0.2931715872326638,0.4822247500724556,159.36474209998468,-125.35461660833815,42.703881444344134,-9.281820503808447,4.755549699585833
STABILIZE,2.3917837142944336,31.666357122903975,158.9136568163732,-125.35461660833812,42.7038814443442,-5.751057249980142,237.74175196385858,-28.39560815677126,7.306344687038384,-0.44268489059347776,4.782277756355372,91.96297838137232,-2.190346181213609,1.770446586617354,0.2875528624990071,0.4823012316213471,159.36474209998468,-125.35461660833815,42.703881444344134,-9.281820503808447,4.755549699585833
STABILIZE,2.427154302597046,28.287712530265118,159.36474209998488,-125.35461660833812,42.7038814443442,-5.624773412280657,238.02439530777127,-27.740879225018425,7.462303816966432,-0.5228299567884371,4.397159674438319,92.04957834985892,-2.1863966379259754,1.7760744874230663,0.28123867061403285,0.4823792111863111,159.36474209998468,-125.35461660833815,42.703881444344134,-9.281820503808447,4.755549699585833
STABILIZE,2.460023880004883,30.427904007428687,159.06306106656137,-125.76062664814276,36.742717952873555,-5.483069419959074,238.30754894554752,-27.08496822348271,7.621249318174956,-0.5045364156744687,3.9517340103578147,92.08134555968864,-2.1819521823213193,1.7823599000761643,0.27415347099795373,0.4854392656826507,157.85633693286732,-126.57264672775203,24.82039096993222,-7.838143021027577,4.755549699585833
STABILIZE,2.495138645172119,28.482690244333075,159.02131127153413,-126.4254226239126,29.411528803164387,-5.350128466667072,238.59100898056826,-26.428347468312587,7.783170433447492,-0.5525365839229383,3.360978569325541,92.09619439094425,-2.177770439459904,1.788227945088311,0.2675064233333536,0.48918582081514156,159.1559931248485,-127.3490045356476,20.710313995216627,-7.994171259948786,4.755549699585833
STABILIZE,2.53429913520813,25.540762391913287,158.98242734954172,-127.20712396216129,21.288344915835783,-5.294333599086529,238.8745711848249,-25.771490043303572,7.948055323362126,-0.5105941531380354,2.3558500655005807,92.06722072848505,-2.176011881960094,1.79068244396046,0.26471667995432646,0.49332985520376316,159.17032249002264,-127.6997206230842,18.334329782358317,-6.674703699186836,-0.6875493541569879
STABILIZE,2.5652616024017334,32.30637222808463,160.67860806917906,-127.19410582881805,17.64126923394207,-5.297030113296858,239.15803121984564,-25.11486928813347,8.115891080437967,-0.38033657597207415,1.4029762440859197,92.04905925548199,-2.176096918880381,1.79056393338054,0.2648515056648429,0.49523731092324796,167.84564569817147,-126.53359232772235,13.87916392425107,-11.336912144548279,-0.6875493541569879
STABILIZE,2.5973002910614014,31.22178965155316,161.08125463647474,-127.54347554453891,14.316344336139986,-5.3041633201427745,239.4411848576219,-24.458958286597728,8.286663743281634,-0.2833077623965193,0.5269538969432439,92.04577393449122,-2.176321847520593,1.7902503767646811,0.26520816600713876,0.4969851597035708,161.37797493646298,-128.39711368281016,10.735539301810377,-6.072251191143479,-0.6875493541569879
STABILIZE,2.6304123401641846,30.207446885127837,162.26205880538714,-127.13839773530133,10.455860874744909,-5.345818605261885,239.7238282015346,-23.8042293548449,8.460358310733731,-0.024977734990472178,-0.34234871799490285,92.0437043871727,-2.1776346736792047,1.7884177174208227,0.26729093026309425,0.4990022487179944,163.7603577774294,-126.48448719537149,6.752879398173084,-10.391170471727335,-0.6875493541569879
STABILIZE,2.659062385559082,34.91529035695258,163.1829317359033,-127.12202935785103,8.08043269938558,-5.3918740782706145,240.00575790728055,-23.15115352961171,8.63695875601531,0.11033109390193735,-0.995356210669965,92.0626308413628,-2.179084838240714,1.7863882813510537,0.2695937039135307,0.5002782630283149,163.7603577774294,-126.48448719537149,6.752879398173084,-10.391170471727335,-0.6875493541569879
STABILIZE,2.6891207695007324,33.277826704432755,164.10093879338467,-126.48448719537146,6.75287939817315,-5.438563513572906,240.28677140379887,-22.500200056458574,8.81644804087436,0.20352984554987452,-1.4100847634646103,92.09469857951602,-2.180553527419161,1.7843274985866286,0.2719281756786453,0.5010317843213506,163.7603577774294,-126.48448719537149,6.752879398173084,-10.391170471727335,-0.6875493541569879
STABILIZE,2.7201647758483887,32.22223587978612,163.78382051242966,-126.75493409648284,1.8533435470203077,-5.483365361925461,240.5666671141973,-21.851835878004927,8.998808129732284,0.24895484571826415,-1.6041577585413527,92.11240926003386,-2.181961478269916,1.7823468061135253,0.2741682680962731,0.503572732291356,166.26005429339634,-127.29582789870564,-7.945728155285442,-9.901065786865772,-0.6875493541569879
STABILIZE,2.7538230419158936,29.719014823002578,164.76023638381633,-127.02538099759424,-3.0461923041325343,-5.5292446917581515,240.84524467667842,-21.20652512216438,9.18402000383037,0.15542008744978067,-1.4099244674625266,92.16341711275551,-2.183401907607935,1.7803152104509536,0.2764622345879076,0.5061151061539815,166.26005429339634,-127.29582789870564,-7.945728155285442,-9.901065786865772,-0.6875493541569879
STABILIZE,2.783285140991211,33.9465829259607,165.26017568700973,-127.29582789870562,-7.945728155285377,-5.551486002211921,241.12230516546634,-20.56472859038022,9.372063675376264,0.10378496456218175,-1.2440130893856873,92.16825288668788,-2.1840996929227603,1.7793291481152123,0.2775743001105961,0.5086588959153309,166.26005429339634,-127.29582789870564,-7.945728155285442,-9.901065786865772,0.8021409131831525
STABILIZE,2.818776845932007,28.183928127456845,165.28949081790125,-127.94136822737431,-9.789941685949346,-5.536709430914404,241.39765131173277,-19.926903245860665,9.562918201690465,-0.2646141749684291,-0.18179031391707598,92.21749855060368,-2.183636138470056,1.7799843497881185,0.2768354715457202,0.5096764299438199,163.90693343188684,-129.2324488847117,-13.478368747277349,-5.282479730668996,0.8021409131831525
STABILIZE,2.8551440238952637,27.504173852600378,165.272552043829,-128.76881133683955,-12.636783988568782,-5.51393304619431,241.67108772452343,-19.29350170181418,9.756561699352773,-0.581635430943014,1.0784437543758776,92.252182251209,-2.182921338152285,1.7809935970976367,0.2756966523097155,0.5111966728439608,163.67566390706813,-129.7781572271013,-16.48625506314375,-4.9725868967929046,0.8021409131831525
STABILIZE,2.8892228603363037,29.349679514092983,164.75567396656336,-129.59625444630475,-15.483626291188218,-5.488115735647967,241.94242111168452,-18.664971709684778,9.952971358348787,-0.7948018463185567,2.3621039574593734,92.31984893531632,-2.1821106861459416,1.7821366068348725,0.27440578678239835,0.5127182988247685,163.67566390706813,-129.7781572271013,-16.48625506314375,-4.9725868967929046,0.8021409131831525
STABILIZE,2.917724609375,35.09760342750033,164.30216523736584,-130.12210050197146,-16.20695947450702,-5.45477244546615,242.21146050078903,-18.04175564738746,10.15212345621638,-0.7877410315423502,3.342383379310182,92.3702830521477,-2.181063066162717,1.7836112650151457,0.27273862227330753,0.5131795414653617,163.99251064740872,-130.80998705171183,-15.648368297233757,-3.888532271327719,0.8021409131831525
STABILIZE,2.9537081718444824,27.802809245719512,163.8486565081683,-130.46604377684164,-15.927663885870357,-5.424760855122406,242.47801746006297,-17.424290007543362,10.353993372192159,-0.8171787199782821,4.131773954897943,92.47192992737583,-2.180119493931968,1.7849370789230428,0.2712380427561203,0.5131408286290312,163.99251064740872,-130.80998705171183,-15.648368297233757,-3.888532271327719,0.8021409131831525
STABILIZE,2.9901785850524902,27.42074123469381,163.91578823555778,-131.02895883128687,-15.077453247014589,-5.385426522640175,242.74190631931197,-16.813004885715273,10.558555601357964,-0.7988610063979541,5.3314249656243975,92.63378492013761,-2.1788819065686984,1.786672594407097,0.26927132613200877,0.5128180044241862,164.24259206883428,-131.46690239043699,-13.935623146576445,-3.1266090830542055,0.8021409131831525
STABILIZE,3.026057004928589,27.8767238915585,164.08462199100205,-131.40747669321593,-13.315744069360614,-5.294195577107834,243.00294439084743,-16.20832346864279,10.76578376878733,-0.6828594214119847,6.05293413303281,92.79150081826238,-2.176007529187319,1.7906885096548457,0.2647097788553917,0.5120407639190739,164.5198326842894,-131.945540637499,-10.363240764271834,-4.151248434371539,4.18259190445501
STABILIZE,3.0592727661132812,30.114403463551575,164.09596017390876,-131.8628814942954,-10.919341982638839,-5.17460646811252,243.26095219041298,-15.610661522477713,10.975650643691964,-0.7753050713327553,6.709790010418351,92.953710980861,-2.172231327680732,1.7959328000549304,0.258730323405626,0.5109474963131654,163.73235482160177,-132.17620145495022,-8.45916203706843,-4.206637755432169,4.18259190445501
STABILIZE,3.0929839611053467,29.67108092812677,164.01962955097954,-132.25821806281195,-8.654558760066266,-5.0498138674598545,243.51575365811084,-15.020426881019446,11.188128153568226,-0.8427326988191212,7.355672335128621,93.14302333408625,-2.1682807286176566,1.8013810838319602,0.25249069337299274,0.5099213434568173,163.61085753276262,-132.65291209598666,-7.141273478858727,-4.299937310608485,4.18259190445501
STABILIZE,3.1233530044555664,32.93757705687877,163.96180549032078,-132.69670030055178,-7.284760882905526,-4.918068618540734,243.7671763793281,-14.438018933950161,11.403187398343597,-1.0394606631314414,7.9581078265284395,93.34670640532521,-2.1640988661338567,1.8071059930843616,0.2459034309270367,0.5093439741406246,163.70339034411498,-133.26098735071847,-6.253847132789619,-4.400577437611858,4.18259190445501
STABILIZE,3.1572513580322266,29.506391181084638,163.77622062148907,-133.25176943061075,-6.323814601631338,-4.797043524347306,244.01505180566323,-13.863828115070248,11.620798664523186,-1.240652636314041,8.441982332994238,93.5859542715724,-2.1602471993500756,1.8123406032961764,0.23985217621736532,0.5089723066330772,163.31466772467576,-133.84140884512712,-5.5763231932458694,-4.4262858900750075,4.18259190445501
STABILIZE,3.1924381256103516,28.427093923251054,163.53518762956634,-133.64793501365756,-5.802164506427052,-4.663902307466339,244.2592154758523,-13.298235390533591,11.840931439336149,-1.4832606354677766,8.950307209141389,93.81776406181348,-2.1559987991169116,1.8180720957423024,0.23319511537331694,0.5088215479728816,163.31466772467576,-133.84140884512712,-5.5763231932458694,-4.4262858900750075,4.18259190445501
STABILIZE,3.2294721603393555,27.008274467632987,163.46157960819573,-134.45643844873814,-5.427389151308597,-4.519928432196694,244.4995072366953,-12.741611747082942,12.063554424882224,-1.7305155111346482,9.292784846956875,94.08233826950308,-2.1513916391446104,1.824237752415331,0.22599642160983469,0.5087454717880954,163.3643147147488,-135.68649765596012,-5.129521067434254,-3.794442424688725,4.18259190445501
STABILIZE,3.2615129947662354,31.216445125854037,163.40437800457858,-135.34984173729197,-5.305029007853276,-4.3253810925974765,244.73577146398276,-12.194317680285138,12.288635552278176,-2.0204745437614378,9.611646251943398,94.31735824865406,-2.1451445549705292,1.832515861831214,0.21626905462987384,0.5087968322800658,163.32484951467674,-136.5216187107887,-5.209242762879907,-3.844240965618326,7.276563998161455
STABILIZE,3.301262617111206,25.165471683396433,163.3696562172725,-136.59575341154354,-5.370604237273725,-4.1224846803087045,244.96785728342172,-11.656702682766507,12.516141995804272,-2.200545010709419,9.563366206021517,94.68013008604095,-2.1386030289311364,1.8410835495212179,0.20612423401543523,0.508943373116539,163.52978140758455,-137.57914386788184,-5.7730488815072185,-3.7425504630013364,7.276563998161455
STABILIZE,3.3331902027130127,31.329065798220782,163.3874062373818,-137.54103367094822,-5.793816272096014,-3.860352047060535,245.19561879156254,-11.129104732448212,12.746040187050774,-2.332957192393402,9.509637376689257,94.93077070782373,-2.1301119904938584,1.8520526568422788,0.19301760235302676,0.5092699282295734,163.40341782522222,-138.52233843417423,-6.3991571719011215,-3.230472725212067,7.276563998161455
STABILIZE,3.3624794483184814,34.15362316480331,163.48200107779093,-138.46609304768955,-6.478932246711294,-3.6430155566769846,245.41891527672482,-10.611849780781512,12.9782958290644,-2.3888225902754057,9.23847459777152,95.17426012154552,-2.123038179517568,1.8610612266523896,0.18215077783384925,0.5097286140378878,163.7876419267213,-139.29679684101265,-7.264590686725745,-3.45147647892432,7.276563998161455
STABILIZE,3.3959600925445557,29.873321795118336,163.66935362720247,-139.3751087799482,-7.430096737159904,-3.4388469193929097,245.63761143992411,-10.105251240983108,13.212873910494825,-2.6504128590713703,8.616247779477943,95.49730074853044,-2.116365123002846,1.869452481155078,0.1719423459696455,0.5103214853238274,164.3010774618064,-140.30619106465775,-8.626542352853047,-3.0854703216225374,7.276563998161455
STABILIZE,3.4259212017059326,33.3882918597061,164.03514907279833,-140.2551175502889,-8.741628133057864,-3.208899747761342,245.851577615798,-9.60960947627052,13.449738719741116,-2.8011335762689837,7.887443543149134,95.72846850098952,-2.1088173468250098,1.8788197544997727,0.16044498738806712,0.5110956834263994,165.15382674265607,-141.16236474519636,-10.333751359595,-3.3404164347240624,7.276563998161455
STABILIZE,3.4577648639678955,31.41000793805323,164.51298002958876,-141.21159373504108,-10.563688007244004,-3.0023324149478614,246.06068999353266,-9.125211288097347,13.688853859098248,-3.0233078905818624,6.926598143921127,95.98863723666447,-2.102008024297691,1.8871587549993,0.15011662074739307,0.5121262709331711,165.91893619153674,-142.16622539526924,-12.730770309284166,-3.1809608871704285,7.276563998161455
STABILIZE,3.493971109390259,27.62791310419329,165.10293008876747,-142.10913215502833,-13.018363580758887,-2.7806475035294382,246.2648308377892,-8.652329404388553,13.93018225890355,-3.133980433911341,5.98866888313216,96.24476250035079,-2.0946699711538415,1.8960276812130699,0.1390323751764719,0.5134742729198312,166.35316812111571,-142.99880632461952,-15.990569073397703,-2.815791899274842,7.276563998161455
STABILIZE,3.527595043182373,29.747469804322076,165.78229243256314,-143.40940099540475,-16.21473522781711,-2.546298287457136,246.46388870962983,-8.191221967775846,14.173686191683217,-3.0156740869673153,4.495085377229261,96.59624403503965,-2.086878619883168,1.9053122468496628,0.1273149143728568,0.5151942107097501,167.18445364569968,-145.06317126632553,-19.922866300769662,0.20149599781895233,6.359831525952138
STABILIZE,3.5617032051086426,29.330797202797203,166.4465878277518,-144.465070671696,-20.178664362255763,-2.323754574998787,246.6577586874444,-7.742132023833193,14.419327286298746,-2.891485879930851,3.4403048132328924,96.84687782663326,-2.0794474427890086,1.914041960282177,0.11618772874993935,0.5172989958242773,167.6225544377497,-145.33323442414306,-24.622557712600138,-0.5061009367192071,6.359831525952138
STABILIZE,3.590121269226074,35.19479081007602,166.94033336677055,-145.2432133715372,-23.055993908656575,-2.103237910845598,246.8463425878769,-7.305287009311741,14.667066542093448,-2.9064783586024405,2.6408192180518526,97.06494527626425,-2.072053008530675,1.9226079183423368,0.1051618955422799,0.518861530225375,167.6225544377497,-145.33323442414306,-24.622557712600138,-0.5061009367192071,6.359831525952138
STABILIZE,3.6279168128967285,26.46348757681679,167.28105701601314,-145.33323442414303,-24.62255771260007,-1.9273072410243979,247.02954918675135,-6.880898240375387,14.916864343038899,-3.078441391005617,1.978485528951961,97.31369393564695,-2.06613162894617,1.9293814667812401,0.0963653620512199,0.5197697110278194,167.6225544377497,-145.33323442414306,-24.622557712600138,-0.5061009367192071,6.359831525952138
STABILIZE,3.655644178390503,36.07103604262163,167.53493427933995,-145.33323442414303,-24.62255771260007,-1.6907264819740544,247.20729443999863,-6.469160400836273,15.168680471881423,-3.3311782405333643,1.5268408709104546,97.48849896707509,-2.0581382202452017,1.9384050373132018,0.08453632409870272,0.5198956190922408,167.6225544377497,-145.33323442414306,-24.622557712600138,-0.5061009367192071,6.359831525952138
STABILIZE,3.6893508434295654,29.676539261607257,168.1030113131016,-146.1660499711817,-29.90111292525655,-1.5119521255819326,247.37950170458265,-6.0702510303895565,15.422474124288577,-3.829352815243642,1.1955843801276524,97.62835392052027,-2.052074645616107,1.945158710295562,0.07559760627909663,0.5226617935247726,170.02483881450797,-147.83168106525915,-40.45822335056958,-0.624278431692133,6.359831525952138
STABILIZE,3.7185285091400146,34.28203388722241,168.58346818845328,-146.9988655182204,-35.179668137913026,-1.3100100042315848,247.54610195942658,-5.684330012849443,15.678203922995625,-4.571047752970381,1.013598151839188,97.70492034111611,-2.045201252413546,1.9527198784130138,0.06550050021157924,0.5254289360304544,170.02483881450797,-147.83168106525915,-40.45822335056958,-0.624278431692133,6.359831525952138
STABILIZE,3.753824234008789,28.34065785561772,169.21969318355593,-147.98656813346906,-41.41266215988229,-1.1260068103334093,247.7070340263395,-5.311539064383936,15.935827931952002,-5.749794115968365,1.0126697797205952,97.76773076072355,-2.038916313094138,1.9595465135569576,0.05630034051667047,0.5286742450459172,170.80367941326307,-148.29634226988895,-43.321539778507926,-0.5422195778448469,6.359831525952138
STABILIZE,3.7881295680999756,29.155862030613523,171.2204513224015,-148.27785051279096,-44.769790530207445,-1.018459049587745,247.86224479094253,-4.952001221750493,16.195303670467812,-6.866312332985656,0.9928260524692984,97.76158359047054,-2.035233096509022,1.96350873426156,0.05092295247938725,0.5304825471003376,177.62634513197744,-148.70552820322482,-50.52960846154508,-1.385444104999607,0.4583662361046586
STABILIZE,3.8255012035369873,26.76594577002355,173.22120946124704,-148.56913289211283,-48.12691890053261,-0.9500751487521316,248.01168942359527,-4.605820330531088,16.45658812736028,-7.699636392862232,1.0092652505844613,97.71333513417356,-2.032887404784174,1.966017374416647,0.047503757437606584,0.5322917535139464,177.62634513197744,-148.70552820322482,-50.52960846154508,-1.385444104999607,0.4583662361046586
STABILIZE,3.8550100326538086,33.89939221518169,174.74151072474092,-148.7055282032248,-50.52960846154499,-0.9037382396558403,248.15533160032209,-4.273080533367931,16.719637775100246,-8.19184714521003,1.0658493124331974,97.65197271467017,-2.031296318711033,1.9677124805618014,0.04518691198279202,0.5336246231183226,177.62634513197744,-148.70552820322482,-50.52960846154508,-1.385444104999607,0.4583662361046586
STABILIZE,3.894526481628418,25.3103460760945,176.2618119882348,-148.70552820322476,-50.52960846154499,-0.8843085800372501,248.29314372373875,-3.953845758198298,16.98440858395863,-8.323860187714391,0.8859793755703792,97.60477610750539,-2.0306287605389377,1.9684221177871286,0.04421542900186251,0.5337570085227518,177.62634513197744,-148.70552820322482,-50.52960846154508,-1.385444104999607,0.4583662361046586
STABILIZE,3.9285287857055664,29.416165795841078,178.40955684155801,-147.40934699676674,-53.357876063411595,-0.848310668909239,248.4251071439783,-3.6481592064903623,17.250856036152932,-8.26199148043877,0.48555772120938334,97.54605697121079,-2.0293913385137885,1.9697350984237905,0.04241553344546195,0.5353043660497823,181.5424036798792,-144.81698458385074,-59.014411267144894,0.983057307378985,0.4583662361046586
STABILIZE,3.962409734725952,29.521344059911176,180.32853439703925,-145.60432152353863,-57.10629103229973,-0.8338718122915325,248.55121237961785,-3.3560428414779437,17.518935139993673,-8.222159524746546,0.20020469068241548,97.48244741947046,-2.028894780167446,1.9702610863602317,0.04169359061457663,0.5373126130861468,187.22123290938353,-143.29045178354062,-61.77485336820948,-1.6459601521653298,0.4583662361046586
STABILIZE,3.9934797286987305,32.190334389893856,181.7014902267592,-143.56769119920114,-60.35112474280015,-0.8061941355572294,248.67145933860473,-3.0774968763963386,17.788600444030898,-8.288153666280856,0.04544114182638905,97.39863416816523,-2.027942573042332,1.9712683021609911,0.04030970677786147,0.5390698625934155,184.49112428057734,-142.59563723021233,-60.26410959304635,1.3870467146299177,0.4583662361046586
STABILIZE,4.029180288314819,28.018998630548783,183.67294684478605,-142.40986751427974,-61.20448023848875,-0.8675213435014997,248.78585753918304,-2.8124992627176084,18.059806051200628,-8.289068911629638,0.029289505347454288,97.26779506442446,-2.0300518018723483,1.9690347007747002,0.04337606717507499,0.5396321431448446,187.48362822211155,-141.34351352908658,-61.57447775421071,0.04531056341154738,-4.239887683968092
STABILIZE,4.062134265899658,30.348863628141213,185.26513042715703,-141.28882284074703,-60.77549995596627,-0.9521203275136172,248.8944263308196,-2.5610051783854146,18.332505632971383,-8.111705120583686,-0.07026074192931957,97.09310614621222,-2.032957600147067,1.9659424688533802,0.04760601637568086,0.5395540027944689,185.58726304383248,-139.92731776294252,-60.48791252064202,2.1021114465764015,-4.239887683968092
STABILIZE,4.0984416007995605,27.549880455058986,186.0741022999477,-140.39938301832376,-60.85010093183149,-1.0505496339952938,248.99719511513078,-2.322946516050905,18.60665244349061,-7.342852070056507,0.0773116582673148,96.7668758208849,-2.0363328624370576,1.9623286259162567,0.05252748169976469,0.539728376687661,185.58726304383248,-139.92731776294252,-60.48791252064202,2.1021114465764015,-4.239887683968092
STABILIZE,4.13451886177063,27.725986104959777,186.5229369808822,-138.98852697344768,-60.32330819042766,-1.161850789088582,249.0942035668086,-2.0982313713078042,18.88219933373116,-6.414357008058619,0.1695603532800657,96.47334161111444,-2.04014227583186,1.9582213937425788,0.058092539454429104,0.5396027537620794,189.4654063140561,-137.11094539445835,-59.9940995299992,3.594235087886986,-4.239887683968092
STABILIZE,4.167845726013184,30.01226449521656,187.24536203275304,-137.16019942656317,-58.55083116981698,-1.2798454833122963,249.18550185454717,-1.8867435309276175,19.159098765637832,-5.297463557523802,0.3822039390189851,96.13160675637118,-2.044172376137221,1.9538431167946453,0.06399227416561482,0.5388549649677274,188.10324953993143,-134.44233512228894,-55.17048145881,2.393998395681365,-4.239887683968092
STABILIZE,4.197607755661011,33.607397258078734,187.99693433416329,-134.59456309578854,-57.011449934163416,-1.3663598055686428,249.27115086196892,-1.6883419610953183,19.437302826273722,-4.188701447195884,0.4956878522438643,95.78672318442057,-2.047121758946838,1.9506172620300437,0.06831799027843215,0.5382243763802186,191.2414897291626,-132.23040877061865,-55.86976881368133,8.000113414097356,-4.239887683968092
STABILIZE,4.2316882610321045,29.35892428410435,189.1277796712293,-132.96771755450865,-55.636673028724125,-1.4390767724423434,249.35122240855117,-1.5028602956442114,19.71676324196687,-3.2793868370478614,0.5728288625036345,95.43782346123797,-2.0495971625040657,1.9478956313284723,0.07195383862211717,0.5376767181353455,191.2414897291626,-132.23040877061865,-55.86976881368133,8.000113414097356,-4.239887683968092
STABILIZE,4.261115312576294,33.988120416514725,189.32927243516482,-131.13994569127752,-52.69400937531808,-1.5286066376992933,249.42579947055236,-1.330106324291478,19.997431392456537,-2.6497834144506713,0.7501455892773373,95.08200475642616,-2.0526403694016078,1.9445319162698482,0.07643033188496468,0.5363457203838873,186.59472686351015,-128.95901953259562,-46.342490498591864,6.863101598724441,-4.239887683968092
STABILIZE,4.2986531257629395,26.645219899245934,189.28371884006032,-129.01038706498775,-47.46846019169143,-1.7374272911983855,249.49497640193846,-1.1698614808738057,20.2792583250399,-2.039583492068429,1.0473884850454165,94.59187721177521,-2.0597188953081833,1.936631548758613,0.08687136455991928,0.5338738592583656,189.23763833853351,-125.84173289174926,-40.19312126280137,6.799134626132798,-12.146705256773453
STABILIZE,4.333580017089844,28.638858352394934,190.9252421785507,-125.87675005469139,-40.59260672424343,-2.0660493709177743,249.55885915530922,-1.0218803315821106,20.56219476871834,-1.5845318502915557,1.048947795888589,94.17340518170687,-2.0708029631689677,1.9240442065697736,0.10330246854588872,0.5305774007464809,196.31086623238332,-122.82949773972956,-35.24220841133735,2.2475997493090176,-12.146705256773453
STABILIZE,4.366140842437744,30.72120004687683,191.32337548532752,-122.25799739838426,-35.70613236179768,-2.403392516905024,249.61756550282462,-0.8858900631972233,20.846191148343998,-1.167813578014321,1.224862519613441,93.87681104718824,-2.082110322346448,1.910927792158569,0.1201696258452512,0.5282761617550709,193.23215626304662,-118.10276156367426,-31.683067411254623,4.246492993637531,-12.146705256773453
STABILIZE,4.40208625793457,27.82641925018742,191.72150879210432,-119.67834028902594,-32.869447744615435,-2.7335863617607457,249.6712252571313,-0.7615899713252361,21.13119759876629,-0.5516475387529258,1.1278926164194776,93.57268321401507,-2.093108148645751,1.8978996985415522,0.1366793180880373,0.5270003226716908,193.23215626304662,-118.10276156367426,-31.683067411254623,4.246492993637531,-12.146705256773453
STABILIZE,4.445400953292847,23.091174349403495,193.1049263038463,-116.65589785133697,-30.443980199707266,-3.097662628888222,249.71998049228884,-0.6486509486328487,21.417163978978287,0.26132215719061513,1.09676616371126,93.26128805956502,-2.105153906890349,1.8833192806300536,0.15488313144441113,0.5259305720893428,193.51181442222023,-113.76217042666265,-27.965805776612847,4.589731133655363,-12.146705256773453
STABILIZE,4.475776195526123,32.93033626706656,196.04130538991208,-114.02839735102116,-28.377172921990592,-3.5922476070470104,249.763985764696,-0.5467149730820893,21.7040398862633,0.8063921970923923,0.8471382241946322,93.04046804369851,-2.121381392632542,1.8631542584081306,0.17961238035235053,0.525040606404127,203.9195337688624,-110.22026006272682,-25.482645578104613,-2.8658301662362646,-12.146705256773453
STABILIZE,4.51324725151062,26.692190204663476,197.58686149853594,-110.0118200043786,-25.288718484632764,-3.8259833477341867,249.80340833401723,-0.45539459616691147,21.991774670341268,1.1166082901369703,0.913603435338261,92.89204120284496,-2.1289954046502655,1.8534824407150854,0.19129916738670935,0.523640246577487,204.0386467755028,-106.05302952374667,-22.41770409918114,-4.068415956604639,-5.328507494716656
STABILIZE,4.554314851760864,24.355044566385043,200.0320448978502,-106.30245033332899,-22.601051082270136,-4.091108198586214,249.83842838410916,-0.3742724311472898,22.280317447515273,1.3885269788967576,1.0128015810272355,92.68751801833811,-2.13758903224751,1.8424024684377058,0.20455540992931073,0.5224406842648927,205.45807325961792,-102.6340614135138,-19.90280356952498,-5.3328774849308616,-5.328507494716656
STABILIZE,4.590997695922852,27.266193410822478,202.61486174029037,-102.73332932693461,-20.08921266932714,-4.3449297257279085,249.86923924394654,-0.3029006412849071,22.56961711481802,1.4887016281936323,1.1699979578882558,92.49608147628099,-2.145773397485875,1.8316868355135294,0.21724648628639542,0.5213294148920726,206.14624047524734,-99.51289704354366,-17.947130339275613,-4.689837213382006,-5.328507494716656
STABILIZE,4.620771408081055,33.598244110319854,205.3285467825146,-99.55256544515659,-17.914152044938323,-4.543527543701398,249.89604760854908,-0.24080042807884183,22.85962236415831,1.541237735742078,1.3512234738579099,92.34068784247403,-2.1521477416656825,1.8232294204538753,0.2271763771850699,0.5203868872045483,207.08023963334134,-96.51073787841263,-15.892522226014687,-4.360627570619556,-5.328507494716656
STABILIZE,4.656323671340942,28.133641882147767,205.96068795541038,-97.51145760012287,-16.577391597101563,-4.697107101938696,249.91907375990746,-0.18746151950040257,23.150281696467484,1.4315684831686508,1.5269113072362703,92.17564315136984,-2.157059420763367,1.8166453585948172,0.23485535509693478,0.5198638366467845,207.08023963334134,-96.51073787841263,-15.892522226014687,-4.360627570619556,-5.328507494716656
STABILIZE,4.689417600631714,30.224861281256757,206.70617655303732,-95.55522488401196,-15.173469021657084,-4.88040355584888,249.93855178790983,-0.14234165822904288,23.44154343584597,1.4030186126031148,1.6233290323245206,92.00490208249786,-2.162901196176681,1.808737607614616,0.244020177792444,0.5193075062287515,207.7660897636375,-93.64419889521092,-13.735362612942186,-4.658779801668047,-5.328507494716656
STABILIZE,4.722825288772583,29.93942595275995,207.41830766260728,-93.6713699718103,-13.659963962218791,-5.049490471422754,249.95472981126818,-0.10486608988668422,23.733355743709666,1.2048900859849716,1.685459207779307,91.83560901372992,-2.1682704773958164,1.8013951707038112,0.2524745235711377,0.5186966598529642,209.01872880746777,-90.85917314180763,-11.352007047699807,-5.08856837236452,-5.328507494716656
STABILIZE,4.762643575668335,25.120406305399836,208.39016198120552,-90.87579440755395,-11.390822473742267,-5.222288777558331,249.96787019844464,-0.0744270512744265,24.025666632936527,1.1587161929266871,1.6963454620992495,91.66874066211734,-2.173738101831237,1.7938445229750501,0.2611144388779166,0.5177082445533394,211.0055120682387,-88.12401118564362,-9.085097760585105,-5.787348349596769,-5.328507494716656
STABILIZE,4.794676780700684,31.22643855299697,209.07860800387076,-88.05584077232224,-9.183487241111235,-5.410426870815493,249.9782497885779,-0.05038325860658688,24.318423982012927,1.0226898806764155,1.6151631142849474,91.51166680177455,-2.1796686186416325,1.7855698073489017,0.2705213435407747,0.516750955611562,210.52246974666747,-85.1843379895158,-7.113356915049094,-5.310345173824885,-4.8128454790989155
STABILIZE,4.83120322227478,27.40193119308011,209.76705402653596,-86.16422905489163,-7.770603863560997,-5.56270284085553,249.98616011240966,-0.032059395746557584,24.611575549180227,0.9402229236896221,1.2888486922534725,91.31599554243203,-2.1837644243047407,1.7718437576927717,0.2781351420427765,0.5161910897063706,210.52246974666747,-85.1843379895158,-7.113356915049094,-5.310345173824885,-4.8128454790989155
STABILIZE,4.868179798126221,27.038918005943746,210.45997410006936,-84.29137082966544,-6.575763407930275,-5.735820529887591,249.99190761321043,-0.018745602442777454,24.90506898658119,0.7937957274373021,0.9989644715424358,91.17084036219092,-2.185757741112474,1.73059528971255,0.28679102649437954,0.5157404161972557,211.23069013130421,-82.505436509965,-5.5005763936929375,-6.250263459044149,-4.8128454790989155
STABILIZE,4.90375018119812,28.12024993966049,210.9379887820615,-82.58503874344946,-5.700992056834487,-5.911435674692717,249.99581386770686,-0.009696962562486533,25.198851854406502,0.641182994478742,0.5540420003046913,90.98804400943388,-2.189194018728423,1.7044748900279505,0.29557178373463583,0.5154499219556204,211.40880221742844,-80.06534173086786,-4.489042861761733,-6.521493984211077,-4.8128454790989155
