Mode,Time,Freq,time2delay,actualDelay,North-Desired,East-Desired,Down-Desired,Roll-UAV,Pitch-UAV,Yaw-UAV,Roll-Control,Pitch-Control,Yaw-Control,Thrust-Control,North-Pos,East-Pos,Down-Pos,Yaw-Ang,North-Vel,East-Vel,Down-Vel,Yaw-Vel,North-Acc,East-Acc,Down-Acc,North-Avg,East-Avg,Down-Avg,Yaw-Avg,North-Dif,East-Dif,Down-Dif,Yaw-Dif,North-One,East-One,Down-One,Yaw-One,North-Two,East-Two,Down-Two,Yaw-Two,Landing-State,Q-Size,Kalman-Time,Kalman-Dt
STABILIZE,0.03438997268676758,29.087923214558163,0.03273895581563314,0.032878875732421875,0.0,0.0,0.0,-1.9613692883353206,-1.3689822858650604,-0.5302437002456628,-0.16626324307339846,0.15419775202193894,0.010593965435057032,0.4,0.09966243258069002,0.10706558389749522,0.15221295329470774,0.10524501233736852,-0.028065114747732878,0.21221202332526445,1.8554752692580223,0.0858825518297957,-1.912708766758442,0.6158099975436926,20.74723243713379,0.0,0.0,0.0,0.0,0.0,0.0,0.0,0.0,0.0,0.0,0.0,0.0,0.0,0.0,0.0,0.0,False,0,0.17420554161071777,0.0348037109375
STABILIZE,0.06778454780578613,29.94434211465696,0.03231051762898763,0.03244638442993164,0.0,0.0,0.0,-1.9611865807750228,-1.368665535842301,-0.5297637193739108,-0.09672392096310829,0.08916657952711375,0.012110475638573934,0.4,0.1128895034472181,0.12195366064630267,0.18430593108448923,0.11960968301924096,0.04704961902461946,0.12297157663851976,1.8062224611639977,0.07951059231387544,2.1272212266921997,0.49818973056972027,21.71935737133026,0.0,0.0,0.0,0.0,0.0,0.0,0.0,0.0,0.0,0.0,0.0,0.0,0.0,0.0,0.0,0.0,False,0,0.2028646469116211,0.0349248046875
STABILIZE,0.10119247436523438,29.93152073075002,0.03239301045735677,0.032529592514038086,0.0,0.0,0.0,-1.9616619192525735,-1.3681334214172747,-0.5292770683955473,-0.07258105439305237,0.06676656141854034,0.013436719705594425,0.4,0.12414795460652296,0.13434748222355933,0.21691674394161956,0.13198935075190185,0.045716873137280345,0.05182468448765576,1.8749894574284554,0.08801451133587189,1.7856085672974586,0.3643687581643462,19.590860605239868,0.0,0.0,0.0,0.0,0.0,0.0,0.0,0.0,0.0,0.0,0.0,0.0,0.0,0.0,0.0,0.0,False,0,0.23161530494689941,0.034923828125
STABILIZE,0.134721040725708,29.826798082803545,0.032444270451863606,0.03261590003967285,0.0,0.0,0.0,-1.961870666909082,-1.3680350240045442,-0.5292785624994283,-0.06009504749945585,0.053893901614288475,0.014520235830962307,0.4,0.13081401264808168,0.1451943560242847,0.24896035558709292,0.14187375613223113,-0.3094238927587867,0.11054369388148189,1.803908310830593,0.010666060760488935,-14.567482471466064,2.44097076356411,24.331234395503998,0.0,0.0,0.0,0.0,0.0,0.0,0.0,0.0,0.0,0.0,0.0,0.0,0.0,0.0,0.0,0.0,False,0,0.2604248523712158,0.029936279296875
STABILIZE,0.16813898086547852,29.92169843625157,0.03240707715352376,0.03253960609436035,0.0,0.0,0.0,-1.961637159816832,-1.3682893418294215,-0.5285349790143961,-0.05118746337693337,0.044670373348780414,0.015131109540814642,0.4,0.13265265729719206,0.15131757880813704,0.2748097351070014,0.14699909360893595,-0.3094238927587867,0.11054369388148189,1.803908310830593,0.010666060760488935,-14.567482471466064,2.44097076356411,24.331234395503998,0.0,0.0,0.0,0.0,0.0,0.0,0.0,0.0,0.0,0.0,0.0,0.0,0.0,0.0,0.0,0.0,False,0,0.2888813018798828,0.029936279296875
STABILIZE,0.20159578323364258,29.890992018244013,0.03242472012837728,0.0325467586517334,0.0,0.0,0.0,-1.9614988484861393,-1.3682206130508983,-0.5306612489195328,-0.020016907521606737,0.015430921418915933,0.015540266793348434,0.4,0.1352235382477597,0.15527128296442888,0.3033808428713016,0.15008689589394314,-0.07664932636544108,-0.018998762243427336,2.1208221092820168,-0.09475884289358347,-2.066458761692047,0.21066402550786734,22.734394669532776,0.0,0.0,0.0,0.0,0.0,0.0,0.0,0.0,0.0,0.0,0.0,0.0,0.0,0.0,0.0,0.0,False,0,0.31772875785827637,0.034925048828125
STABILIZE,0.23526549339294434,29.699444149406975,0.032422574361165364,0.03280997276306152,0.0,0.0,0.0,-1.9613908461198886,-1.3686217799429305,-0.5306246967353027,-0.02107497652482143,0.013973978461106776,0.016913758212274293,0.4,0.14269452546421313,0.17178096490208888,0.3694790620756435,0.1627255985704625,-0.02926675952039659,0.30511561781167984,1.930546946823597,0.14558939084129605,4.098545014858246,0.8767213672399521,29.908406734466553,0.0,0.0,0.0,0.0,0.0,0.0,0.0,0.0,0.0,0.0,0.0,0.0,0.0,0.0,0.0,0.0,False,0,0.37511563301086426,0.034923828125
STABILIZE,0.26909542083740234,29.56170929568729,0.03247025807698568,0.03297591209411621,0.0,0.0,0.0,-1.9614138980083373,-1.369765303020379,-0.5305197892985195,-0.019001932192674684,0.01130384543613882,0.01736925077436578,0.4,0.1447133470857591,0.1766522633687197,0.40072961423081604,0.16615609263738462,-0.03246347769163549,0.12122072512283921,1.8222087994217873,0.027159736971399936,5.8079540729522705,0.40133409202098846,22.867053747177124,0.0,0.0,0.0,0.0,0.0,0.0,0.0,0.0,0.0,0.0,0.0,0.0,0.0,0.0,0.0,0.0,False,0,0.4048643112182617,0.02993603515625
STABILIZE,0.3027017116546631,29.755911377228518,0.032442601521809895,0.03257894515991211,0.0,0.0,0.0,-1.9613415406918175,-1.3709775548763503,-0.5301676610302936,-0.016090651213073216,0.009759482362375267,0.01772524648797773,0.4,0.14595151911147144,0.17755263363948665,0.42714930872375767,0.16858632991050362,0.1393642625771463,0.07116477354429662,2.0273325964808464,0.22087136234720633,3.6981433629989624,0.31808321364223957,24.232421815395355,0.0,0.0,0.0,0.0,0.0,0.0,0.0,0.0,0.0,0.0,0.0,0.0,0.0,0.0,0.0,0.0,False,0,0.4323396682739258,0.034925048828125
STABILIZE,0.3360779285430908,29.9605983113562,0.032301934560139973,0.03242921829223633,0.0,0.0,0.0,-1.9611229746383771,-1.3710078638407923,-0.5291206677357246,-0.014908848412865978,0.009340006072446286,0.018015235419249914,0.4,0.1462590371806034,0.1794077224567525,0.45707484535497006,0.1703471045145251,-0.05337968468666077,0.014264858327805996,1.7874212935566902,0.02327461664875892,2.4324629455804825,0.27742020320147276,30.31962513923645,0.0,0.0,0.0,0.0,0.0,0.0,0.0,0.0,0.0,0.0,0.0,0.0,0.0,0.0,0.0,0.0,False,0,0.4609954357147217,0.029935791015625
STABILIZE,0.36953306198120117,29.890992018244013,0.03238347371419271,0.032517194747924805,0.0,0.0,0.0,-1.9601887328259662,-1.3714306952390984,-0.52995992722999,-0.013913635053926184,0.00663107082232284,0.018093207810814253,0.4,0.1403727789586665,0.1799020409537081,0.48085610025783737,0.16999016542683637,-0.3636040026322007,0.14660829911008477,1.8967078998684883,0.07841051831089349,-3.0520224943757057,0.2671423368155956,21.963438391685486,0.0,0.0,0.0,0.0,0.0,0.0,0.0,0.0,0.0,0.0,0.0,0.0,0.0,0.0,0.0,0.0,False,0,0.48958420753479004,0.034925048828125
STABILIZE,0.4030299186706543,29.852909985124448,0.03237775166829427,0.03249955177307129,0.0,0.0,0.0,-1.9597526679361432,-1.3707722223144267,-0.5302937527256744,-0.009491022096335882,0.004876343575298737,0.01849738176017633,0.4,0.14165129980943275,0.18126014414082686,0.5122117160733143,0.17287542986255583,0.13735881075263023,0.09056106209754944,2.0012885332107544,0.21938691678063926,0.12053395621478558,0.32285437919199467,24.299177527427673,0.0,0.0,0.0,0.0,0.0,0.0,0.0,0.0,0.0,0.0,0.0,0.0,0.0,0.0,0.0,0.0,False,0,0.5183110237121582,0.034924072265625
STABILIZE,0.4366111755371094,29.7787275735007,0.03232410748799642,0.032683610916137695,0.0,0.0,0.0,-1.9592897091764634,-1.3728473191616413,-0.5302776911089543,-0.008323548919202688,0.0042717884534616,0.018781808442220268,0.4,0.14154591909999678,0.18199243268669008,0.5665926180072441,0.1745451024393752,0.029702839674428105,0.09632566361688077,1.5688106417655945,0.03223689205687346,-0.44998438097536564,0.2914505545049906,21.65924310684204,0.0,0.0,0.0,0.0,0.0,0.0,0.0,0.0,0.0,0.0,0.0,0.0,0.0,0.0,0.0,0.0,False,0,0.5762143135070801,0.029935791015625
STABILIZE,0.47012805938720703,29.836133676677715,0.03242448170979818,0.032547712326049805,0.0,0.0,0.0,-1.9595027257012032,-1.3723697395282695,-0.5297375725559943,-0.007795230764833359,0.0018722592845941157,0.018791499152662275,0.4,0.1353928285798625,0.18114615557914965,0.5858172783204917,0.17348112688287665,-0.2303775167092681,0.18216180615127087,1.8074698746204376,0.15593806124879095,-5.780801922082901,0.44577931985259056,27.845171093940735,0.0,0.0,0.0,0.0,0.0,0.0,0.0,0.0,0.0,0.0,0.0,0.0,0.0,0.0,0.0,0.0,False,0,0.6076521873474121,0.034925048828125
STABILIZE,0.5036718845367432,29.81471292801342,0.032351287206014,0.03248333930969238,0.0,0.0,0.0,-1.9593302634246603,-1.373041339222752,-0.5296608396495375,-0.00620923507911401,-0.0007469046765568766,0.018775534315078366,0.4,0.1277442569051408,0.17799200328668652,0.6148886488551543,0.1721692758361877,-0.3832074115052819,-0.07390765240415931,2.0697632804512978,0.04837368087849138,2.8628315776586533,0.14486567815765738,25.10586977005005,0.0,0.0,0.0,0.0,0.0,0.0,0.0,0.0,0.0,0.0,0.0,0.0,0.0,0.0,0.0,0.0,False,0,0.6363675594329834,0.034925048828125
STABILIZE,0.5371153354644775,29.900154693927014,0.032245667775472005,0.03238081932067871,0.0,0.0,0.0,-1.9581021100345273,-1.3739277697109726,-0.5289566898347915,-0.005624211441967,-0.00034679871022715513,0.018866965522189423,0.4,0.12360234041086178,0.17659061718754354,0.6399653130305591,0.17193312141455658,-0.1023155520670116,0.08539080736227334,1.857680268585682,0.15359434586812454,-0.33379720989614725,0.2356106648221612,22.814278304576874,0.0,0.0,0.0,0.0,0.0,0.0,0.0,0.0,0.0,0.0,0.0,0.0,0.0,0.0,0.0,0.0,False,0,0.664954423904419,0.02993505859375
STABILIZE,0.5781424045562744,24.37485979950603,0.03226331075032552,0.0385746955871582,0.0,0.0,0.0,-1.9568090698472793,-1.3739860397623294,-0.5295619086282781,-0.004374114262975237,-0.0021652767337208335,0.018818625082663444,0.4,0.11850743136309984,0.1735514125198106,0.6572724848109076,0.17010114870913962,-0.1023155520670116,0.08539080736227334,1.857680268585682,0.15359434586812454,-0.33379720989614725,0.2356106648221612,22.814278304576874,0.0,0.0,0.0,0.0,0.0,0.0,0.0,0.0,0.0,0.0,0.0,0.0,0.0,0.0,0.0,0.0,False,0,0.6972165107727051,0.02993505859375
STABILIZE,0.6105444431304932,30.857714605220565,0.030863078435262044,0.031430721282958984,0.0,0.0,0.0,-1.9566579519118927,-1.3742373693794447,-0.5293563626229429,-0.0033060485873213506,-0.004951933868178312,0.018825906961188084,0.4,0.10990940969346609,0.17091374826883782,0.673498403874585,0.16902911800424136,-0.3371690632775426,0.11725397780537605,1.8232103437185287,0.20922590315254783,-3.84841226041317,2.18164399266243,22.1346452832222,0.0,0.0,0.0,0.0,0.0,0.0,0.0,0.0,0.0,0.0,0.0,0.0,0.0,0.0,0.0,0.0,False,1,0.7222490310668945,0.034923828125
STABILIZE,0.6439511775970459,29.934938692778736,0.032364877065022786,0.032488346099853516,0.0,0.0,0.0,-1.9568502644257109,-1.375080470855118,-0.5297166017408083,-0.0029497911659417363,-0.007852371151578668,0.01891233204765472,0.4,0.09566824365457834,0.16903069304596732,0.7139007008096959,0.1687644990889538,-0.16796704148873687,0.2176998183131218,1.6289601102471352,0.20084523436051574,1.9202539697289467,0.34997868351638317,22.824881970882416,0.0,0.0,0.0,0.0,0.0,0.0,0.0,0.0,0.0,0.0,0.0,0.0,0.0,0.0,0.0,0.0,False,0,0.779773473739624,0.029936279296875
STABILIZE,0.677311897277832,29.97451564722109,0.03238633473714193,0.032488346099853516,0.0,0.0,0.0,-1.9569014908444862,-1.3755696831544204,-0.5297836763328919,-0.00201770208159505,-0.0076687796518826925,0.018400597233226075,0.4,0.08932685294345286,0.1633375480526936,0.7288151317724817,0.1625609704492052,-0.1727365655824542,-0.05626212223432958,1.9157690927386284,-0.09993499903643581,-0.06378877442330122,0.0573755765799433,19.848845899105072,0.0,0.0,0.0,0.0,0.0,0.0,0.0,0.0,0.0,0.0,0.0,0.0,0.0,0.0,0.0,0.0,False,0,0.8085079193115234,0.0349248046875
STABILIZE,0.7147367000579834,26.72109883669075,0.03246620496114095,0.0364987850189209,0.0,0.0,0.0,-1.9568933799948467,-1.3757629561635905,-0.5293321901565835,-0.0014465509013583467,-0.008182979172837166,0.01853244556584013,0.4,0.08347931573160274,0.15997182943190133,0.7464096015517423,0.16266368322729866,-0.15327883884310722,0.039108077180571854,1.705915667116642,0.24918829944966106,0.8663130924105644,-1.685383915901184,22.19173014163971,0.0,0.0,0.0,0.0,0.0,0.0,0.0,0.0,0.0,0.0,0.0,0.0,0.0,0.0,0.0,0.0,False,0,0.8372175693511963,0.034924072265625
STABILIZE,0.7493119239807129,28.92304297456832,0.03239491780598958,0.03363037109375,0.0,0.0,0.0,-1.9561785580095226,-1.3763469373376267,-0.5291054598926508,-0.002009203956322964,-0.008659071139231487,0.01847573445856593,0.4,0.07801421393553871,0.15926159364153258,0.7631052110612028,0.16098434079876206,-0.12612214777618647,0.21923065651208162,1.7214706167578697,0.14396702081021967,-3.252732753753662,0.5179345607757568,25.519946217536926,0.0,0.0,0.0,0.0,0.0,0.0,0.0,0.0,0.0,0.0,0.0,0.0,0.0,0.0,0.0,0.0,False,0,0.8662636280059814,0.02993603515625
STABILIZE,0.7895810604095459,24.83320801188876,0.03237441380818685,0.03928184509277344,0.0,0.0,0.0,-1.9563061971696372,-1.376345229790334,-0.530057097343104,-0.002371238314202854,-0.007654104718530664,0.018334946085213272,0.4,0.07255513234905617,0.15766811399868946,0.7724440872034081,0.15830235511554594,-0.12612214777618647,0.21923065651208162,1.7214706167578697,0.14396702081021967,-3.252732753753662,0.5179345607757568,25.519946217536926,0.0,0.0,0.0,0.0,0.0,0.0,0.0,0.0,0.0,0.0,0.0,0.0,0.0,0.0,0.0,0.0,False,1,0.8949532508850098,0.02993603515625
STABILIZE,0.8237144947052002,29.301495707090112,0.032331260045369466,0.032499074935913086,0.0,0.0,0.0,-1.956382396467565,-1.3766137416020803,-0.5297883187270934,-0.0007097444913877922,-0.007252309703180816,0.017775489030637144,0.4,0.06095484594916669,0.15092060490874118,0.797994220837798,0.15169214293456365,-0.18522542668506503,0.0697992742061615,1.7055949196219444,0.132837174196831,-5.350491404533386,2.081860788166523,18.23008507490158,0.0,0.0,0.0,0.0,0.0,0.0,0.0,0.0,0.0,0.0,0.0,0.0,0.0,0.0,0.0,0.0,False,0,0.952437162399292,0.0349248046875
STABILIZE,0.856459379196167,30.53334109836352,0.03165796597798665,0.031793832778930664,0.0,0.0,0.0,-1.955565975418337,-1.3758292303428807,-0.5291714139068238,-0.0018026544906306107,-0.006180614672928324,0.017375608684264948,0.4,0.058457922741918494,0.14900482319361075,0.8079070710933707,0.14671136798806975,0.04549789591692388,0.15390143962576985,1.492767594754696,-0.04227358823794275,2.590557374060154,2.2080982103943825,20.18779218196869,0.0,0.0,0.0,0.0,0.0,0.0,0.0,0.0,0.0,0.0,0.0,0.0,0.0,0.0,0.0,0.0,False,0,0.980994462966919,0.02993505859375
STABILIZE,0.8900711536407471,29.75168999198451,0.0323970635732015,0.032529354095458984,0.0,0.0,0.0,-1.9543548975011291,-1.3757273111138595,-0.5291057800577682,-0.002155351477751819,-0.005997331487116276,0.016994309583247727,0.4,0.054297438276624616,0.14728793283580713,0.8134289591609125,0.1419490456254182,-0.07374021224677563,0.20882305689156055,1.653098501265049,0.01574727960841542,-1.6598088666796684,-1.553980354219675,25.48145055770874,0.0,0.0,0.0,0.0,0.0,0.0,0.0,0.0,0.0,0.0,0.0,0.0,0.0,0.0,0.0,0.0,False,0,1.0101711750030518,0.034925048828125
STABILIZE,0.9235601425170898,29.861198917841378,0.03223422368367513,0.03236079216003418,0.0,0.0,0.0,-1.953451604983395,-1.376613314715257,-0.5289860383038814,-0.0009682576668906997,-0.005480085248214003,0.016887655922365283,0.4,0.051074846756771944,0.14304203217366732,0.8262939305188878,0.13994637764911297,-0.014303962234407663,0.010119487706106156,1.7647242173552513,0.14859868948028168,3.2452933490276337,0.1769621972925961,21.055766940116882,0.0,0.0,0.0,0.0,0.0,0.0,0.0,0.0,0.0,0.0,0.0,0.0,0.0,0.0,0.0,0.0,False,0,1.0390872955322266,0.0349248046875
STABILIZE,0.9567828178405762,30.09927591873641,0.032190593083699544,0.0323023796081543,0.0,0.0,0.0,-1.9531585471793191,-1.3762737262474605,-0.5294741833861257,-8.310795632823569e-05,-0.006479640682698281,0.016070290509795637,0.4,0.04399819388177476,0.1391443357365453,0.8412573890653527,0.13089798638448394,-0.0699523079674691,0.2289028139784932,1.691138930618763,-0.04973862147995636,-1.8260249868035316,0.11070712935179472,16.628243029117584,0.0,0.0,0.0,0.0,0.0,0.0,0.0,0.0,0.0,0.0,0.0,0.0,0.0,0.0,0.0,0.0,False,0,1.0965135097503662,0.034925048828125
STABILIZE,0.9902853965759277,29.847598986649967,0.03240063985188802,0.03253579139709473,0.0,0.0,0.0,-1.9518351980276292,-1.3764474691844728,-0.5311243144009185,-0.0018940774599671957,-0.0042800963628212806,0.015626657062570864,0.4,0.04019746812866352,0.13844557593293666,0.8508699850478993,0.12562058808979093,-0.0699523079674691,0.2289028139784932,1.691138930618763,-0.04973862147995636,-1.8260249868035316,0.11070712935179472,16.628243029117584,0.0,0.0,0.0,0.0,0.0,0.0,0.0,0.0,0.0,0.0,0.0,0.0,0.0,0.0,0.0,0.0,False,0,1.1249284744262695,0.034925048828125
STABILIZE,1.0243759155273438,29.33346388133187,0.03236082394917806,0.03315615653991699,0.0,0.0,0.0,-1.9510025552791221,-1.3760717020584163,-0.5322101010355389,-0.0008186991983225357,-0.006120537199345295,0.015348461461477718,0.4,0.03229208904645597,0.1333664150576711,0.8604248196807334,0.12200636116973038,-0.3242685692384839,-0.03694307815749198,1.736953854560852,0.05350196566619414,-8.627456426620483,0.1763608423061669,26.267993450164795,0.0,0.0,0.0,0.0,0.0,0.0,0.0,0.0,0.0,0.0,0.0,0.0,0.0,0.0,0.0,0.0,False,0,1.1545071601867676,0.034925048828125
STABILIZE,1.0593912601470947,28.56085254162269,0.03236249287923177,0.03406381607055664,0.0,0.0,0.0,-1.9504335151438956,-1.3769441520031795,-0.5327163354469132,-0.0007725769831062894,-0.00528630026774723,0.015103035934070787,0.4,0.03099647782213227,0.13154345621631955,0.8710060080317592,0.11872107332757155,0.07135532214306295,0.16279446426779032,1.8440773710608482,0.07232950217525329,1.9258160144090652,-1.8064556643366814,21.480394899845123,0.0,0.0,0.0,0.0,0.0,0.0,0.0,0.0,0.0,0.0,0.0,0.0,0.0,0.0,0.0,0.0,False,0,1.1832590103149414,0.0349248046875
STABILIZE,1.0929145812988281,29.831465149359886,0.03238704999287923,0.032524824142456055,0.0,0.0,0.0,-1.9515955010764439,-1.3767331631908497,-0.5335825421718884,-0.0005821916779122661,-0.0062412580804273475,0.014844839704521166,0.4,0.025233309736855492,0.12710966045674463,0.8810254069104234,0.11536663419174742,-0.20564692094922066,0.005769312338088639,1.8515828996896744,0.06616719745034068,0.48311054706573486,0.13241011183708906,22.641532123088837,0.0,0.0,0.0,0.0,0.0,0.0,0.0,0.0,0.0,0.0,0.0,0.0,0.0,0.0,0.0,0.0,False,0,1.2121100425720215,0.029935302734375
STABILIZE,1.1263000965118408,29.949473744341145,0.032308371861775716,0.03242635726928711,0.0,0.0,0.0,-1.9517788489669765,-1.377829728717754,-0.5323229058785499,-0.00047547516176952643,-0.005541846233938907,0.014363863899169292,0.4,0.02097626192445518,0.12323127379144627,0.8853096915542547,0.10982253242355172,-0.14037452638149261,0.06122610066086054,1.876651681959629,-0.053323930515577544,1.4137553982436657,0.170632335357368,24.110499024391174,0.0,0.0,0.0,0.0,0.0,0.0,0.0,0.0,0.0,0.0,0.0,0.0,0.0,0.0,0.0,0.0,False,0,1.2406973838806152,0.034925048828125
STABILIZE,1.1596975326538086,29.942418206868982,0.03238943417867025,0.032505035400390625,0.0,0.0,0.0,-1.9500004384618344,-1.3774350718497743,-0.5323916346570732,0.001501289522276278,-0.007195866999501375,0.013900896021366132,0.4,0.01261066060059241,0.11663938104620403,0.9002703094894513,0.10449417857504495,-0.11455124476924539,0.07534310570918024,1.6536198556423187,0.24907253307931462,4.418018460273743,0.12402586871758103,21.095503866672516,0.0,0.0,0.0,0.0,0.0,0.0,0.0,0.0,0.0,0.0,0.0,0.0,0.0,0.0,0.0,0.0,False,0,1.2986199855804443,0.034925048828125
STABILIZE,1.1931538581848145,29.889713951797955,0.03242972691853841,0.03255105018615723,0.0,0.0,0.0,-1.9490282037221653,-1.377335607219986,-0.5324906724000383,0.0008678318123720438,-0.005232840057751007,0.013750399434869652,0.4,0.011546284160429531,0.1140089224732322,0.9026039342377117,0.10230487344608606,0.046276155626401305,0.10497773764654994,1.5172370709478855,0.11842860999821142,-0.9167937561869621,0.12411711504682899,19.784104824066162,0.0,0.0,0.0,0.0,0.0,0.0,0.0,0.0,0.0,0.0,0.0,0.0,0.0,0.0,0.0,0.0,False,0,1.327409029006958,0.06485986328125
STABILIZE,1.2267038822174072,29.80687341880099,0.03240946133931478,0.03255176544189453,0.0,0.0,0.0,-1.9485526518012033,-1.3770468182841413,-0.5328924796223056,0.0006620921008790324,-0.005775938347222748,0.01371806699646247,0.4,0.008805120058915534,0.11301012106566205,0.9350494944482631,0.10130296500037789,0.046276155626401305,0.10497773764654994,1.5172370709478855,0.11842860999821142,-0.9167937561869621,0.12411711504682899,19.784104824066162,0.0,0.0,0.0,0.0,0.0,0.0,0.0,0.0,0.0,0.0,0.0,0.0,0.0,0.0,0.0,0.0,False,0,1.3560595512390137,0.06485986328125
STABILIZE,1.260103464126587,29.940922005054038,0.03231981595357259,0.03245282173156738,0.0,0.0,0.0,-1.9495974573008037,-1.3756725628787936,-0.5337185589859068,0.00011736467244376844,-0.006469797171248792,0.01378949752654106,0.4,0.0015809142576756552,0.11062595302511793,0.9623578442969201,0.10133994138537204,-0.21117134019732475,0.054561899742111564,1.5218645334243774,0.17940576414373494,-4.376856237649918,-1.9074032083153725,17.783136665821075,0.0,0.0,0.0,0.0,0.0,0.0,0.0,0.0,0.0,0.0,0.0,0.0,0.0,0.0,0.0,0.0,False,0,1.3847107887268066,0.034925048828125
STABILIZE,1.2936210632324219,29.835921439190777,0.03237274487813314,0.03250384330749512,0.0,0.0,0.0,-1.9489505103203566,-1.3755997786754508,-0.5342003541266572,0.0006006193883880804,-0.00727278122135229,0.013595749747662771,0.4,-0.004637294264607076,0.10565495136417184,0.9618381167289347,0.09874178906750573,-0.2611144445836544,0.009929610678227618,1.8257608637213707,0.10823966196363168,-4.131113737821579,0.1006813021376729,23.40051233768463,0.0,0.0,0.0,0.0,0.0,0.0,0.0,0.0,0.0,0.0,0.0,0.0,0.0,0.0,0.0,0.0,False,0,1.4135980606079102,0.029934814453125
STABILIZE,1.3269948959350586,29.96316669286051,0.03230121930440267,0.03241848945617676,0.0,0.0,0.0,-1.9480139206304186,-1.3753834537778318,-0.5388606775747216,-0.00038525436020555903,-0.005475915587386926,0.013282750832106494,0.4,-0.006740223121779684,0.10264266206705026,0.9591833327626759,0.09497679224687611,-0.0804208917543292,0.1107502612285316,1.9653953611850739,0.051213512118802686,2.081557549536228,0.21493148524314165,25.503677129745483,0.0,0.0,0.0,0.0,0.0,0.0,0.0,0.0,0.0,0.0,0.0,0.0,0.0,0.0,0.0,0.0,False,0,1.4421086311340332,0.034925048828125
STABILIZE,1.3606293201446533,29.733762459060554,0.03231957753499349,0.03251171112060547,0.0,0.0,0.0,-1.9466764842135653,-1.3769001826603977,-0.5342048897991529,0.0004176663654926477,-0.007379303303399901,0.012901309916372119,0.4,-0.013401181785306387,0.09783381765607398,0.9578756993467412,0.09055541646665274,-0.3024801844730973,-0.0019649525711429305,1.7461169511079788,-0.002332562962412245,-5.573293939232826,0.03069835074711591,16.993390023708344,0.0,0.0,0.0,0.0,0.0,0.0,0.0,0.0,0.0,0.0,0.0,0.0,0.0,0.0,0.0,0.0,False,0,1.4707868099212646,0.034925048828125
STABILIZE,1.39662504196167,27.78107923723481,0.03222087224324544,0.03233647346496582,0.0,0.0,0.0,-1.954205487113035,-1.3748936011482948,-0.5318729138061224,0.0006555119634187285,-0.009917964895356172,0.01358922365513323,0.4,-0.023435254002240037,0.09619706132679015,0.9468825023493309,0.09678762829896077,-0.4878200124949217,0.15644219238311052,1.2382465414702892,0.5487213363021043,-13.817355036735535,-1.8845733255147934,17.621345818042755,0.0,0.0,0.0,0.0,0.0,0.0,0.0,0.0,0.0,0.0,0.0,0.0,0.0,0.0,0.0,0.0,False,0,1.505535364151001,0.029934814453125
STABILIZE,1.4274344444274902,32.4538568079295,0.029675753911336263,0.02979874610900879,0.0,0.0,0.0,-1.953849036615725,-1.3751479189731721,-0.5341464063043847,-0.0009920681861504224,-0.009276621496250897,0.01170558577168803,0.4,-0.027968187262942257,0.09893307496260778,0.9386030631085334,0.07743302120739896,-0.107734021730721,0.31119713094085455,1.7044233158230782,-0.29564297731585654,7.813308387994766,2.07709688693285,22.6590558886528,0.0,0.0,0.0,0.0,0.0,0.0,0.0,0.0,0.0,0.0,0.0,0.0,0.0,0.0,0.0,0.0,False,0,1.5629241466522217,0.034925048828125
STABILIZE,1.4607574939727783,30.00775537653641,0.03231814702351888,0.03243899345397949,0.0,0.0,0.0,-1.9521141685665417,-1.376893139027816,-0.5394552241976299,-0.002315240014466339,-0.005265685245901417,0.011277917076706421,0.4,-0.021512157014342538,0.09837940324091281,0.9319073462165228,0.0726705235301129,0.36671191919595003,0.19504480296745896,1.4232534915208817,-0.04984730753213486,-11.570101976394653,3.8654647767543793,12.972719967365265,0.0,0.0,0.0,0.0,0.0,0.0,0.0,0.0,0.0,0.0,0.0,0.0,0.0,0.0,0.0,0.0,False,0,1.591489553451538,0.034925048828125
STABILIZE,1.494262456893921,29.846749402254353,0.03245118459065755,0.03257274627685547,0.0,0.0,0.0,-1.9478822260454842,-1.374122536824024,-0.5495160928450588,-0.001717568726343067,-0.009153204572718942,0.01071099809609047,0.4,-0.03501912427471844,0.09385730329452946,0.9295354243403272,0.06655617910386942,-0.7219930645078421,-0.024244343512691557,1.6564639285206795,-0.13082234843295656,-18.553832173347473,-11.608832329511642,28.647950291633606,0.0,0.0,0.0,0.0,0.0,0.0,0.0,0.0,0.0,0.0,0.0,0.0,0.0,0.0,0.0,0.0,False,0,1.620452642440796,0.029936279296875
STABILIZE,1.5276877880096436,29.919350581722984,0.03238538106282552,0.03250598907470703,0.0,0.0,0.0,-1.9482802980080491,-1.374878873552897,-0.540364439770035,-0.0016180469392919328,-0.011383773426058195,0.01016612132885927,0.4,-0.04762609984949358,0.08922250638467852,0.9226911507867936,0.06070134970362487,-0.7219930645078421,-0.024244343512691557,1.6564639285206795,-0.13082234843295656,-18.553832173347473,-11.608832329511642,28.647950291633606,0.0,0.0,0.0,0.0,0.0,0.0,0.0,0.0,0.0,0.0,0.0,0.0,0.0,0.0,0.0,0.0,False,0,1.6489756107330322,0.029936279296875
STABILIZE,1.56123685836792,29.807085243222115,0.03240254720052083,0.03252410888671875,0.0,0.0,0.0,-1.948790641205096,-1.376529431454513,-0.5254457591579933,-0.0013461283271009683,-0.006484439031331717,0.010923192852639759,0.4,-0.041924210578299155,0.08688461860481259,0.9137804490140582,0.06781826203579948,0.28335864190012217,0.09333794587291777,1.5078315511345863,0.5841212996357813,16.99412912130356,3.8647472858428955,13.264821469783783,0.0,0.0,0.0,0.0,0.0,0.0,0.0,0.0,0.0,0.0,0.0,0.0,0.0,0.0,0.0,0.0,True,0,1.6776630878448486,0.0698486328125
STABILIZE,1.5949242115020752,29.682629772477974,0.03228739102681478,0.0328066349029541,0.0,0.0,0.0,-1.9450060760746741,-1.373640047992186,-0.5531897741231736,-0.00399903068897053,-0.006447262402210254,0.009283321416169332,0.4,-0.045878069944073285,0.09732218485169437,0.9510871558091927,0.051074151183700595,0.001362935290671885,0.6741590797901154,2.0803090184926987,-0.7100609165858249,-0.014104228466749191,25.781676173210144,27.76886522769928,0.0,0.0,0.0,0.0,0.0,0.0,0.0,0.0,0.0,0.0,0.0,0.0,0.0,0.0,0.0,0.0,True,1,1.7062809467315674,0.02992236328125
STABILIZE,1.6284584999084473,29.822132476323198,0.032454522450764973,0.03258347511291504,0.0,0.0,0.0,-1.9450878249013028,-1.3737698215864163,-0.5400679135105213,0.0038183813743169026,-0.0016874698922078124,0.009963301971084852,0.4,-0.02584765657212607,0.07336487844724218,0.9298750595392207,0.05748928616099191,0.30132324900478125,-1.2865902855992317,1.3470523059368134,0.657168998870304,5.8533065021038055,-29.213693737983704,21.13303244113922,0.0,0.0,0.0,0.0,0.0,0.0,0.0,0.0,0.0,0.0,0.0,0.0,0.0,0.0,0.0,0.0,True,0,1.7637593746185303,0.034924072265625
STABILIZE,1.6618895530700684,29.91209590574878,0.03236392339070638,0.032488346099853516,0.0,0.0,0.0,-1.9509197392354358,-1.3770139479987606,-0.5339976896073783,0.0021173597181307307,0.000985306475487171,0.008950744433992047,0.4,-0.029916753965932824,0.07436448450402464,0.9147059175852464,0.04704899445139899,-0.2615600358694792,0.2558363601565361,1.0542500764131546,-0.3985899363638159,5.184610188007355,33.39196443557739,15.999267995357513,0.0,0.0,0.0,0.0,0.0,0.0,0.0,0.0,0.0,0.0,0.0,0.0,0.0,0.0,0.0,0.0,True,0,1.7946455478668213,0.02993603515625
STABILIZE,1.702747106552124,24.4748500338445,0.032372268040974934,0.03992462158203125,0.0,0.0,0.0,-1.9489347155079009,-1.3789443302129356,-0.5660948829513838,-0.0019816636974508157,0.006382120607802418,0.00871412552357564,0.4,-0.024067287266157568,0.08399083434853728,0.9081162805083184,0.04432049203688303,0.26121519040316343,0.7242203690111637,1.719958707690239,-0.0010735669993084886,23.293808102607727,-3.699497878551483,10.102206468582153,0.0,0.0,0.0,0.0,0.0,0.0,0.0,0.0,0.0,0.0,0.0,0.0,0.0,0.0,0.0,0.0,True,0,1.8221218585968018,0.034925048828125
STABILIZE,1.736189365386963,29.902925911138993,0.032390864690144856,0.0325007438659668,0.0,0.0,0.0,-1.9529758396190213,-1.3854436820950258,-0.5248426747986223,-0.005972239755367102,0.006545891992331451,0.00847020198653756,0.4,-0.018459441404323755,0.09379560494039066,0.906416150373924,0.041603119205402925,0.26121519040316343,0.7242203690111637,1.719958707690239,-0.0010735669993084886,23.293808102607727,-3.699497878551483,10.102206468582153,0.0,0.0,0.0,0.0,0.0,0.0,0.0,0.0,0.0,0.0,0.0,0.0,0.0,0.0,0.0,0.0,True,0,1.8509461879730225,0.034925048828125
STABILIZE,1.769625186920166,29.906763829271423,0.03237942059834798,0.03250575065612793,0.0,0.0,0.0,-1.957812253881625,-1.387308430460145,-0.5135341760497556,0.0004461900251190057,0.003557748572521059,0.00890389138120654,0.4,-0.030903319589052375,0.08378633244625334,0.9054619884102985,0.045634823826679397,-0.7340192794799805,0.29905284754931927,1.3359958305954933,-1.2772925457863398,17.02900528907776,45.126113295555115,18.944554030895233,0.0,0.0,0.0,0.0,0.0,0.0,0.0,0.0,0.0,0.0,0.0,0.0,0.0,0.0,0.0,0.0,True,0,1.9083764553070068,0.034924072265625
STABILIZE,1.8030726909637451,29.8978102189781,0.03237417538960775,0.03254890441894531,0.0,0.0,0.0,-1.952078950403634,-1.3873843095929557,-0.5557116613916421,-0.00743576615902694,-0.006618547921286169,0.006362068442423965,0.4,-0.04342919868830166,0.08592001913947032,0.8973342513153844,0.020082097230998294,-0.7340192794799805,0.29905284754931927,1.3359958305954933,-1.2772925457863398,17.02900528907776,45.126113295555115,18.944554030895233,0.0,0.0,0.0,0.0,0.0,0.0,0.0,0.0,0.0,0.0,0.0,0.0,0.0,0.0,0.0,0.0,True,0,1.9369268417358398,0.034924072265625
STABILIZE,1.8366267681121826,29.80433176055938,0.0324437936147054,0.032561302185058594,0.0,0.0,0.0,-1.9597012280739565,-1.3894898221263179,-0.4966168113318389,-0.014868254956920825,0.0018243071379935403,0.003793933160453505,0.4,-0.021786829351583274,0.1090155302293829,0.8967583180917116,-0.005562035616462634,1.1561322025954723,1.458369754254818,1.745636761188507,-1.290562002518088,50.70258378982544,29.67037856578827,36.139607429504395,0.0,0.0,0.0,0.0,0.0,0.0,0.0,0.0,0.0,0.0,0.0,0.0,0.0,0.0,0.0,0.0,True,0,1.965583324432373,0.029936279296875
STABILIZE,1.8701789379119873,29.804755340164576,0.03231957753499349,0.032465457916259766,0.0,0.0,0.0,-1.9640497106977275,-1.388947248974125,-0.4892097379812245,-0.015406268029827006,-0.004856956981833776,-0.004117990972668221,0.4,-0.03756076911172274,0.11760233540342373,0.8909950501244996,-0.08411820315243099,-0.9424974210560322,0.6989673711359501,1.679178699851036,-4.345707005646966,24.62083250284195,56.29361271858215,-3.9200294762849808,0.0,0.0,0.0,0.0,0.0,0.0,0.0,0.0,0.0,0.0,0.0,0.0,0.0,0.0,0.0,0.0,True,0,1.9980692863464355,0.0698486328125
STABILIZE,1.9034626483917236,30.042790324544626,0.032233508427937825,0.03235745429992676,0.0,0.0,0.0,-1.9671028052567232,-1.40125823806625,-0.5050152759683101,-0.011263620722180564,0.010246239040198717,-0.0025218905793062242,0.4,0.012670364269514095,0.11398400326849596,0.9241828664189893,-0.06770465048647106,2.6729026809334755,-0.31434691045433283,1.9661221653223038,1.635613447711906,68.09083223342896,-65.69840908050537,-16.37468934059143,0.0,0.0,0.0,0.0,0.0,0.0,0.0,0.0,0.0,0.0,0.0,0.0,0.0,0.0,0.0,0.0,True,0,2.0256030559539795,0.029936279296875
STABILIZE,1.9369423389434814,29.868641623642514,0.03240016301472982,0.03251814842224121,0.0,0.0,0.0,-1.9669657745865,-1.4036832753867217,-0.4406092601377343,-0.010710288027533509,0.03101818478810148,0.0006539981767545761,0.4,0.06370910048654602,0.10333476477690463,0.921034715068258,-0.035706913418143825,2.6729026809334755,-0.31434691045433283,1.9661221653223038,1.635613447711906,68.09083223342896,-65.69840908050537,-16.37468934059143,0.0,0.0,0.0,0.0,0.0,0.0,0.0,0.0,0.0,0.0,0.0,0.0,0.0,0.0,0.0,0.0,True,0,2.0543243885040283,0.029936279296875
STABILIZE,1.972743034362793,27.93353446151592,0.03235891660054525,0.03396320343017578,0.0,0.0,0.0,-1.9621189015967295,-1.4079493688536293,-0.48235548306655807,-0.0034519646973847715,0.04217632030205597,-0.0005298411835960798,0.4,0.08675314833979411,0.08273661996898576,0.9254949699583259,-0.04721558511045788,1.2596667744219303,-0.8752286434173584,2.338298223912716,-0.6569871450836524,-12.91702389717102,11.3766610622406,39.60356414318085,0.0,0.0,0.0,0.0,0.0,0.0,0.0,0.0,0.0,0.0,0.0,0.0,0.0,0.0,0.0,0.0,True,0,2.0829875469207764,0.034925048828125
STABILIZE,2.005371570587158,30.647571169696615,0.03148535092671712,0.03162264823913574,0.0,0.0,0.0,-1.9633451339961585,-1.4191792670661882,-0.49900006710449735,-0.003586167930190299,0.03163621755985286,-0.0005650179125512925,0.4,0.07451908849234959,0.10373651878534924,0.9042089981748636,-0.04725113297429948,-0.19114745082333684,-0.16256971284747124,1.4898079447448254,0.6545852663733351,8.075173199176788,-46.109142899513245,-0.48464788123965263,0.0,0.0,0.0,0.0,0.0,0.0,0.0,0.0,0.0,0.0,0.0,0.0,0.0,0.0,0.0,0.0,True,0,2.14036226272583,0.029935791015625
STABILIZE,2.0387775897979736,29.934511404835995,0.032297643025716145,0.03242897987365723,0.0,0.0,0.0,-1.9711151145072825,-1.415625861150489,-0.43165253425832045,0.008467059797091775,0.031599756189905404,0.002567303789927984,0.4,0.06028363039691592,0.07523814850031388,0.9114609433601679,-0.01582207192321526,-0.7296375930309296,-1.3482172042131424,2.436887100338936,1.6811520264556734,-33.53933095932007,-16.378535330295563,39.64093029499054,0.0,0.0,0.0,0.0,0.0,0.0,0.0,0.0,0.0,0.0,0.0,0.0,0.0,0.0,0.0,0.0,True,0,2.168980360031128,0.034925048828125
STABILIZE,2.0721323490142822,29.98008620258322,0.032357009251912434,0.032479047775268555,0.0,0.0,0.0,-1.968034058861372,-1.412278001240125,-0.4769309788442457,-0.0056528458611393275,0.010068634661204674,-0.0029548629075660865,0.4,0.040774697700172405,0.11421749794211505,0.9057740100472337,-0.07057179687143428,-1.0796119458973408,2.3658784106373787,1.4442465268075466,-3.0747304638521844,-13.101214170455933,85.17965078353882,18.99636536836624,0.0,0.0,0.0,0.0,0.0,0.0,0.0,0.0,0.0,0.0,0.0,0.0,0.0,0.0,0.0,0.0,True,0,2.197728395462036,0.034925048828125
STABILIZE,2.1056647300720215,29.8244650970967,0.032448800404866536,0.032573699951171875,0.0,0.0,0.0,-1.968349101336839,-1.4033403785460459,-0.5289458042208017,-0.006553362296011907,-0.0017006162607377875,-0.0022409838023604318,0.4,0.051199208759876484,0.10728476937628709,0.8891127841527097,-0.06301156203519487,0.598988588899374,-0.19636841025203466,0.8279489353299141,0.3939131244122083,22.554801404476166,-67.81744956970215,9.520573914051056,0.0,0.0,0.0,0.0,0.0,0.0,0.0,0.0,0.0,0.0,0.0,0.0,0.0,0.0,0.0,0.0,True,0,2.2263362407684326,0.029934814453125
STABILIZE,2.1390674114227295,29.935579647565145,0.032354148228963216,0.03250241279602051,0.0,0.0,0.0,-1.97623882360185,-1.395536994141012,-0.44725860937730044,-3.6146985209977025e-05,-0.010774890354269723,0.002193374878761498,0.4,0.043787018862260524,0.07005482315578597,0.8666444217428204,-0.018543879943559133,-0.3602079814299941,-1.8801962956786156,0.7160354405641556,2.4362102292935424,-15.172263979911804,-13.44405859708786,6.29420280456543,0.0,0.0,0.0,0.0,0.0,0.0,0.0,0.0,0.0,0.0,0.0,0.0,0.0,0.0,0.0,0.0,True,0,2.255117654800415,0.034925048828125
STABILIZE,2.1725847721099854,29.835072519436917,0.032416375478108723,0.03260660171508789,0.0,0.0,0.0,-1.9398253775892196,-1.4035301297389253,-0.5231703456690271,0.018464510220745533,-0.009391909421364949,0.006601302844012757,0.4,0.036924329557155286,0.033385828730644114,0.8488888967335401,0.025365349282611475,-0.3602079814299941,-1.8801962956786156,0.7160354405641556,2.4362102292935424,-15.172263979911804,-13.44405859708786,6.29420280456543,0.0,0.0,0.0,0.0,0.0,0.0,0.0,0.0,0.0,0.0,0.0,0.0,0.0,0.0,0.0,0.0,True,1,2.2841298580169678,0.034925048828125
STABILIZE,2.2061026096343994,29.834860297046607,0.03242376645406087,0.03254055976867676,0.0,0.0,0.0,-1.9438848578337342,-1.3969416652325075,-0.5770595243642228,-0.0017669657143354325,-0.01677200952288216,0.006537622036321486,0.4,0.0021145346735896853,0.06842144328268168,0.8599269783940005,0.024564247932156537,-1.3878501020371914,0.6661721970885992,1.7360009253025055,1.9703708373311628,-48.93196523189545,-47.86836504936218,26.30767822265625,0.0,0.0,0.0,0.0,0.0,0.0,0.0,0.0,0.0,0.0,0.0,0.0,0.0,0.0,0.0,0.0,True,0,2.3420870304107666,0.029934814453125
STABILIZE,2.239475965499878,29.964451048751215,0.03234222730000814,0.03246283531188965,0.0,0.0,0.0,-1.9560050285159218,-1.3858219038203152,-0.4926764858718291,0.007053473578065306,-0.01918676114091346,0.010015225272319923,0.4,-0.022588740647262327,0.07691216558969301,0.8567784227884697,0.05894613155444252,-1.3878501020371914,0.6661721970885992,1.7360009253025055,1.9703708373311628,-48.93196523189545,-47.86836504936218,26.30767822265625,0.0,0.0,0.0,0.0,0.0,0.0,0.0,0.0,0.0,0.0,0.0,0.0,0.0,0.0,0.0,0.0,True,0,2.370884656906128,0.029934814453125
STABILIZE,2.2728922367095947,29.92511415525114,0.03240707715352376,0.032526254653930664,0.0,0.0,0.0,-1.9525937759123237,-1.3930196425450394,-0.5052876297614644,0.005179686181211092,-0.01233002393640269,0.00792361609098548,0.4,0.007276314197112013,0.07624267633552885,0.8683902902404819,0.03777739448073017,1.7662221565842628,0.13889289693906903,2.57039163261652,-1.2260162879746443,64.47368860244751,-13.297346234321594,32.83087611198425,0.0,0.0,0.0,0.0,0.0,0.0,0.0,0.0,0.0,0.0,0.0,0.0,0.0,0.0,0.0,0.0,True,0,2.3992955684661865,0.06985009765625
STABILIZE,2.311483144760132,25.91396002594915,0.03243568738301595,0.0374760627746582,0.0,0.0,0.0,-1.9479569312395313,-1.3802974547205384,-0.5492602809163006,-0.0064903386684579505,-0.0007160492882589038,0.0061657868228587875,0.4,0.03906475046497812,0.07800326269947885,0.915107892090354,0.020045267197178068,1.7662221565842628,0.13889289693906903,2.57039163261652,-1.2260162879746443,64.47368860244751,-13.297346234321594,32.83087611198425,0.0,0.0,0.0,0.0,0.0,0.0,0.0,0.0,0.0,0.0,0.0,0.0,0.0,0.0,0.0,0.0,True,0,2.428018808364868,0.06985009765625
STABILIZE,2.3514578342437744,25.016127493081402,0.03219011624654134,0.0377960205078125,0.0,0.0,0.0,-1.9505824986451665,-1.382108842232767,-0.5263419013214402,-0.01843035227917251,-0.006662934761536233,0.008783158620380946,0.4,0.011718046880192193,0.08139381003870853,0.9209602880759014,0.04586201994632834,-2.2743983194231987,0.9175571613013744,1.5804316848516464,2.0525693892279158,-8.631597459316254,43.48666965961456,36.84794008731842,0.0,0.0,0.0,0.0,0.0,0.0,0.0,0.0,0.0,0.0,0.0,0.0,0.0,0.0,0.0,0.0,True,0,2.485302209854126,0.034925048828125
STABILIZE,2.383629083633423,31.081581385008707,0.03104880650838216,0.03116154670715332,0.0,0.0,0.0,-1.9522345506506633,-1.3788256556761065,-0.5247206385280613,-0.005079252869923535,0.006308805103944726,0.008298276872884498,0.4,0.019341462186735898,0.07272877144008238,0.9130057801232128,0.040740926330679904,0.43541770428419113,-0.2681387821212411,1.5159601345658302,-0.22607990185765675,83.4718406200409,-37.17617094516754,14.621460437774658,0.0,0.0,0.0,0.0,0.0,0.0,0.0,0.0,0.0,0.0,0.0,0.0,0.0,0.0,0.0,0.0,True,0,2.5140137672424316,0.034924072265625
STABILIZE,2.4171507358551025,29.83231386383681,0.032416613896687825,0.032555341720581055,0.0,0.0,0.0,-1.9485981152478662,-1.3743025763416772,-0.5475354980683137,0.002337925282916131,0.0198761799160312,0.005677116963009397,0.4,0.03782218767915388,0.05808371080650743,0.9126815309073215,0.014432706679187633,0.9907862171530724,-0.5804624874144793,1.8778027966618538,-1.3042166178860013,-13.551230728626251,-5.863825231790543,21.060797572135925,0.0,0.0,0.0,0.0,0.0,0.0,0.0,0.0,0.0,0.0,0.0,0.0,0.0,0.0,0.0,0.0,True,0,2.542644500732422,0.02993603515625
STABILIZE,2.451388359069824,29.207228160579366,0.032353909810384114,0.03339195251464844,0.0,0.0,0.0,-1.9482201069659884,-1.3786155206374229,-0.5472236038831675,-0.0030011433056506723,-0.001539916175739891,0.007799153191575445,0.4,-0.00043806622924439514,0.07381456121443365,0.9050791710198559,0.03540990815943883,-1.929398626089096,0.9833326563239098,1.7035463824868202,1.1334832329768387,-71.02195024490356,40.62834978103638,8.271524310112,0.0,0.0,0.0,0.0,0.0,0.0,0.0,0.0,0.0,0.0,0.0,0.0,0.0,0.0,0.0,0.0,True,0,2.571272850036621,0.0349248046875
STABILIZE,2.4850473403930664,29.710383713599626,0.03248146375020345,0.03262066841125488,0.0,0.0,0.0,-1.9528853396125185,-1.3794605431038005,-0.5142482509831392,-0.0012866945068105739,-0.019837364166957465,0.008321434717493394,0.4,-0.030483822318999168,0.07004914087647306,0.8937722063194233,0.04036195035138539,-1.5337781980633736,-0.040568161057308316,1.2379394844174385,0.2985213951229144,14.047373831272125,-24.138522148132324,-4.668061807751656,0.0,0.0,0.0,0.0,0.0,0.0,0.0,0.0,0.0,0.0,0.0,0.0,0.0,0.0,0.0,0.0,True,0,2.600142478942871,0.034925048828125
STABILIZE,2.518404960632324,29.977300666113955,0.03227380116780599,0.03240513801574707,0.0,0.0,0.0,-1.9502486731494821,-1.3799771828814884,-0.5354547610564123,-4.122099548032207e-05,-0.0022020372789078916,0.0068155161831737355,0.4,0.00122511425213539,0.06885712073756452,0.8847350147915676,0.025134931685249856,0.5638884380459785,0.4537242464721203,1.644250936806202,0.45433575257449144,-34.91833209991455,24.89125281572342,6.973151117563248,0.0,0.0,0.0,0.0,0.0,0.0,0.0,0.0,0.0,0.0,0.0,0.0,0.0,0.0,0.0,0.0,True,0,2.6573679447174072,0.02993603515625
STABILIZE,2.551795721054077,29.948618350589076,0.03237417538960775,0.0324704647064209,0.0,0.0,0.0,-1.950895193243106,-1.3763323164639345,-0.5361183032621085,-0.004430044581533942,-0.0011361968335029976,0.007577655021058505,0.4,0.011237464512654003,0.07418947922260438,0.877930197370451,0.03253893939611479,0.5638884380459785,0.4537242464721203,1.644250936806202,0.45433575257449144,-34.91833209991455,24.89125281572342,6.973151117563248,0.0,0.0,0.0,0.0,0.0,0.0,0.0,0.0,0.0,0.0,0.0,0.0,0.0,0.0,0.0,0.0,True,0,2.6860594749450684,0.02993603515625
STABILIZE,2.5853452682495117,29.810474843460153,0.03240040143330892,0.03251814842224121,0.0,0.0,0.0,-1.9534044339894396,-1.3784177653166099,-0.5118449848906468,-0.009614774695921553,-0.01842798425412753,0.008813135189777195,0.4,-0.02399360859768626,0.07661693565818745,0.8650353692407109,0.04459528902025231,-1.9267411902546883,0.3003399819135666,1.2673540972173214,0.7258440963755493,-38.58067989349365,-12.331333011388779,0.3456987673416734,0.0,0.0,0.0,0.0,0.0,0.0,0.0,0.0,0.0,0.0,0.0,0.0,0.0,0.0,0.0,0.0,True,0,2.7147068977355957,0.03491650390625
STABILIZE,2.6194489002227783,29.32157013527212,0.03226950963338216,0.03314566612243652,0.0,0.0,0.0,-1.9481236305439618,-1.3773460659471526,-0.5559387118206921,-0.005970959634962084,-0.018793243863406334,0.010081740259179607,0.4,-0.05908941350867733,0.0794505357976677,0.856922868591613,0.05689255866858428,-1.9267411902546883,0.3003399819135666,1.2673540972173214,0.7258440963755493,-38.58067989349365,-12.331333011388779,0.3456987673416734,0.0,0.0,0.0,0.0,0.0,0.0,0.0,0.0,0.0,0.0,0.0,0.0,0.0,0.0,0.0,0.0,True,0,2.743424415588379,0.03491650390625
STABILIZE,2.6528947353363037,29.89418766259221,0.03236583073933919,0.0325007438659668,0.0,0.0,0.0,-1.9476529878214657,-1.3745892308434062,-0.550241587000961,-0.006777600344724281,-0.0027721668484225635,0.009653258616181815,0.4,-0.037904979265503735,0.07841629751142709,0.8617434348311417,0.052257898845830805,1.2042596004903316,0.08488892926834524,1.9792785868048668,-0.2136109913214018,19.697299599647522,5.735715851187706,16.21866077184677,0.0,0.0,0.0,0.0,0.0,0.0,0.0,0.0,0.0,0.0,0.0,0.0,0.0,0.0,0.0,0.0,True,0,2.7721219062805176,0.064860107421875
STABILIZE,2.686371088027954,29.87289626437805,0.03240087827046712,0.032526254653930664,0.0,0.0,0.0,-1.9511114114190193,-1.377343931513037,-0.5189148176509918,-0.007632072537328334,-0.02362968341870116,0.012004926069723166,0.4,-0.07186289712132014,0.07995067488642245,0.8849468210616035,0.07527119382688521,-1.5824761241674423,0.0924633874092251,1.6579145565629005,1.0946464571910288,-54.91536855697632,-4.268832877278328,15.70073515176773,0.0,0.0,0.0,0.0,0.0,0.0,0.0,0.0,0.0,0.0,0.0,0.0,0.0,0.0,0.0,0.0,True,0,2.8007731437683105,0.034925048828125
STABILIZE,2.719775676727295,29.936861639484672,0.03237131436665853,0.03251171112060547,0.0,0.0,0.0,-1.9488121989896638,-1.3783793455025286,-0.5484903371699403,-0.0056412617433168845,-0.041282732151966275,0.012324550530568863,0.4,-0.11571236235861511,0.0788048699417277,0.8836963469127512,0.07794577849865661,-0.7949606515467167,0.16562527744099498,1.9261477515101433,-0.7918876500596356,40.95989167690277,3.8348980247974396,19.57983374595642,0.0,0.0,0.0,0.0,0.0,0.0,0.0,0.0,0.0,0.0,0.0,0.0,0.0,0.0,0.0,0.0,True,0,2.8587732315063477,0.0349248046875
STABILIZE,2.75518536567688,28.24047777755334,0.03242472012837728,0.03449249267578125,0.0,0.0,0.0,-1.9475204394628851,-1.3757981743264984,-0.55348838145595,-0.0035237348326518144,-0.03378081918938346,0.013467884291410482,0.4,-0.12518105029595591,0.07436742548650746,0.8754717486976753,0.08875089250952899,-0.5647069308906794,-0.07817521691322327,1.3604623265564442,0.6695920457534994,-37.781840562820435,9.432054311037064,20.179006457328796,0.0,0.0,0.0,0.0,0.0,0.0,0.0,0.0,0.0,0.0,0.0,0.0,0.0,0.0,0.0,0.0,True,0,2.8889143466949463,0.064861083984375
STABILIZE,2.7887156009674072,29.824889249169814,0.03240636189778646,0.03261423110961914,0.0,0.0,0.0,-1.9515190883351043,-1.3788582057963699,-0.5219319469951391,-0.0017641002691343392,-0.029902005225463654,0.015190765976681127,0.4,-0.14429085578075002,0.07154870556603966,0.8912629828710447,0.10527406283367703,-0.5647069308906794,-0.07817521691322327,1.3604623265564442,0.6695920457534994,-37.781840562820435,9.432054311037064,20.179006457328796,0.0,0.0,0.0,0.0,0.0,0.0,0.0,0.0,0.0,0.0,0.0,0.0,0.0,0.0,0.0,0.0,True,0,2.917691469192505,0.064861083984375
STABILIZE,2.8223321437835693,29.74725882636633,0.03240254720052083,0.032544612884521484,0.0,0.0,0.0,-1.9502651082921725,-1.3783296131876344,-0.5389025658442408,-0.0050553286068241434,-0.04569959590760696,0.014198330922432965,0.4,-0.17257260887288495,0.08050972014448478,0.90712174682686,0.09471531023153106,-1.0324139147996902,0.5069537088274956,1.5351798385381699,-0.6083683644676208,-8.780249953269958,3.705209866166115,17.2498881816864,0.0,0.0,0.0,0.0,0.0,0.0,0.0,0.0,0.0,0.0,0.0,0.0,0.0,0.0,0.0,0.0,True,0,2.946258544921875,0.034923828125
STABILIZE,2.8558077812194824,29.874811248183708,0.032245906194051106,0.03237628936767578,0.0,0.0,0.0,-1.9484664206629319,-1.37805928710689,-0.5518697867052157,-0.007009566257242782,-0.041146635756382645,0.012572838761466028,0.4,-0.18924469506332284,0.08763043062727677,0.897119065599066,0.07793919640954354,-1.0324139147996902,0.5069537088274956,1.5351798385381699,-0.6083683644676208,-8.780249953269958,3.705209866166115,17.2498881816864,0.0,0.0,0.0,0.0,0.0,0.0,0.0,0.0,0.0,0.0,0.0,0.0,0.0,0.0,0.0,0.0,True,0,2.9749653339385986,0.034923828125
STABILIZE,2.8890764713287354,30.053984336373862,0.03220561345418294,0.03233909606933594,0.0,0.0,0.0,-1.950870860694188,-1.3778227918068784,-0.5298353296384901,-0.004974298852284761,-0.02295229330789711,0.01100114080349722,0.4,-0.17392771781136296,0.08037724702226696,0.8876118042682387,0.06180873545496308,0.4675364587455988,-0.1720098895020783,1.5164747834205627,-0.6020351782814322,37.611958384513855,-13.784219324588776,18.527694046497345,0.0,0.0,0.0,0.0,0.0,0.0,0.0,0.0,0.0,0.0,0.0,0.0,0.0,0.0,0.0,0.0,True,0,3.0036916732788086,0.02993603515625
STABILIZE,2.9225292205810547,29.892483233912753,0.03238871892293294,0.03250765800476074,0.0,0.0,0.0,-1.9510697899537646,-1.3780491485448407,-0.5330845786927122,-0.00874274155001414,-0.03072213267711519,0.00923913732092143,0.4,-0.20507903847258874,0.08785493642711605,0.8980540864751869,0.04389524544797383,-0.21157339215278625,-0.0012086769856978208,1.5978818759322166,-0.41838094309245677,17.344163358211517,-11.778052896261215,14.317139983177185,0.0,0.0,0.0,0.0,0.0,0.0,0.0,0.0,0.0,0.0,0.0,0.0,0.0,0.0,0.0,0.0,True,0,3.0614566802978516,0.02993505859375
STABILIZE,2.956958770751953,29.04662774672955,0.03240159352620443,0.0335080623626709,0.0,0.0,0.0,-1.9494574384228185,-1.379410490623789,-0.5517089037337501,-0.00804728461046802,-0.01946972376854898,0.009564194393971104,0.4,-0.1879296651313487,0.08306768237220333,0.8860023559066977,0.04682348984677266,0.37410471122711897,-0.01700168359093368,1.6343742609024048,0.27136149473390253,10.806183516979218,5.927545204758644,18.469776213169098,0.0,0.0,0.0,0.0,0.0,0.0,0.0,0.0,0.0,0.0,0.0,0.0,0.0,0.0,0.0,0.0,True,0,3.0900373458862305,0.034925048828125
STABILIZE,2.9908041954040527,29.545466712688697,0.03240207036336263,0.03289961814880371,0.0,0.0,0.0,-1.9502757804627506,-1.3786827553120653,-0.5428357409499631,-0.004042181464206505,-0.006172274739565706,0.009877364146507632,0.4,-0.17316849752462374,0.07897319971920973,0.8792473173826668,0.049619373501685646,0.37410471122711897,-0.01700168359093368,1.6343742609024048,0.27136149473390253,10.806183516979218,5.927545204758644,18.469776213169098,0.0,0.0,0.0,0.0,0.0,0.0,0.0,0.0,0.0,0.0,0.0,0.0,0.0,0.0,0.0,0.0,True,0,3.1193718910217285,0.034925048828125
STABILIZE,3.0242793560028076,29.874172892969323,0.03237417538960775,0.03248882293701172,0.0,0.0,0.0,-1.9511436413741654,-1.3792394157294212,-0.5313664659513366,-0.002798536509263799,-0.0011419797911113813,0.00981961925201505,0.4,-0.17295358915104164,0.08157153469630497,0.8704920300856536,0.04871613318603063,-0.31977584585547447,0.30335935298353434,1.4988655224442482,0.0895159790145111,-24.08900260925293,3.745514899492264,15.348143875598907,0.0,0.0,0.0,0.0,0.0,0.0,0.0,0.0,0.0,0.0,0.0,0.0,0.0,0.0,0.0,0.0,True,0,3.1480376720428467,0.034925048828125
STABILIZE,3.0576553344726562,29.959528282344873,0.03232410748799642,0.03244161605834961,0.0,0.0,0.0,-1.9492057886405858,-1.3789287488438915,-0.5519737336466468,-0.003893892150635717,-0.007765443084248061,0.008999070713429827,0.4,-0.17897971808625907,0.07833477521412636,0.86895086519279,0.04024165080718954,-0.6293592508882284,0.013441895134747028,1.8208187073469162,-0.2923406608934347,-7.307279109954834,-3.9824228733778,23.253972828388214,0.0,0.0,0.0,0.0,0.0,0.0,0.0,0.0,0.0,0.0,0.0,0.0,0.0,0.0,0.0,0.0,True,0,3.1767191886901855,0.029934814453125
STABILIZE,3.0911026000976562,29.899728398406033,0.032393487294514973,0.032514095306396484,0.0,0.0,0.0,-1.9495383334758007,-1.3780750819193457,-0.5516642940607336,-0.0011386993569565866,0.006403423839536686,0.008827723251914997,0.4,-0.16438189061798464,0.07671567294548029,0.8615694791319982,0.0382721418931899,0.3561887191608548,0.10617339285090566,1.7025863751769066,0.01947311611765097,26.64363384246826,3.828628361225128,16.761894524097443,0.0,0.0,0.0,0.0,0.0,0.0,0.0,0.0,0.0,0.0,0.0,0.0,0.0,0.0,0.0,0.0,True,0,3.205516815185547,0.034925048828125
STABILIZE,3.124758243560791,29.711856962724735,0.03238704999287923,0.03280329704284668,0.0,0.0,0.0,-1.95145975106669,-1.3774975040476565,-0.5324150600714922,-0.0014500031399200253,0.0010190193337852509,0.009577017950537375,0.4,-0.16550871012559842,0.07343291659535786,0.8491258424434873,0.04545852941301519,-0.6523371674120426,0.1404321752488613,1.2861303053796291,0.08517224550664744,-24.72687065601349,1.7129767686128616,18.93858015537262,0.0,0.0,0.0,0.0,0.0,0.0,0.0,0.0,0.0,0.0,0.0,0.0,0.0,0.0,0.0,0.0,True,0,3.2646450996398926,0.029935791015625
STABILIZE,3.158271312713623,29.838468488336524,0.03247836430867513,0.032593488693237305,0.0,0.0,0.0,-1.9510853713228087,-1.3765023241412444,-0.5467158220070593,-0.003279163064338197,-0.002599341536551681,0.009111886340079723,0.4,-0.1631964511835371,0.0752570034071173,0.8392366618631673,0.04053606274718996,-0.24365726858377457,0.27547283098101616,1.4677254483103752,-0.14495390310400716,21.821659803390503,-2.0691998302936554,20.597468316555023,0.0,0.0,0.0,0.0,0.0,0.0,0.0,0.0,0.0,0.0,0.0,0.0,0.0,0.0,0.0,0.0,True,0,3.293579339981079,0.034925048828125
STABILIZE,3.19169282913208,29.919777436958306,0.03240063985188802,0.03252458572387695,0.0,0.0,0.0,-1.951404042336272,-1.3765339137661556,-0.5544551733886243,-0.003244257352723057,-0.002284438187747625,0.008666174852086747,0.4,-0.1619807923946974,0.07743933423876528,0.8341995959320299,0.03583918452394863,-0.24365726858377457,0.27547283098101616,1.4677254483103752,-0.14495390310400716,21.821659803390503,-2.0691998302936554,20.597468316555023,0.0,0.0,0.0,0.0,0.0,0.0,0.0,0.0,0.0,0.0,0.0,0.0,0.0,0.0,0.0,0.0,True,0,3.322389841079712,0.034925048828125
STABILIZE,3.225310802459717,29.75021279010384,0.03242495854695638,0.03257346153259277,0.0,0.0,0.0,-1.9529551356080996,-1.3756823812757255,-0.5336993490788662,-0.0021595456079848995,0.0024706802981398933,0.0091436134410933,0.4,-0.15305758877941902,0.07124051227019712,0.8355570729062197,0.04034339888490262,0.17774677835404873,-0.18213435541838408,1.7969395965337753,0.3510364784953211,4.984498023986816,-4.065202549099922,23.186714947223663,0.0,0.0,0.0,0.0,0.0,0.0,0.0,0.0,0.0,0.0,0.0,0.0,0.0,0.0,0.0,0.0,True,0,3.35095477104187,0.034925048828125
STABILIZE,3.2587881088256836,29.87013061003575,0.0322454293568929,0.03245663642883301,0.0,0.0,0.0,-1.9525342252004976,-1.3757911306939168,-0.5401625756635494,-0.0031809448151118394,-0.0026559689388569244,0.00826659556073853,0.4,-0.15526686389020186,0.07282596901818363,0.8334154487820318,0.03136289900475046,-0.42885500006377697,0.2413183217868209,1.589227095246315,-0.3911777937321769,-17.187777161598206,7.5423844158649445,22.321230173110962,0.0,0.0,0.0,0.0,0.0,0.0,0.0,0.0,0.0,0.0,0.0,0.0,0.0,0.0,0.0,0.0,True,0,3.3799235820770264,0.034924072265625
STABILIZE,3.292253017425537,29.880344803020588,0.03231242497762044,0.03249502182006836,0.0,0.0,0.0,-1.9512285918519674,-1.3759381932044836,-0.5488607682107077,-0.004272347832189872,-0.0013387024146571621,0.008059153610035438,0.4,-0.1522429784539883,0.07314007653991637,0.83402239760849,0.029093661815039102,-0.13855581637471914,0.16957932384684682,1.7257973551750183,-0.026702631230271463,5.65766915678978,-2.3653050884604454,14.704985916614532,0.0,0.0,0.0,0.0,0.0,0.0,0.0,0.0,0.0,0.0,0.0,0.0,0.0,0.0,0.0,0.0,True,0,3.4085352420806885,0.034925048828125
STABILIZE,3.326220989227295,29.44032344105343,0.032358439763387044,0.032978057861328125,0.0,0.0,0.0,-1.9512285918519674,-1.3759381932044836,-0.5488607682107077,-0.003852272254128037,-0.0010730437535009744,0.00785934159936812,0.4,-0.14926381732906285,0.07348188996837396,0.8348696696618895,0.02691284407620058,-0.13855581637471914,0.16957932384684682,1.7257973551750183,-0.026702631230271463,5.65766915678978,-2.3653050884604454,14.704985916614532,0.0,0.0,0.0,0.0,0.0,0.0,0.0,0.0,0.0,0.0,0.0,0.0,0.0,0.0,0.0,0.0,True,1,3.4372923374176025,0.034925048828125
STABILIZE,3.359658718109131,29.90655058575228,0.032334359486897786,0.03248906135559082,0.0,0.0,0.0,-1.9501176188947824,-1.3752415139091423,-0.5379202459033754,-0.003718316750976601,0.0014976813113139194,0.007934112231416098,0.4,-0.1404018594445381,0.07499409352200498,0.8310315979901937,0.027476602829500853,-0.40878960862755775,0.36594041157513857,1.7444338649511337,-0.13924741345459374,-4.500189423561096,3.815639391541481,26.060092449188232,0.0,0.0,0.0,0.0,0.0,0.0,0.0,0.0,0.0,0.0,0.0,0.0,0.0,0.0,0.0,0.0,True,0,3.4957261085510254,0.034925048828125
STABILIZE,3.3934922218322754,29.556709676055444,0.03237298329671224,0.0328068733215332,0.0,0.0,0.0,-1.9500659655891843,-1.3757853677218046,-0.5498044015332273,-0.0039492032949935306,0.0009059594219637274,0.008403257438955472,0.4,-0.13407442337148553,0.07006793732474366,0.8378050184397422,0.0319523744878279,0.0679322169162333,-0.13640427496284246,2.007334679365158,0.338395986136596,7.470609247684479,-2.1380677819252014,21.875856816768646,0.0,0.0,0.0,0.0,0.0,0.0,0.0,0.0,0.0,0.0,0.0,0.0,0.0,0.0,0.0,0.0,True,0,3.5244600772857666,0.064860107421875
STABILIZE,3.426867723464966,29.960170290579732,0.03228643735249837,0.032396554946899414,0.0,0.0,0.0,-1.9504646778819836,-1.3757185599339854,-0.5457128514161252,-0.00232455191195544,0.002771705008498863,0.00896129899754853,0.4,-0.13039902994096347,0.06658328417737164,0.8702180148694805,0.03728348881410194,0.0679322169162333,-0.13640427496284246,2.007334679365158,0.338395986136596,7.470609247684479,-2.1380677819252014,21.875856816768646,0.0,0.0,0.0,0.0,0.0,0.0,0.0,0.0,0.0,0.0,0.0,0.0,0.0,0.0,0.0,0.0,True,0,3.553251266479492,0.064860107421875
STABILIZE,3.460887908935547,29.396579758901037,0.03235295613606771,0.03250741958618164,0.0,0.0,0.0,-1.9512369161450183,-1.3754136560205679,-0.5421555501581651,-0.0027493893668520384,0.004118428708808145,0.008504703772404969,0.4,-0.12359511768373448,0.06810167858765266,0.8929033156590259,0.032499943746240885,0.15847707400098443,0.16193109331652522,1.6101695597171783,-0.20533685747216604,7.38210454583168,3.647001087665558,16.913169622421265,0.0,0.0,0.0,0.0,0.0,0.0,0.0,0.0,0.0,0.0,0.0,0.0,0.0,0.0,0.0,0.0,True,0,3.5865039825439453,0.034925048828125
STABILIZE,3.4938690662384033,30.349961649227918,0.03180411656697591,0.03194785118103027,0.0,0.0,0.0,-1.9507502651666548,-1.3750149437277683,-0.5466178514811519,-0.0031050605250573403,0.0024772270167830804,0.007701132858988718,0.4,-0.12582007652558896,0.06943795064502067,0.8822578725634368,0.024301570737892776,-0.4155560862272978,0.22306267637759447,1.3618968427181244,-0.326546274937285,-12.699802219867706,-2.206728979945183,18.202246725559235,0.0,0.0,0.0,0.0,0.0,0.0,0.0,0.0,0.0,0.0,0.0,0.0,0.0,0.0,0.0,0.0,True,0,3.6150193214416504,0.02993603515625
STABILIZE,3.527209997177124,29.962096480387466,0.03226664861043294,0.03240847587585449,0.0,0.0,0.0,-1.9503545410816172,-1.3745662856766632,-0.5491354165205363,-0.002138803632354958,0.00017272280609657693,0.007279370583757089,0.4,-0.12473219749153878,0.06786605771526429,0.8771251532784131,0.019950456097462498,-0.26272954419255257,0.08831201121211052,1.8182827159762383,-0.14787989211141717,13.05491030216217,1.8011678010225296,19.833962619304657,0.0,0.0,0.0,0.0,0.0,0.0,0.0,0.0,0.0,0.0,0.0,0.0,0.0,0.0,0.0,0.0,True,0,3.643803358078003,0.0399140625
STABILIZE,3.5608932971954346,29.688722783770775,0.032410653432210286,0.032729148864746094,0.0,0.0,0.0,-1.951302443272368,-1.3737325757110985,-0.5416127102017078,-0.0034476169132557247,0.0019825306615203226,0.007338345100444457,0.4,-0.11358767054769402,0.06737640019763284,0.8771644181498288,0.020402980974695985,0.29835307504981756,0.11056361254304647,1.6006158664822578,0.10088613622889314,5.434921011328697,-2.1832510828971863,15.79836905002594,0.0,0.0,0.0,0.0,0.0,0.0,0.0,0.0,0.0,0.0,0.0,0.0,0.0,0.0,0.0,0.0,True,1,3.6723899841308594,0.029934814453125
STABILIZE,3.6041390895843506,23.125549288475003,0.03237131436665853,0.040900468826293945,0.0,0.0,0.0,-1.9509139762633236,-1.372403143422179,-0.5489662092560198,-0.003690620809263738,0.0053320442289195935,0.007159237714653996,0.4,-0.09727339408116106,0.06440584255228952,0.8544803289379737,0.01845741383011039,-0.018607883248478174,0.054397451458498836,1.2492784298956394,-0.07514001162690115,-5.075479298830032,-0.28861500322818756,14.054122567176819,0.0,0.0,0.0,0.0,0.0,0.0,0.0,0.0,0.0,0.0,0.0,0.0,0.0,0.0,0.0,0.0,True,0,3.72983717918396,0.034925048828125
STABILIZE,3.6361355781555176,31.249936670193268,0.030965360005696614,0.03109288215637207,0.0,0.0,0.0,-1.9514657274822138,-1.373020315046713,-0.5466263892176144,-0.002995499697265892,0.0031552051198193982,0.006782748792454433,0.4,-0.09765803985156997,0.06365338678077516,0.8528171202762806,0.014594880313506305,-0.2842361107468605,0.10043220827355981,1.6465939581394196,-0.14341254818783214,-0.8635241538286209,1.7626198008656502,19.214871525764465,0.0,0.0,0.0,0.0,0.0,0.0,0.0,0.0,0.0,0.0,0.0,0.0,0.0,0.0,0.0,0.0,True,0,3.7585434913635254,0.029935791015625
STABILIZE,3.6696367263793945,29.84972315925815,0.03240707715352376,0.03254365921020508,0.0,0.0,0.0,-1.951293265205671,-1.3727185060627631,-0.5420046456661901,-0.0012253379972329355,0.005932317326187742,0.006667744277989713,0.4,-0.09128657628198081,0.05951549699670513,0.8451256312116339,0.013355455627373971,0.0850584008730948,-0.07406160002574325,1.5279056504368782,-0.012707927136565735,-4.08126525580883,-0.23425291292369366,18.889296054840088,0.0,0.0,0.0,0.0,0.0,0.0,0.0,0.0,0.0,0.0,0.0,0.0,0.0,0.0,0.0,0.0,True,0,3.7873740196228027,0.064860107421875
