E-kp,E-ki,E-kd,E-I-Tot,E-P,E-I,E-D,E-PID,N-kp,N-ki,N-kd,N-I-Tot,N-P,N-I,N-D,N-PID,D-kp,D-ki,D-kd,D-I-Tot,D-P,D-I,D-D,D-PID,Y-kp,Y-ki,Y-kd,Y-I-Tot,Y-P,Y-I,Y-D,Y-PID,errorN,desiredN,actualN,errorE,desiredE,actualE,errorD,desiredD,actualD,errorY,desiredY,actualY,roll,pitch,yaw-rate,thrust,dt,Time,Mode
0.16,0.015,0.11,1.3209400545637302,6.3945340782859255,0.019814100818455953,13.75,20.16434817910438,0.17,0.015,0.08,-0.330938968055055,-1.702168870653054,-0.004964084520825825,-10.0,-11.70713295517388,0.002,8e-05,0,0.30587065997726276,0.018508602566927167,2.4469652798181023e-05,0.0,0.01853307221972535,0.2,0.02,0.0,0.00013171363072966353,0.0007970150664348019,2.6342726145932707e-06,0.0,0.0007996493390493952,-10.012758062665023,-10.0,0.01275806266502269,39.96583798928703,40.0,0.034162010712965075,9.254301283463583,10.0,0.7456987165364173,0.003985075332174009,0,-0.003985075332174009,4.000278201066569,3.999721779583126,-0.0007996493390493952,0.5185330722197253,0.03305172920227051,0.03336310386657715,STABILIZE
0.16,0.015,0.11,2.6566291326630074,6.393935137203065,0.03984943698994511,6.868840156489485,13.302624730682496,0.17,0.015,0.08,-0.6656689945406624,-1.7024974187279922,-0.009985034918109936,-5.0023128787484294,-6.714795332394532,0.002,8e-05,0,0.6147037329111599,0.018479774493743297,4.917629863289279e-05,0.0,0.01852895079237619,0.2,0.02,0.0,0.00022413000054227186,0.0005529957194814214,4.482600010845437e-06,0.0,0.0005574783194922669,-10.014690698399953,-10.0,0.014690698399953014,39.962094607519155,40.0,0.03790539248084243,9.239887246871648,10.0,0.7601127531283518,0.002764978597407107,0,-0.002764978597407107,4.0001930272633475,3.999806963421322,-0.0005574783194922669,0.5185289507923762,0.03342390060424805,0.06670260429382324,STABILIZE
0.16,0.015,0.11,3.9936215683689142,6.393971433434748,0.05990432352553371,4.579475390238987,11.03335114719927,0.17,0.015,0.08,-1.0007015824504562,-1.702384796916238,-0.015010523736756841,-3.3343472158341587,-5.051742536487153,0.002,8e-05,0,0.9233693568004482,0.01845185440960816,7.386954854403586e-05,0.0,0.018525723958152197,0.2,0.02,0.0,0.0001832562879592109,-0.0002443407154511395,3.665125759184218e-06,-0.0,-0.00024067558969195527,-10.01402821715434,-10.0,0.014028217154341075,39.962321458967175,40.0,0.037678541032821866,9.22592720480408,10.0,0.7740727951959198,-0.0012217035772556974,0,0.0012217035772556974,3.9999147080910613,4.000085290090301,0.00024067558969195527,0.5185257239581522,0.03345632553100586,0.10015416145324707,STABILIZE
0.16,0.015,0.11,5.54302698289787,6.394290534799849,0.08314540474346804,3.436021191645465,9.913457131188782,0.17,0.015,0.08,-1.3888720986978105,-1.7020753408501121,-0.020833081480467155,-2.4998213647493843,-4.222729787079963,0.002,8e-05,0,1.2817025107181905,0.01848520626780068,0.00010253620085745526,0.0,0.018587742468658137,0.2,0.02,0.0,0.0002556391451266454,0.00037339889718938246,5.112782902532908e-06,0.0,0.00037851168009191534,-10.0122078873536,-10.0,0.012207887353601262,39.964315842499055,40.0,0.03568415750094515,9.24260313390034,10.0,0.7573968660996591,0.0018669944859469121,0,-0.0018669944859469121,4.000130338679972,3.999869657072847,-0.00037851168009191534,0.5185877424686581,0.03876972198486328,0.13893628120422363,STABILIZE
0.16,0.015,0.11,6.881102654551044,6.394321683852789,0.10321653981826566,2.748944874175827,9.246483097846882,0.17,0.015,0.08,-1.7238334813051848,-1.7007382745788628,-0.02585750221957777,-1.9960985635540491,-3.72269434035249,0.002,8e-05,0,1.591810823667132,0.018524104725917135,0.00012734486589337056,0.0,0.018651449591810504,0.2,0.02,0.0,0.00023751170036445104,-0.00010828303246532252,4.750234007289021e-06,-0.0,-0.00010353279845803351,-10.004342791640369,-10.0,0.004342791640369017,39.964510524079934,40.0,0.035489475920064226,9.262052362958567,10.0,0.7379476370414331,-0.0005414151623266126,0,0.0005414151623266126,3.9999648223061133,3.7227321380950964,0.00010353279845803351,0.5186514495918105,0.033481597900390625,0.1724252700805664,STABILIZE
0.16,0.015,0.11,8.218713362186797,6.394513072729646,0.12328070043280195,-0.0002688459631071396,6.517524927199341,0.17,0.015,0.08,-2.0586502923067673,-1.7006460598857434,-0.03087975438460151,0.004160752226774321,-1.7273650620435705,0.002,8e-05,0,1.9020684297069745,0.018540019775654983,0.00015216547437655798,0.0,0.01869218525003154,0.2,0.02,0.0,0.00027332042391539597,0.0002139816816256315,5.46640847830792e-06,-0.0,0.00021944809010393944,-10.003800352269078,-10.0,0.0038003522690778463,39.96570670456029,40.0,0.034293295439709964,9.270009887827491,10.0,0.7299901121725089,0.0010699084081281574,0,-0.0010699084081281574,4.00003225512353,1.7272903680447451,-0.00021944809010393944,0.5186921852500316,0.03346896171569824,0.2059476375579834,STABILIZE
0.16,0.015,0.11,9.555997170340849,6.39454463395744,0.14333995755511272,0.0023247862645139213,6.5402093777770665,0.17,0.015,0.08,-2.3933806880378725,-1.7006311378841616,-0.03590071032056809,0.0051278761642375836,-1.7314039720404923,0.002,8e-05,0,2.21197156011792,0.018523455787139473,0.00017695772480943363,0.0,0.018700413511948906,0.2,0.02,0.0,0.0004005798028075357,0.000760651715676933,8.011596056150714e-06,0.0,0.0007686633117330837,-10.003712575789185,-10.0,0.0037125757891850737,39.965903962234,40.0,0.03409603776599807,9.261727893569736,10.0,0.7382721064302648,0.0038032585783846647,0,-0.0038032585783846647,4.000114920717451,1.7311384506882213,-0.0007686633117330837,0.518700413511949,0.03346061706542969,0.23946881294250488,STABILIZE
0.16,0.015,0.11,10.893189129166375,6.39478891082498,0.16339783693749563,0.0031795310375712996,6.5613662788000475,0.17,0.015,0.08,-2.7280943190378704,-1.7007277371806873,-0.04092141478556805,0.004539311707488842,-1.7371098402587666,0.002,8e-05,0,2.522473002086784,0.018561201748117248,0.00020179784016694272,0.0,0.01876299958828419,0.2,0.02,0.0,0.000619804509535966,0.0013104847384786925,1.239609019071932e-05,0.0,0.0013228808286694118,-10.004280806945218,-10.0,0.0042808069452181475,39.96743069265612,40.0,0.032569307343877675,9.280600874058624,10.0,0.7193991259413764,0.006552423692393462,0,-0.006552423692393462,4.00019863209921,1.7366523834306768,-0.0013228808286694118,0.5187629995882842,0.033457040786743164,0.27286577224731445,STABILIZE
0.16,0.015,0.11,12.243179798374625,6.394253424604432,0.18364769697561936,-0.0001318548554224094,6.577769266724628,0.17,0.015,0.08,-3.066167042319923,-1.7013675633379726,-0.04599250563479885,0.002005399115529511,-1.745354669857242,0.002,8e-05,0,2.8359919215452574,0.01856234519014644,0.0002268793537236206,0.0,0.01878922454387006,0.2,0.02,0.0,0.0008958522397356607,0.0016343808742942051,1.7917044794713215e-05,0.0,0.0016522979190889183,-10.008044490223368,-10.0,0.008044490223366818,39.9640839037777,40.0,0.03591609622230352,9.28117259507322,10.0,0.7188274049267794,0.008171904371471025,0,-0.008171904371471025,4.000248893382143,1.7447841455571007,-0.0016522979190889183,0.5187892245438701,0.03378009796142578,0.3066060543060303,STABILIZE
0.16,0.015,0.11,13.581496236798277,6.393651108771654,0.20372244355197414,-0.0027326219736962813,6.594640930349931,0.17,0.015,0.08,-3.4015120424096335,-1.7022012130073332,-0.0510226806361445,-0.004095872849622239,-1.7573197664931,0.002,8e-05,0,3.147245138360754,0.018587200471298252,0.0002517796110688603,0.0,0.01883898008236711,0.2,0.02,0.0,0.001143498082058823,0.0014788740062637524,2.286996164117646e-05,0.0,0.0015017439679049288,-10.012948311807842,-10.0,0.01294831180784219,39.96031942982284,40.0,0.03968057017716177,9.293600235649127,10.0,0.7063997643508729,0.007394370031318762,0,-0.007394370031318762,4.00022675952948,1.7568035274474036,-0.0015017439679049288,0.5188389800823671,0.03349113464355469,0.3401167392730713,STABILIZE
0.16,0.015,0.11,14.918471474458435,6.393889186287878,0.22377707211687653,-0.0025404423667484185,6.615125816038006,0.17,0.015,0.08,-3.73647447981256,-1.7020283445569875,-0.0560471171971884,-0.003868883827422132,-1.761944345581598,0.002,8e-05,0,3.4584157166528837,0.018601599150734636,0.00027667325733223073,0.0,0.018878272408066867,0.2,0.02,0.0,0.0013130072694142478,0.001013316224451075,2.6260145388284957e-05,0.0,0.0010395763698393598,-10.011931438570514,-10.0,0.01193143857051435,39.96180741429924,40.0,0.03819258570076472,9.300799575367318,10.0,0.6992004246326821,0.005066581122255375,0,-0.005066581122255375,4.000155790495626,1.7615906246035946,-0.0010395763698393598,0.5188782724080668,0.03345632553100586,0.37357640266418457,STABILIZE
0.16,0.015,0.11,16.254567895211032,6.394379879989222,0.2438185184281655,-0.0006519853804100428,6.6375464130369775,0.17,0.015,0.08,-4.070895612831815,-1.7005260357018666,-0.06106343419247722,0.00031846755709915984,-1.7612710023372447,0.002,8e-05,0,3.7695332022628216,0.018612086667147396,0.00030156265618102576,0.0,0.01891364932332842,0.2,0.02,0.0,0.0016267346114344678,0.0018768216990718745,3.253469222868936e-05,0.0,0.0019093563913005639,-10.003094327658038,-10.0,0.003094327658038352,39.964874249932635,40.0,0.03512575006736265,9.306043333573697,10.0,0.693956666426303,0.009384108495359372,0,-0.009384108495359372,4.000288413637379,1.7606158443546363,-0.0019093563913005639,0.5189136493233284,0.0334317684173584,0.4070305824279785,STABILIZE
0.16,0.015,0.11,17.591077400474063,6.394760699810644,0.2638661610071109,-9.00360193426405e-05,6.6585368247984125,0.17,0.015,0.08,-4.405569322206736,-1.7013857123831226,-0.06608353983310103,-0.001829361542921406,-1.769298613759145,0.002,8e-05,0,4.080856206019513,0.01861973391818943,0.0003264684964815611,0.0,0.01894620241467099,0.2,0.02,0.0,0.0019918477606691077,0.0021836837004483834,3.983695521338216e-05,0.0,0.0022235206556617654,-10.008151249312485,-10.0,0.008151249312485103,39.96725437381652,40.0,0.03274562618347815,9.309866959094714,10.0,0.690133040905285,0.010918418502241917,0,-0.010918418502241917,4.000337089075123,1.7685363322306957,-0.0022235206556617654,0.518946202414671,0.03344011306762695,0.44043850898742676,STABILIZE
0.16,0.015,0.11,18.928292884684147,6.395129277140671,0.2839243932702622,0.0036044445480965573,6.68265811495903,0.17,0.015,0.08,-4.740544736717924,-1.7021185439953899,-0.07110817105076886,-0.0021082809539829704,-1.7753349960001417,0.002,8e-05,0,4.392639057145919,0.018638466115716342,0.00035141112457167355,0.0,0.018989877240288014,0.2,0.02,0.0,0.002435570953863169,0.002652589669773703,4.8711419077263385e-05,0.0,0.0027013010888509662,-10.012462023502293,-10.0,0.012462023502292249,39.969557982129196,40.0,0.030442017870804344,9.31923305785817,10.0,0.6807669421418298,0.013262948348868514,0,-0.013262948348868514,4.0004108511320196,1.7744090199748233,-0.0027013010888509662,0.518989877240288,0.033455848693847656,0.47390222549438477,STABILIZE
0.16,0.015,0.11,20.264993614726023,6.395310873702888,0.30397490422089035,0.006823942085575483,6.706109720009354,0.17,0.015,0.08,-5.075387764608187,-1.7021493926744964,-0.0761308164691228,0.00014764369628056517,-1.7781325654473386,0.002,8e-05,0,4.70480707875191,0.018669208242825683,0.0003763845663001528,0.0,0.019045592809125836,0.2,0.02,0.0,0.002972066841065377,0.0032085136036898014,5.9441336821307535e-05,0.0,0.003267954940511109,-10.012643486320567,-10.0,0.012643486320566206,39.97069296064305,40.0,0.02930703935695176,9.334604121412841,10.0,0.6653958785871584,0.016042568018449006,0,-0.016042568018449006,4.000497712550536,1.7770125132317627,-0.003267954940511109,0.5190455928091259,0.033442020416259766,0.507378339767456,STABILIZE
0.16,0.015,0.11,21.748685369823086,6.395328422553161,0.32623028054734626,0.0059104881848612775,6.727469191285368,0.17,0.015,0.08,-5.44706689132393,-1.7022223144907125,-0.08170600336985895,-0.0005235571953908465,-1.7844518750559621,0.002,8e-05,0,5.051577793617403,0.018684074718263194,0.0004041262234893923,0.0,0.019088200941752585,0.2,0.02,0.0,0.0036155600879384966,0.00346715434431616,7.231120175876993e-05,0.0,0.00353946554607493,-10.01307243818066,-10.0,0.013072438180660251,39.97080264095725,40.0,0.029197359042748425,9.342037359131597,10.0,0.6579626408684033,0.0173357717215808,0,-0.0173357717215808,4.000539731891329,1.7832415282147265,-0.00353946554607493,0.5190882009417526,0.037119388580322266,0.5444684028625488,STABILIZE
0.16,0.015,0.11,23.089269042422522,6.395558859520011,0.34633903563633783,0.0048370918996306555,6.746734987055979,0.17,0.015,0.08,-5.782942339191798,-1.7025182334573499,-0.08674413508787696,-0.0055833213910423864,-1.7948456899362693,0.002,8e-05,0,5.365094197999512,0.018696265091783446,0.00042920753583996097,0.0,0.019125472627623406,0.2,0.02,0.0,0.004196927712845775,0.003466932855545109,8.39385542569155e-05,0.0,0.0035508714098020245,-10.01481313798441,-10.0,0.01481313798441068,39.972242872000066,40.0,0.027757127999930405,9.348132545891723,10.0,0.6518674541082765,0.017334664277725544,0,-0.017334664277725544,4.000542842040984,1.7936354199439346,-0.0035508714098020245,0.5191254726276234,0.033537864685058594,0.5780179500579834,STABILIZE
0.16,0.015,0.11,24.423948109743446,6.395624041392303,0.36635922164615164,0.0035396466825092145,6.765522909720963,0.17,0.015,0.08,-6.117270505102829,-1.7021897920759588,-0.09175905757654243,-0.0022379544175880925,-1.7961868040700892,0.002,8e-05,0,5.6773901880132716,0.018706067535879677,0.0004541912150410618,0.0,0.019160258750920738,0.2,0.02,0.0,0.004662248001307365,0.0027871996503682317,9.32449600261473e-05,0.0,0.002880444610394379,-10.012881129858581,-10.0,0.01288112985858174,39.97265025870189,40.0,0.027349741298111675,9.353033767939838,10.0,0.6469662320601616,0.013935998251841157,0,-0.013935998251841157,4.000436766492193,1.795213834731955,-0.002880444610394379,0.5191602587509208,0.03338980674743652,0.6114816665649414,STABILIZE
0.16,0.015,0.11,26.074411027564878,6.395697626118589,0.39111616541347316,0.002269881615964413,6.789083673148027,0.17,0.015,0.08,-6.530837457369446,-1.7027736387986248,-0.0979625618605417,-0.0015072192117766663,-1.8022434198709432,0.002,8e-05,0,6.063772818567005,0.018715858792724832,0.0004851018254853604,0.0,0.01920096061821019,0.2,0.02,0.0,0.00525163195118287,0.002854897168840088,0.0001050326390236574,0.0,0.0029599298078637456,-10.01631552234485,-10.0,0.016315522344851285,39.97311016324118,40.0,0.026889836758819324,9.357929396362415,10.0,0.642070603637584,0.014274485844200439,0,-0.014274485844200439,4.000448880974104,1.8012468168413662,-0.0029599298078637456,0.5192009606182102,0.041289329528808594,0.6526985168457031,STABILIZE
0.16,0.015,0.11,27.41133740611994,6.3957976971937605,0.4111700610917991,0.001934643807926531,6.808902402093486,0.17,0.015,0.08,-6.865864780013749,-1.7029284120286632,-0.10298797170020622,-0.0018559462638996363,-1.807772329992769,0.002,8e-05,0,6.376936057271244,0.01872699156324395,0.0005101548845816996,0.0,0.019237146447825648,0.2,0.02,0.0,0.005734980017394842,0.002890395180326551,0.00011469960034789685,-0.0,0.003005094780674448,-10.017225953109783,-10.0,0.017225953109783032,39.973735607461,40.0,0.02626439253899968,9.363495781621975,10.0,0.6365042183780248,0.014451975901632753,0,-0.014451975901632753,4.000455855414099,1.8067633342445644,-0.003005094780674448,0.5192371464478256,0.033445119857788086,0.6862003803253174,STABILIZE
0.16,0.015,0.11,28.748183396334994,6.3959602576719625,0.4312227509450249,0.0025380161113676214,6.8297210247283555,0.17,0.015,0.08,-7.200823609240773,-1.7027259208122958,-0.1080123541386116,-0.0011011724965723434,-1.8118394474474797,0.002,8e-05,0,6.690396439203967,0.01874636420229913,0.0005352317151363174,0.0,0.01928159591743545,0.2,0.02,0.0,0.0061858374487585785,0.002696333603482851,0.00012371674897517158,-0.0,0.0028200503524580226,-10.016034828307621,-10.0,0.01603482830762164,39.974751610449765,40.0,0.02524838955023232,9.373182101149565,10.0,0.6268178988504345,0.013481668017414255,0,-0.013481668017414255,4.00042621417239,1.8108981993168882,-0.0028200503524580226,0.5192815959174355,0.03344225883483887,0.7195916175842285,STABILIZE
0.16,0.015,0.11,30.116211259696346,6.395858732384997,0.4517431688954452,0.0011853538659904934,6.848787255146432,0.17,0.015,0.08,-7.543487298593881,-1.7021622121515416,-0.11315230947890821,0.0012795463109605153,-1.8140349753194893,0.002,8e-05,0,7.0112237854832475,0.018749310953784237,0.0005608979028386598,0.0,0.019310208856622896,0.2,0.02,0.0,0.006650141632638725,0.0027134169271012974,0.00013300283265277451,-0.0,0.002846419759754072,-10.012718895009067,-10.0,0.012718895009067293,39.97411707740623,40.0,0.025882922593772097,9.37465547689212,10.0,0.6253445231078799,0.013567084635506486,0,-0.013567084635506486,4.000429433736883,1.813087763285047,-0.002846419759754072,0.5193102088566229,0.03422284126281738,0.753809928894043,STABILIZE
0.16,0.015,0.11,31.454124852219383,6.3960065910883355,0.47181187278329073,0.0015243832741722004,6.8693428471457985,0.17,0.015,0.08,-7.878639227932778,-1.702360364385838,-0.11817958841899166,-0.00020347448442443916,-1.820743427289254,0.002,8e-05,0,7.325173916926927,0.018760807136656007,0.0005860139133541542,0.0,0.01934682105001016,0.2,0.02,0.0,0.007071382898903951,0.0025172233940664477,0.00014142765797807902,-0.0,0.002658651052044527,-10.013884496387282,-10.0,0.013884496387283098,39.975041194302094,40.0,0.024958805697906126,9.380403568328003,10.0,0.6195964316719969,0.012586116970332238,0,-0.012586116970332238,4.000399864705485,1.8198647066420506,-0.002658651052044527,0.5193468210500102,0.03346872329711914,0.7872788906097412,STABILIZE
0.16,0.015,0.11,32.79186271802848,6.396077779979262,0.49187794077042724,0.0015718424327813743,6.889527563182471,0.17,0.015,0.08,-8.213802928331253,-1.7026627365033773,-0.12320704392496878,0.0002769605569505105,-1.8255928198713955,0.002,8e-05,0,7.638721034056444,0.018739393943555817,0.0006110976827245156,0.0,0.019350491626280334,0.2,0.02,0.0,0.0074710717179434245,0.002388772157557876,0.00014942143435886848,-0.0,0.0025381935919167446,-10.01566315590222,-10.0,0.015663155902218978,39.975486124870386,40.0,0.024513875129611045,9.369696971777909,10.0,0.6303030282220918,0.01194386078778938,0,-0.01194386078778938,4.000380475610872,1.8247589414268734,-0.0025381935919167446,0.5193504916262803,0.03346395492553711,0.8207530975341797,STABILIZE
0.16,0.015,0.11,34.12656897801177,6.396393770123254,0.5118985346701765,0.0024618138119753665,6.910754118605406,0.17,0.015,0.08,-8.54835689458749,-1.7035097199256464,-0.12822535341881236,-0.0016751698101612287,-1.8334102431546198,0.002,8e-05,0,7.950982452102897,0.01870586668510864,0.0006360785961682319,-0.0,0.019341945281276873,0.2,0.02,0.0,0.007869193421396525,0.0023849284858285568,0.0001573838684279305,-0.0,0.002542312354256487,-10.020645411327331,-10.0,0.02064541132733176,39.97746106327033,40.0,0.022538936729663964,9.352933342554321,10.0,0.6470666574456786,0.011924642429142783,0,-0.011924642429142783,4.000381490538892,1.8325777063628481,-0.002542312354256487,0.5193419452812769,0.0333864688873291,0.8541989326477051,STABILIZE
0.16,0.015,0.11,35.46464050349721,6.3965337701911995,0.5319696075524581,0.002368579592429759,6.9308719573360875,0.17,0.015,0.08,-8.883697065289004,-1.7032558449868367,-0.13325545597933505,-0.0015311493026768327,-1.8380424502688486,0.002,8e-05,0,8.264183670681494,0.018715387531098172,0.0006611346936545195,-0.0,0.019376522224752692,0.2,0.02,0.0,0.008220153846337536,0.0020971694780304966,0.00016440307692675073,-0.0,0.002261572554957247,-10.019152029334332,-10.0,0.01915202933433179,39.978336063695,40.0,0.02166393630500483,9.357693765549087,10.0,0.6423062344509143,0.010485847390152483,0,-0.010485847390152483,4.000336317868484,1.8373103692443287,-0.002261572554957247,0.5193765222247527,0.03346991539001465,0.8876054286956787,STABILIZE
0.16,0.015,0.11,36.80440547054172,6.396336567805244,0.5520660820581257,0.001967394939327389,6.950370044802697,0.17,0.015,0.08,-9.219468464993312,-1.703237969815488,-0.13829202697489967,-0.0030312277064958775,-1.8445612244968836,0.002,8e-05,0,8.578085900479813,0.018732990119190586,0.0006862468720383851,-0.0,0.01941923699122897,0.2,0.02,0.0,0.008455297076066638,0.0014032827361372922,0.00016910594152133276,-0.0,0.001572388677658625,-10.019046881267576,-10.0,0.019046881267575155,39.97710354878278,40.0,0.0228964512172245,9.366495059595293,10.0,0.6335049404047081,0.007016413680686461,0,-0.007016413680686461,4.000225854089686,1.84407137258564,-0.001572388677658625,0.5194192369912289,0.03351330757141113,0.921142578125,STABILIZE
0.16,0.015,0.11,38.14161908994426,6.39630550139224,0.5721242863491638,0.0012322417329549732,6.9696620294743585,0.17,0.015,0.08,-9.554726920562068,-1.7038724700879229,-0.14332090380843102,-0.0042593027121037895,-1.8514526766084578,0.002,8e-05,0,8.891043725297047,0.01871217346593994,0.0007112834980237638,-0.0,0.019423456963963706,0.2,0.02,0.0,0.008554815136237705,0.0005950320002391361,0.00017109630272475412,-0.0,0.0007661283029638902,-10.02277923581131,-10.0,0.022779235811310476,39.976909383701496,40.0,0.023090616298505923,9.35608673296997,10.0,0.6439132670300292,0.00297516000119568,0,-0.00297516000119568,4.000096133764364,1.851244968761296,-0.0007661283029638902,0.5194234569639637,0.033449649810791016,0.9545753002166748,STABILIZE
0.16,0.015,0.11,39.478676974142516,6.396381216908228,0.5921801546121377,0.0012510141619520138,6.989812385682318,0.17,0.015,0.08,-9.889797612780308,-1.703136716503667,-0.14834696419170462,-0.0013384150792308265,-1.8528220957746024,0.002,8e-05,0,9.20401180764226,0.01871518790494517,0.0007363209446113809,-0.0,0.01945150884955655,0.2,0.02,0.0,0.008579976724715886,0.000150463859709699,0.0001715995344943177,-0.0,0.0003220633942040167,-10.018451273550982,-10.0,0.0184512735509808,39.977382605676425,40.0,0.02261739432357824,9.357593952472584,10.0,0.6424060475274167,0.0007523192985484949,0,-0.0007523192985484949,4.00002432804082,1.8527695738197387,-0.0003220633942040167,0.5194515088495566,0.03344535827636719,0.988029956817627,STABILIZE
0.16,0.015,0.11,40.816385414822925,6.396438386091168,0.6122457812223439,0.00018455010305775375,7.008868717416569,0.17,0.015,0.08,-10.22489230348587,-1.7024455832534133,-0.15337338455228805,0.0029932316821542973,-1.852825736123547,0.002,8e-05,0,9.517059943454521,0.01871103832971013,0.0007613647954763618,0.0,0.019472403125186492,0.2,0.02,0.0,0.008529948534299552,-0.00029902091127846463,0.00017059897068599103,-0.0,-0.0001284219405924736,-10.014385783843608,-10.0,0.014385783843607915,39.9777399130698,40.0,0.022260086930199863,9.355519164855064,10.0,0.6444808351449366,-0.001495104556392323,0,0.001495104556392323,3.999951650082231,1.852930113481402,0.0001284219405924736,0.5194724031251865,0.03346133232116699,1.0214800834655762,STABILIZE
0.16,0.015,0.11,42.15609393106628,6.396340086100295,0.6323414089659942,-0.0007939206646948945,7.0278875744015945,0.17,0.015,0.08,-10.560337629004493,-1.7016565570521325,-0.15840506443506738,0.004495302759649368,-1.8555663187275506,0.002,8e-05,0,9.830676671255127,0.01871675091429211,0.0007864541337004102,0.0,0.019503205047992522,0.2,0.02,0.0,0.00844487862443949,-0.0005077000593426165,0.00016889757248878982,-0.0,-0.00033880248685382665,-10.009744453247837,-10.0,0.009744453247836297,39.97712553812684,40.0,0.022874461873158846,9.358375457146055,10.0,0.6416245428539458,-0.002538500296713082,0,0.002538500296713082,3.9999177848590834,1.8557435376592628,0.00033880248685382665,0.5195032050479925,0.03351187705993652,1.0549957752227783,STABILIZE
0.16,0.015,0.11,43.49363638144838,6.396282727292891,0.6524045457217257,-0.00022055280450859762,7.048466720210108,0.17,0.015,0.08,-10.895243384406115,-1.7016554439489395,-0.16342865076609173,0.004448233898524027,-1.8606358608165072,0.002,8e-05,0,10.144024269523557,0.018730805794897477,0.0008115219415618846,-0.0,0.01954232773645936,0.2,0.02,0.0,0.008382412542939335,-0.00037340003491756366,0.00016764825085878668,-0.0,-0.00020575178405877697,-10.009737905581996,-10.0,0.009737905581995615,39.976767045580566,40.0,0.023232954419436087,9.365402897448739,10.0,0.6345971025512612,-0.0018670001745878181,0,0.0018670001745878181,3.9999393684983535,1.8607662010293984,0.00020575178405877697,0.5195423277364594,0.03345799446105957,1.0884549617767334,STABILIZE
0.16,0.015,0.11,44.83450552109718,6.3961932227181375,0.6725175828164577,-0.0004597624954064716,7.068251043039188,0.17,0.015,0.08,-11.230929208543259,-1.7013635320057217,-0.1684639381281489,0.0070526365397151946,-1.8627748335941554,0.002,8e-05,0,10.458259985331752,0.018737029367336427,0.0008366607988265402,0.0,0.019573690166162967,0.2,0.02,0.0,0.00841324786292035,0.000183862707824137,0.000168264957258407,-0.0,0.000352127665082544,-10.008020776504244,-10.0,0.008020776504244835,39.97620764198836,40.0,0.023792358011639925,9.368514683668213,10.0,0.6314853163317865,0.0009193135391206849,0,-0.0009193135391206849,4.000029887796946,1.862710653161915,-0.000352127665082544,0.519573690166163,0.03354167938232422,1.1220340728759766,STABILIZE
0.16,0.015,0.11,46.17183554867605,6.396360813911196,0.6925775332301407,-8.218714851810262e-05,7.088856159992819,0.17,0.015,0.08,-11.565783303985587,-1.7016839848343575,-0.1734867495597838,0.004080582006962594,-1.8710901523871788,0.002,8e-05,0,10.771716538341241,0.0187405237599001,0.0008617373230672994,0.0,0.0196022610829674,0.2,0.02,0.0,0.008418882404842808,3.3687050329670334e-05,0.00016837764809685615,-0.0,0.00020206469842652647,-10.009905793143279,-10.0,0.009905793143278616,39.97725508694497,40.0,0.022744913055029847,9.37026187995005,10.0,0.6297381200499503,0.00016843525164835166,0,-0.00016843525164835166,4.000005500519463,1.8710783933802229,-0.00020206469842652647,0.5196022610829674,0.03345227241516113,1.1554553508758545,STABILIZE
0.16,0.015,0.11,47.5093374146743,6.396453292358634,0.7126400612201145,6.296599090599127e-05,7.109156319569655,0.17,0.015,0.08,-11.900576091457667,-1.7011784336583016,-0.178508641371865,0.0035588129318388896,-1.8761282620983277,0.002,8e-05,0,11.085275819619142,0.018744528027094583,0.0008868220655695314,0.0,0.019631350092664115,0.2,0.02,0.0,0.008401589918215446,-0.00010337423243341063,0.00016803179836430893,0.0,6.46575659308983e-05,-10.00693196269589,-10.0,0.006931962695890904,39.97783307724146,40.0,0.022166922758533558,9.37226401354729,10.0,0.6277359864527094,-0.0005168711621670531,0,0.0005168711621670531,3.999983075089842,1.8761643464363411,-6.46575659308983e-05,0.5196313500926641,0.03345608711242676,1.1889264583587646,STABILIZE
0.16,0.015,0.11,48.84706324666852,6.396202525655623,0.7327059487000278,-0.0005641112309038704,7.1283443631247465,0.17,0.015,0.08,-12.235257752164667,-1.7002623851055358,-0.18352886628247,0.003919311144324585,-1.8798719402436814,0.002,8e-05,0,11.398938606754932,0.018746841311751593,0.0009119150885403946,0.0,0.019658756400291987,0.2,0.02,0.0,0.008297162571004626,-0.0006241361701351261,0.00016594325142009253,-0.0,-0.0004581929187150336,-10.001543441797269,-10.0,0.0015434417972684765,39.97626578534764,40.0,0.023734214652355288,9.373420655875796,10.0,0.6265793441242044,-0.0031206808506756304,0,0.0031206808506756304,3.999897604669042,1.8800898020781882,0.0004581929187150336,0.519658756400292,0.0334630012512207,1.2224199771881104,STABILIZE
0.16,0.015,0.11,50.18323072794358,6.395951509466084,0.7527484609191537,-0.0013609796140451479,7.147338990771193,0.17,0.015,0.08,-12.56938438704977,-1.699355729156828,-0.18854076580574652,0.006469103812353066,-1.8814273911502215,0.002,8e-05,0,11.712282397338473,0.018748881768662615,0.0009369825917870779,0.0,0.019685864360449692,0.2,0.02,0.0,0.008106894101738225,-0.001138468717678024,0.0001621378820347645,-0.0,-0.0009763308356432594,-9.996210171510752,-10.0,-0.0037898284892489108,39.97469693416302,40.0,0.02530306583697939,9.374440884331307,10.0,0.6255591156686942,-0.0056923435883901195,0,0.0056923435883901195,3.9998130601888886,1.8818247824153893,0.0009763308356432594,0.5196858643604497,0.033425331115722656,1.255833387374878,STABILIZE
0.16,0.015,0.11,51.53482011842797,6.395731784165731,0.7730223017764196,-0.001887594763485331,7.1668664911786655,0.17,0.015,0.08,-12.907290689846212,-1.6989112796278045,-0.19360936034769316,0.006887141979497206,-1.8856334979960006,0.002,8e-05,0,12.029170086629822,0.018743938439073238,0.0009623336069303858,0.0,0.019706272046003625,0.2,0.02,0.0,0.008018446340358287,-0.0005231693910504506,0.00016036892680716574,-0.0,-0.0003628004642432848,-9.993595762516497,-10.0,-0.00640423748350267,39.97332365103582,40.0,0.02667634896418329,9.371969219536618,10.0,0.6280307804633822,-0.0026158469552522525,0,0.0026158469552522525,3.999913906965951,1.885816116599127,0.0003628004642432848,0.5197062720460036,0.03381228446960449,1.2896459102630615,STABILIZE
0.16,0.015,0.11,52.87270407833801,6.395637129380624,0.7930905611750702,-0.0029653081380618426,7.185762382417632,0.17,0.015,0.08,-13.24190442702539,-1.6995661523969907,-0.19862856640538082,0.005947225913949508,-1.892247492888422,0.002,8e-05,0,12.342969343490239,0.018751123401646527,0.0009874375474792192,0.0,0.019738560949125745,0.2,0.02,0.0,0.007985280487695829,-0.00019818306844213368,0.00015970560975391658,-0.0,-3.8477458688217106e-05,-9.997447955276415,-10.0,-0.002552044723584647,39.9727320586289,40.0,0.027267941371098562,9.375561700823264,10.0,0.6244382991767365,-0.0009909153422106684,0,0.0009909153422106684,3.9999672734822176,1.892316671546746,3.8477458688217106e-05,0.5197385609491257,0.03346991539001465,1.3230926990509033,STABILIZE
0.16,0.015,0.11,54.209008322777706,6.395556936130371,0.8131351248416655,-0.003675214649353382,7.205016846322683,0.17,0.015,0.08,-13.576005160514885,-1.6989452733884014,-0.20364007740772327,0.006272983054962639,-1.8963123677411622,0.002,8e-05,0,12.656496518781513,0.0187567774043873,0.001012519721502521,0.0,0.01976929712588982,0.2,0.02,0.0,0.00796556547996459,-0.00011794512268261526,0.0001593113095992918,-0.0,4.136618691667654e-05,-9.993795725814126,-10.0,-0.006204274185874516,39.97223085081482,40.0,0.02776914918518192,9.37838870219365,10.0,0.6216112978063496,-0.0005897256134130762,0,0.0005897256134130762,3.999980481701733,1.8963535382552645,-4.136618691667654e-05,0.5197692971258898,0.03343081474304199,1.3565313816070557,STABILIZE
0.16,0.015,0.11,55.554636624150646,6.395619328549515,0.8333195493622597,-0.0023899677069962864,7.226548910204778,0.17,0.015,0.08,-13.912408139083988,-1.6988156956721971,-0.2086861220862598,0.004058791019639955,-1.903443026738817,0.002,8e-05,0,12.972396735889866,0.01876797563979772,0.0010377917388711894,0.0,0.01980576737866891,0.2,0.02,0.0,0.00785091946677401,-0.0006811244393740692,0.0001570183893354802,-0.0,-0.000524106050038589,-9.9930335039541,-10.0,-0.006966496045900301,39.97262080343447,40.0,0.027379196565531963,9.383987819898861,10.0,0.6160121801011387,-0.0034056221968703456,0,0.0034056221968703456,3.9998868535740444,1.9036807806578713,0.000524106050038589,0.5198057673786689,0.03366374969482422,1.3902466297149658,STABILIZE
0.16,0.015,0.11,56.89135377672564,6.395799824509462,0.8533703066508845,-0.0006152021400802811,7.2485549290202655,0.17,0.015,0.08,-14.246522938788445,-1.6985564852102368,-0.21369784408182665,0.0022354237078795612,-1.9100189055841839,0.002,8e-05,0,13.286425095945699,0.018781670885526094,0.001062914007675656,0.0,0.01984458489320175,0.2,0.02,0.0,0.007612101319008864,-0.0014283435585303282,0.00015224202638017728,-0.0,-0.001276101532150151,-9.991508736530804,-10.0,-0.008491263469196013,39.97374890318414,40.0,0.026251096815862844,9.390835442763047,10.0,0.609164557236954,-0.007141717792651641,0,0.007141717792651641,3.9997618917752225,1.9105174767040722,0.001276101532150151,0.5198445848932017,0.03343987464904785,1.4236268997192383,STABILIZE
0.16,0.015,0.11,58.228620065533825,6.395782454293093,0.8734293009830073,0.00020693170252203324,7.2694186869786215,0.17,0.015,0.08,-14.580814548904105,-1.6987528658423796,-0.21871221823356157,0.0004457918891580852,-1.9170192921867832,0.002,8e-05,0,13.600573475707254,0.018781082647292273,0.0010880458780565803,0.0,0.019869128525348854,0.2,0.02,0.0,0.0073466885989290805,-0.0015867464397698282,0.00014693377197858162,-0.0,-0.0014398126677912465,-9.992663916719879,-10.0,-0.007336083280121742,39.97364033933183,40.0,0.026359660668168527,9.390541323646136,10.0,0.6094586763538642,-0.007933732198849141,0,0.007933732198849141,3.9997345124731924,1.9175731528020383,0.0014398126677912465,0.5198691285253488,0.03345370292663574,1.457082748413086,STABILIZE
0.16,0.015,0.11,59.56585981368193,6.395701098526571,0.8934878972052289,0.0002614019354506465,7.28945039766725,0.17,0.015,0.08,-14.914961267310959,-1.698028678479175,-0.2237244190096644,0.004324720493619378,-1.9174283769952198,0.002,8e-05,0,13.914946035216786,0.01879461898087253,0.001113195682817343,0.0,0.019907814663689873,0.2,0.02,0.0,0.007108469885937283,-0.0014241796268032402,0.00014216939771874565,-0.0,-0.0012820102290844945,-9.98840399105397,-10.0,-0.011596008946030169,39.97313186579107,40.0,0.026868134208931686,9.397309490436266,10.0,0.6026905095637349,-0.0071208981340162006,0,0.0071208981340162006,3.999761665130528,1.9179254946579103,0.0012820102290844945,0.5199078146636898,0.03345346450805664,1.4905564785003662,STABILIZE
0.16,0.015,0.11,60.90275999609606,6.395672375993883,0.9135413999414408,0.000473150076535216,7.30968692601186,0.17,0.015,0.08,-15.249112738775997,-1.6984765009245029,-0.22873669108163994,0.001316548556325407,-1.9258966434498175,0.002,8e-05,0,14.22934304433903,0.01880077036405251,0.0011383474435471225,0.0,0.019939117807599636,0.2,0.02,0.0,0.006858373684168401,-0.0014955617012725065,0.00013716747368336803,-0.0,-0.0013583942275891385,-9.991038240732369,-10.0,-0.008961759267631764,39.97295234996177,40.0,0.027047650038226498,9.400385182026255,10.0,0.5996148179737448,-0.007477808506362532,0,0.007477808506362532,3.9997486125805874,1.9264186765630522,0.0013583942275891385,0.5199391178075996,0.033445119857788086,1.5239841938018799,STABILIZE
0.16,0.015,0.11,62.23889529185205,6.3956605859163735,0.9335834293777807,0.00016980829799011313,7.329413823592144,0.17,0.015,0.08,-15.583113416865324,-1.6986787681736075,-0.23374670125297983,0.0003847496561257132,-1.9320407197704617,0.002,8e-05,0,14.543610852465768,0.01880376785422452,0.0011634888681972615,0.0,0.01996725672242178,0.2,0.02,0.0,0.0065871407027380605,-0.0016228840133598703,0.00013174281405476122,-0.0,-0.001491141199305109,-9.992228048080044,-10.0,-0.007771951919956787,39.97287866197733,40.0,0.027121338022667484,9.40188392711226,10.0,0.5981160728877399,-0.008114420066799351,0,0.008114420066799351,3.9997263378131884,1.9326071937811533,0.001491141199305109,0.5199672567224218,0.03342604637145996,1.5574073791503906,STABILIZE
0.16,0.015,0.11,63.57711934659402,6.395941663903856,0.9536567901989103,0.0005821114354615316,7.350180565538228,0.17,0.015,0.08,-15.917563755846082,-1.6983853736149295,-0.23876345633769122,0.0004800503796744883,-1.9366687795729463,0.002,8e-05,0,14.85837167253172,0.018804697129104347,0.0011886697338025377,0.0,0.019993366862906883,0.2,0.02,0.0,0.006325532311240992,-0.001562922147522604,0.00012651064622481984,-0.0,-0.0014364115012977842,-9.990502197734878,-10.0,-0.009497802265120803,39.9746353993991,40.0,0.025364600600899023,9.402348564552174,10.0,0.5976514354478268,-0.007814610737613019,0,0.007814610737613019,3.9997358192103847,1.9372143243064244,0.0014364115012977842,0.5199933668629069,0.033476829528808594,1.5908865928649902,STABILIZE
0.16,0.015,0.11,64.99887662922114,6.396226863366206,0.9749831494383171,0.0017561357948608928,7.372966148599383,0.17,0.015,0.08,-16.27281392576715,-1.6980936212315112,-0.24409220888650723,0.0018046245953495905,-1.9403812055226688,0.002,8e-05,0,15.19278145657018,0.01880560829699884,0.0012154225165256147,0.0,0.020021030813524455,0.2,0.02,0.0,0.006059206768077908,-0.0014976875926675567,0.00012118413536155815,0.0,-0.0013765034573059985,-9.988786007244183,-10.0,-0.011213992755815985,39.97641789603878,40.0,0.02358210396121918,9.40280414849942,10.0,0.5971958515005797,-0.0074884379633377825,0,0.0074884379633377825,3.9997463620913947,1.9409039805416086,0.0013765034573059985,0.5200210308135245,0.03556489944458008,1.6264474391937256,STABILIZE
0.16,0.015,0.11,66.34392244096067,6.396112387247926,0.99515883661441,0.001622705552907994,7.392893929415243,0.17,0.015,0.08,-16.60886658665378,-1.697912427088681,-0.24913299879980666,0.0002740469335198852,-1.9467713789549679,0.002,8e-05,0,15.50929200952556,0.018813830082805974,0.001240743360762045,0.0,0.02005457344356802,0.2,0.02,0.0,0.005930892375014007,-0.0007627187042395216,0.00011861784750028014,0.0,-0.0006441008567392415,-9.987720159345182,-10.0,-0.012279840654818484,39.975702420299534,40.0,0.024297579700465696,9.406915041402987,10.0,0.5930849585970122,-0.003813593521197608,0,0.003813593521197608,3.9998704144975528,1.9470376136955867,0.0006441008567392415,0.520054573443568,0.033646583557128906,1.6601128578186035,STABILIZE
0.16,0.015,0.11,67.68181842129626,6.396195779107491,1.0152272763194439,0.0020834045198431955,7.413506459946778,0.17,0.015,0.08,-16.94315679945524,-1.6980559658720065,-0.25414735199182864,0.0011305967929578387,-1.9510727210708774,0.002,8e-05,0,15.823923493659086,0.01880232656693906,0.001265913879492727,0.0,0.020068240446431785,0.2,0.02,0.0,0.005708056222237814,-0.0013316652422617013,0.00011416112444475628,0.0,-0.001217504117816945,-9.98856450512945,-10.0,-0.011435494870549932,39.976223619421816,40.0,0.023776380578181894,9.40116328346953,10.0,0.5988367165304709,-0.006658326211308506,0,0.006658326211308506,3.999773239386139,1.9515375467557439,0.001217504117816945,0.5200682404464317,0.03346729278564453,1.693603277206421,STABILIZE
0.16,0.015,0.11,69.01870910096423,6.39612846869602,1.0352806365144633,0.0018551545776358035,7.433264259788119,0.17,0.015,0.08,-17.277280830381752,-1.698470207744465,-0.25915921245572626,0.0005343140610813864,-1.95709510613911,0.002,8e-05,0,16.138526577391524,0.018814568861198474,0.001291082126191322,0.0,0.020105650987389798,0.2,0.02,0.0,0.005537241922240634,-0.0010215403395434056,0.00011074483844481268,0.0,-0.0009107955010985929,-9.991001222026265,-10.0,-0.008998777973734582,39.975802929350124,40.0,0.02419707064987709,9.407284430599237,10.0,0.5927155694007629,-0.0051077016977170275,0,0.0051077016977170275,3.999825516491224,1.9574516832094138,0.0009107955010985929,0.5201056509873898,0.03344249725341797,1.7270574569702148,STABILIZE
0.16,0.015,0.11,70.35595832341075,6.396111086002674,1.0553393748511612,0.0006292275735753511,7.45207968842741,0.17,0.015,0.08,-17.61167127227404,-1.6993640938976369,-0.2641750690841106,-0.0028055370665681528,-1.9663447000483156,0.002,8e-05,0,16.45329863228403,0.018819575626471557,0.0013162638905827226,0.0,0.02013583951705428,0.2,0.02,0.0,0.005315772662660203,-0.0013241192840437923,0.00010631545325320405,0.0,-0.0012178038307905882,-9.996259375868451,-10.0,-0.0037406241315484697,39.97569428751671,40.0,0.024305712483293697,9.409787813235779,10.0,0.5902121867642216,-0.0066205964202189615,0,0.0066205964202189615,3.999772759794883,1.9668068917438042,0.0012178038307905882,0.5201358395170543,0.03345155715942383,1.7604906558990479,STABILIZE
0.16,0.015,0.11,71.69255160464112,6.396073584435267,1.0753882740696168,-0.0006276244481810687,7.470834234056703,0.17,0.015,0.08,-17.94607518699252,-1.7002566002816153,-0.2691911278048878,-0.006089949327281422,-1.9755376774137845,0.002,8e-05,0,16.76789850981012,0.018818401926827072,0.0013414318807848098,0.0,0.020159833807611882,0.2,0.02,0.0,0.005042315301712408,-0.001635738249052011,0.00010084630603424816,-0.0,-0.0015348919430177629,-10.001509413421266,-10.0,0.0015094134212663979,39.97545990272042,40.0,0.02454009727958691,9.409200963413536,10.0,0.5907990365864633,-0.008178691245260055,0,0.008178691245260055,3.999717960943625,1.9761086376478438,0.0015348919430177629,0.5201598338076119,0.03343534469604492,1.7939183712005615,STABILIZE
0.16,0.015,0.11,73.03011709224452,6.396073849128562,1.0954517563836679,-0.0001587190425335945,7.491366886469696,0.17,0.015,0.08,-18.280632527515635,-1.6998003603358214,-0.27420948791273453,-0.005313450088339654,-1.9793232983368956,0.002,8e-05,0,17.082683858151725,0.01881581082643001,0.0013666147086521382,0.0,0.02018242553508215,0.2,0.02,0.0,0.004788067443495472,-0.0015197275312964637,9.576134886990945e-05,-0.0,-0.0014239661824265541,-9.998825649034243,-10.0,-0.0011743509657564468,39.97546155705351,40.0,0.024538442946491556,9.407905413215005,10.0,0.5920945867849943,-0.007598637656482318,0,0.007598637656482318,3.9997374645023696,1.9798537659118673,0.0014239661824265541,0.5201824255350822,0.03345966339111328,1.8273766040802002,STABILIZE
0.16,0.015,0.11,74.40794240886893,6.396080060672383,1.116119136133034,-0.0004765535297909037,7.511722643275626,0.17,0.015,0.08,-18.625395252117286,-1.7004699975380544,-0.2793809287817593,-0.0067383512645309,-1.9865892775843446,0.002,8e-05,0,17.407011033548148,0.018819716790818137,0.001392560882683852,0.0,0.020212277673501988,0.2,0.02,0.0,0.004479008416603885,-0.001793375270091437,8.95801683320777e-05,-0.0,-0.001703795101759359,-10.00276469140032,-10.0,0.0027646914003190267,39.975500379202394,40.0,0.024499620797604142,9.409858395409069,10.0,0.5901416045909311,-0.008966876350457184,0,0.008966876350457184,3.9996890467823385,1.987215259317036,0.001703795101759359,0.520212277673502,0.03446674346923828,1.8618450164794922,STABILIZE
0.16,0.015,0.11,75.74643674061674,6.39604908030837,1.136196551109251,-0.0003270270763840078,7.531918604341238,0.17,0.015,0.08,-18.96047487673566,-1.701265951347989,-0.2844071231510349,-0.007809896451325783,-1.9934829709503499,0.002,8e-05,0,17.722109365779165,0.01882137591349744,0.0014177687492623334,0.0,0.02023914466275977,0.2,0.02,0.0,0.004147516036917094,-0.0019800621115222735,8.295032073834187e-05,-0.0,-0.0018971117907839315,-10.007446772635229,-10.0,0.0074467726352279925,39.97530675192731,40.0,0.024693248072684963,9.410687956748719,10.0,0.5893120432512806,-0.009900310557611368,0,0.009900310557611368,3.999655480351567,1.994174113251576,0.0018971117907839315,0.5202391446627598,0.033483028411865234,1.8953635692596436,STABILIZE
0.16,0.015,0.11,77.0983139142177,6.396011180522881,1.1564747087132654,-0.00040967290856600106,7.55207621632758,0.17,0.015,0.08,-19.298950853706717,-1.7014875214096976,-0.28948426280560074,-0.005911546042465846,-1.9968833302577642,0.002,8e-05,0,18.040558675470137,0.018833121316301566,0.001443244694037611,0.0,0.020276366010339178,0.2,0.02,0.0,0.0037320004550131444,-0.002457362953747542,7.464000910026289e-05,-0.0,-0.002382722944647279,-10.008750125939397,-10.0,0.008750125939397287,39.975069878268,40.0,0.02493012173199837,9.416560658150782,10.0,0.5834393418492179,-0.01228681476873771,0,0.01228681476873771,3.999571685640456,1.9977410658252237,0.002382722944647279,0.5202763660103392,0.03381800651550293,1.9291527271270752,STABILIZE
0.16,0.015,0.11,78.43601142729685,6.395748140748972,1.1765401714094528,-0.0013362315924320114,7.570952080565993,0.17,0.015,0.08,-19.633968404325426,-1.7018839061216577,-0.2945095260648814,-0.004514028019672822,-2.000907460206212,0.002,8e-05,0,18.355229287699242,0.018806138564914473,0.0014684183430159394,-0.0,0.02027455690793041,0.2,0.02,0.0,0.0033160002009752234,-0.0024862056119752183,6.632000401950447e-05,-0.0,-0.002419885607955714,-10.011081800715633,-10.0,0.011081800715633913,39.97342587968107,40.0,0.02657412031892884,9.403069282457237,10.0,0.5969307175427636,-0.01243102805987609,0,0.01243102805987609,3.9995657842352457,2.001775262581586,0.002419885607955714,0.5202745569079305,0.033464670181274414,1.96262788772583,STABILIZE
0.16,0.015,0.11,79.77510917205464,6.395699096545964,1.1966266375808197,-0.0015386204267044527,7.590787113700078,0.17,0.015,0.08,-19.969242976212303,-1.7013955778902567,-0.2995386446431845,-0.004425420007300214,-2.005359642540742,0.002,8e-05,0,18.6701828780717,0.018803224048474523,0.0014936146302457361,-0.0,0.020296838678720258,0.2,0.02,0.0,0.003036933972509624,-0.0016660692173713827,6.073867945019248e-05,-0.0,-0.00160533053792119,-10.008209281707392,-10.0,0.008209281707392303,39.97311935341227,40.0,0.026880646587724204,9.401612024237261,10.0,0.5983879757627383,-0.008330346086856913,0,0.008330346086856913,3.999708394540315,2.0059411892114056,0.00160533053792119,0.5202968386787202,0.033499956130981445,1.9962587356567383,STABILIZE
0.16,0.015,0.11,81.11173476777427,6.395589747174174,1.216676021516614,-0.0020130455324057985,7.610252723158382,0.17,0.015,0.08,-20.303938180284295,-1.7015677754855152,-0.3045590727042644,-0.003081528268436136,-2.009208376458216,0.002,8e-05,0,18.984639829866257,0.018807974941387157,0.0015187711863893006,-0.0,0.02032674612777646,0.2,0.02,0.0,0.0028182688303237543,-0.0013078574002948432,5.6365376606475084e-05,0.0,-0.0012514920236883682,-10.009222208738324,-10.0,0.009222208738323162,39.97243591983859,40.0,0.02756408016140848,9.403987470693579,10.0,0.59601252930642,-0.006539287001474215,0,0.006539287001474215,3.9997706587991724,2.0096648917267506,0.0012514920236883682,0.5203267461277764,0.033438682556152344,2.0295767784118652,STABILIZE
0.16,0.015,0.11,82.4509946402999,6.395472077049206,1.2367649196044983,-0.002368722285744843,7.62986827436796,0.17,0.015,0.08,-20.639399794219102,-1.7020782472155362,-0.3095909969132865,-0.002278115389442259,-2.0139473595182653,0.002,8e-05,0,19.299857378065205,0.018816036650718206,0.0015439885902452165,-0.0,0.020360025240963423,0.2,0.02,0.0,0.002591759547859058,-0.001352084293826709,5.183519095718116e-05,0.0,-0.0013002491028695278,-10.0122249836208,-10.0,0.012224983620800288,39.971700481557534,40.0,0.028299518442469685,9.408018325359103,10.0,0.5919816746408972,-0.0067604214691335445,0,0.0067604214691335445,3.999762343258139,2.0144193119518974,0.0013002491028695278,0.5203600252409635,0.03350520133972168,2.06306791305542,STABILIZE
0.16,0.015,0.11,83.78735336821522,6.3954528105773365,1.2568103005232283,-0.002293864192636795,7.649969246907928,0.17,0.015,0.08,-20.974195475953483,-1.702382047707002,-0.31461293213930225,-0.002516711506962172,-2.0195116913532662,0.002,8e-05,0,19.614437577871403,0.01881870096868565,0.0015691550062297123,-0.0,0.020387855974915364,0.2,0.02,0.0,0.0022861176170199528,-0.001828399913121128,4.572235234039906e-05,0.0,-0.001782677560780729,-10.014012045335305,-10.0,0.014012045335305052,39.97158006610835,40.0,0.028419933891647306,9.409350484342825,10.0,0.5906495156571742,-0.00914199956560564,0,0.00914199956560564,3.9996777198522846,2.0201498976139765,0.001782677560780729,0.5203878559749153,0.033432722091674805,2.0965371131896973,STABILIZE
0.16,0.015,0.11,85.17138078670985,6.395583972568773,1.2775707118006476,-0.000692217251587451,7.672462467117834,0.17,0.015,0.08,-21.32093767078665,-1.702437371467783,-0.3198140650617997,-0.0015522829298520921,-2.0238037194594347,0.002,8e-05,0,19.940187365893927,0.01881610233569786,0.0015952149892715143,0.0,0.020411317324969373,0.2,0.02,0.0,0.0019263999731093386,-0.002077816854729683,3.852799946218677e-05,0.0,-0.0020392888552674964,-10.014337479222252,-10.0,0.014337479222253159,39.972399828554835,40.0,0.0276001714451667,9.40805116784893,10.0,0.5919488321510701,-0.010389084273648415,0,0.010389084273648415,3.9996329706126135,2.024528981093223,0.0020392888552674964,0.5204113173249694,0.034624576568603516,2.131131649017334,STABILIZE
0.16,0.015,0.11,86.51053400116412,6.395918507150708,1.2976580100174617,0.000882165573129937,7.6944586827413,0.17,0.015,0.08,-21.656408073891182,-1.7023772337620295,-0.3248461211083677,-0.002755279282779454,-2.029978634153177,0.002,8e-05,0,20.255322300202092,0.01881391666797347,0.0016204257840161675,0.0,0.020434342451989638,0.2,0.02,0.0,0.0016338082122075302,-0.0017468063385061548,3.2676164244150605e-05,-0.0,-0.0017141301742620043,-10.013983728011938,-10.0,0.013983728011938253,39.974490669691924,40.0,0.025509330308077983,9.406958333986736,10.0,0.5930416660132645,-0.008734031692530774,0,0.008734031692530774,3.999690508435391,2.0305883610053135,0.0017141301742620043,0.5204343424519896,0.03350019454956055,2.1646342277526855,STABILIZE
0.16,0.015,0.11,87.89629631222833,6.396201663722961,1.318444444683425,0.0024549735772942238,7.71710108198368,0.17,0.015,0.08,-22.003602893716522,-1.7026899711635883,-0.33005404340574784,-0.0031197167883738135,-2.03586373135771,0.002,8e-05,0,20.581594748411167,0.01882451593068645,0.0016465275798728935,0.0,0.020471043510559346,0.2,0.02,0.0,0.0012919301549475122,-0.001972489240378451,2.5838603098950245e-05,-0.0,-0.001946650637279501,-10.015823359785813,-10.0,0.01582335978581357,39.9762603982685,40.0,0.023739601731497802,9.412257965343226,10.0,0.5877420346567743,-0.009862446201892255,0,0.009862446201892255,3.9996495031242314,2.0365522298276133,0.001946650637279501,0.5204710435105594,0.03466463088989258,2.199321985244751,STABILIZE
0.16,0.015,0.11,89.23468577375141,6.396549990911719,1.338520286606271,0.0043685229317043574,7.739438800449695,0.17,0.015,0.08,-22.33901150524329,-1.7032030948282,-0.33508517257864934,-0.0031283466837197546,-2.041416614090569,0.002,8e-05,0,20.896604649511737,0.018819041821811263,0.001671728371960939,0.0,0.0204907701937722,0.2,0.02,0.0,0.0009869850126680857,-0.0018217761936576574,1.9739700253361714e-05,-0.0,-0.0018020364934042956,-10.018841734283528,-10.0,0.018841734283528637,39.978437443198246,40.0,0.021562556801756453,9.40952091090563,10.0,0.5904790890943693,-0.009108880968288286,0,0.009108880968288286,3.9996754051121517,2.042052508146142,0.0018020364934042956,0.5204907701937722,0.033477783203125,2.2328200340270996,STABILIZE
0.16,0.015,0.11,90.5757983204418,6.396899619354021,1.358636974806627,0.005880917906276344,7.761417512066925,0.17,0.015,0.08,-22.675114093367412,-1.7033547490475158,-0.34012671140051115,-0.0026986172100510186,-2.0461800776580783,0.002,8e-05,0,21.212047386581585,0.018807663921176648,0.0016969637909265269,-0.0,0.020504627712103176,0.2,0.02,0.0,0.0007796406718228685,-0.0012362505837981118,1.5592813436457368e-05,0.0,-0.0012206577703616545,-10.019733817926562,-10.0,0.019733817926561637,39.98062262096263,40.0,0.019377379037372067,9.403831960588324,10.0,0.5961680394116755,-0.006181252918990559,0,0.006181252918990559,3.99977922823692,2.0466115986110527,0.0012206577703616545,0.5205046277121032,0.033544063568115234,2.2663440704345703,STABILIZE
0.16,0.015,0.11,91.91257223018832,6.396709889828846,1.3786885834528246,0.004579832989262192,7.779978306270933,0.17,0.015,0.08,-23.010221694340043,-1.7037737049427457,-0.34515332541510063,-0.003727517478750727,-2.052654547836597,0.002,8e-05,0,21.526653434587402,0.018818100091626506,0.0017221322747669923,0.0,0.020540232366393497,0.2,0.02,0.0,0.0005344707344851832,-0.0014664792522339123,1.0689414689703663e-05,0.0,-0.0014557898375442086,-10.022198264369091,-10.0,0.022198264369091184,39.97943681143028,40.0,0.020563188569716773,9.409050045813252,10.0,0.5909499541867476,-0.007332396261169561,0,0.007332396261169561,3.999737279894999,2.053166428853838,0.0014557898375442086,0.5205402323663935,0.03343653678894043,2.2998037338256836,STABILIZE
0.16,0.015,0.11,93.27564733651695,6.397081131543594,1.3991347100477542,0.004704026208289654,7.800919867799638,0.17,0.015,0.08,-23.351906174961858,-1.703790783163631,-0.35027859262442784,-0.003943619485545668,-2.058012995273604,0.002,8e-05,0,21.847258677080237,0.01880800384643642,0.0017477806941664192,-0.0,0.02055578454060284,0.2,0.02,0.0,0.0003421551690113761,-0.0011282011070800884,6.843103380227522e-06,0.0,-0.001121358003699861,-10.022298724491947,-10.0,0.02229872449194615,39.98175707214746,40.0,0.018242927852539677,9.40400192321821,10.0,0.5959980767817898,-0.005641005535400442,0,0.005641005535400442,3.999797360756086,2.0584068017774517,0.001121358003699861,0.5205557845406028,0.03409242630004883,2.3339414596557617,STABILIZE
0.16,0.015,0.11,94.61232531829762,6.395658003302035,1.4191848797744642,-0.002270879011684077,7.8125720040648154,0.17,0.015,0.08,-23.686760609000494,-1.7023287392911346,-0.3553014091350074,0.0010204919767664241,-2.0566096564493757,0.002,8e-05,0,22.161817231678995,0.01881351534034596,0.0017729453785343197,-0.0,0.02058646071888028,0.2,0.02,0.0,0.0004797889099891084,0.0008231772620320935,9.595778199782169e-06,0.0,0.0008327730402318758,-10.013698466418438,-10.0,0.013698466418437416,39.97286252063772,40.0,0.02713747936227813,9.40675767017298,10.0,0.5932423298270214,0.004115886310160468,0,-0.004115886310160468,4.0001477278127515,2.0563223080721813,-0.0008327730402318758,0.5205864607188803,0.03343963623046875,2.3673157691955566,STABILIZE
0.16,0.015,0.11,95.94975492871951,6.395424101138379,1.4392463239307927,-0.004662732507452154,7.83000769256172,0.17,0.015,0.08,-24.021827030833872,-1.7023868723916302,-0.3603274054625081,0.0022995395798518716,-2.060414738274287,0.002,8e-05,0,22.47641139968622,0.018804383315510525,0.0017981129119748979,-0.0,0.020602496227485424,0.2,0.02,0.0,0.0003910905862097119,-0.000530180610262531,7.821811724194237e-06,0.0,-0.0005223587985383368,-10.014040425833118,-10.0,0.014040425833116854,39.971400632114864,40.0,0.028599367885137707,9.402191657755262,10.0,0.5978083422447386,-0.002650903051312655,0,0.002650903051312655,3.999904666538099,2.0605998040145104,0.0005223587985383368,0.5206024962274854,0.03345966339111328,2.4008047580718994,STABILIZE
0.16,0.015,0.11,97.32569296034775,6.395414787054204,1.4598853944052161,-0.006133093810225208,7.849167087649194,0.17,0.015,0.08,-24.36639613283547,-1.7016690954924067,-0.365495941992532,0.004687553000850364,-2.0624774844840883,0.002,8e-05,0,22.800194430666153,0.018811955339985913,0.0018240155544532923,0.0,0.020635970894439207,0.2,0.02,0.0,0.0005847334210399216,0.001125074513543594,1.1694668420798432e-05,0.0,0.0011367691819643923,-10.009818208778862,-10.0,0.00981820877886231,39.97134241908877,40.0,0.028657580911231457,9.405977669992955,10.0,0.5940223300070441,0.005625372567717969,0,-0.005625372567717969,4.000202477385424,2.062084749452197,-0.0011367691819643923,0.5206359708944392,0.034423112869262695,2.4351987838745117,STABILIZE
0.16,0.015,0.11,98.66322968893252,6.39420496186011,1.4799484453339877,-0.010323216054126696,7.863830191139971,0.17,0.015,0.08,-24.70126880124309,-1.7009418950317643,-0.37051903201864633,0.007911801963790545,-2.0635491250866203,0.002,8e-05,0,23.11525177695491,0.018826971288497057,0.001849220142156393,0.0,0.02067619143065345,0.2,0.02,0.0,0.0007453678695403991,0.0009599078343947725,1.4907357390807983e-05,0.0,0.0009748151917855806,-10.005540559010377,-10.0,0.00554055901037788,39.963781011625684,40.0,0.036218988374312464,9.413485644248528,10.0,0.5865143557514714,0.0047995391719738625,0,-0.0047995391719738625,4.0001728448559115,2.0632140468024933,-0.0009748151917855806,0.5206761914306535,0.03346872329711914,2.4687047004699707,STABILIZE
0.16,0.015,0.11,99.99924983824349,6.392966252254559,1.4999887475736522,-0.016914287899632265,7.876040711928579,0.17,0.015,0.08,-25.03578178903178,-1.7007141570154631,-0.3755367268354767,0.008599975697461458,-2.0676509081534786,0.002,8e-05,0,23.4298702733762,0.018818442137583893,0.0018743896218700962,0.0,0.02069283175945399,0.2,0.02,0.0,0.0016976029938359125,0.005695654194448568,3.395205987671825e-05,0.0,0.0057296062543252865,-10.00420092362037,-10.0,0.004200923620369512,39.95603907659099,40.0,0.0439609234090131,9.409221068791947,10.0,0.5907789312080526,0.02847827097224284,0,-0.02847827097224284,4.001027210228366,2.065662494455502,-0.0057296062543252865,0.520692831759454,0.033437252044677734,2.5021605491638184,STABILIZE
0.16,0.015,0.11,101.34964357194639,6.39426706613606,1.5202446535791958,-0.005769224567916923,7.908742495147339,0.17,0.015,0.08,-25.373105469684177,-1.6970948923934988,-0.38059658204526264,0.01456593217848661,-2.063125542260275,0.002,8e-05,0,23.747783607252902,0.01881694492093754,0.0018998226885802323,0.0,0.020716767609517774,0.2,0.02,0.0,0.0023234274759460893,0.0037041871337829923,4.6468549518921784e-05,0.0,0.003750655683301914,-9.982911131726462,-10.0,-0.017088868273537505,39.96416916335038,40.0,0.03583083664962348,9.40847246046877,10.0,0.5915275395312295,0.01852093566891496,0,-0.01852093566891496,4.000666699035619,2.0618324292614565,-0.003750655683301914,0.5207167676095178,0.03379011154174805,2.5359227657318115,STABILIZE
0.16,0.015,0.11,102.68732490745674,6.396946892042688,1.540309873611851,0.00620507371074651,7.943461839365286,0.17,0.015,0.08,-25.706736385567446,-1.6951779870179184,-0.3856010457835117,0.020121725474181222,-2.060657307327249,0.002,8e-05,0,24.062876696884242,0.018835145065139117,0.0019250301357507395,0.0,0.020760175200889856,0.2,0.02,0.0,0.003076877400788256,0.004503855876472675,6.153754801576512e-05,0.0,0.00456539342448844,-9.97163521775246,-10.0,-0.02836478224754024,39.9809180752668,40.0,0.019081924733199723,9.417572532569558,10.0,0.5824274674304412,0.022519279382363373,0,-0.022519279382363373,4.000809602645414,2.0590850059240946,-0.00456539342448844,0.5207601752008899,0.03345799446105957,2.569376230239868,STABILIZE
0.16,0.015,0.11,104.02858771230005,6.394071488540913,1.5604288156845008,-0.005537717381379037,7.9489625868440354,0.17,0.015,0.08,-26.042027725765568,-1.698301846893691,-0.3906304158864835,0.009399179328798577,-2.0795330834513757,0.002,8e-05,0,24.37877883235384,0.018824618395827095,0.0019503023065883074,0.0,0.020774920702415402,0.2,0.02,0.0,0.003590700694529292,0.003061874657220474,7.181401389058584e-05,0.0,0.0031336886711110594,-9.990010864080535,-10.0,-0.009989135919465913,39.9629468033807,40.0,0.037053196619298304,9.412309197913547,10.0,0.5876908020864517,0.015309373286102369,0,-0.015309373286102369,4.000555506301328,2.078464213348623,-0.0031336886711110594,0.5207749207024154,0.033562660217285156,2.602926731109619,STABILIZE
0.16,0.015,0.11,105.36569362831366,6.394422999782858,1.580485404424705,0.0008772563663465128,7.9757856605739095,0.17,0.015,0.08,-26.376181280784042,-1.6978940105523896,-0.39564271921176064,0.008501501743109407,-2.0850352280210407,0.002,8e-05,0,24.69391883206316,0.01883862039423064,0.0019755135065650533,0.0,0.020814133900795694,0.2,0.02,0.0,0.004193634968254648,0.003604255224934947,8.387269936509296e-05,0.0,0.00368812792430004,-9.987611826778762,-10.0,-0.012388173221238257,39.96514374864286,40.0,0.0348562513571403,9.41931019711532,10.0,0.5806898028846793,0.018021276124674735,0,-0.018021276124674735,4.000655609519373,2.0837770024908924,-0.00368812792430004,0.5208141339007957,0.03345680236816406,2.636390447616577,STABILIZE
0.16,0.015,0.11,106.70246047411572,6.396630476500901,1.600536907111736,0.015048724387463307,8.0122161080001,0.17,0.015,0.08,-26.70969357076156,-1.6956506404788512,-0.40064540356142336,0.01417510067875462,-2.08212094336152,0.002,8e-05,0,25.00947610697029,0.01887486295844475,0.0020007580885576235,0.0,0.020875621047002375,0.2,0.02,0.0,0.003574703744590174,-0.003702098780897291,7.149407489180348e-05,-0.0,-0.0036306047060054875,-9.974415532228535,-10.0,-0.02558446777146372,39.97894047813063,40.0,0.021059521869370337,9.437431479222374,10.0,0.5625685207776268,-0.018510493904486454,0,0.018510493904486454,3.999327122398482,2.0834131109390053,0.0036306047060054875,0.5208756210470024,0.03343677520751953,2.669832706451416,STABILIZE
0.16,0.015,0.11,108.13883521680636,6.39396361431051,1.6220825282520952,-0.00044660538177770134,8.015599537180828,0.17,0.015,0.08,-27.06822224805419,-1.6957242787939704,-0.40602333372081284,0.0039013210893843893,-2.097846291425399,0.002,8e-05,0,25.34884806648219,0.018883755543936266,0.0020279078453185754,0.0,0.02091166338925484,0.2,0.02,0.0,0.003167918477043092,-0.0022634850452235,6.335836954086184e-05,-0.0,-0.002200126675682638,-9.97484869878806,-10.0,-0.025151301211939238,39.96227258944069,40.0,0.03772741055931466,9.441877771968134,10.0,0.5581222280318654,-0.011317425226117499,0,0.011317425226117499,3.999585542084155,2.0986363558269674,0.002200126675682638,0.5209116633892549,0.03594326972961426,2.7057688236236572,STABILIZE
