Mode,Time,Freq,time2delay,actualDelay,North-Desired,East-Desired,Down-Desired,Roll-UAV,Pitch-UAV,Yaw-UAV,Roll-Control,Pitch-Control,Yaw-Control,Thrust-Control,North-Pos,East-Pos,Down-Pos,Yaw-Ang,North-Vel,East-Vel,Down-Vel,Yaw-Vel,North-Acc,East-Acc,Down-Acc,North-Avg,East-Avg,Down-Avg,Yaw-Avg,North-Dif,East-Dif,Down-Dif,Yaw-Dif,North-One,East-One,Down-One,Yaw-One,North-Two,East-Two,Down-Two,Yaw-Two,Landing-State,Q-Size,Kalman-Time,Kalman-Dt
STABILIZE,0.034421682357788086,29.06212497055196,0.03330376942952474,0.03344535827636719,0.0,0.0,0.0,1.4128708403157408,-1.2437630404290414,1.0508936527501023,-0.00531953933437636,0.005173700166467087,0.014731821629537453,0.4,0.02893360207957755,0.029718606753201995,0.03359089738680421,0.029463643259074905,-0.32488005235791206,0.14334645820781589,1.6648627817630768,-0.13370175341579296,-4.70832847058773,1.8847374245524406,18.45635026693344,0.0,0.0,0.0,0.0,0.0,0.0,0.0,0.0,0.0,0.0,0.0,0.0,0.0,0.0,0.0,0.0,False,0,0.06227564811706543,0.02993408203125
STABILIZE,0.06760835647583008,30.129113360294806,0.032218011220296223,0.03233051300048828,0.0,0.0,0.0,1.4129809771161073,-1.2441018818448975,1.051195141568935,-0.0047439031900497275,0.004423815718464778,0.025039090633693792,0.4,0.04874385967570172,0.05113443133021416,0.06116201324650068,0.050078181267387584,-0.32488005235791206,0.14334645820781589,1.6648627817630768,-0.13370175341579296,-4.70832847058773,1.8847374245524406,18.45635026693344,0.0,0.0,0.0,0.0,0.0,0.0,0.0,0.0,0.0,0.0,0.0,0.0,0.0,0.0,0.0,0.0,False,0,0.0910036563873291,0.02993408203125
STABILIZE,0.10112380981445312,29.840803665442955,0.032552512486775716,0.032681941986083984,0.0,0.0,0.0,1.4134580231409504,-1.2436966595280454,1.0526169948550612,-0.004854832580318938,0.004587851724489405,0.033797974303849065,0.4,0.06618978890257092,0.06960621017885275,0.08917440533855228,0.06759594860769813,0.087045255349949,0.11411447776481509,2.00258307158947,-0.05967046692014868,0.5910312756896019,1.8001561984419823,19.58725154399872,0.0,0.0,0.0,0.0,0.0,0.0,0.0,0.0,0.0,0.0,0.0,0.0,0.0,0.0,0.0,0.0,False,0,0.11952948570251465,0.034921875
STABILIZE,0.13478803634643555,29.703019658942836,0.032469781239827473,0.03283858299255371,0.0,0.0,0.0,1.4126008344001137,-1.244006045753106,1.0526506121923824,-0.008720324009130082,0.008158525729773113,0.05008817367041516,0.4,0.10085593700302581,0.1066801043047661,0.1563014593501541,0.10017634734083032,0.04405444487929344,0.050971220480278134,2.0640552043914795,-0.24081203292799244,4.037026688456535,-0.13440520269796252,23.085488379001617,0.0,0.0,0.0,0.0,0.0,0.0,0.0,0.0,0.0,0.0,0.0,0.0,0.0,0.0,0.0,0.0,False,0,0.17694473266601562,0.02975634765625
STABILIZE,0.1681833267211914,29.94541105915111,0.032509835561116536,0.032617807388305664,0.0,0.0,0.0,1.4128904771096047,-1.2442516123981089,1.0538886907011529,-0.005162828322346585,0.00469256047806371,0.05492403225658677,0.4,0.11019635733573478,0.11756158115804487,0.18440631425257975,0.10984806451317354,-0.09359108516946435,0.06623132503591478,2.0215028896927834,-0.0033900216542543465,0.057344743981957436,-0.12670510914176702,21.17994874715805,0.0,0.0,0.0,0.0,0.0,0.0,0.0,0.0,0.0,0.0,0.0,0.0,0.0,0.0,0.0,0.0,False,0,0.2056102752685547,0.034922119140625
STABILIZE,0.20168352127075195,29.849935593147965,0.03254583676656087,0.032689809799194336,0.0,0.0,0.0,1.4133643214832743,-1.2445130805772735,1.053974068065778,-0.005825142566568189,0.005233224260543475,0.06057158159246251,0.4,0.12101011310544257,0.13031313906787934,0.21891106674890454,0.12114316318492502,-0.09359108516946435,0.06623132503591478,2.0215028896927834,-0.0033900216542543465,0.057344743981957436,-0.12670510914176702,21.17994874715805,0.0,0.0,0.0,0.0,0.0,0.0,0.0,0.0,0.0,0.0,0.0,0.0,0.0,0.0,0.0,0.0,False,0,0.23504900932312012,0.034922119140625
STABILIZE,0.23517298698425293,29.860561144215914,0.032500298817952473,0.03262805938720703,0.0,0.0,0.0,1.4136044453212826,-1.2441439301969754,1.0539852738448852,-0.006017309752234023,0.005250241955213583,0.06524429044922228,0.4,0.1301110175621681,0.14198958094985292,0.25118812824054865,0.13048858089844456,-0.04021442728117108,0.18503277096897364,1.711830124258995,-0.005152373877729614,-4.186643660068512,0.25543239898979664,25.777706503868103,0.0,0.0,0.0,0.0,0.0,0.0,0.0,0.0,0.0,0.0,0.0,0.0,0.0,0.0,0.0,0.0,False,0,0.26373887062072754,0.02993310546875
STABILIZE,0.26861000061035156,29.907403578075197,0.03246358235677083,0.03258776664733887,0.0,0.0,0.0,1.4137534288225535,-1.244169543406363,1.05397502856113,-0.00560125469307952,0.004616376388258208,0.06747893026881066,0.4,0.1341569026592467,0.14940292924376855,0.27638797799324044,0.13495786053762132,-0.10614930652081966,0.22876206785440445,1.6576401889324188,-0.055186514431101424,-3.280973434448242,0.14053459744900465,21.462546288967133,0.0,0.0,0.0,0.0,0.0,0.0,0.0,0.0,0.0,0.0,0.0,0.0,0.0,0.0,0.0,0.0,False,0,0.29241371154785156,0.034923095703125
STABILIZE,0.302060604095459,29.89461380013257,0.0324437936147054,0.03257322311401367,0.0,0.0,0.0,1.4147143510614097,-1.2430247396684453,1.0537450432851712,-0.006192126415821984,0.004976907169093556,0.07042932581315119,0.4,0.13954688329378698,0.15886225191577516,0.30740446399694127,0.14085865162630237,-0.10614930652081966,0.22876206785440445,1.6576401889324188,-0.055186514431101424,-3.280973434448242,0.14053459744900465,21.462546288967133,0.0,0.0,0.0,0.0,0.0,0.0,0.0,0.0,0.0,0.0,0.0,0.0,0.0,0.0,0.0,0.0,False,0,0.3211948871612549,0.034923095703125
STABILIZE,0.33589911460876465,29.55254461800785,0.03246262868245443,0.03299570083618164,0.0,0.0,0.0,1.4143856482076027,-1.2413854942676423,1.0541361783368601,-0.0058333998419502426,0.0052264418637263926,0.07199364416521233,0.4,0.14548050816577385,0.16479419501777723,0.33804621643361155,0.14398728833042465,0.10859962785616517,-0.007301216828636825,1.68888159096241,-0.18802977176516197,-2.505122311413288,-0.4299471154808998,15.163210034370422,0.0,0.0,0.0,0.0,0.0,0.0,0.0,0.0,0.0,0.0,0.0,0.0,0.0,0.0,0.0,0.0,False,1,0.35146093368530273,0.034921875
STABILIZE,0.36933040618896484,29.91081603400201,0.03248146375020345,0.03260660171508789,0.0,0.0,0.0,1.41496023787153,-1.2413884824754042,1.054234362306179,-0.006159661830911918,0.004559307657121388,0.07407599274266681,0.4,0.14665509630868753,0.17150294813976083,0.3901091014604154,0.14815198548533362,-0.2536351326853037,0.02195924025727436,1.4952180907130241,-0.17660401254206778,-3.2707296311855316,-0.48420061357319355,14.301782846450806,0.0,0.0,0.0,0.0,0.0,0.0,0.0,0.0,0.0,0.0,0.0,0.0,0.0,0.0,0.0,0.0,False,0,0.4071967601776123,0.034923095703125
STABILIZE,0.4029266834259033,29.76647008310446,0.03249338467915853,0.032665252685546875,0.0,0.0,0.0,1.4145507466864466,-1.2411832566351866,1.054418990857181,-0.005644905839389966,0.004168657751850711,0.07395360938057374,0.4,0.14544798645799986,0.17423040262165107,0.4166691742470561,0.14790721876114749,-0.2536351326853037,0.02195924025727436,1.4952180907130241,-0.17660401254206778,-3.2707296311855316,-0.48420061357319355,14.301782846450806,0.0,0.0,0.0,0.0,0.0,0.0,0.0,0.0,0.0,0.0,0.0,0.0,0.0,0.0,0.0,0.0,False,0,0.4434056282043457,0.034923095703125
STABILIZE,0.4363715648651123,29.90228635388224,0.032386096318562825,0.03251218795776367,0.0,0.0,0.0,1.4142126523225311,-1.2400951221230387,1.0550310398398375,-0.005058103493111513,0.004323347227041055,0.07284428486173006,0.4,0.14529618157374707,0.17322848017770326,0.4475169588095911,0.14568856972346012,-0.07008178508840501,-0.2008197596296668,1.9364621490240097,-0.24980984666413222,-1.9348803907632828,-0.6297624204307795,20.274618268013,0.0,0.0,0.0,0.0,0.0,0.0,0.0,0.0,0.0,0.0,0.0,0.0,0.0,0.0,0.0,0.0,False,0,0.47330641746520996,0.034921875
STABILIZE,0.4697284698486328,29.975800976251225,0.03236988385518392,0.03249859809875488,0.0,0.0,0.0,1.4136019907220496,-1.241184964182479,1.055902956176072,-0.00554666370365274,0.004623240764152138,0.0727263962329511,0.4,0.14684718577637182,0.17511168473717073,0.47728945605418016,0.1454527924659022,0.12799964752048254,0.12021932052448392,1.8946105614304543,-0.011151084232839177,2.748304046690464,1.647746004164219,18.9772367477417,0.0,0.0,0.0,0.0,0.0,0.0,0.0,0.0,0.0,0.0,0.0,0.0,0.0,0.0,0.0,0.0,False,0,0.5007922649383545,0.02993408203125
STABILIZE,0.5032117366790771,29.864813483050064,0.032485040028889973,0.03260064125061035,0.0,0.0,0.0,1.4152361134809752,-1.2409853945926677,1.0558084007447497,-0.00519805780769613,0.0036934341658398724,0.07235527832049607,0.4,0.14295591029562024,0.17475178214695947,0.4967170824221153,0.14471055664099214,-0.14311865670606494,0.13865958899259567,1.6466910019516945,0.10575675479819982,-1.8140114843845367,-0.11967115569859743,24.467331171035767,0.0,0.0,0.0,0.0,0.0,0.0,0.0,0.0,0.0,0.0,0.0,0.0,0.0,0.0,0.0,0.0,False,0,0.5298187732696533,0.034921875
STABILIZE,0.5366504192352295,29.90719032543282,0.0324435551961263,0.03255939483642578,0.0,0.0,0.0,1.4153166883688402,-1.240472490074682,1.0559837445073486,-0.005260650044958164,0.004028352441404316,0.07300493645137078,0.4,0.1415800464717715,0.17479531959582487,0.5264554271501425,0.14600987290274156,-0.023160624550655484,0.06114317802712321,1.9813943654298782,0.1730994451469769,0.5849880166351795,-0.0833932776004076,27.965766191482544,0.0,0.0,0.0,0.0,0.0,0.0,0.0,0.0,0.0,0.0,0.0,0.0,0.0,0.0,0.0,0.0,False,0,0.5598978996276855,0.034923095703125
STABILIZE,0.5701987743377686,29.80899179850184,0.032434972127278645,0.032553672790527344,0.0,0.0,0.0,1.415489684253912,-1.2405046133081223,1.0565778642434338,-0.005226530363549514,0.003931048564026553,0.07312747282141657,0.4,0.13988806927521197,0.17464243541903166,0.5512244992971659,0.14625494564283315,-0.00901307794265449,0.09095730492845178,1.6738016158342361,0.12143021133416756,0.8100691251456738,1.8087344244122505,24.518799781799316,0.0,0.0,0.0,0.0,0.0,0.0,0.0,0.0,0.0,0.0,0.0,0.0,0.0,0.0,0.0,0.0,False,0,0.5884664058685303,0.02993310546875
STABILIZE,0.6038317680358887,29.73039028055402,0.03231027921040853,0.0327754020690918,0.0,0.0,0.0,1.4168328836428772,-1.2415627590209453,1.0581501951347119,-0.004363087342351677,0.0036674708331107964,0.06842111332705521,0.4,0.1369816107922397,0.1696842927085963,0.5892616945691518,0.13684222665411042,0.05790152354165912,-0.0007654214641661383,1.3967040926218033,-0.04871508361528624,5.322837084531784,-0.3175906138494611,21.794860064983368,0.0,0.0,0.0,0.0,0.0,0.0,0.0,0.0,0.0,0.0,0.0,0.0,0.0,0.0,0.0,0.0,False,0,0.6458523273468018,0.034922119140625
STABILIZE,0.6372056007385254,29.963380744529616,0.03248265584309896,0.032593488693237305,0.0,0.0,0.0,1.4176041614105597,-1.2409208279606698,1.0586411149813066,-0.00457493868283331,0.0037506650107231856,0.06576073265050372,0.4,0.135042152098788,0.16676522358507542,0.6144911779612741,0.13152146530100745,0.035420950734987855,-0.013929660781286657,1.8963327631354332,-0.18845852621813894,-1.2744588777422905,-0.1449541188776493,27.65292525291443,0.0,0.0,0.0,0.0,0.0,0.0,0.0,0.0,0.0,0.0,0.0,0.0,0.0,0.0,0.0,0.0,False,0,0.6747012138366699,0.034838134765625
STABILIZE,0.6706674098968506,29.884815709410113,0.03253153165181478,0.03263401985168457,0.0,0.0,0.0,1.4170809048871134,-1.240200990055174,1.0585036574242601,-0.005023336619592669,0.003488242740480954,0.06520619368804695,0.4,0.13197058761780703,0.16683442451277122,0.6348977616120708,0.1304123873760939,-0.021025611204095185,0.2135968068614602,1.6423435881733894,0.12006518735636995,-1.7058555036783218,1.6446257010102272,16.275444626808167,0.0,0.0,0.0,0.0,0.0,0.0,0.0,0.0,0.0,0.0,0.0,0.0,0.0,0.0,0.0,0.0,False,0,0.7037091255187988,0.029932861328125
STABILIZE,0.7041423320770264,29.87289626437805,0.03250745137532552,0.03262972831726074,0.0,0.0,0.0,1.4178356407903998,-1.2408901988311105,1.0589654422451764,-0.004792264943077432,0.0032169775438777104,0.06421403622657172,0.4,0.12789502291129007,0.16560858588138921,0.6480962208547387,0.12842807245314344,-0.021025611204095185,0.2135968068614602,1.6423435881733894,0.12006518735636995,-1.7058555036783218,1.6446257010102272,16.275444626808167,0.0,0.0,0.0,0.0,0.0,0.0,0.0,0.0,0.0,0.0,0.0,0.0,0.0,0.0,0.0,0.0,False,0,0.7319388389587402,0.029932861328125
STABILIZE,0.7376101016998291,29.880557672990474,0.03247264226277669,0.03259992599487305,0.0,0.0,0.0,1.4187019008762278,-1.241576632842697,1.059281658659407,-0.004388926033656897,0.003252327404704108,0.061835745736474254,0.4,0.12469173528132232,0.16234232876149512,0.6703159135692703,0.12367149147294851,0.03706272691488266,0.0793859944678843,2.2726334631443024,-0.06456094906694393,2.9596587643027306,1.9159963354468346,29.557135701179504,0.0,0.0,0.0,0.0,0.0,0.0,0.0,0.0,0.0,0.0,0.0,0.0,0.0,0.0,0.0,0.0,False,0,0.7605578899383545,0.034922119140625
STABILIZE,0.7710666656494141,29.887584083912895,0.03244665463765462,0.03257155418395996,0.0,0.0,0.0,1.418053246348488,-1.2413821858947631,1.05922541632046,-0.004720000531759804,0.002594176260701516,0.05887344737600632,0.4,0.1183589514709749,0.16147552966556603,0.6954589147753033,0.11774689475201264,-0.20839544013142586,0.17395529430359602,2.073424682021141,-0.17876107165932242,-1.8908364698290825,1.8835538998246193,24.60656762123108,0.0,0.0,0.0,0.0,0.0,0.0,0.0,0.0,0.0,0.0,0.0,0.0,0.0,0.0,0.0,0.0,False,0,0.7892825603485107,0.0349228515625
STABILIZE,0.8048222064971924,29.625812284568006,0.032444032033284505,0.0329744815826416,0.0,0.0,0.0,1.4184138589923236,-1.2409836870453752,1.0602168609671698,-0.003862359817250386,0.002084403252551943,0.055266759178585166,0.4,0.11015294823405831,0.1559299259436661,0.7241125902441867,0.11053351835717033,-0.12630816781893373,-0.0020081735783605836,1.8070392310619354,-0.06098120957034322,0.7970370352268219,-0.27703584637492895,20.93568742275238,0.0,0.0,0.0,0.0,0.0,0.0,0.0,0.0,0.0,0.0,0.0,0.0,0.0,0.0,0.0,0.0,False,0,0.8467953205108643,0.034923095703125
STABILIZE,0.8383450508117676,29.830404324170548,0.03254535992940267,0.03266572952270508,0.0,0.0,0.0,1.4187747918012765,-1.2410657560371212,1.0606825944912,-0.004239044752521537,0.002713092701276415,0.054083312183429585,0.4,0.10690083046862038,0.15345539502707078,0.7433727733371824,0.10816662436685917,0.013226171722635627,0.09644949459470809,1.8578952178359032,0.06910277140095117,-1.0693328455090523,-0.10945388348773122,23.896118998527527,0.0,0.0,0.0,0.0,0.0,0.0,0.0,0.0,0.0,0.0,0.0,0.0,0.0,0.0,0.0,0.0,False,0,0.8754372596740723,0.039910888671875
STABILIZE,0.8717868328094482,29.903991900697996,0.032456191380818684,0.03258466720581055,0.0,0.0,0.0,1.419871357328181,-1.2417774830929775,1.060581529035825,-0.0042164273332437165,0.0021717444661025847,0.05361116617335915,0.4,0.10117649969095882,0.15127515455158536,0.7574864225674469,0.1072223323467183,-0.15677481424063444,0.07766633061692119,1.2225125916302204,0.13517120458269774,-2.5770463049411774,1.7786495387554169,24.599342048168182,0.0,0.0,0.0,0.0,0.0,0.0,0.0,0.0,0.0,0.0,0.0,0.0,0.0,0.0,0.0,0.0,False,0,0.9050652980804443,0.024945068359375
STABILIZE,0.9052355289459229,29.895253029223092,0.03246906598409017,0.032616615295410156,0.0,0.0,0.0,1.4202767930884446,-1.2427283734914902,1.0608849388453616,-0.0042021334456801935,0.002061217150494319,0.05098934884771254,0.4,0.09578806967538638,0.14938092088568175,0.7590057428794325,0.10197869769542509,-0.07590185850858688,0.2424239180982113,1.6605814918875694,-0.05981604199694119,1.012480165809393,1.9590817391872406,29.832732677459717,0.0,0.0,0.0,0.0,0.0,0.0,0.0,0.0,0.0,0.0,0.0,0.0,0.0,0.0,0.0,0.0,False,0,0.9332962036132812,0.034922119140625
STABILIZE,0.9386906623840332,29.891418064681652,0.032486708958943684,0.032605648040771484,0.0,0.0,0.0,1.4213202112058698,-1.2432271907443129,1.0613192961878921,-0.004427078713201879,0.0020090849427276286,0.048768149003774644,0.4,0.09101528585151095,0.14905916813465936,0.7725260326201258,0.09753629800754929,-0.07590185850858688,0.2424239180982113,1.6605814918875694,-0.05981604199694119,1.012480165809393,1.9590817391872406,29.832732677459717,0.0,0.0,0.0,0.0,0.0,0.0,0.0,0.0,0.0,0.0,0.0,0.0,0.0,0.0,0.0,0.0,False,0,0.9620265960693359,0.034922119140625
STABILIZE,0.9721343517303467,29.901220485913083,0.032474549611409505,0.032594919204711914,0.0,0.0,0.0,1.4213643939920633,-1.242915990250254,1.0625623906168344,-0.003949291846355343,0.0014405408607635016,0.047137342744929006,0.4,0.08386660981589815,0.1461356970391369,0.7891382142036142,0.09427468548985801,-0.22065781522542238,0.08468206506222486,1.9087700173258781,0.015507130757507367,-2.785458229482174,1.5803609043359756,21.73984944820404,0.0,0.0,0.0,0.0,0.0,0.0,0.0,0.0,0.0,0.0,0.0,0.0,0.0,0.0,0.0,0.0,False,0,0.9908387660980225,0.039911865234375
STABILIZE,1.0057637691497803,29.73460562321882,0.032469781239827473,0.03288722038269043,0.0,0.0,0.0,1.4211299264044615,-1.2427778923629729,1.0630951453720954,-0.003452995065090608,0.0009655621844515922,0.04169645502104556,0.4,0.07519927494506115,0.1409059189215451,0.8105482735786215,0.08339291004209112,-0.11301664635539055,0.14937202213332057,1.569664292037487,0.009941880615589078,1.207317877560854,-0.37596782203763723,21.735399961471558,0.0,0.0,0.0,0.0,0.0,0.0,0.0,0.0,0.0,0.0,0.0,0.0,0.0,0.0,0.0,0.0,False,0,1.0480239391326904,0.034923095703125
STABILIZE,1.0393695831298828,29.75781139143514,0.03256991704305013,0.03272557258605957,0.0,0.0,0.0,1.4204243892075403,-1.2433760675238779,1.063541668989085,-0.00353347990203671,0.0010261991918148008,0.0394569225554374,0.4,0.06836478408000489,0.13702747880210311,0.8214365658963706,0.0789138451108748,-0.20779073238372803,0.031690450850874186,1.6787121072411537,-0.06258075449659557,-0.3784426487982273,-0.4720343742519617,20.84846943616867,0.0,0.0,0.0,0.0,0.0,0.0,0.0,0.0,0.0,0.0,0.0,0.0,0.0,0.0,0.0,0.0,False,0,1.0769078731536865,0.034921875
STABILIZE,1.0727641582489014,29.9439145582272,0.03245237668355306,0.03257417678833008,0.0,0.0,0.0,1.4210800873678615,-1.2437647479763339,1.0637027120431093,-0.0034575338526988473,0.0011854332533192686,0.03636462393252198,0.4,0.06356843420454973,0.13338033097998278,0.8319280959235095,0.07272924786504396,-0.08555562235414982,0.04957355558872223,1.7063982784748077,-0.16736467424553136,1.9564786925911903,1.392163522541523,18.157969415187836,0.0,0.0,0.0,0.0,0.0,0.0,0.0,0.0,0.0,0.0,0.0,0.0,0.0,0.0,0.0,0.0,False,0,1.1058270931243896,0.029932861328125
STABILIZE,1.1071159839630127,29.111140416021765,0.03250292142232259,0.033532142639160156,0.0,0.0,0.0,1.4226041800481264,-1.24445523741274,1.0639912875355422,-0.0035867307416725825,0.0006880559005900239,0.035629389481543816,0.4,0.056653138467137126,0.13101435411769824,0.8373956997250148,0.07125877896308763,-0.22685667499899864,0.15618461184203625,1.7899323254823685,0.11482855335687257,-7.769226282835007,-0.44683380983769894,19.232770800590515,0.0,0.0,0.0,0.0,0.0,0.0,0.0,0.0,0.0,0.0,0.0,0.0,0.0,0.0,0.0,0.0,False,0,1.1342401504516602,0.034923095703125
STABILIZE,1.140592098236084,29.870981526058657,0.03250840504964193,0.032623291015625,0.0,0.0,0.0,1.423040458381361,-1.2442614307950408,1.0645314060885023,-0.003604290032060408,0.00044554238909567224,0.03496281609835622,0.4,0.04969085693825015,0.1291942596441078,0.848256711162138,0.06992563219671244,-0.22685667499899864,0.15618461184203625,1.7899323254823685,0.11482855335687257,-7.769226282835007,-0.44683380983769894,19.232770800590515,0.0,0.0,0.0,0.0,0.0,0.0,0.0,0.0,0.0,0.0,0.0,0.0,0.0,0.0,0.0,0.0,False,0,1.1629929542541504,0.034923095703125
STABILIZE,1.173936367034912,29.98930358930359,0.03246811230977376,0.0326077938079834,0.0,0.0,0.0,1.423054118759701,-1.2459448589820374,1.0650680028251713,-0.0033001406320637824,0.0005412307737585474,0.03445755729194289,0.4,0.04442320059768625,0.1259833864496199,0.8551141729338303,0.06891511458388579,-0.12920983135700226,0.07195157813839614,1.5941007062792778,0.12743853664795737,-3.3270176500082016,-0.4805716685950756,21.00401371717453,0.0,0.0,0.0,0.0,0.0,0.0,0.0,0.0,0.0,0.0,0.0,0.0,0.0,0.0,0.0,0.0,False,0,1.1916322708129883,0.034843994140625
STABILIZE,1.2076661586761475,29.649896437887474,0.03259280522664388,0.03296351432800293,0.0,0.0,0.0,1.4229756783059517,-1.2452753937216703,1.065424133157364,-0.0022318895463495315,-9.513244385942369e-05,0.032499831546820214,0.4,0.03643483595366144,0.11731007571849703,0.873279343861849,0.06499966309364043,-0.1654233201406896,-0.06904794136062264,1.8618496134877205,0.01001721946976417,-0.8674533106386662,-0.45984587632119656,22.960877418518066,0.0,0.0,0.0,0.0,0.0,0.0,0.0,0.0,0.0,0.0,0.0,0.0,0.0,0.0,0.0,0.0,False,0,1.248875617980957,0.029932861328125
STABILIZE,1.2412288188934326,29.79586269606729,0.03254869778951009,0.03268003463745117,0.0,0.0,0.0,1.424322719676325,-1.2442665534369184,1.0658941355496254,-0.0028458724659249685,0.000724234845944799,0.031132587384696372,0.4,0.0343961245824886,0.11355161387804151,0.8790699530619314,0.062265174769392743,0.022497163445223123,0.05587486666627228,1.972692459821701,0.01108472334216295,-1.7481416463851929,1.3439497910439968,15.49241691827774,0.0,0.0,0.0,0.0,0.0,0.0,0.0,0.0,0.0,0.0,0.0,0.0,0.0,0.0,0.0,0.0,False,0,1.277536392211914,0.0349228515625
STABILIZE,1.2746458053588867,29.924900649966823,0.032419713338216145,0.03253626823425293,0.0,0.0,0.0,1.424509269218031,-1.2463838053579166,1.067393468794149,-0.0032420473990851057,0.00044465121083906117,0.029746559439454884,0.4,0.031144154302203995,0.11263280854114432,0.8859649239038623,0.05949311887890977,-0.04193100903648883,0.20177087280899286,1.7206046730279922,0.0013638700493538644,-1.7901832237839699,-0.28216163627803326,25.30660629272461,0.0,0.0,0.0,0.0,0.0,0.0,0.0,0.0,0.0,0.0,0.0,0.0,0.0,0.0,0.0,0.0,False,0,1.30623197555542,0.0399111328125
STABILIZE,1.3081960678100586,29.803061093978712,0.03246310551961263,0.032793521881103516,0.0,0.0,0.0,1.424987382459932,-1.2461189220841669,1.0679605879386718,-0.0025304070398204236,0.00014312960163391392,0.02840641662910444,0.4,0.026728539932951434,0.10788107993682508,0.8899795703262909,0.05681283325820888,-0.10178987868130207,-0.044304304174147546,1.2793966569006443,0.0029211331697969376,-2.474118582904339,-0.7455660495907068,13.00693154335022,0.0,0.0,0.0,0.0,0.0,0.0,0.0,0.0,0.0,0.0,0.0,0.0,0.0,0.0,0.0,0.0,False,0,1.335026741027832,0.024945068359375
STABILIZE,1.3420522212982178,29.538600222544616,0.03256061871846517,0.033025503158569336,0.0,0.0,0.0,1.393691669126345,-1.2383812782498946,1.0641561725709745,-0.0025145655417177326,0.0006679246236177983,0.026092012761717867,0.4,0.025989012596150565,0.10382240235084335,0.892512121342851,0.052184025523435734,0.0569993513636291,0.038465685793198645,2.1850937977433205,-0.11792927247707324,1.0765096172690392,-0.20623099990189075,30.231395363807678,0.0,0.0,0.0,0.0,0.0,0.0,0.0,0.0,0.0,0.0,0.0,0.0,0.0,0.0,0.0,0.0,False,0,1.3639614582061768,0.034921875
STABILIZE,1.375507116317749,29.890778999579535,0.032497676213582356,0.03261542320251465,0.0,0.0,0.0,1.393691669126345,-1.2383812782498946,1.0641561725709745,-0.004561496154940402,-0.0024250257374750896,0.012178227961223082,0.4,0.008140289267705662,0.11189118712031662,0.8901752903409391,0.024356455922446164,-0.9366972371935844,0.7258416153490543,1.2416779063642025,-1.5049988864401058,-36.104536056518555,35.751157999038696,-1.3105705380439758,0.0,0.0,0.0,0.0,0.0,0.0,0.0,0.0,0.0,0.0,0.0,0.0,0.0,0.0,0.0,0.0,False,0,1.3925931453704834,0.034923095703125
STABILIZE,1.4090609550476074,29.802214043115576,0.03248766263326009,0.03277993202209473,0.0,0.0,0.0,1.392008561104466,-1.280782452287099,1.079179920702358,-0.0028111924625604007,-0.010403140625055993,-0.012318095436869615,0.4,-0.0514018121671004,0.10881573354328122,0.9223145756125827,-0.02463619087373923,-2.33437642455101,-0.44508916325867176,3.5294517874717712,-1.0700789070767276,-50.896453857421875,-44.968172907829285,-35.014912486076355,0.0,0.0,0.0,0.0,0.0,0.0,0.0,0.0,0.0,0.0,0.0,0.0,0.0,0.0,0.0,0.0,False,0,1.4500417709350586,0.02993310546875
STABILIZE,1.4426562786102295,29.765202642765395,0.03254535992940267,0.03268742561340332,0.0,0.0,0.0,1.342226727338828,-1.3168008145449266,1.0863809677999614,-0.0053339428578092745,0.00868242320377245,-0.020914570345639778,0.4,0.005578013325817713,0.12038838097725726,0.9229838706487631,-0.041829140691279555,3.454199805855751,0.9439771994948387,1.8162578344345093,-0.9324608405847258,16.949930787086487,32.446929812431335,-46.10795974731445,0.0,0.0,0.0,0.0,0.0,0.0,0.0,0.0,0.0,0.0,0.0,0.0,0.0,0.0,0.0,0.0,False,0,1.4786162376403809,0.0349228515625
STABILIZE,1.4760854244232178,29.915082699151966,0.03241589864095052,0.03255891799926758,0.0,0.0,0.0,1.3960013402828673,-1.2787210158182245,1.0682493768745163,-0.0023076768104850175,-0.0003931158750884272,0.0021604119625096598,0.4,0.002454490703427147,0.11311900617168873,0.9592194532435786,0.0043208239250193195,-0.10694721713662148,-0.2113605383783579,3.610445559024811,2.888572163919606,16.6034534573555,-35.01376211643219,88.64935040473938,0.0,0.0,0.0,0.0,0.0,0.0,0.0,0.0,0.0,0.0,0.0,0.0,0.0,0.0,0.0,0.0,False,0,1.5117931365966797,0.034922119140625
STABILIZE,1.5093843936920166,30.02966951142677,0.03244522412618001,0.03257274627685547,0.0,0.0,0.0,1.4287750425198213,-1.2565909894639717,1.0611472607981725,0.0011462842482307112,0.0027807753674044034,0.009477194966990234,0.4,0.01752536935400856,0.08783659253396149,0.9607620851266517,0.018954389933980468,0.9633716195821762,-1.2705274857580662,1.5649180859327316,0.9599006986884289,7.829039543867111,-30.08074164390564,4.085229709744453,0.0,0.0,0.0,0.0,0.0,0.0,0.0,0.0,0.0,0.0,0.0,0.0,0.0,0.0,0.0,0.0,False,0,1.5402870178222656,0.02993408203125
STABILIZE,1.5430107116699219,29.74071999376015,0.03256204922993978,0.032732486724853516,0.0,0.0,0.0,1.4260119108354339,-1.2332779530011315,1.076498644566305,0.0019008476552377983,0.003256812692976634,0.01692106671232735,0.4,0.03273842289521381,0.06254844101934699,0.9560851957218122,0.0338421334246547,0.9633716195821762,-1.2705274857580662,1.5649180859327316,0.9599006986884289,7.829039543867111,-30.08074164390564,4.085229709744453,0.0,0.0,0.0,0.0,0.0,0.0,0.0,0.0,0.0,0.0,0.0,0.0,0.0,0.0,0.0,0.0,True,0,1.5689704418182373,0.02993408203125
STABILIZE,1.5764400959014893,29.914229268744965,0.032418044408162434,0.03257393836975098,0.0,0.0,0.0,1.4293184694456604,-1.240971627492622,1.0628583299069665,-0.0011449869700682679,-0.004735558072611285,0.018685628581321577,0.4,0.0008619588502245534,0.058487175137599566,0.9664080598456316,0.037371257162643154,-1.8650073558092117,-0.019182273535989225,2.4621309712529182,0.28562405029879984,-13.671626150608063,40.00863432884216,27.429866790771484,0.0,0.0,0.0,0.0,0.0,0.0,0.0,0.0,0.0,0.0,0.0,0.0,0.0,0.0,0.0,0.0,True,0,1.5977168083190918,0.034921875
STABILIZE,1.6099450588226318,29.844413294530344,0.032460721333821614,0.03269338607788086,0.0,0.0,0.0,1.4229770656881269,-1.2581663085630117,1.0102253190496713,-0.00895740171699796,0.000980004868101338,-0.0003085059024426247,0.4,0.0061894979260604666,0.09870854402345317,0.9420680591810794,-0.0006170118048852494,0.3840956836938858,2.6468658819794655,0.04252731741871685,-2.2194055108853514,30.51934540271759,43.040308356285095,-26.05021297931671,0.0,0.0,0.0,0.0,0.0,0.0,0.0,0.0,0.0,0.0,0.0,0.0,0.0,0.0,0.0,0.0,True,0,1.6267943382263184,0.034923095703125
STABILIZE,1.6433665752410889,29.919564007818185,0.03252104123433431,0.032680511474609375,0.0,0.0,0.0,1.3930072628271686,-1.2728098072566958,1.0083818083040026,0.008993515571928411,0.0005196680811808921,0.0107501739101943,0.4,0.008032926045802262,0.032049229193478954,0.9402763132409142,0.0215003478203886,0.859618466347456,-2.2542929276823997,0.2621005289256573,1.012023473070383,41.25204384326935,-46.01259529590607,6.462656706571579,0.0,0.0,0.0,0.0,0.0,0.0,0.0,0.0,0.0,0.0,0.0,0.0,0.0,0.0,0.0,0.0,True,0,1.684359073638916,0.02985986328125
STABILIZE,1.6776964664459229,29.129943188921146,0.032595189412434895,0.03361248970031738,0.0,0.0,0.0,1.3965793450413795,-1.2827061110338096,1.0176222004773836,-0.0008300900510297776,0.001323477143588497,0.007878121175019194,0.4,0.014197956984329747,0.03129903557744196,0.9463738891276469,0.015756242350038387,0.40535563603043556,0.14102705754339695,2.273562364280224,-0.2890087825585114,-29.695630073547363,56.55544400215149,52.45046019554138,0.0,0.0,0.0,0.0,0.0,0.0,0.0,0.0,0.0,0.0,0.0,0.0,0.0,0.0,0.0,0.0,True,0,1.7129480838775635,0.034922119140625
STABILIZE,1.7112617492675781,29.792899660467956,0.032599480946858723,0.032715797424316406,0.0,0.0,0.0,1.404866819103838,-1.2734097966865991,0.9926018301654517,-0.0033968174322541412,-0.0018738949482603629,-0.007616839629156091,0.4,0.0013628868063073948,0.04500778975446687,0.946252852388631,-0.015233679258312182,-0.7338439114391804,1.0267571546137333,1.5891149640083313,-1.7974470961325417,-11.864222586154938,8.20709615945816,17.862913012504578,0.0,0.0,0.0,0.0,0.0,0.0,0.0,0.0,0.0,0.0,0.0,0.0,0.0,0.0,0.0,0.0,True,0,1.7416272163391113,0.0349228515625
STABILIZE,1.7447099685668945,29.8978102189781,0.03247049649556478,0.032602787017822266,0.0,0.0,0.0,1.3457953944584538,-1.3164223793762255,0.9788187218637775,-0.00023516188922146527,-0.0013070994137770056,0.008562805174200227,0.4,-0.00613993901915417,0.03880320402928628,0.956715707445391,0.017125610348400454,-0.40675103664398193,-0.1883734716102481,2.24250927567482,1.9958555537849498,45.627206563949585,-35.734787583351135,47.65852987766266,0.0,0.0,0.0,0.0,0.0,0.0,0.0,0.0,0.0,0.0,0.0,0.0,0.0,0.0,0.0,0.0,True,0,1.7712464332580566,0.02993310546875
STABILIZE,1.778151273727417,29.90335229784261,0.03245976765950521,0.03259015083312988,0.0,0.0,0.0,1.1552890387889276,-1.4752374043488332,0.9562144242490318,-0.002322289956257539,0.005844496273560847,0.02245163527550259,0.4,0.027460275745682272,0.04523078951472488,0.9394928531457466,0.04490327055100518,2.043902687728405,0.5426128394901752,0.8949717506766319,1.7121596979053562,76.11132264137268,41.97457730770111,-55.71910738945007,0.0,0.0,0.0,0.0,0.0,0.0,0.0,0.0,0.0,0.0,0.0,0.0,0.0,0.0,0.0,0.0,True,0,1.8007545471191406,0.034923095703125
STABILIZE,1.8116276264190674,29.873960113960113,0.032479079564412434,0.03259754180908203,0.0,0.0,0.0,1.186693394819,-1.4318359277633392,1.0145347415291261,-0.0025157713902205178,0.0069055364155753435,0.03657019589152609,0.4,0.06135867834940788,0.05163746467632842,0.9272027979962181,0.07314039178305218,2.043902687728405,0.5426128394901752,0.8949717506766319,1.7121596979053562,76.11132264137268,41.97457730770111,-55.71910738945007,0.0,0.0,0.0,0.0,0.0,0.0,0.0,0.0,0.0,0.0,0.0,0.0,0.0,0.0,0.0,0.0,True,0,1.8291542530059814,0.034923095703125
STABILIZE,1.8450849056243896,29.88651926379319,0.03243425687154134,0.03256797790527344,0.0,0.0,0.0,1.1554736673399295,-1.4778748178638101,1.0515524458398913,0.005754951757416626,0.0029585938190305116,0.040086088928600085,0.4,0.06754162520297692,0.010920961371040386,0.9186028314357222,0.08017217785720017,0.3697097534313798,-2.278614230453968,1.1422834359109402,0.43360858304273575,-51.61740183830261,-91.79702997207642,-5.420209094882011,0.0,0.0,0.0,0.0,0.0,0.0,0.0,0.0,0.0,0.0,0.0,0.0,0.0,0.0,0.0,0.0,True,0,1.8580451011657715,0.034921875
STABILIZE,1.8784644603729248,29.958244348416127,0.03244045575459798,0.03257179260253906,0.0,0.0,0.0,1.2194396695775682,-1.4382036917822008,0.9388009636817901,-0.00641695353213292,0.005119134540250574,-0.026058420576702195,0.4,0.08473611119440981,0.04486370212554134,0.9595120733832824,-0.05211684115340439,0.3994901664555073,1.6375649720430374,3.223581984639168,-5.596157975212214,-112.19509840011597,30.83568513393402,1.758483611047268,0.0,0.0,0.0,0.0,0.0,0.0,0.0,0.0,0.0,0.0,0.0,0.0,0.0,0.0,0.0,0.0,True,0,1.918912410736084,0.034922119140625
STABILIZE,1.912050485610962,29.775133815115073,0.03246000607808431,0.0326077938079834,0.0,0.0,0.0,1.1637343542542367,-1.4877919323735513,0.9486364360866084,0.0014025576202063837,-0.0025667916767386787,-0.018462261480227955,0.4,0.05624477679475043,0.029524016743469453,0.9688763414234033,-0.03692452296045591,-1.6736174002289772,-0.7978996261954308,2.195439115166664,1.0206201199144902,-27.66289710998535,-54.24472689628601,38.0964994430542,0.0,0.0,0.0,0.0,0.0,0.0,0.0,0.0,0.0,0.0,0.0,0.0,0.0,0.0,0.0,0.0,True,0,1.9473812580108643,0.02993408203125
STABILIZE,1.945436954498291,29.9507569265924,0.032389195760091145,0.032526493072509766,0.0,0.0,0.0,1.152349175959766,-1.4820817875057148,1.0481583754309238,-0.0029817174976998822,0.010991701331288184,-0.013126656925768322,0.4,0.10806749125883698,0.041227913431197194,0.9320467849456714,-0.026253313851536644,3.2061830163002014,0.8165245875716209,-0.2642072504386306,0.673265353505644,50.42957663536072,60.40642261505127,-8.601446449756622,0.0,0.0,0.0,0.0,0.0,0.0,0.0,0.0,0.0,0.0,0.0,0.0,0.0,0.0,0.0,0.0,True,0,1.9761319160461426,0.034921875
STABILIZE,1.9789056777954102,29.88077054599339,0.03246763547261556,0.032584190368652344,0.0,0.0,0.0,1.1282468257609661,-1.5185331197238976,1.0451904447931417,-0.00019451833478396145,0.0062462850763890625,-0.037264507913903656,0.4,0.12479386287026774,0.035469489650815006,0.9318887283584882,-0.07452901582780731,1.0324289090931416,-0.23694555275142193,1.6509290784597397,-2.830976380300062,22.153666615486145,-29.098108410835266,4.404522478580475,0.0,0.0,0.0,0.0,0.0,0.0,0.0,0.0,0.0,0.0,0.0,0.0,0.0,0.0,0.0,0.0,True,0,2.0048649311065674,0.034921875
STABILIZE,2.0123140811920166,29.93152073075002,0.03242495854695638,0.032555580139160156,0.0,0.0,0.0,1.1505065189877435,-1.4983013523503794,0.9955615432318886,-0.0003047484526480662,0.0037357606532388617,-0.0405423655217364,0.4,0.12474651813241443,0.031264633942500855,0.9312339828403722,-0.0810847310434728,0.03936654538847506,-0.14326185919344425,1.6332680359482765,-0.3155166400056251,-64.4993782043457,12.636935710906982,28.589347004890442,0.0,0.0,0.0,0.0,0.0,0.0,0.0,0.0,0.0,0.0,0.0,0.0,0.0,0.0,0.0,0.0,True,0,2.033586025238037,0.034923095703125
STABILIZE,2.0459001064300537,29.775556565197636,0.03247979482014974,0.03261423110961914,0.0,0.0,0.0,1.1991238054998943,-1.4625654824477554,1.0101846580797684,-0.00018287397512009774,0.0036615517812623928,-0.043637930139731385,0.4,0.1242945265691909,0.027088910191570316,0.9303977904212761,-0.08727586027946277,0.03936654538847506,-0.14326185919344425,1.6332680359482765,-0.3155166400056251,-64.4993782043457,12.636935710906982,28.589347004890442,0.0,0.0,0.0,0.0,0.0,0.0,0.0,0.0,0.0,0.0,0.0,0.0,0.0,0.0,0.0,0.0,True,0,2.0624806880950928,0.034923095703125
STABILIZE,2.0792031288146973,30.024510365364794,0.03234294255574544,0.03246188163757324,0.0,0.0,0.0,1.1471336861982264,-1.5105284581817602,1.0722193176078805,-0.002002192224171443,0.0001718309115731758,-0.027387346535876936,0.4,0.10446882436136473,0.033716317293251266,0.9402975382211841,-0.05477469307175387,-1.0857726447284222,0.4934841301292181,2.278098464012146,1.953346590824906,-48.946213722229004,10.804412513971329,41.46394729614258,0.0,0.0,0.0,0.0,0.0,0.0,0.0,0.0,0.0,0.0,0.0,0.0,0.0,0.0,0.0,0.0,True,1,2.091331720352173,0.029933837890625
STABILIZE,2.1126785278320312,29.873534565034685,0.032492907842000325,0.03261303901672363,0.0,0.0,0.0,1.1792276778910586,-1.4877966281286057,0.9774806451166896,-0.0025929989165969377,0.0022361049874835915,-0.055960880971176796,0.4,0.09944076122174769,0.04254644931972431,0.913943914928618,-0.11192176194235359,3.96723672747612,1.3518072664737701,1.6343038529157639,-3.114632855870222,56.00581169128418,-64.25270438194275,-19.750124216079712,0.0,0.0,0.0,0.0,0.0,0.0,0.0,0.0,0.0,0.0,0.0,0.0,0.0,0.0,0.0,0.0,True,0,2.148669958114624,0.034923095703125
STABILIZE,2.1517648696899414,25.584540591317502,0.03241709073384603,0.03821563720703125,0.0,0.0,0.0,1.1669838167518702,-1.4927976072615243,1.027091830874783,0.002787590575899251,-0.001109042899739564,-0.022588968765391737,0.4,0.07352828123389456,0.01679368446706967,0.9186335344708007,-0.045177937530783474,-1.4244657009840012,-1.4496789313852787,1.9705887883901596,3.9589035745522128,-84.07453894615173,-15.08883386850357,7.8240767121315,0.0,0.0,0.0,0.0,0.0,0.0,0.0,0.0,0.0,0.0,0.0,0.0,0.0,0.0,0.0,0.0,True,0,2.1772303581237793,0.02993310546875
STABILIZE,2.1941826343536377,23.57476322963213,0.03249028523763021,0.0416109561920166,0.0,0.0,0.0,1.1536870392634422,-1.505447651212917,1.0088642971358404,0.0023743219183111394,0.0022807339772423145,-0.0027061685571952224,0.4,0.07403638826424183,-0.0026750073656697255,0.9214373684691636,-0.005412337114390445,1.7694201320409775,0.4331648349761963,2.0738253369927406,-1.7249385549556269,-13.094250857830048,-69.4498062133789,12.928533554077148,0.0,0.0,0.0,0.0,0.0,0.0,0.0,0.0,0.0,0.0,0.0,0.0,0.0,0.0,0.0,0.0,True,0,2.234717845916748,0.034921875
STABILIZE,2.2276225090026855,29.904631530914898,0.03251818021138509,0.032625436782836914,0.0,0.0,0.0,1.1584310325288392,-1.5047358174353547,1.00273911155422,-0.0009502934893457271,0.0071302599371550765,-0.016464342420773624,0.4,0.10136984522347572,0.0030863514227258866,0.9285410614251535,-0.03292868484154725,1.7694201320409775,0.4331648349761963,2.0738253369927406,-1.7249385549556269,-13.094250857830048,-69.4498062133789,12.928533554077148,0.0,0.0,0.0,0.0,0.0,0.0,0.0,0.0,0.0,0.0,0.0,0.0,0.0,0.0,0.0,0.0,True,0,2.2633535861968994,0.034921875
STABILIZE,2.261075496673584,29.892270193993472,0.0325045903523763,0.03263711929321289,0.0,0.0,0.0,1.155920297678625,-1.501486354937721,1.0078064715881347,0.0061963212151142375,-0.00034407855921617174,0.004032745967804653,0.4,0.08250279969882526,-0.031955187782666206,0.9249205354129137,0.008065491935609306,-1.0187138803303242,-2.0264139398932457,1.4365808106958866,2.408425873523577,-50.141310691833496,-12.77923732995987,12.977300584316254,0.0,0.0,0.0,0.0,0.0,0.0,0.0,0.0,0.0,0.0,0.0,0.0,0.0,0.0,0.0,0.0,True,0,2.2920961380004883,0.02993408203125
STABILIZE,2.2945141792297363,29.905910873440284,0.03250745137532552,0.03262138366699219,0.0,0.0,0.0,1.1721915158288876,-1.492316719255273,0.9719597178332037,-0.006578708538558261,0.0037011950528244475,-0.01513997531337119,0.4,0.0893124425391699,0.010036184985007447,0.9069903932256967,-0.03027995062674238,0.5711551290005445,2.5749118998646736,0.8474479429423809,-2.3638307146589175,7.609383016824722,93.2466447353363,5.806348472833633,0.0,0.0,0.0,0.0,0.0,0.0,0.0,0.0,0.0,0.0,0.0,0.0,0.0,0.0,0.0,0.0,True,0,2.320993423461914,0.034921875
STABILIZE,2.329185724258423,28.84169847000172,0.03247192700703939,0.03389263153076172,0.0,0.0,0.0,1.151976610484883,-1.5201648946052961,0.9923354527878211,0.0030692806509043193,-0.0019786017470015175,0.012504116065469688,0.4,0.06253105347350313,-0.009331460600510894,0.9011527709295555,0.025008232130939376,-1.4835093170404434,-1.1177008971571922,1.305804681032896,3.2835745967827257,-53.52522134780884,-87.71799206733704,-6.930913031101227,0.0,0.0,0.0,0.0,0.0,0.0,0.0,0.0,0.0,0.0,0.0,0.0,0.0,0.0,0.0,0.0,True,0,2.3496198654174805,0.034923095703125
STABILIZE,2.3662993907928467,26.945291018887318,0.03257015546162923,0.03624677658081055,0.0,0.0,0.0,1.1615732397121623,-1.5118644004947324,0.9617344977588715,-0.0006818588053983294,0.004272640147187383,-0.0011622621440901416,0.4,0.07704509885063707,-0.0035058361011712016,0.890470275503266,-0.002324524288180283,1.0162856429815292,0.4033442586660385,1.0270840488374233,-1.7110236453473127,73.35701584815979,66.16926789283752,20.807728171348572,0.0,0.0,0.0,0.0,0.0,0.0,0.0,0.0,0.0,0.0,0.0,0.0,0.0,0.0,0.0,0.0,True,1,2.378322124481201,0.02993310546875
STABILIZE,2.399761915206909,29.884602778767366,0.03245571454366048,0.032587528228759766,0.0,0.0,0.0,1.1718948294868152,-1.4999576732241076,1.0422459929306316,-0.004450989227724683,0.0058096144998662485,0.0030722249260023322,0.4,0.09654689471933592,0.021886523834452512,0.8748115381540083,0.0061444498520046645,0.7310489192605019,0.7946515455842018,1.3115121982991695,0.2159572413425805,-26.55019760131836,-14.306828379631042,15.168699622154236,0.0,0.0,0.0,0.0,0.0,0.0,0.0,0.0,0.0,0.0,0.0,0.0,0.0,0.0,0.0,0.0,True,0,2.4357216358184814,0.0349228515625
STABILIZE,2.433171033859253,29.930879949762012,0.032448800404866536,0.03256702423095703,0.0,0.0,0.0,1.1668905419810174,-1.5043350774301452,1.0358509081550897,0.0035636287243993267,-0.0052847631095680045,0.016847976996042333,0.4,0.05097655030617038,-0.0015974308827778685,0.867194763053525,0.033695953992084665,-2.5985535234212875,-1.3828912749886513,1.2035664170980453,1.607551402063497,-57.984405755996704,-20.58967351913452,6.769754737615585,0.0,0.0,0.0,0.0,0.0,0.0,0.0,0.0,0.0,0.0,0.0,0.0,0.0,0.0,0.0,0.0,True,0,2.4644243717193604,0.034922119140625
STABILIZE,2.4666662216186523,29.856097491529283,0.03248265584309896,0.03261756896972656,0.0,0.0,0.0,1.1693133381456677,-1.5025482359102464,0.9660398648135068,-0.006518508689782534,0.0031685868204047673,-0.006027600719000537,0.4,0.06010471097518573,0.03500116589190377,0.8527211873080885,-0.012055201438001074,0.7029276806861162,2.216413803398609,0.800000224262476,-2.7733319315826814,79.23806309700012,82.05808401107788,31.25922381877899,0.0,0.0,0.0,0.0,0.0,0.0,0.0,0.0,0.0,0.0,0.0,0.0,0.0,0.0,0.0,0.0,True,0,2.493105173110962,0.029933837890625
STABILIZE,2.50003719329834,29.96530734718372,0.03242376645406087,0.03253817558288574,0.0,0.0,0.0,1.1396546290570626,-1.522765275688367,0.9965618457801781,-0.0027646132508009824,0.005822446396717836,-0.0068658071882959325,0.4,0.08248009778415756,0.0445555303301317,0.8493088442282511,-0.013731614376591865,1.4988054521381855,0.6102972663938999,1.6698971390724182,-0.11770913227847256,24.634715914726257,-31.75887167453766,19.951465725898743,0.0,0.0,0.0,0.0,0.0,0.0,0.0,0.0,0.0,0.0,0.0,0.0,0.0,0.0,0.0,0.0,True,0,2.521749258041382,0.034922119140625
STABILIZE,2.53346848487854,29.910176139199887,0.03250315984090169,0.03263401985168457,0.0,0.0,0.0,1.152977126476584,-1.518226828428305,1.0781279648484703,0.005645749293000291,0.004808531657787226,0.017760168301721686,0.4,0.09546643006309255,0.005632685151999203,0.8432194096714423,0.03552033660344337,0.9060677140951157,-2.318497560918331,1.2734068557620049,2.9366748383664785,-8.883605152368546,-61.29947900772095,13.093626499176025,0.0,0.0,0.0,0.0,0.0,0.0,0.0,0.0,0.0,0.0,0.0,0.0,0.0,0.0,0.0,0.0,True,0,2.5504140853881836,0.0349228515625
STABILIZE,2.567326545715332,29.5379761544258,0.03253033955891927,0.03294110298156738,0.0,0.0,0.0,1.152341278553538,-1.5164010334857958,1.011314414057171,-0.0030516476644641545,0.003307213058214026,-0.02948458710573386,0.4,0.0979381603035849,0.021842517839006575,0.855492821012835,-0.05896917421146772,-1.393691636621952,1.4874801971018314,2.2519249469041824,-2.717699827349516,24.449364840984344,9.56687405705452,20.93789279460907,0.0,0.0,0.0,0.0,0.0,0.0,0.0,0.0,0.0,0.0,0.0,0.0,0.0,0.0,0.0,0.0,True,0,2.6077654361724854,0.0349228515625
STABILIZE,2.6006994247436523,29.9650932679874,0.0323970635732015,0.03252983093261719,0.0,0.0,0.0,1.1487574569516912,-1.5162143772223842,0.9252197728474545,0.0009276449360962616,0.007580211456497527,-0.011445013912326236,0.4,0.12378016486513693,0.013048089217097247,0.8623356607667646,-0.02289002782465247,1.684434525668621,-0.502381706610322,2.0054224878549576,2.184149355050215,33.489617705345154,-36.22363209724426,-13.506779074668884,0.0,0.0,0.0,0.0,0.0,0.0,0.0,0.0,0.0,0.0,0.0,0.0,0.0,0.0,0.0,0.0,True,0,2.636597156524658,0.034922119140625
STABILIZE,2.6341183185577393,29.92169843625157,0.03246906598409017,0.03258919715881348,0.0,0.0,0.0,1.1378224308122067,-1.5306370687068065,0.938851336326919,0.0012139144160865372,0.008400457379733441,0.006987952084573708,0.4,0.14988391285578653,0.004095345750925402,0.8692430619944232,0.013975904169147416,1.684434525668621,-0.502381706610322,2.0054224878549576,2.184149355050215,33.489617705345154,-36.22363209724426,-13.506779074668884,0.0,0.0,0.0,0.0,0.0,0.0,0.0,0.0,0.0,0.0,0.0,0.0,0.0,0.0,0.0,0.0,True,0,2.665243625640869,0.034922119140625
STABILIZE,2.667574167251587,29.889500951349348,0.03250149091084798,0.03261208534240723,0.0,0.0,0.0,1.124962998874071,-1.543346770091731,1.1203091854500593,0.0036341251529932754,0.005908514859615177,0.037682393594705134,0.4,0.15772117373208805,-0.016871898333397323,0.8712800641012027,0.07536478718941027,0.5928933154791594,-1.2090294621884823,1.7146747559309006,3.60634500440861,-7.106656581163406,-34.04718041419983,1.4224101789295673,0.0,0.0,0.0,0.0,0.0,0.0,0.0,0.0,0.0,0.0,0.0,0.0,0.0,0.0,0.0,0.0,True,0,2.6938869953155518,0.02993408203125
STABILIZE,2.701021432876587,29.897383990305794,0.03247669537862142,0.03261375427246094,0.0,0.0,0.0,1.1271144017409191,-1.5395572957628432,1.0661294569108737,-0.005443726786189556,0.0021633157236792717,-0.000660102518764992,0.4,0.14340963153372185,0.01628151865293864,0.8734857140566521,-0.001320205037529984,-0.6321944296360016,2.0053651183843613,1.9717507064342499,-4.582717131167348,-51.08413100242615,108.74390602111816,-2.856466732919216,0.0,0.0,0.0,0.0,0.0,0.0,0.0,0.0,0.0,0.0,0.0,0.0,0.0,0.0,0.0,0.0,True,0,2.7226099967956543,0.039910888671875
STABILIZE,2.734471082687378,29.895892285651154,0.03248718579610189,0.03269553184509277,0.0,0.0,0.0,1.1150840907349995,-1.54793057407675,1.0108850726348122,-0.004911713847618395,0.0032631629001972323,-0.01559082481707578,0.4,0.1375958381626584,0.040975604166661794,0.8705605018594237,-0.03118164963415156,-0.24841474369168282,1.4648275449872017,1.161116547882557,-1.7607497703825328,6.227797269821167,-12.762486934661865,6.152734160423279,0.0,0.0,0.0,0.0,0.0,0.0,0.0,0.0,0.0,0.0,0.0,0.0,0.0,0.0,0.0,0.0,True,0,2.751627206802368,0.02993408203125
STABILIZE,2.7685368061065674,29.35625297460735,0.03253963788350423,0.0331723690032959,0.0,0.0,0.0,1.1325803673459276,-1.5342158743884817,1.0609610314215838,0.0021042875801681286,0.006292505709522606,0.015517134718797003,0.4,0.14980482385527935,0.02214448166237871,0.859607493980217,0.031034269437594006,0.9446795098483562,0.9201430715620518,1.4352140948176384,0.4684456427392684,-21.536320447921753,65.44954180717468,-4.680146276950836,0.0,0.0,0.0,0.0,0.0,0.0,0.0,0.0,0.0,0.0,0.0,0.0,0.0,0.0,0.0,0.0,True,0,2.8090109825134277,0.034921875
STABILIZE,2.8020217418670654,29.86438819466695,0.03244903882344564,0.032587528228759766,0.0,0.0,0.0,1.1425854205412327,-1.533697100176678,1.1013214730008354,-0.003367992780655717,0.0067828054762828684,0.019616864535560333,0.4,0.16257098997785974,0.03718445014441557,0.8572996850671454,0.03923372907112067,0.9446795098483562,0.9201430715620518,1.4352140948176384,0.4684456427392684,-21.536320447921753,65.44954180717468,-4.680146276950836,0.0,0.0,0.0,0.0,0.0,0.0,0.0,0.0,0.0,0.0,0.0,0.0,0.0,0.0,0.0,0.0,True,0,2.8377177715301514,0.034921875
STABILIZE,2.835420608520508,29.940067099721606,0.03242543538411458,0.03253817558288574,0.0,0.0,0.0,1.1479814834289543,-1.510426965839562,1.0782456788899473,-0.005666327650535189,-0.0004821149247729731,0.007642431165388323,0.4,0.1327311763477525,0.06253074514519746,0.8598148719032305,0.015284862330776645,-1.5894994139671326,1.523961778730154,1.7297705635428429,-1.4420030912297261,-55.689507722854614,17.364200949668884,35.06169319152832,0.0,0.0,0.0,0.0,0.0,0.0,0.0,0.0,0.0,0.0,0.0,0.0,0.0,0.0,0.0,0.0,True,0,2.866450548171997,0.034923095703125
STABILIZE,2.8688559532165527,29.908469886906545,0.0324580987294515,0.032593727111816406,0.0,0.0,0.0,1.1680565833383854,-1.5173319669253276,0.9575649874356961,-0.00646369667880913,-0.0014870909157905412,-0.004584110776572762,0.4,0.10224892977170384,0.0880950716636324,0.8622928934677768,-0.009168221553145523,-1.5894994139671326,1.523961778730154,1.7297705635428429,-1.4420030912297261,-55.689507722854614,17.364200949668884,35.06169319152832,0.0,0.0,0.0,0.0,0.0,0.0,0.0,0.0,0.0,0.0,0.0,0.0,0.0,0.0,0.0,0.0,True,0,2.895601272583008,0.034923095703125
STABILIZE,2.9031693935394287,29.14350433229803,0.03246358235677083,0.03348112106323242,0.0,0.0,0.0,1.2735839665104345,-1.4415048075854326,1.166530249502299,-0.007880370108189764,0.008476678517190124,-0.02777546233508567,0.4,0.13299040162813902,0.11794966183660976,0.8400216271775053,-0.05555092467017134,2.0528947934508324,1.772001013159752,0.2708054147660732,-2.7164338944755366,81.14144802093506,47.63244986534119,-32.520949840545654,0.0,0.0,0.0,0.0,0.0,0.0,0.0,0.0,0.0,0.0,0.0,0.0,0.0,0.0,0.0,0.0,True,0,2.924532175064087,0.064855712890625
STABILIZE,2.936694860458374,29.82870716078883,0.03250912030537923,0.03264951705932617,0.0,0.0,0.0,1.329768355571019,-1.3514682934509725,1.315353241327707,0.00645633373087068,-0.019639481582993508,0.07067699117126727,0.4,0.0011502175538362358,0.062490775333465615,0.8433072304932097,0.14135398234253455,-7.226169854402542,-3.492031991481781,0.6057579070329666,11.091022537485847,-216.70596599578857,-141.4131999015808,-72.24598526954651,0.0,0.0,0.0,0.0,0.0,0.0,0.0,0.0,0.0,0.0,0.0,0.0,0.0,0.0,0.0,0.0,True,0,2.9586856365203857,0.03492236328125
STABILIZE,2.970172643661499,29.872257990997664,0.032449992497762044,0.0325775146484375,0.0,0.0,0.0,1.438988416484812,-1.1569086473958667,1.2353449389987066,0.010154337149669313,-0.024601491124390574,0.17293865268358127,0.4,-0.1364818277875749,-0.0037168188422445486,0.8226103752405676,0.34587730536716255,-7.226169854402542,-3.492031991481781,0.6057579070329666,11.091022537485847,-216.70596599578857,-141.4131999015808,-72.24598526954651,0.0,0.0,0.0,0.0,0.0,0.0,0.0,0.0,0.0,0.0,0.0,0.0,0.0,0.0,0.0,0.0,True,0,2.987382411956787,0.03492236328125
STABILIZE,3.0036230087280273,29.89312237189081,0.032393487294514973,0.032610177993774414,0.0,0.0,0.0,1.4405978865297018,-1.311252353061349,0.9402118246322209,-0.015269045522024296,-0.007368342239568907,0.13322922934664416,0.4,-0.1543560898790838,0.08230968645416406,0.8811244197926986,0.2664584586932883,-0.6899964530020952,4.838104918599129,4.917486384510994,-4.422489857862134,52.59597301483154,19.48295533657074,87.45320439338684,0.0,0.0,0.0,0.0,0.0,0.0,0.0,0.0,0.0,0.0,0.0,0.0,0.0,0.0,0.0,0.0,True,1,3.016003131866455,0.064855712890625
STABILIZE,3.0371174812316895,29.856097491529283,0.032497676213582356,0.03263211250305176,0.0,0.0,0.0,1.4175419426560891,-1.3052845819957561,1.012310554458935,-0.010143354699215753,-0.018870661266406154,0.1690510152056764,0.4,-0.23337714469925971,0.12569522883956918,0.9858174968883784,0.3381020304113528,-0.94052879139781,-3.008456900715828,1.124325953423977,6.081591045469245,-127.85331010818481,-130.08458614349365,-33.07832479476929,0.0,0.0,0.0,0.0,0.0,0.0,0.0,0.0,0.0,0.0,0.0,0.0,0.0,0.0,0.0,0.0,True,0,3.0734341144561768,0.034923095703125
STABILIZE,3.070502758026123,29.953323620990087,0.0324580987294515,0.032564401626586914,0.0,0.0,0.0,1.3918573364473736,-1.2271539413582746,1.2227982016585104,0.0009840442750038774,-0.005831611095315877,0.26006421111830796,0.4,-0.2269115667784016,0.09951058772107425,0.9856065472545347,0.5201284222366159,0.12447710614651442,-1.020897552371025,2.0039044320583344,9.047239546294918,77.36815214157104,89.19045329093933,64.14728164672852,0.0,0.0,0.0,0.0,0.0,0.0,0.0,0.0,0.0,0.0,0.0,0.0,0.0,0.0,0.0,0.0,True,0,3.102036714553833,0.034921875
STABILIZE,3.1039509773254395,29.895466111661523,0.032229216893514,0.03241395950317383,0.0,0.0,0.0,1.381447167656922,-1.284238314563714,1.1593592979257263,-0.005146007651117776,-0.004157876612512585,0.20081504911848053,0.4,-0.21193339265890665,0.11172286800868322,0.9244594409161447,0.40163009823696105,0.5192677024751902,0.8034856058657169,-0.9525809437036514,-5.2274280784349605,-71.14197015762329,-59.0490996837616,102.63278484344482,0.0,0.0,0.0,0.0,0.0,0.0,0.0,0.0,0.0,0.0,0.0,0.0,0.0,0.0,0.0,0.0,True,0,3.1307544708251953,0.064857177734375
STABILIZE,3.137603521347046,29.71985715095516,0.03256848653157552,0.032723188400268555,0.0,0.0,0.0,1.3319815503055146,-1.3518120440652945,1.0603116298419037,0.008495198508707858,-0.020729140580179176,0.20592117086197448,0.4,-0.29242536379985473,0.04647966524456447,0.9015457800205415,0.41184234172394896,-3.1734339892864227,-2.9008224606513977,-0.16887442907318473,-0.21344255778925222,-95.61671614646912,-59.85220670700073,26.75510048866272,0.0,0.0,0.0,0.0,0.0,0.0,0.0,0.0,0.0,0.0,0.0,0.0,0.0,0.0,0.0,0.0,True,0,3.1595184803009033,0.034921875
STABILIZE,3.173128366470337,28.146479931819858,0.03237417538960775,0.03461122512817383,0.0,0.0,0.0,1.303720041789,-1.373672704834155,1.0877697373572954,0.010160621631959693,-0.019032693174649572,0.19641382238842478,0.4,-0.35295485784778485,-0.020467399723615602,0.8537149456927812,0.39282764477684956,-3.1734339892864227,-2.9008224606513977,-0.16887442907318473,-0.21344255778925222,-95.61671614646912,-59.85220670700073,26.75510048866272,0.0,0.0,0.0,0.0,0.0,0.0,0.0,0.0,0.0,0.0,0.0,0.0,0.0,0.0,0.0,0.0,True,0,3.1881368160247803,0.034921875
STABILIZE,3.20672607421875,29.762879282450115,0.032416375478108723,0.032793283462524414,0.0,0.0,0.0,1.3721105125049262,-1.306947306171831,1.1410288844624104,-0.007749265841318644,0.008352197193818793,0.22082000614851355,0.4,-0.24649939080211875,0.026028630659826333,0.8491393835799157,0.4416400122970271,3.2885178923606873,2.134748362004757,2.274826355278492,0.63880299371811,88.54784965515137,42.12188720703125,-5.370150879025459,0.0,0.0,0.0,0.0,0.0,0.0,0.0,0.0,0.0,0.0,0.0,0.0,0.0,0.0,0.0,0.0,True,0,3.2455196380615234,0.034921875
STABILIZE,3.2402091026306152,29.86587675700309,0.03252414067586263,0.032651662826538086,0.0,0.0,0.0,1.396705169932496,-1.2968292346901036,1.1307783713438078,-0.008052854507475275,0.005871366688297751,0.2203885579090278,0.4,-0.17220512078389222,0.06631142979157337,0.8566159053795723,0.4407771158180556,3.2885178923606873,2.134748362004757,2.274826355278492,0.63880299371811,88.54784965515137,42.12188720703125,-5.370150879025459,0.0,0.0,0.0,0.0,0.0,0.0,0.0,0.0,0.0,0.0,0.0,0.0,0.0,0.0,0.0,0.0,True,0,3.27431321144104,0.034921875
STABILIZE,3.273594617843628,29.952468007312614,0.032468350728352864,0.032584190368652344,0.0,0.0,0.0,1.357780028574299,-1.3283665659655794,1.107939285976343,0.0027846287517702324,-0.0065697557145213675,0.20396322994091892,0.4,-0.18012978583607425,0.03999096025294102,0.8643540613297018,0.40792645988183784,-0.7505017332732677,-1.1637208983302116,2.271198108792305,-0.9534523597817022,-51.069897413253784,-65.49999117851257,-19.050054252147675,0.0,0.0,0.0,0.0,0.0,0.0,0.0,0.0,0.0,0.0,0.0,0.0,0.0,0.0,0.0,0.0,True,0,3.3030107021331787,0.039911865234375
STABILIZE,3.3193752765655518,21.842944261304755,0.03254655202229818,0.04493236541748047,0.0,0.0,0.0,1.479804239582633,-1.2642049428412434,1.1047638883425217,0.0017093000068157675,-0.007345093148492521,0.2207113692758104,0.4,-0.19415153619092107,0.019524009137891228,0.8660742788410294,0.4414227385516208,-1.007347833365202,-0.8759240619838238,1.7616461962461472,2.222204180897764,-49.20330047607422,11.081673949956894,10.080516338348389,0.0,0.0,0.0,0.0,0.0,0.0,0.0,0.0,0.0,0.0,0.0,0.0,0.0,0.0,0.0,0.0,True,0,3.3414392471313477,0.024944091796875
STABILIZE,3.354682207107544,28.32534644371809,0.03217438062032064,0.034064531326293945,0.0,0.0,0.0,1.421547208274067,-1.2259371004689543,1.1102922861454125,-0.003332890530328219,-0.0029867268420989933,0.21459494826645395,0.4,-0.17750934742464727,0.03562314065703626,0.8744889562005833,0.4291898965329079,0.3807932138442993,0.9215600788593292,2.7049243450164795,0.4390983475881335,23.41907024383545,-30.842137336730957,65.53776264190674,0.0,0.0,0.0,0.0,0.0,0.0,0.0,0.0,0.0,0.0,0.0,0.0,0.0,0.0,0.0,0.0,True,0,3.3846538066864014,0.069845947265625
STABILIZE,3.3954172134399414,24.547904156570798,0.032366069157918294,0.039893150329589844,0.0,0.0,0.0,1.4341890346541144,-1.263830563097362,1.1430453910931508,0.0015450229206003436,-0.005492598272872044,0.215262233561415,0.4,-0.17868249740698786,0.018742354039252146,0.9144508008332513,0.43052446712283,-0.08209339575842023,-0.6397462449967861,2.3548128083348274,-0.2948781028505209,-28.909751772880554,-7.243755459785461,30.165770649909973,0.0,0.0,0.0,0.0,0.0,0.0,0.0,0.0,0.0,0.0,0.0,0.0,0.0,0.0,0.0,0.0,True,0,3.4147400856018066,0.029932861328125
STABILIZE,3.43768048286438,23.66387768343254,0.03248122533162435,0.03937053680419922,0.0,0.0,0.0,1.4071379637245731,-1.2804432907061256,1.1200645793004083,0.0009055621641543802,-0.0069761568585088645,0.18589996391816854,0.4,-0.18918595637536162,0.009527146918855709,0.8488443154659212,0.3717999278363371,-0.9511825628578663,-0.37251769099384546,-1.0944648645818233,-1.9653280232895778,-14.017996191978455,-4.016768932342529,25.392502546310425,0.0,0.0,0.0,0.0,0.0,0.0,0.0,0.0,0.0,0.0,0.0,0.0,0.0,0.0,0.0,0.0,True,1,3.451214075088501,0.034923095703125
STABILIZE,3.470367193222046,30.589234011829312,0.030423434575398763,0.03182339668273926,0.0,0.0,0.0,1.4009401006613154,-1.2878946002037863,1.0966442875232576,-0.002211170980237412,0.0006620127145549765,0.19553522139066695,0.4,-0.15268831114514378,0.020562539406185187,0.8274777643431753,0.3910704427813339,0.025183596881106496,0.2677034353837371,0.8284271694719791,0.299299743203605,-41.27025008201599,-16.664695739746094,-62.28546500205994,0.0,0.0,0.0,0.0,0.0,0.0,0.0,0.0,0.0,0.0,0.0,0.0,0.0,0.0,0.0,0.0,True,0,3.509359121322632,0.0349228515625
STABILIZE,3.504223108291626,29.537768137579402,0.03246119817097982,0.0325930118560791,0.0,0.0,0.0,1.4252395658506936,-1.2642616120670134,1.137300775114347,-0.0012158834840787635,-0.0032668984325230706,0.19082617279194997,0.4,-0.14532317294384137,0.024021021655196637,0.8081897398934311,0.38165234558389993,0.025183596881106496,0.2677034353837371,0.8284271694719791,0.299299743203605,-41.27025008201599,-16.664695739746094,-62.28546500205994,0.0,0.0,0.0,0.0,0.0,0.0,0.0,0.0,0.0,0.0,0.0,0.0,0.0,0.0,0.0,0.0,True,0,3.5380215644836426,0.0349228515625
STABILIZE,3.537240505218506,30.286407486569235,0.03204205830891927,0.032169342041015625,0.0,0.0,0.0,1.450497391957989,-1.2564156457013727,1.165561536578921,0.0012696807104674056,-0.004891250145086431,0.2054925474795835,0.4,-0.1483345054833159,0.013128623749811311,0.8169172590808036,0.410985094959167,-0.5044456571340561,-0.48464839346706867,2.2500548511743546,2.3120950199038326,-17.530494928359985,4.231992736458778,5.442382395267487,0.0,0.0,0.0,0.0,0.0,0.0,0.0,0.0,0.0,0.0,0.0,0.0,0.0,0.0,0.0,0.0,True,0,3.5711586475372314,0.02993408203125
STABILIZE,3.571413516998291,29.261429199310726,0.03248551686604818,0.03335833549499512,0.0,0.0,0.0,1.4399419749259692,-1.2522180675695769,1.1593850178568195,-0.003792114557347714,-0.004616702984737364,0.18246981763029305,0.4,-0.14914266986312943,0.03257838557733572,0.8113763543558643,0.3649396352605861,-0.41196574456989765,1.107317954301834,1.6599934548139572,-1.557279288781499,-7.470427453517914,37.97239661216736,15.532991290092468,0.0,0.0,0.0,0.0,0.0,0.0,0.0,0.0,0.0,0.0,0.0,0.0,0.0,0.0,0.0,0.0,True,0,3.600162982940674,0.034922119140625
STABILIZE,3.604871988296509,29.889287953936492,0.03251341183980306,0.03263545036315918,0.0,0.0,0.0,1.4360434310137729,-1.2520102804084203,1.1074620265080883,-0.0007721563948861924,-0.004227337952030564,0.19542035220229043,0.4,-0.14773725401082066,0.03159592368241991,0.7851987170593643,0.39084070440458085,-0.2560903085395694,0.024906423641368747,0.31332806684076786,2.154474744427448,7.326096296310425,-32.96462297439575,-20.40065824985504,0.0,0.0,0.0,0.0,0.0,0.0,0.0,0.0,0.0,0.0,0.0,0.0,0.0,0.0,0.0,0.0,True,0,3.6285207271575928,0.06485595703125
STABILIZE,3.6383485794067383,29.87161974489178,0.03249648412068685,0.03263068199157715,0.0,0.0,0.0,1.4332713347060997,-1.2628438142057068,1.122947666182094,-0.0008244482523563369,-0.004800268297085254,0.21560790542388072,0.4,-0.14975334201243165,0.0311093248824274,0.7768610015166736,0.43121581084776145,-0.2560903085395694,0.024906423641368747,0.31332806684076786,2.154474744427448,7.326096296310425,-32.96462297439575,-20.40065824985504,0.0,0.0,0.0,0.0,0.0,0.0,0.0,0.0,0.0,0.0,0.0,0.0,0.0,0.0,0.0,0.0,True,0,3.6570799350738525,0.06485595703125
STABILIZE,3.6717307567596436,29.95567681067299,0.03245046933492025,0.032561540603637695,0.0,0.0,0.0,1.4374679523425435,-1.2555719038954647,1.1587286793662637,0.00346403569006934,-0.0014369725928226364,0.21360130284836046,0.4,-0.13288230369331255,0.006683974849105975,0.791886739114142,0.4272026056967209,0.6170361302793026,-1.0964867658913136,1.6679823398590088,-0.06816742235084289,20.746198296546936,-2.8585439547896385,27.504631876945496,0.0,0.0,0.0,0.0,0.0,0.0,0.0,0.0,0.0,0.0,0.0,0.0,0.0,0.0,0.0,0.0,True,1,3.6857426166534424,0.034923095703125
