E-kp,E-ki,E-kd,E-I-Tot,E-P,E-I,E-D,E-PID,N-kp,N-ki,N-kd,N-I-Tot,N-P,N-I,N-D,N-PID,Y-kp,Y-ki,Y-kd,Y-I-Tot,Y-P,Y-I,Y-D,Y-PID,D-kp,D-ki,D-kd,D-I-Tot,D-P,D-I,D-D,D-PID,errorN,desiredN,actualN,errorE,desiredE,actualE,errorD,desiredD,actualD,errorY,desiredY,actualY,roll,pitch,yaw-rate,thrust,dt,Time,Mode
0.03,0.0,0.006,-0.003112508349539595,-0.0027831056026436495,-0.0,-0.01659042788134147,-0.01937353348398512,0.03,0.0,0.006,-0.003083786078210075,-0.0027574230645487194,-0.0,-0.01643733117682943,-0.019194754241378148,0.25,0,0,-0.0030408508731050448,-0.022658598123370868,-0.0,-0.0,-0.022658598123370868,0.002,8e-05,0.0,-0.00416981677863189,-0.0002485678030994848,-3.335853422905512e-07,-0.0,-0.0002489013884417754,-0.09191410215162399,0.0,0.09191410215162399,-0.09277018675478832,0.0,0.09277018675478832,-0.12428390154974239,0.0,0.12428390154974239,-0.09063439249348347,0,0.09063439249348347,-0.019403872810390403,0.019164083854966537,0.022658598123370868,0.4,0.03355073928833008,0.0337824821472168,STABILIZE
0.03,0.0,0.006,-0.006639814346443133,-0.003167555021132564,-0.0,-0.0023015953950410034,-0.005469150416173567,0.03,0.0,0.006,-0.006575197925337893,-0.003135321726246559,-0.0,-0.0022623777738422705,-0.0053976995000888294,0.25,0,0,-0.00646470130715557,-0.02562209101295292,-0.0,-0.0,-0.02562209101295292,0.002,8e-05,0.0,-0.009141368688932044,-0.00029763345794432737,-7.313094951145636e-07,-0.0,-0.00029836476743944193,-0.10451072420821864,0.0,0.10451072420821864,-0.10558516737108546,0.0,0.10558516737108546,-0.1488167289721637,0.0,0.1488167289721637,-0.10248836405181168,0,0.10248836405181168,-0.005478796847022278,0.005387907875701797,0.02562209101295292,0.4,0.03340721130371094,0.06712675094604492,STABILIZE
0.03,0.0,0.006,-0.01073423088690484,-0.003596211321990919,-0.0,-0.0025099850445207033,-0.006106196366511623,0.03,0.0,0.006,-0.010659387630351458,-0.0035872288794222894,-0.0,-0.0026461297634297943,-0.006233358642852084,0.25,0,0,-0.010429922169243107,-0.029022800557613738,-0.0,-0.0,-0.029022800557613738,0.002,8e-05,0.0,-0.015305113618329588,-0.00036091636959607767,-1.2244090894663672e-06,-0.0,-0.00036214077868554405,-0.11957429598074298,0.0,0.11957429598074298,-0.11987371073303063,0.0,0.11987371073303063,-0.18045818479803882,0.0,0.18045818479803882,-0.11609120223045495,0,0.11609120223045495,-0.0061188136911628594,0.006220973641614024,0.029022800557613738,0.4,0.034156084060668945,0.10128569602966309,STABILIZE
0.03,0.0,0.006,-0.015603463502696332,-0.004366821483901911,-0.0,-0.004607320121083803,-0.008974141604985714,0.03,0.0,0.006,-0.01543940183208075,-0.004286808693791422,-0.0,-0.0041826442400577455,-0.008469452933849167,0.25,0,0,-0.015119800350813974,-0.03504977480734149,-0.0,-0.0,-0.03504977480734149,0.002,8e-05,0.0,-0.02360656461244086,-0.0004963267302952813,-1.8885251689952688e-06,-0.0,-0.0004982152554642766,-0.14289362312638074,0.0,0.14289362312638074,-0.1455607161300637,0.0,0.1455607161300637,-0.24816336514764067,0.0,0.24816336514764067,-0.14019909922936596,0,0.14019909922936596,-0.008994838926354503,0.008447468451196464,0.03504977480734149,0.4,0.03345155715942383,0.1347954273223877,STABILIZE
0.03,0.0,0.006,-0.02060575824805945,-0.004453240314622337,-0.0,-0.0005128897042881587,-0.004966130018910496,0.03,0.0,0.006,-0.020329632517222855,-0.00435347646299023,-0.0,-0.00039566853826738624,-0.004749145001257616,0.25,0,0,-0.01985262698070164,-0.035111242978153066,-0.0,-0.0,-0.035111242978153066,0.002,8e-05,0.0,-0.032598202968651575,-0.000533647435302888,-2.607856237492126e-06,-0.0,-0.0005362552915403801,-0.14511588209967433,0.0,0.14511588209967433,-0.14844134382074456,0.0,0.14844134382074456,-0.26682371765144397,0.0,0.26682371765144397,-0.14044497191261227,0,0.14044497191261227,-0.004977756321025803,0.004736957632930849,0.035111242978153066,0.4,0.03369879722595215,0.16844534873962402,STABILIZE
0.03,0.0,0.006,-0.02584789701249536,-0.004695193915784792,-0.0,-0.001444727209165391,-0.0061399211249501835,0.03,0.0,0.006,-0.02543081375544782,-0.004568943362491601,-0.0,-0.0012865726771106195,-0.005855516039602221,0.25,0,0,-0.024715320651320857,-0.036294489015803705,-0.0,-0.0,-0.036294489015803705,0.002,8e-05,0.0,-0.04255698797508404,-0.0005946482135374764,-3.4045590380067236e-06,-0.0,-0.000598052772575483,-0.15229811208305336,0.0,0.15229811208305336,-0.15650646385949307,0.0,0.15650646385949307,-0.29732410676873816,0.0,0.29732410676873816,-0.14517795606321482,0,0.14517795606321482,-0.0061547383007143205,0.005839939722323219,0.036294489015803705,0.4,0.03349471092224121,0.2019510269165039,STABILIZE
0.03,0.0,0.006,-0.03126860530781726,-0.004864273012109673,-0.0,-0.0010114876019366786,-0.005875760614046352,0.03,0.0,0.006,-0.030721842942360526,-0.004747905454052055,-0.0,-0.0010706109789127042,-0.005818516432964759,0.25,0,0,-0.029672076018612225,-0.03706620679926198,-0.0,-0.0,-0.03706620679926198,0.002,8e-05,0.0,-0.05354283974072369,-0.0006572103293187204,-4.283427179257896e-06,-0.0,-0.0006614937564979783,-0.1582635151350685,0.0,0.1582635151350685,-0.1621424337369891,0.0,0.1621424337369891,-0.3286051646593602,0.0,0.3286051646593602,-0.14826482719704792,0,0.14826482719704792,-0.005890797554166758,0.0058032922078835765,0.03706620679926198,0.4,0.0334317684173584,0.2353804111480713,STABILIZE
0.03,0.0,0.006,-0.03675238708372143,-0.004910226754531574,-0.0,-0.00027431591886989144,-0.005184542673401465,0.03,0.0,0.006,-0.03610080360235655,-0.004816368999280695,-0.0,-0.00040868576374172323,-0.0052250547630224185,0.25,0,0,-0.03473267005434226,-0.03776083920961562,-0.0,-0.0,-0.03776083920961562,0.002,8e-05,0.0,-0.06534812938822361,-0.0007047040581477938,-5.227850351057889e-06,-0.0,-0.0007099319084988517,-0.1605456333093565,0.0,0.1605456333093565,-0.16367422515105245,0.0,0.16367422515105245,-0.3523520290738969,0.0,0.3523520290738969,-0.15104335683846248,0,0.15104335683846248,-0.005198298951976313,0.005211369111355099,0.03776083920961562,0.4,0.03350424766540527,0.2688910961151123,STABILIZE
0.03,0.0,0.006,-0.042339384124937256,-0.005013420724826466,-0.0,-0.0006173319770137296,-0.005630752701840196,0.03,0.0,0.006,-0.0415705144838241,-0.004908175481329912,-0.0,-0.0005492091922053294,-0.0054573846735352415,0.25,0,0,-0.03990967036810723,-0.03871262814053428,-0.0,-0.0,-0.03871262814053428,0.002,8e-05,0.0,-0.07808275770951321,-0.0007618171154430131,-6.246620616761057e-06,-0.0,-0.0007680637360597741,-0.16360584937766376,0.0,0.16360584937766376,-0.16711402416088222,0.0,0.16711402416088222,-0.38090855772150656,0.0,0.38090855772150656,-0.1548505125621371,0,0.1548505125621371,-0.0056454815272181024,0.005442146799752573,0.03871262814053428,0.4,0.0334322452545166,0.30231618881225586,STABILIZE
0.03,0.0,0.006,-0.048198104266593156,-0.00524266685453783,-0.0,-0.001367603682157509,-0.006610270536695339,0.03,0.0,0.006,-0.04739261388208779,-0.005209896837720368,-0.0,-0.0017999659950843287,-0.007009862832804697,0.25,0,0,-0.04520624698411363,-0.03949694642609625,-0.0,-0.0,-0.03949694642609625,0.002,8e-05,0.0,-0.09285219562823332,-0.0008810939450306075,-7.428175650258667e-06,-0.0,-0.0008885221206808661,-0.1736632279240123,0.0,0.1736632279240123,-0.17475556181792767,0.0,0.17475556181792767,-0.4405469725153037,0.0,0.4405469725153037,-0.157987785704385,0,0.157987785704385,-0.006629574427417382,0.006991609000392732,0.03949694642609625,0.4,0.03352522850036621,0.33586645126342773,STABILIZE
0.03,0.0,0.006,-0.05404648795458343,-0.005241804778703406,-0.0,5.151090705364601e-06,-0.005236653687998041,0.03,0.0,0.006,-0.05336087086811579,-0.005349245134879663,-0.0,-0.0008326363988438166,-0.00618188153372348,0.25,0,0,-0.05045906018447206,-0.03923337740849807,-0.0,0.0,-0.03923337740849807,0.002,8e-05,0.0,-0.10852611839566276,-0.000936550993078144,-8.682089471653022e-06,-0.0,-0.000945233082549797,-0.17830817116265543,0.0,0.17830817116265543,-0.17472682595678019,0.0,0.17472682595678019,-0.46827549653907197,0.0,0.46827549653907197,-0.15693350963399227,0,0.15693350963399227,-0.005253566237134578,0.006167515134724396,0.03923337740849807,0.4,0.03347158432006836,0.3693211078643799,STABILIZE
0.03,0.0,0.006,-0.059898410950009015,-0.0052475561093647104,-0.0,-3.438235075011772e-05,-0.005281938460114828,0.03,0.0,0.006,-0.0593176189635446,-0.0053415552262988655,-0.0,4.597147158311396e-05,-0.005295583754715751,0.25,0,0,-0.055805474977641115,-0.0399521257556747,-0.0,-0.0,-0.0399521257556747,0.002,8e-05,0.0,-0.12520862085557793,-0.000997305988378533,-1.0016689668446235e-05,-0.0,-0.0010073226780469794,-0.17805184087662887,0.0,0.17805184087662887,-0.1749185369788237,0.0,0.1749185369788237,-0.49865299418926656,0.0,0.49865299418926656,-0.1598085030226988,0,0.1598085030226988,-0.005296688255817807,0.005280830874051099,0.0399521257556747,0.4,0.03345513343811035,0.40280747413635254,STABILIZE
0.03,0.0,0.006,-0.0656991984341857,-0.005204260790869053,-0.0,0.0002589534944922176,-0.004945307296376836,0.03,0.0,0.006,-0.06512331329422566,-0.005208663039518768,-0.0,0.0007948410440927919,-0.004413821995425976,0.25,0,0,-0.061152520902437404,-0.03997649964092631,-0.0,-0.0,-0.03997649964092631,0.002,8e-05,0.0,-0.14265595230215636,-0.0010435417972750431,-1.1412476184172509e-05,-0.0,-0.0010549542734592156,-0.17362210131729228,0.0,0.17362210131729228,-0.1734753596956351,0.0,0.1734753596956351,-0.5217708986375216,0.0,0.5217708986375216,-0.15990599856370524,0,0.15990599856370524,-0.004957606495543593,0.004400003033890781,0.03997649964092631,0.4,0.033438682556152344,0.4362361431121826,STABILIZE
0.03,0.0,0.006,-0.07135715428241865,-0.005073910509945657,-0.0,0.0007792987174076855,-0.004294611792537971,0.03,0.0,0.006,-0.0708409126342929,-0.005127397272335718,-0.0,0.0004858471166020773,-0.004641550155733641,0.25,0,0,-0.0663585591241376,-0.0389053525643205,-0.0,0.0,-0.0389053525643205,0.002,8e-05,0.0,-0.16081640400739106,-0.0010857219962380218,-1.2865312320591286e-05,-0.0,-0.001098587308558613,-0.1709132424111906,0.0,0.1709132424111906,-0.1691303503315219,0.0,0.1691303503315219,-0.5428609981190109,0.0,0.5428609981190109,-0.155621410257282,0,0.155621410257282,-0.004307202878080499,0.004629868428352177,0.0389053525643205,0.4,0.03345322608947754,0.46967053413391113,STABILIZE
0.03,0.0,0.006,-0.07690347364314623,-0.004976990111460414,-0.0,0.0005798101809949129,-0.004397179930465502,0.03,0.0,0.006,-0.07650508114462565,-0.005082742055061441,-0.0,0.0002671424180546261,-0.004815599637006815,0.25,0,0,-0.07145173610078297,-0.03808635631432,-0.0,0.0,-0.03808635631432,0.002,8e-05,0.0,-0.1798690305351271,-0.0011397917268321093,-1.4389522442810168e-05,-0.0,-0.0011541812492749195,-0.1694247351687147,0.0,0.1694247351687147,-0.1658996703820138,0.0,0.1658996703820138,-0.5698958634160546,0.0,0.5698958634160546,-0.15234542525728,0,0.15234542525728,-0.00440996871039788,0.004803890837450454,0.03808635631432,0.4,0.0334317684173584,0.5031068325042725,STABILIZE
0.03,0.0,0.006,-0.08241078933361495,-0.004940862620896739,-0.0,0.00021607739928156973,-0.004724785221615169,0.03,0.0,0.006,-0.0821352441214667,-0.005051074491693623,-0.0,0.00018940271320650376,-0.00486167177848712,0.25,0,0,-0.07639168830577021,-0.036932125937019736,-0.0,0.0,-0.036932125937019736,0.002,8e-05,0.0,-0.19972353947948324,-0.0011874920150204812,-1.597788315835866e-05,-0.0,-0.0012034698981788399,-0.16836914972312078,0.0,0.16836914972312078,-0.164695420696558,0.0,0.164695420696558,-0.5937460075102406,0.0,0.5937460075102406,-0.14772850374807894,0,0.14772850374807894,-0.004737304588371557,0.0048494734878257685,0.036932125937019736,0.4,0.03343939781188965,0.5365667343139648,STABILIZE
0.03,0.0,0.006,-0.08835815451848267,-0.00484796796876566,-0.0,0.0005048177178772203,-0.004343150250888439,0.03,0.0,0.006,-0.08835708484808442,-0.005071705471550813,-0.0,-0.00011211500264171694,-0.00518382047419253,0.25,0,0,-0.08166751433293051,-0.03583804871767796,-0.0,0.0,-0.03583804871767796,0.002,8e-05,0.0,-0.2222760194642748,-0.001225570171932979,-1.7782081557141984e-05,-0.0,-0.001243352253490121,-0.16905684905169377,0.0,0.16905684905169377,-0.16159893229218866,0.0,0.16159893229218866,-0.6127850859664895,0.0,0.6127850859664895,-0.14335219487071185,0,0.14335219487071185,-0.004356106395503061,0.00517293783855048,0.03583804871767796,0.4,0.036803245544433594,0.573354959487915,STABILIZE
0.03,0.0,0.006,-0.09320437986460763,-0.0046653681181925855,-0.0,0.0011719024744781014,-0.003493465643714484,0.03,0.0,0.006,-0.09371033220621157,-0.005153468476940512,-0.0,-0.0005247445057388429,-0.005678212982679355,0.25,0,0,-0.08587821187082548,-0.03377964746720337,-0.0,0.0,-0.03377964746720337,0.002,8e-05,0.0,-0.24223049553282158,-0.001280652739213814,-1.9378439642625727e-05,-0.0,-0.0013000311788564397,-0.17178228256468372,0.0,0.17178228256468372,-0.15551227060641953,0.0,0.15551227060641953,-0.640326369606907,0.0,0.640326369606907,-0.13511858986881348,0,0.13511858986881348,-0.0035068466438254817,0.0056699586856671,0.03377964746720337,0.4,0.03116297721862793,0.6045143604278564,STABILIZE
0.03,0.0,0.006,-0.09830118606727398,-0.004568894899778073,-0.0,0.0005765388206555158,-0.003992356079122557,0.03,0.0,0.006,-0.09928679821468733,-0.004998873037703882,-0.0,0.0009238861694573609,-0.004074986868246521,0.25,0,0,-0.0903332846825408,-0.03328025211313979,-0.0,0.0,-0.03328025211313979,0.002,8e-05,0.0,-0.2641859157127783,-0.0013120897452763187,-2.1134873257022264e-05,-0.0,-0.001333224618533341,-0.16662910125679606,0.0,0.16662910125679606,-0.1522964966592691,0.0,0.1522964966592691,-0.6560448726381594,0.0,0.6560448726381594,-0.13312100845255917,0,0.13312100845255917,-0.004001813118953239,0.004065700038106868,0.03328025211313979,0.4,0.033466339111328125,0.6380136013031006,STABILIZE
0.03,0.0,0.006,-0.10329473456538445,-0.004477767815643637,-0.0,0.000544764142005797,-0.003933003673637841,0.03,0.0,0.006,-0.10479992480518815,-0.004943678992975624,-0.0,0.00032995389576891495,-0.00461372509720671,0.25,0,0,-0.09471574075799236,-0.03274828974418084,-0.0,0.0,-0.03274828974418084,0.002,8e-05,0.0,-0.28665575861373194,-0.0013432630710409777,-2.2932460689098557e-05,-0.0,-0.0013661955317300764,-0.16478929976585416,0.0,0.16478929976585416,-0.14925892718812125,0.0,0.14925892718812125,-0.6716315355204888,0.0,0.6716315355204888,-0.13099315897672337,0,0.13099315897672337,-0.003943541569567724,0.004604721170552583,0.03274828974418084,0.4,0.033455610275268555,0.671442985534668,STABILIZE
0.03,0.0,0.006,-0.10812058718874316,-0.0043286887664538976,-0.0,0.0008914719061494052,-0.0034372168603044925,0.03,0.0,0.006,-0.11028075537773155,-0.004916190273894764,-0.0,0.00016437870331082632,-0.004751811570583938,0.25,0,0,-0.09900694499025828,-0.032076002944464777,-0.0,0.0,-0.032076002944464777,0.002,8e-05,0.0,-0.3095066158838709,-0.001366449370215109,-2.4760529270709674e-05,-0.0,-0.0013912098994858187,-0.16387300912982547,0.0,0.16387300912982547,-0.14428962554846325,0.0,0.14428962554846325,-0.6832246851075545,0.0,0.6832246851075545,-0.1283040117778591,0,0.1283040117778591,-0.0034478490953852997,0.004744102608770982,0.032076002944464777,0.4,0.03344559669494629,0.7048947811126709,STABILIZE
0.03,0.0,0.006,-0.11276252861623609,-0.004153214005752288,-0.0,0.0010466658475920862,-0.0031065481581602017,0.03,0.0,0.006,-0.1157208973093064,-0.004867375863400295,-0.0,0.00029116652520633576,-0.004576209338193959,0.25,0,0,-0.10323230376234381,-0.03150409425608207,-0.0,0.0,-0.03150409425608207,0.002,8e-05,0.0,-0.33301138351533044,-0.0014020043359552496,-2.6640910681226436e-05,-0.0,-0.001428645246636476,-0.1622458621133432,0.0,0.1622458621133432,-0.1384404668584096,0.0,0.1384404668584096,-0.7010021679776248,0.0,0.7010021679776248,-0.12601637702432827,0,0.12601637702432827,-0.003116605554275783,0.004569365731149071,0.03150409425608207,0.4,0.033530235290527344,0.7384188175201416,STABILIZE
0.03,0.0,0.006,-0.11733607717212169,-0.004100886398429116,-0.0,0.00031279806844627034,-0.0037880883299828455,0.03,0.0,0.006,-0.12090607867977873,-0.0046493088453590575,-0.0,0.0013035364222535625,-0.003345772423105495,0.25,0,0,-0.10740715527997621,-0.03119494559297179,-0.0,0.0,-0.03119494559297179,0.002,8e-05,0.0,-0.3569208362704307,-0.0014292322966754283,-2.8553666901634457e-05,-0.0,-0.0014577859635770628,-0.1549769615119686,0.0,0.1549769615119686,-0.13669621328097054,0.0,0.13669621328097054,-0.7146161483377141,0.0,0.7146161483377141,-0.12477978237188717,0,0.12477978237188717,-0.0037953658245292415,0.0033375147282013466,0.03119494559297179,0.4,0.03345775604248047,0.7718789577484131,STABILIZE
0.03,0.0,0.006,-0.12180228610863697,-0.004005296454381782,-0.0,0.0005715004521128482,-0.0034337960022689344,0.03,0.0,0.006,-0.125972276848713,-0.004543366835645693,-0.0,0.0006333920063699476,-0.003909974829275745,0.25,0,0,-0.11142520216897576,-0.03002820585051279,-0.0,0.0,-0.03002820585051279,0.002,8e-05,0.0,-0.38113719947151514,-0.0014478157358367792,-3.0490975957721215e-05,-0.0,-0.0014783067117945005,-0.15144556118818978,0.0,0.15144556118818978,-0.13350988181272608,0.0,0.13350988181272608,-0.7239078679183896,0.0,0.7239078679183896,-0.12011282340205116,0,0.12011282340205116,-0.0034419851823625325,0.0039027677557298716,0.03002820585051279,0.4,0.03345227241516113,0.8053369522094727,STABILIZE
0.03,0.0,0.006,-0.1260307852202069,-0.0037532506745786864,-0.0,0.001491452748143005,-0.0022617979264356815,0.03,0.0,0.006,-0.13089621454487516,-0.004370527696018039,-0.0,0.00102275630238968,-0.0033477713936283593,0.25,0,0,-0.11533175731802754,-0.028895754659020875,-0.0,0.0,-0.028895754659020875,0.002,8e-05,0.0,-0.4063477563565355,-0.0014918065431507538,-3.2507820508522846e-05,-0.0,-0.0015243143636592767,-0.14568425653393463,0.0,0.14568425653393463,-0.12510835581928956,0.0,0.12510835581928956,-0.7459032715753768,0.0,0.7459032715753768,-0.1155830186360835,0,0.1155830186360835,-0.0022685467930536503,0.0033432018502853092,0.028895754659020875,0.4,0.0337986946105957,0.8391644954681396,STABILIZE
0.03,0.0,0.006,-0.1299623903119448,-0.0035251853329217025,-0.0,0.0013632644150798874,-0.002161920917841815,0.03,0.0,0.006,-0.13571723653981682,-0.004322661007326379,-0.0,0.00028612393661809314,-0.004036537070708286,0.25,0,0,-0.11904176448758345,-0.027720787808005513,-0.0,0.0,-0.027720787808005513,0.002,8e-05,0.0,-0.431642594366709,-0.00151200319583603,-3.4531407549336725e-05,-0.0,-0.0015465346033853666,-0.14408870024421264,0.0,0.14408870024421264,-0.11750617776405675,0.0,0.11750617776405675,-0.7560015979180149,0.0,0.7560015979180149,-0.11088315123202205,0,0.11088315123202205,-0.0021697286780673597,0.004032345600488169,0.027720787808005513,0.4,0.033458709716796875,0.8726122379302979,STABILIZE
0.03,0.0,0.006,-0.13376734896964024,-0.003311279554697796,-0.0,0.0012410153763116767,-0.002070264178386119,0.03,0.0,0.006,-0.1404106279509395,-0.004084441493316394,-0.0,0.0013820761752140684,-0.0027023653181023257,0.25,0,0,-0.12315703044903953,-0.02984438042174554,-0.0,-0.0,-0.02984438042174554,0.002,8e-05,0.0,-0.45783646488450624,-0.0015196876095453895,-3.66269171907605e-05,-0.0,-0.00155631452673615,-0.13614804977721315,0.0,0.13614804977721315,-0.11037598515659319,0.0,0.11037598515659319,-0.7598438047726948,0.0,0.7598438047726948,-0.11937752168698217,0,0.11937752168698217,-0.0020758901420916236,0.002698045996412562,0.02984438042174554,0.4,0.03447270393371582,0.907067060470581,STABILIZE
0.03,0.0,0.006,-0.1375438065774849,-0.003385834562526895,-0.0,-0.00044562205913616733,-0.0038314566216630626,0.03,0.0,0.006,-0.14505023441209808,-0.004159702436506179,-0.0,-0.0004498414989592655,-0.0046095439354654445,0.25,0,0,-0.12697963095144207,-0.028560038365234953,-0.0,0.0,-0.028560038365234953,0.002,8e-05,0.0,-0.4837685457690681,-0.0015499840477454486,-3.870148366152545e-05,-0.0,-0.001588685531406974,-0.1386567478835393,0.0,0.1386567478835393,-0.11286115208422984,0.0,0.11286115208422984,-0.7749920238727243,0.0,0.7749920238727243,-0.11424015346093981,0,0.11424015346093981,-0.0038406398162779015,0.004601895363683624,0.028560038365234953,0.4,0.03346109390258789,0.9405393600463867,STABILIZE
0.03,0.0,0.006,-0.14084693330116155,-0.002960535144160648,-0.0,0.0025412565733331756,-0.00041927857082747245,0.03,0.0,0.006,-0.15023920844043867,-0.004650787347310716,-0.0,-0.0029343392061074317,-0.0075851265534181474,0.25,0,0,-0.13069231853147248,-0.027730145251926554,-0.0,0.0,-0.027730145251926554,0.002,8e-05,0.0,-0.5100517938823698,-0.0015704812692444443,-4.0804143510589586e-05,-0.0,-0.001611285412755034,-0.15502624491035719,0.0,0.15502624491035719,-0.09868450480535494,0.0,0.09868450480535494,-0.7852406346222222,0.0,0.7852406346222222,-0.11092058100770621,0,0.11092058100770621,-0.0004339620450585901,0.007584300646386109,0.027730145251926554,0.4,0.03347158432006836,0.9740140438079834,STABILIZE
0.03,0.0,0.006,-0.14473585451888055,-0.003492064701631421,-0.0,-0.0031819203006057165,-0.006673985002237138,0.03,0.0,0.006,-0.1544776345100922,-0.003805903292891266,-0.0,0.0050577690113933794,0.0012518657185021133,0.25,0,0,-0.13371345285828173,-0.022606947511709594,-0.0,0.0,-0.022606947511709594,0.002,8e-05,0.0,-0.536729151206166,-0.0015969991441119008,-4.2938332096493285e-05,-0.0,-0.001639937476208394,-0.12686344309637554,0.0,0.12686344309637554,-0.11640215672104737,0.0,0.11640215672104737,-0.7984995720559503,0.0,0.7984995720559503,-0.09042779004683837,0,0.09042779004683837,-0.006672000917967514,-0.0012623974563851594,0.022606947511709594,0.4,0.03340935707092285,1.007422685623169,STABILIZE
0.03,0.0,0.006,-0.1477489941040952,-0.0027019526830960807,-0.0,0.004723412746190308,0.0020214600630942274,0.03,0.0,0.006,-0.15926151347708414,-0.004289816068892787,-0.0,-0.0028929059685069004,-0.007182722037399688,0.25,0,0,-0.1368465063454492,-0.02341235234469611,-0.0,-0.0,-0.02341235234469611,0.002,8e-05,0.0,-0.5639409465979521,-0.0016267635244753074,-4.511527572783618e-05,-0.0,-0.0016718788002031437,-0.1429938689630929,0.0,0.1429938689630929,-0.09006508943653603,0.0,0.09006508943653603,-0.8133817622376537,0.0,0.8133817622376537,-0.09364940937878444,0,0.09364940937878444,0.0020097172769026495,0.007186016498739134,0.02341235234469611,0.4,0.03345513343811035,1.0408995151519775,STABILIZE
0.03,0.0,0.006,-0.15013948251228357,-0.002141241584132124,-0.0,0.003348319720420455,0.0012070781362883308,0.03,0.0,0.006,-0.16400206055660166,-0.004246268881049135,-0.0,0.00026004462564620376,-0.0039862242554029315,0.25,0,0,-0.14041547955299943,-0.026640420072326802,-0.0,-0.0,-0.026640420072326802,0.002,8e-05,0.0,-0.59123980872978,-0.0016301678099458123,-4.7299184698382404e-05,-0.0,-0.0016774669946441948,-0.14154229603497118,0.0,0.14154229603497118,-0.07137471947107081,0.0,0.07137471947107081,-0.8150839049729062,0.0,0.8150839049729062,-0.10656168028930721,0,0.10656168028930721,0.001199662265029717,0.003988462346736113,0.026640420072326802,0.4,0.033492088317871094,1.0744140148162842,STABILIZE
0.03,0.0,0.006,-0.1532370764151217,-0.0027811136435160325,-0.0,-0.0038299767933358516,-0.0066110904368518845,0.03,0.0,0.006,-0.16819734958876834,-0.0037666575838626627,-0.0,0.0028707303453983078,-0.000895927238464355,0.25,0,0,-0.1430905536518618,-0.02001468803185705,-0.0,0.0,-0.02001468803185705,0.002,8e-05,0.0,-0.6185237789690666,-0.0016330916675303406,-4.9481902317525334e-05,-0.0,-0.0016825735698478659,-0.1255552527954221,0.0,0.1255552527954221,-0.09270378811720109,0.0,0.09270378811720109,-0.8165458337651703,0.0,0.8165458337651703,-0.0800587521274282,0,0.0800587521274282,-0.006612335851759586,0.0008866887641058945,0.02001468803185705,0.4,0.03341388702392578,1.1077921390533447,STABILIZE
0.03,0.0,0.006,-0.15614536327620904,-0.0026087282142473168,-0.0,0.0010308628516566992,-0.0015778653625906176,0.03,0.0,0.006,-0.17322070165589784,-0.0045059379949606215,-0.0,-0.00442088821538632,-0.008926826210346942,0.25,0,0,-0.1451333198776869,-0.015269647685387515,-0.0,0.0,-0.015269647685387515,0.002,8e-05,0.0,-0.6459830917478594,-0.001642063693884168,-5.1678647339828757e-05,-0.0,-0.0016937423412239968,-0.15019793316535404,0.0,0.15019793316535404,-0.08695760714157723,0.0,0.08695760714157723,-0.821031846942084,0.0,0.821031846942084,-0.06107859074155006,0,0.06107859074155006,-0.0015873806619333627,0.008925139098429805,0.015269647685387515,0.4,0.033444881439208984,1.1412672996520996,STABILIZE
0.03,0.0,0.006,-0.15866714804665338,-0.0022603768208975246,-0.0,0.0020816088253148303,-0.00017876799558269423,0.03,0.0,0.006,-0.1787359136883182,-0.004943505721236239,-0.0,-0.0026147300056114844,-0.0075582357268477235,0.25,0,0,-0.14730542945891842,-0.016224574381500493,-0.0,-0.0,-0.016224574381500493,0.002,8e-05,0.0,-0.673688727196436,-0.0016555781421204673,-5.3895098175714884e-05,-0.0,-0.0017094732402961822,-0.16478352404120797,0.0,0.16478352404120797,-0.0753458940299175,0.0,0.0753458940299175,-0.8277890710602336,0.0,0.8277890710602336,-0.06489829752600197,0,0.06489829752600197,-0.00018732900932006997,0.007558028389805713,0.016224574381500493,0.4,0.033469438552856445,1.1747303009033203,STABILIZE
0.03,0.0,0.006,-0.16087229312301335,-0.0019214277810296262,-0.0,0.0019689289638652524,4.750118283562612e-05,0.03,0.0,0.006,-0.18220834896483398,-0.0030256665104040383,-0.0,0.011140580813315433,0.008114914302911395,0.25,0,0,-0.1493665340829523,-0.014965998256694328,-0.0,0.0,-0.014965998256694328,0.002,8e-05,0.0,-0.7022655657055734,-0.0016600066210032455,-5.618124525644588e-05,-0.0,-0.0017161878662596912,-0.10085555034680128,0.0,0.10085555034680128,-0.06404759270098755,0.0,0.06404759270098755,-0.8300033105016227,0.0,0.8300033105016227,-0.059863993026777314,0,0.059863993026777314,5.597981081571103e-05,-0.008114860243204916,0.014965998256694328,0.4,0.03442978858947754,1.2091412544250488,STABILIZE
0.03,0.0,0.006,-0.16275275356055208,-0.001687010238633889,-0.0,0.0014020140537304257,-0.00028499618490346323,0.03,0.0,0.006,-0.1852077832213148,-0.002690870916388615,-0.0,0.0020023592225203095,-0.0006885116938683054,0.25,0,0,-0.15021796474331436,-0.006365339275619273,-0.0,0.0,-0.006365339275619273,0.002,8e-05,0.0,-0.7303574365609372,-0.001680130135837327,-5.842859492487498e-05,-0.0,-0.001738558730762202,-0.08969569721295383,0.0,0.08969569721295383,-0.05623367462112964,0.0,0.05623367462112964,-0.8400650679186635,0.0,0.8400650679186635,-0.025461357102477093,0,0.025461357102477093,-0.00028530212068730696,0.0006883849779986904,0.006365339275619273,0.4,0.03344011306762695,1.242603063583374,STABILIZE
0.03,0.0,0.006,-0.16346879777392304,-0.0006418100001393316,-0.0,0.006245610282040812,0.00560380028190148,0.03,0.0,0.006,-0.18750200341986256,-0.0020563722720663485,-0.0,0.0037914565180619574,0.0017350842459956089,0.25,0,0,-0.15211037947502487,-0.014135192079654158,-0.0,-0.0,-0.014135192079654158,0.002,8e-05,0.0,-0.7585973928830074,-0.0016874829824335504,-6.06877914306406e-05,-0.0,-0.001748170773864191,-0.06854574240221162,0.0,0.06854574240221162,-0.021393666671311054,0.0,0.021393666671311054,-0.8437414912167752,0.0,0.8437414912167752,-0.05654076831861663,0,0.05654076831861663,0.0056055097733734805,-0.0017295534454753489,0.014135192079654158,0.4,0.03346991539001465,1.2760593891143799,STABILIZE
0.03,0.0,0.006,-0.16449361907290372,-0.0009188567921333687,-0.0,-0.0016560046570439756,-0.002574861449177344,0.03,0.0,0.006,-0.18963990816519777,-0.0019168495991830877,-0.0,0.0008339753526648892,-0.0010828742465181984,0.25,0,0,-0.1525040677610071,-0.0029415140954974633,-0.0,0.0,-0.0029415140954974633,0.002,8e-05,0.0,-0.7867121853973038,-0.0016805185506895137,-6.293697483178431e-05,0.0,-0.001743455525521298,-0.06389498663943625,0.0,0.06389498663943625,-0.030628559737778956,0.0,0.030628559737778956,-0.8402592753447569,0.0,0.8402592753447569,-0.011766056381989853,0,0.011766056381989853,-0.002575083770065939,0.0010823454593497396,0.0029415140954974633,0.4,0.03345966339111328,1.3095271587371826,STABILIZE
0.03,0.0,0.006,-0.16598599109604825,-0.0013360644495545775,-0.0,-0.0024900686536498133,-0.003826133103204391,0.03,0.0,0.006,-0.19314055892936327,-0.0031340007476504668,-0.0,-0.007264463793128884,-0.010398464540779351,0.25,0,0,-0.15241626324788962,0.0006550672724773502,-0.0,0.0,0.0006550672724773502,0.002,8e-05,0.0,-0.8153580186231808,-0.0017097023533636222,-6.522864148985447e-05,-0.0,-0.0017749309948534766,-0.1044666915883489,0.0,0.1044666915883489,-0.04453548165181925,0.0,0.04453548165181925,-0.8548511766818111,0.0,0.8548511766818111,0.002620269089909401,0,-0.002620269089909401,-0.003825657553265365,0.010398639507859941,-0.0006550672724773502,0.4,0.03350973129272461,1.343064308166504,STABILIZE
0.03,0.0,0.006,-0.16795355647470614,-0.0017685336105363887,-0.0,-0.0025914810083329585,-0.004360014618869347,0.03,0.0,0.006,-0.19801359413077307,-0.004380096657778551,-0.0,-0.007466969155273757,-0.011847065813052308,0.25,0,0,-0.15185222642238327,0.0042248409053656875,-0.0,0.0,0.0042248409053656875,0.002,8e-05,0.0,-0.844366279217441,-0.0017382593534330723,-6.754930233739529e-05,-0.0,-0.0018058086557704676,-0.14600322192595172,0.0,0.14600322192595172,-0.05895112035121296,0.0,0.05895112035121296,-0.8691296767165362,0.0,0.8691296767165362,0.01689936362146275,0,-0.01689936362146275,-0.004356520142697126,0.011848351282006344,-0.0042248409053656875,0.4,0.033376216888427734,1.3764152526855469,STABILIZE
0.03,0.0,0.006,-0.16812113231874543,-0.0001458879924497227,-0.0,0.009417606817066283,0.00927171882461656,0.03,0.0,0.006,-0.2031585824641685,-0.0044791182371149915,-0.0,-0.0005747073114431084,-0.0050538255485581,0.25,0,0,-0.15298241514638905,-0.00819932038235093,-0.0,-0.0,-0.00819932038235093,0.002,8e-05,0.0,-0.8744004479983654,-0.0017431408898122402,-6.995203583986924e-05,-0.0,-0.0018130929256521093,-0.1493039412371664,0.0,0.1493039412371664,-0.004862933081657424,0.0,0.004862933081657424,-0.8715704449061201,0.0,0.8715704449061201,-0.03279728152940372,0,0.03279728152940372,0.009268824392172414,0.005059132042660812,0.00819932038235093,0.4,0.034459829330444336,1.410973310470581,STABILIZE
0.03,0.0,0.006,-0.16854583175857688,-0.0003809573684815416,-0.0,-0.001405722141431257,-0.0017866795099127986,0.03,0.0,0.006,-0.20581777718436461,-0.0023853100048541174,-0.0,0.0125210380088036,0.010135728003949483,0.25,0,0,-0.15210387656097524,0.006567109902114185,-0.0,0.0,0.006567109902114185,0.002,8e-05,0.0,-0.9034396136610011,-0.0017365510909907664,-7.22751690928801e-05,0.0,-0.0018088262600836464,-0.07951033349513725,0.0,0.07951033349513725,-0.01269857894938472,0.0,0.01269857894938472,-0.8682755454953832,0.0,0.8682755454953832,0.02626843960845674,0,-0.02626843960845674,-0.001791326256900551,-0.010134907798422573,-0.006567109902114185,0.4,0.03344464302062988,1.444319486618042,STABILIZE
0.03,0.0,0.006,-0.16934664625090107,-0.0007178225980922824,-0.0,-0.0020130294564170035,-0.0027308520545092857,0.03,0.0,0.006,-0.20752508099372266,-0.0015303684784841582,-0.0,0.005108934745463469,0.0035785662669793102,0.25,0,0,-0.15405972681088198,-0.014609641405972535,-0.0,-0.0,-0.014609641405972535,0.002,8e-05,0.0,-0.932340077025583,-0.0017270254969392288,-7.458720616204665e-05,0.0,-0.0018016127031012755,-0.051012282616138604,0.0,0.051012282616138604,-0.023927419936409414,0.0,0.023927419936409414,-0.8635127484696143,0.0,0.8635127484696143,-0.05843856562389014,0,0.05843856562389014,-0.0027272006925731095,-0.003581349725062965,0.014609641405972535,0.4,0.03346848487854004,1.4777894020080566,STABILIZE
0.03,0.0,0.006,-0.17053676809080767,-0.0010680701800769555,-0.0,-0.0020955221301332907,-0.003163592310210246,0.03,0.0,0.006,-0.20826908995048027,-0.0006677079218085027,-0.0,0.005161275567024603,0.0044935676452161006,0.25,0,0,-0.15890242385541767,-0.03621716233147227,-0.0,-0.0,-0.03621716233147227,0.002,8e-05,0.0,-0.9610271189663503,-0.0017163382226453303,-7.688216951730803e-05,0.0,-0.0017932203921626384,-0.02225693072695009,0.0,0.02225693072695009,-0.035602339335898514,0.0,0.035602339335898514,-0.8581691113226652,0.0,0.8581691113226652,-0.14486864932588908,0,0.14486864932588908,-0.003152220516604345,-0.004501552210299577,0.03621716233147227,0.4,0.033428192138671875,1.511218786239624,STABILIZE
0.03,0.0,0.006,-0.17235032747112503,-0.001622572389740306,-0.0,-0.003307381734925812,-0.004929954124666118,0.03,0.0,0.006,-0.20307077026718526,0.004650881621357302,-0.0,0.03172323861669299,0.03637412023805029,0.25,0,0,-0.16330882582793838,-0.03285301020149223,-0.0,0.0,-0.03285301020149223,0.002,8e-05,0.0,-0.9905747422789811,-0.0017623963971936949,-7.92459793823185e-05,-0.0,-0.0018416423765760133,0.15502938737857674,0.0,-0.15502938737857674,-0.05408574632467687,0.0,0.05408574632467687,-0.8811981985968474,0.0,0.8811981985968474,-0.1314120408059689,0,0.1314120408059689,-0.004846514538467191,-0.03638533176421342,0.03285301020149223,0.4,0.03353118896484375,1.5447478294372559,STABILIZE
0.03,0.0,0.006,-0.17317074699008167,-0.0007340467600607034,-0.0,0.005299884954197287,0.0045658381941365836,0.03,0.0,0.006,-0.19901546542745638,0.0036283673290064705,-0.0,-0.00609910162685571,-0.0024707342978492392,0.25,0,0,-0.16908205000198298,-0.04304521855528855,-0.0,-0.0,-0.04304521855528855,0.002,8e-05,0.0,-1.0199942575887648,-0.0017548176590733006,-8.159954060710119e-05,0.0,-0.0018364171996804017,0.12094557763354902,0.0,-0.12094557763354902,-0.02446822533535678,0.0,0.02446822533535678,-0.8774088295366502,0.0,0.8774088295366502,-0.1721808742211542,0,0.1721808742211542,0.004558392727950192,0.002484444027016064,0.04304521855528855,0.4,0.03352999687194824,1.578277587890625,STABILIZE
0.03,0.0,0.006,-0.17454070464443644,-0.0012282629668654093,-0.0,-0.0029539962422114154,-0.004182259209076824,0.03,0.0,0.006,-0.19643919987107392,0.002309802471380636,-0.0,-0.007881238172502714,-0.005571435701122078,0.25,0,0,-0.1725086605869233,-0.0256016361161022,-0.0,0.0,-0.0256016361161022,0.002,8e-05,0.0,-1.0490012254834835,-0.0017337851931837978,-8.392009803867869e-05,0.0,-0.0018177052912224764,0.07699341571268788,0.0,-0.07699341571268788,-0.040942098895513646,0.0,0.040942098895513646,-0.8668925965918989,0.0,0.8668925965918989,-0.1024065444644088,0,0.1024065444644088,-0.004192210525392152,0.00556395172287079,0.0256016361161022,0.4,0.03346085548400879,1.6117439270019531,STABILIZE
0.03,0.0,0.006,-0.1764662601770747,-0.0017268752454136231,-0.0,-0.0029811005578719196,-0.004707975803285543,0.03,0.0,0.006,-0.19529195231282634,0.00102887368092912,-0.0,-0.007658410544817694,-0.006629536863888574,0.25,0,0,-0.17362146306679496,-0.008316522266573766,-0.0,0.0,-0.008316522266573766,0.002,8e-05,0.0,-1.0778020065642595,-0.0017219396360843135,-8.622416052514077e-05,0.0,-0.0018081637966094542,0.034295789364304004,0.0,-0.034295789364304004,-0.05756250818045411,0.0,0.05756250818045411,-0.8609698180421568,0.0,0.8609698180421568,-0.033266089066295065,0,0.033266089066295065,-0.0047118241370972275,0.006626802282779204,0.008316522266573766,0.4,0.03345155715942383,1.6452209949493408,STABILIZE
0.03,0.0,0.006,-0.1783546552179444,-0.0016905848810760443,-0.0,0.00021659289131789524,-0.0014739919897581492,0.03,0.0,0.006,-0.192312623176893,0.002667243179498365,-0.0,0.009778330783378362,0.012445573962876728,0.25,0,0,-0.17543713523407958,-0.013545664654239349,-0.0,-0.0,-0.013545664654239349,0.002,8e-05,0.0,-1.1065678094759994,-0.0017168382124184956,-8.852542475807996e-05,0.0,-0.0018053636371765755,0.08890810598327883,0.0,-0.08890810598327883,-0.05635282936920148,0.0,0.05635282936920148,-0.8584191062092478,0.0,0.8584191062092478,-0.054182658616957396,0,0.054182658616957396,-0.0014622219788908563,-0.012446962301531842,0.013545664654239349,0.4,0.03351020812988281,1.6787114143371582,STABILIZE
0.03,0.0,0.006,-0.18088675647160474,-0.0022729106742782335,-0.0,-0.0034847856350227768,-0.00575769630930101,0.03,0.0,0.006,-0.1911511124749439,0.0010426163128082536,-0.0,-0.00972218032139965,-0.008679564008591397,0.25,0,0,-0.17591178563784732,-0.0035505359027890315,-0.0,0.0,-0.0035505359027890315,0.002,8e-05,0.0,-1.135135118535014,-0.001709540422255432,-9.081080948280114e-05,0.0,-0.0018003512317382332,0.03475387709360846,0.0,-0.03475387709360846,-0.07576368914260778,0.0,0.07576368914260778,-0.854770211127716,0.0,0.854770211127716,-0.014202143611156126,0,0.014202143611156126,-0.005759847572095236,0.008678136557787177,0.0035505359027890315,0.4,0.03342103958129883,1.7121388912200928,STABILIZE
0.03,0.0,0.006,-0.18411275922083445,-0.002860904008493775,-0.0,-0.003476319597529842,-0.006337223606023617,0.03,0.0,0.006,-0.19184655237704598,-0.0006167343794314529,-0.0,-0.009810371980327685,-0.010427106359759138,0.25,0,0,-0.17502760310913887,0.0065343025028578045,-0.0,0.0,0.0065343025028578045,0.002,8e-05,0.0,-1.163919695314744,-0.0017017946045166648,-9.311357562517952e-05,0.0,-0.0017949081801418444,-0.0205578126477151,0.0,0.0205578126477151,-0.0953634669497925,0.0,0.0953634669497925,-0.8508973022583324,0.0,0.8508973022583324,0.026137210011431218,0,-0.026137210011431218,-0.006332466305540885,0.010429996191737647,-0.0065343025028578045,0.4,0.0338284969329834,1.7459726333618164,STABILIZE
0.03,0.0,0.006,-0.18680273307460066,-0.002410204314041443,-0.0,0.0026921658151318317,0.00028196150109038864,0.03,0.0,0.006,-0.19076809902947167,0.0009662892846251214,-0.0,0.009455879924872214,0.010422169209497335,0.25,0,0,-0.17527831719925713,-0.0018719890181211635,-0.0,-0.0,-0.0018719890181211635,0.002,8e-05,0.0,-1.1925321183787279,-0.0017091067113890461,-9.540256947029823e-05,-0.0,-0.0018045092808593444,0.03220964282083738,0.0,-0.03220964282083738,-0.08034014380138144,0.0,0.08034014380138144,-0.8545533556945231,0.0,0.8545533556945231,-0.007487956072484654,0,0.007487956072484654,0.00028332356663340804,-0.010422132271089327,0.0018719890181211635,0.4,0.03348231315612793,1.7794523239135742,STABILIZE
0.03,0.0,0.006,-0.18956134652250536,-0.0024751419179265114,-0.0,-0.0003884313344631459,-0.0028635732523896573,0.03,0.0,0.006,-0.18800652148382405,0.0024778014288405663,-0.0,0.009041274147934139,0.011519075576774705,0.25,0,0,-0.17687162919139157,-0.011913211034400737,-0.0,-0.0,-0.011913211034400737,0.002,8e-05,0.0,-1.2212716771066205,-0.0017190879368316548,-9.770173416852965e-05,-0.0,-0.0018167896710001845,0.08259338096135221,0.0,-0.08259338096135221,-0.08250473059755038,0.0,0.08250473059755038,-0.8595439684158274,0.0,0.8595439684158274,-0.04765284413760295,0,0.04765284413760295,-0.002853991859131796,-0.011521453223585052,0.011913211034400737,0.4,0.033435821533203125,1.8128912448883057,STABILIZE
0.03,0.0,0.006,-0.19283342641214526,-0.002933586036730751,-0.0,-0.002740123124343913,-0.005673709161074664,0.03,0.0,0.006,-0.1858792392794474,0.0019072166882917571,-0.0,-0.0034103882629219276,-0.0015031715746301705,0.25,0,0,-0.1773218122381484,-0.0033634333117401882,-0.0,0.0,-0.0033634333117401882,0.002,8e-05,0.0,-1.2500656055329054,-0.0017210147515330466,-0.00010000524844263244,-0.0,-0.001821019999975679,0.06357388960972524,0.0,-0.06357388960972524,-0.09778620122435837,0.0,0.09778620122435837,-0.8605073757665233,0.0,0.8605073757665233,-0.013453733246960753,0,0.013453733246960753,-0.005674061967293134,0.0015018392785369197,0.0033634333117401882,0.4,0.033461570739746094,1.846376657485962,STABILIZE
0.03,0.0,0.006,-0.19659397163872366,-0.0033684719457594556,-0.0,-0.0025969655921448394,-0.0059654375379042945,0.03,0.0,0.006,-0.18292488647718994,0.002646332893949755,-0.0,0.004413707859556736,0.007060040753506491,0.25,0,0,-0.17832556340613528,-0.007492503183648254,-0.0,-0.0,-0.007492503183648254,0.002,8e-05,0.0,-1.2788687524531497,-0.0017200093161084714,-0.00010230950019625198,0.0,-0.0018223188163047233,0.08821109646499183,0.0,-0.08821109646499183,-0.11228239819198185,0.0,0.11228239819198185,-0.8600046580542356,0.0,0.8600046580542356,-0.029970012734593016,0,0.029970012734593016,-0.005961743788342693,-0.007063160161143698,0.007492503183648254,0.4,0.03349184989929199,1.8798751831054688,STABILIZE
0.03,0.0,0.006,-0.20101931270060888,-0.003962151228604742,-0.0,-0.0035436019763270175,-0.0075057532049317595,0.03,0.0,0.006,-0.1790085685399364,0.0035064063333653155,-0.0,0.005133677437913239,0.008640083771278555,0.25,0,0,-0.17898305990462707,-0.0049056493101738334,-0.0,0.0,-0.0049056493101738334,0.002,8e-05,0.0,-1.3086819448023537,-0.0017795144681979531,-0.0001046945555841883,-0.0,-0.0018842090237821414,0.11688021111217718,0.0,-0.11688021111217718,-0.13207170762015805,0.0,0.13207170762015805,-0.8897572340989766,0.0,0.8897572340989766,-0.019622597240695334,0,0.019622597240695334,-0.00750279371816588,-0.008642653826846534,0.0049056493101738334,0.4,0.03350710868835449,1.9133615493774414,STABILIZE
0.03,0.0,0.006,-0.20579596752150073,-0.004279434333149948,-0.0,-0.0018950391879278303,-0.006174473521077778,0.03,0.0,0.006,-0.17451017373369027,0.004030139480398745,-0.0,0.003128104911441029,0.007158244391839774,0.25,0,0,-0.1792957659683643,-0.002334627327281365,-0.0,0.0,-0.002334627327281365,0.002,8e-05,0.0,-1.3382653273493954,-0.0017669289172665898,-0.00010706122618795164,0.0,-0.0018739901434545415,0.1343379826799582,0.0,-0.1343379826799582,-0.14264781110499827,0.0,0.14264781110499827,-0.8834644586332949,0.0,0.8834644586332949,-0.00933850930912546,0,0.00933850930912546,-0.0061733067330328375,-0.007159250660207927,0.002334627327281365,0.4,0.03348565101623535,1.9468979835510254,STABILIZE
0.03,0.0,0.006,-0.20991115328465826,-0.0036874240042060625,-0.0,0.003536483686398038,-0.0001509403178080247,0.03,0.0,0.006,-0.17099142258396458,0.0031529870584433815,-0.0,-0.005239832954035681,-0.0020868458955922995,0.25,0,0,-0.1795423797168322,-0.0018414913044127825,-0.0,0.0,-0.0018414913044127825,0.002,8e-05,0.0,-1.3674653948699103,-0.0017443202825910451,-0.00010939723158959284,0.0,-0.001853717514180638,0.10509956861477938,0.0,-0.10509956861477938,-0.12291413347353543,0.0,0.12291413347353543,-0.8721601412955226,0.0,0.8721601412955226,-0.00736596521765113,0,0.00736596521765113,-0.00015120860218955796,0.0020868264734074785,0.0018414913044127825,0.4,0.033480167388916016,1.9803366661071777,STABILIZE
0.03,0.0,0.006,-0.21407378540710978,-0.003737310554137428,-0.0,-0.00029859557460035484,-0.004035906128737783,0.03,0.0,0.006,-0.16678115922004208,0.0037800750205182134,-0.0,0.0037534303458209703,0.007533505366339184,0.25,0,0,-0.17978290645424228,-0.0017995887534445428,-0.0,0.0,-0.0017995887534445428,0.002,8e-05,0.0,-1.396306430998218,-0.0017262780782896217,-0.00011170451447985745,0.0,-0.001837982592769479,0.12600250068394045,0.0,-0.12600250068394045,-0.12457701847124761,0.0,0.12457701847124761,-0.8631390391448108,0.0,0.8631390391448108,-0.007198355013778171,0,0.007198355013778171,-0.004034959624974154,-0.007534012357932054,0.0017995887534445428,0.4,0.03341412544250488,2.013742685317993,STABILIZE
0.03,0.0,0.006,-0.21772324397684098,-0.003274515001787952,-0.0,0.0027683211084116414,-0.0005061938933763107,0.03,0.0,0.006,-0.1625884563164349,0.0037619466815629063,-0.0,-0.00010843894919828519,0.003653507732364621,0.25,0,0,-0.18021535990508714,-0.003233528310453793,-0.0,-0.0,-0.003233528310453793,0.002,8e-05,0.0,-1.4245765944262216,-0.0016910467215746057,-0.00011396612755409774,0.0,-0.0018050128491287035,0.12539822271876355,0.0,-0.12539822271876355,-0.10915050005959841,0.0,0.10915050005959841,-0.8455233607873028,0.0,0.8455233607873028,-0.012934113241815173,0,0.012934113241815173,-0.0005053691271940746,-0.0036536219089307316,0.003233528310453793,0.4,0.03343510627746582,2.047184467315674,STABILIZE
0.03,0.0,0.006,-0.2218841887456316,-0.003717572343900175,-0.0,-0.002638980349130429,-0.006356552693030604,0.03,0.0,0.006,-0.15883618453921353,0.003352445793182146,-0.0,-0.0024391082026455958,0.0009133375905365504,0.25,0,0,-0.18000747301971423,0.0015477945888606854,-0.0,0.0,0.0015477945888606854,0.002,8e-05,0.0,-1.4529699533034361,-0.0016911922904958468,-0.0001162375962642749,-0.0,-0.0018074298867601216,0.11174819310607155,0.0,-0.11174819310607155,-0.12391907813000584,0.0,0.12391907813000584,-0.8455961452479234,0.0,0.8455961452479234,0.0061911783554427415,0,-0.0061911783554427415,-0.006356651347935071,-0.000912650718707314,-0.0015477945888606854,0.4,0.033577919006347656,2.080747604370117,STABILIZE
0.03,0.0,0.006,-0.2259087861069309,-0.003600995117197582,-0.0,0.0006953805750760414,-0.0029056145421215407,0.03,0.0,0.006,-0.15444182492331485,0.003931838665956072,-0.0,0.0034560656524481345,0.0073879043184042065,0.25,0,0,-0.18002242927101153,-0.00011151713463109772,-0.0,-0.0,-0.00011151713463109772,0.002,8e-05,0.0,-1.4813378935645807,-0.0016921413530314,-0.00011850703148516647,-0.0,-0.0018106483845165664,0.1310612888652024,0.0,-0.1310612888652024,-0.12003317057325273,0.0,0.12003317057325273,-0.8460706765157,0.0,0.8460706765157,-0.00044606853852439086,0,0.00044606853852439086,-0.0029055570245040937,-0.007387926939449159,0.00011151713463109772,0.4,0.033529043197631836,2.114309072494507,STABILIZE
0.03,0.0,0.006,-0.22974831563950035,-0.003446188573426415,-0.0,0.0009263158202246659,-0.002519872753201749,0.03,0.0,0.006,-0.14994299783292936,0.004037944331771417,-0.0,0.0006349044069190768,0.004672848738690494,0.25,0,0,-0.1802041848992218,-0.0013594638001456253,-0.0,-0.0,-0.0013594638001456253,0.002,8e-05,0.0,-1.5094457852799434,-0.0016818917427411611,-0.00012075566282239549,0.0,-0.0018026474055635566,0.13459814439238055,0.0,-0.13459814439238055,-0.11487295244754717,0.0,0.11487295244754717,-0.8409458713705805,0.0,0.8409458713705805,-0.005437855200582501,0,0.005437855200582501,-0.0025194292488940257,-0.0046730878749310055,0.0013594638001456253,0.4,0.03342413902282715,2.1477386951446533,STABILIZE
0.03,0.0,0.006,-0.2338453967262216,-0.0036746816142699725,-0.0,-0.0013662396201981541,-0.005040921234468127,0.03,0.0,0.006,-0.14606675693515134,0.0034766095320181148,-0.0,-0.0033564166365313624,0.00012019289548675233,0.25,0,0,-0.1796545834806559,0.004107823320294888,-0.0,0.0,0.004107823320294888,0.002,8e-05,0.0,-1.5375925082973347,-0.001682990782701004,-0.0001230074006637868,-0.0,-0.0018059981833647906,0.11588698440060383,0.0,-0.11588698440060383,-0.12248938714233243,0.0,0.12248938714233243,-0.841495391350502,0.0,0.841495391350502,0.01643129328117955,0,-0.01643129328117955,-0.005040955496116528,-0.0001187472543249765,-0.004107823320294888,0.4,0.03344845771789551,2.1811671257019043,STABILIZE
0.03,0.0,0.006,-0.23822209651015167,-0.003903242439798927,-0.0,-0.0013589056569605577,-0.0052621480967594845,0.03,0.0,0.006,-0.1428104308485016,0.002904067175432911,-0.0,-0.0034040437393966297,-0.0004999765639637187,0.25,0,0,-0.17836302612438945,0.009598673535030078,-0.0,0.0,0.009598673535030078,0.002,8e-05,0.0,-1.5659182913829621,-0.0016841060485240694,-0.00012527346331063697,-0.0,-0.0018093795118347064,0.09680223918109704,0.0,-0.09680223918109704,-0.1301080813266309,0.0,0.1301080813266309,-0.8420530242620347,0.0,0.8420530242620347,0.03839469414012031,0,-0.03839469414012031,-0.005261811874084904,0.0005035026896467778,-0.009598673535030078,0.4,0.033638954162597656,2.2148375511169434,STABILIZE
0.03,0.0,0.006,-0.24231865410686573,-0.003671882701655807,-0.0,0.0013825035618991617,-0.002289379139756645,0.03,0.0,0.006,-0.138848749485347,0.0035509885857598743,-0.0,0.0038657164864726572,0.007416705072232532,0.25,0,0,-0.17772572513896578,0.004760286347904965,-0.0,-0.0,0.004760286347904965,0.002,8e-05,0.0,-1.5940791505649716,-0.0016827685075086452,-0.00012752633204519775,0.0,-0.001810294839553843,0.11836628619199581,0.0,-0.11836628619199581,-0.12239609005519357,0.0,0.12239609005519357,-0.8413842537543226,0.0,0.8413842537543226,0.01904114539161986,0,-0.01904114539161986,-0.0022918438119307848,-0.007415943831755147,-0.004760286347904965,0.4,0.03346967697143555,2.2482972145080566,STABILIZE
0.03,0.0,0.006,-0.24816470110420238,-0.003671882701655807,-0.0,0.0,-0.003671882701655807,0.03,0.0,0.006,-0.1331951794107918,0.0035509885857598743,-0.0,0.0,0.0035509885857598743,0.25,0,0,-0.17681625629243372,0.004760286347904965,-0.0,0.0,0.004760286347904965,0.002,8e-05,0.0,-1.6342664791638568,-0.0016827685075086452,-0.00013074131833310854,0.0,-0.0018135098258417537,0.11836628619199581,0.0,-0.11836628619199581,-0.12239609005519357,0.0,0.12239609005519357,-0.8413842537543226,0.0,0.8413842537543226,0.01904114539161986,0,-0.01904114539161986,-0.003673062601318886,-0.0035497681104134948,-0.004760286347904965,0.4,0.04776334762573242,2.2960638999938965,STABILIZE
0.03,0.0,0.006,-0.2526661542544064,-0.003993076360153409,-0.0,-0.0018994618877977622,-0.005892538247951171,0.03,0.0,0.006,-0.12980948714403187,0.0030033252156674074,-0.0,-0.003238749182345048,-0.0002354239666776405,0.25,0,0,-0.17475957675063045,0.015203383930982407,-0.0,0.0,0.015203383930982407,0.002,8e-05,0.0,-1.6629907793849186,-0.0016986858887182885,-0.00013303926235079349,-0.0,-0.001831725151069082,0.10011084052224692,0.0,-0.10011084052224692,-0.13310254533844695,0.0,0.13310254533844695,-0.8493429443591443,0.0,0.8493429443591443,0.060813535723929626,0,-0.060813535723929626,-0.005892285050685115,0.00024167815194262973,-0.015203383930982407,0.4,0.03381943702697754,2.3298652172088623,STABILIZE
0.03,0.0,0.006,-0.25775752129322804,-0.004063879995254682,-0.0,-0.00037676518452428744,-0.0044406451797789695,0.03,0.0,0.006,-0.12588156884188365,0.0031352264508491046,-0.0,0.0007018819463313094,0.003837108397180414,0.25,0,0,-0.1731097406791008,0.010974026810833867,-0.0,-0.0,0.010974026810833867,0.002,8e-05,0.0,-1.6954466077469055,-0.0017270619148581933,-0.00013563572861975245,-0.0,-0.0018626976434779458,0.10450754836163682,0.0,-0.10450754836163682,-0.1354626665084894,0.0,0.1354626665084894,-0.8635309574290967,0.0,0.8635309574290967,0.04389610724333547,0,-0.04389610724333547,-0.004443583606252659,-0.0038337051528057374,-0.010974026810833867,0.4,0.03758502006530762,2.3674802780151367,STABILIZE
0.03,0.0,0.006,-0.2627756695138536,-0.004169528157415724,-0.0,-0.0005852132002254495,-0.0047547413576411734,0.03,0.0,0.006,-0.12154664154954588,0.0036018468588596367,-0.0,0.0025847342412459225,0.006186581100105559,0.25,0,0,-0.1718182040862433,0.008942704814427802,-0.0,-0.0,0.008942704814427802,0.002,8e-05,0.0,-1.726527048685141,-0.0017216280845621663,-0.0001381221638948113,0.0,-0.0018597502484569775,0.12006156196198789,0.0,-0.12006156196198789,-0.13898427191385748,0.0,0.13898427191385748,-0.8608140422810832,0.0,0.8608140422810832,0.03577081925771121,0,-0.03577081925771121,-0.0047586028282328875,-0.006183611421279696,-0.008942704814427802,0.4,0.03610587120056152,2.403731346130371,STABILIZE
0.03,0.0,0.006,-0.2671347753897742,-0.003907297076869865,-0.0,0.0015670105500934191,-0.002340286526776446,0.03,0.0,0.006,-0.11804240761672752,0.003141030154372619,-0.0,-0.002753695847522374,0.0003873343068502449,0.25,0,0,-0.17086993406295067,0.007083204666966441,-0.0,-0.0,0.007083204666966441,0.002,8e-05,0.0,-1.7550871171443627,-0.00170665996165791,-0.00014040696937154902,0.0,-0.001847066931029459,0.10470100514575396,0.0,-0.10470100514575396,-0.13024323589566217,0.0,0.13024323589566217,-0.853329980828955,0.0,0.853329980828955,0.028332818667865765,0,-0.028332818667865765,-0.002340477777823371,-0.0003861769855772057,-0.007083204666966441,0.4,0.03346896171569824,2.4370527267456055,STABILIZE
0.03,0.0,0.006,-0.2718869016490828,-0.004262010886304934,-0.0,-0.0021208669338608956,-0.00638287782016583,0.03,0.0,0.006,-0.11430452714999349,0.0033523703646806523,-0.0,0.0012636228190590479,0.0046159931837397,0.25,0,0,-0.16986199212537623,0.007533223509319734,-0.0,0.0,0.007533223509319734,0.002,8e-05,0.0,-1.784252927007823,-0.0017438509607844684,-0.00014274023416062584,-0.0,-0.0018865911949450943,0.11174567882268842,0.0,-0.11174567882268842,-0.1420670295434978,0.0,0.1420670295434978,-0.8719254803922342,0.0,0.8719254803922342,0.030132894037278937,0,-0.030132894037278937,-0.006385304572225468,-0.004612635673821725,-0.007533223509319734,0.4,0.03344988822937012,2.470508098602295,STABILIZE
0.03,0.0,0.006,-0.2764285414567287,-0.004074714365645497,-0.0,0.0011202705860874462,-0.0029544437795580502,0.03,0.0,0.006,-0.11020430680996268,0.003678677180367478,-0.0,0.0019517283415984756,0.005630405521965954,0.25,0,0,-0.16874108062615287,0.008380589357492703,-0.0,0.0,0.008380589357492703,0.002,8e-05,0.0,-1.8132425892990989,-0.001733949240016939,-0.00014505940714392793,0.0,-0.001879008647160867,0.12262257267891594,0.0,-0.12262257267891594,-0.13582381218818323,0.0,0.13582381218818323,-0.8669746200084695,0.0,0.8669746200084695,0.03352235742997081,0,-0.03352235742997081,-0.0029577374860806486,-0.005628675985681472,-0.008380589357492703,0.4,0.03343772888183594,2.5039286613464355,STABILIZE
0.03,0.0,0.006,-0.28083578964231737,-0.003956368104318497,-0.0,0.0007082595970134394,-0.0032481085073050573,0.03,0.0,0.006,-0.10666105146759508,0.0031807653736947083,-0.0,-0.002979822189463897,0.00020094318423081146,0.25,0,0,-0.16784386693061246,0.006711874580078116,-0.0,-0.0,0.006711874580078116,0.002,8e-05,0.0,-1.8420843272652159,-0.0017260737669275881,-0.00014736674618121728,0.0,-0.0018734405131088053,0.10602551245649028,0.0,-0.10602551245649028,-0.13187893681061655,0.0,0.13187893681061655,-0.863036883463794,0.0,0.863036883463794,0.026847498320312465,0,-0.026847498320312465,-0.0032482023081197324,-0.00019942117250168657,-0.006711874580078116,0.4,0.033418893814086914,2.537346124649048,STABILIZE
0.03,0.0,0.006,-0.28538153849452047,-0.004071404720751988,-0.0,-0.0006868844399966692,-0.004758289160748657,0.03,0.0,0.006,-0.10420175000815399,0.0022026759280526424,-0.0,-0.005840178909685884,-0.003637502981633241,0.25,0,0,-0.16716823859736626,0.005042726869448646,-0.0,-0.0,0.005042726869448646,0.002,8e-05,0.0,-1.8709940592796879,-0.0017262021172793317,-0.00014967952474237504,-0.0,-0.0018758816420217067,0.07342253093508808,0.0,-0.07342253093508808,-0.13571349069173294,0.0,0.13571349069173294,-0.8631010586396658,0.0,0.8631010586396658,0.020170907477794583,0,-0.020170907477794583,-0.004757008287535204,0.0036391779059301655,-0.005042726869448646,0.4,0.033495187759399414,2.5709035396575928,STABILIZE
0.03,0.0,0.006,-0.2896904510939403,-0.0038638200203950394,-0.0,0.0012409471495196133,-0.002622872870875426,0.03,0.0,0.006,-0.1013633074103109,0.002545243395692179,-0.0,0.0020478779108212145,0.004593121306513393,0.25,0,0,-0.16642532026386933,0.005551483242103143,-0.0,0.0,0.005551483242103143,0.002,8e-05,0.0,-1.899523502559096,-0.001705498105307643,-0.0001519618802047277,0.0,-0.0018574599855123706,0.08484144652307264,0.0,-0.08484144652307264,-0.12879400067983465,0.0,0.12879400067983465,-0.8527490526538215,0.0,0.8527490526538215,0.022205932968412573,0,-0.022205932968412573,-0.002624652814451967,-0.00459210442354167,-0.005551483242103143,0.4,0.033455848693847656,2.6043033599853516,STABILIZE
0.03,0.0,0.006,-0.29406353424087267,-0.00392435442254025,-0.0,-0.00036215249941913335,-0.004286506921959383,0.03,0.0,0.006,-0.09909159303099369,0.0020386103057463117,-0.0,-0.0030309779779802894,-0.0009923676722339778,0.25,0,0,-0.16567959709093752,0.005576694849983634,-0.0,0.0,0.005576694849983634,0.002,8e-05,0.0,-1.9279941819846997,-0.0017032839755169186,-0.00015423953455877599,0.0,-0.0018575235100756946,0.0679536768582104,0.0,-0.0679536768582104,-0.130811814084675,0.0,0.130811814084675,-0.8516419877584593,0.0,0.8516419877584593,0.022306779399934536,0,-0.022306779399934536,-0.0042861202418281175,0.0009940364487744234,-0.005576694849983634,0.4,0.03343033790588379,2.6377344131469727,STABILIZE
0.03,0.0,0.006,-0.2986390514444209,-0.004104757616336319,-0.0,-0.00107894743669133,-0.005183705053027649,0.03,0.0,0.006,-0.09742980339161507,0.0014908136884937194,-0.0,-0.003276237762625149,-0.0017854240741314298,0.25,0,0,-0.16491110085455263,0.005745235345526356,-0.0,0.0,0.005745235345526356,0.002,8e-05,0.0,-1.9572241421246555,-0.0017481725186775517,-0.00015657793136997244,-0.0,-0.0019047504500475242,0.04969378961645732,0.0,-0.04969378961645732,-0.1368252538778773,0.0,0.1368252538778773,-0.8740862593387758,0.0,0.8740862593387758,0.022980941382105425,0,-0.022980941382105425,-0.005182988514817842,0.0017875030787494607,-0.005745235345526356,0.4,0.033440589904785156,2.6711864471435547,STABILIZE
0.03,0.0,0.006,-0.3032900986760269,-0.004071526727133368,-0.0,0.00019393546846366356,-0.0038775912586697047,0.03,0.0,0.006,-0.09566770765071082,0.0015425386042321784,-0.0,0.0003018666068102339,0.0018444052110424122,0.25,0,0,-0.16428259086827382,0.0045849803280410845,-0.0,-0.0,0.0045849803280410845,0.002,8e-05,0.0,-1.9877735394730627,-0.0017828628207516898,-0.00015902188315784503,-0.0,-0.0019418847039095349,0.05141795347440595,0.0,-0.05141795347440595,-0.13571755757111229,0.0,0.13571755757111229,-0.8914314103758448,0.0,0.8914314103758448,0.018339921312164338,0,-0.018339921312164338,-0.003878181439386704,-0.0018431639305901636,-0.0045849803280410845,0.4,0.03427004814147949,2.705446481704712,STABILIZE
0.03,0.0,0.006,-0.3078004784224531,-0.004022233269728099,-0.0,0.00029305704545534944,-0.00372917622427275,0.03,0.0,0.006,-0.0935726942300785,0.0018682756563171887,-0.0,0.0019365559468580685,0.003804831603175257,0.25,0,0,-0.1636689141040589,0.004560501252398446,-0.0,-0.0,0.004560501252398446,0.002,8e-05,0.0,-2.0174138143253635,-0.0017621590839702903,-0.00016139310514602908,0.0,-0.0019235521891163194,0.06227585521057296,0.0,-0.06227585521057296,-0.13407444232427,0.0,0.13407444232427,-0.8810795419851452,0.0,0.8810795419851452,0.018242005009593783,0,-0.018242005009593783,-0.0037303874291321213,-0.0038036441038529615,-0.004560501252398446,0.4,0.03364086151123047,2.7390944957733154,STABILIZE
0.03,0.0,0.006,-0.3122488412884972,-0.00398846773414904,-0.0,0.0002018311803522802,-0.0037866365537967597,0.03,0.0,0.006,-0.09124195932903963,0.0020897712775656547,-0.0,0.0013239749322135506,0.0034137462097792053,0.25,0,0,-0.16305477652397254,0.00458870674497741,-0.0,0.0,0.00458870674497741,0.002,8e-05,0.0,-2.0463954680235954,-0.0017323585348673844,-0.00016371163744188764,0.0,-0.001896070172309272,0.06965904258552183,0.0,-0.06965904258552183,-0.13294892447163467,0.0,0.13294892447163467,-0.8661792674336921,0.0,0.8661792674336921,0.01835482697990964,0,-0.01835482697990964,-0.0037877299604624328,-0.003412532977415303,-0.00458870674497741,0.4,0.03345918655395508,2.772557497024536,STABILIZE
0.03,0.0,0.006,-0.31674561211948793,-0.004030119277952328,-0.0,-0.00024886108416770385,-0.004278980362120032,0.03,0.0,0.006,-0.08855196442396841,0.0024108411862591183,-0.0,0.0019183395926076797,0.004329180778866798,0.25,0,0,-0.16244055043642885,0.004587374083663064,-0.0,-0.0,0.004587374083663064,0.002,8e-05,0.0,-2.07504755875777,-0.0017119150246755444,-0.0001660038047006216,0.0,-0.001877918829376166,0.08036137287530394,0.0,-0.08036137287530394,-0.13433730926507761,0.0,0.13433730926507761,-0.8559575123377722,0.0,0.8559575123377722,0.018349496334652257,0,-0.018349496334652257,-0.004280366602314974,-0.004327810174361299,-0.004587374083663064,0.4,0.03347373008728027,2.8060495853424072,STABILIZE
0.03,0.0,0.006,-0.3214078734678296,-0.004188280366618227,-0.0,-0.0009472127120715292,-0.005135493078689757,0.03,0.0,0.006,-0.08559441089264452,0.0026568788111529093,-0.0,0.0014734974823016184,0.004130376293454528,0.25,0,0,-0.1616848949880959,0.00565694170295478,-0.0,0.0,0.00565694170295478,0.002,8e-05,0.0,-2.104301699716303,-0.0017520045183293976,-0.00016834413597730427,-0.0,-0.0019203486543067018,0.0885626270384303,0.0,-0.0885626270384303,-0.13960934555394092,0.0,0.13960934555394092,-0.8760022591646988,0.0,0.8760022591646988,0.02262776681181912,0,-0.02262776681181912,-0.00513712388367514,-0.004128347816085269,-0.00565694170295478,0.4,0.03339505195617676,2.8394265174865723,STABILIZE
0.03,0.0,0.006,-0.326075231606512,-0.004157743375776887,-0.0,0.00018135165921019972,-0.003976391716566687,0.03,0.0,0.006,-0.08317057476471545,0.0021591847690759914,-0.0,-0.002955682201256454,-0.0007964974321804626,0.25,0,0,-0.16106218377092088,0.004622660473908455,-0.0,-0.0,0.004622660473908455,0.002,8e-05,0.0,-2.1333114214527975,-0.0017228158456979912,-0.0001706649137162238,0.0,-0.001893480759414215,0.07197282563586639,0.0,-0.07197282563586639,-0.13859144585922958,0.0,0.13859144585922958,-0.8614079228489956,0.0,0.8614079228489956,0.01849064189563382,0,-0.01849064189563382,-0.003976134461793042,0.0007977806620819982,-0.004622660473908455,0.4,0.033677101135253906,2.8731064796447754,STABILIZE
