E-kp,E-ki,E-kd,E-I-Tot,E-P,E-I,E-D,E-PID,N-kp,N-ki,N-kd,N-I-Tot,N-P,N-I,N-D,N-PID,D-kp,D-ki,D-kd,D-I-Tot,D-P,D-I,D-D,D-PID,Y-kp,Y-ki,Y-kd,Y-I-Tot,Y-P,Y-I,Y-D,Y-PID,errorN,desiredN,actualN,errorE,desiredE,actualE,errorD,desiredD,actualD,errorY,desiredY,actualY,roll,pitch,yaw-rate,thrust,dt,Time,Mode
0.06,0.005,0.05,-0.0035188122376169253,-0.0063849255516478035,-1.7594061188084626e-05,-0.16091001872842095,-0.16731253834125684,0.06,0.005,0.05,-0.0032727153667527747,-0.005938379929757721,-1.6363576833763873e-05,-0.14965637703750354,-0.155611120544095,0.002,8e-05,0,-0.005171536540451029,-0.00031279376456839494,-4.1372292323608237e-07,-0.0,-0.000313207487491631,0.1,0.02,0,-0.0034048169385563006,-0.01029679960246766,-6.809633877112601e-05,-0.0,-0.010364895941238786,-0.09897299882929535,0.0,0.09897299882929535,-0.10641542586079673,0.0,0.10641542586079673,-0.15639688228419746,0.0,0.15639688228419746,-0.10296799602467659,0,0.10296799602467659,-0.16759192150736452,0.15531018694423357,0.010364895941238786,0.4,0.033066749572753906,0.03339791297912598,STABILIZE
0.06,0.005,0.05,-0.007555665045807677,-0.007244837032257743,-3.7778325229038385e-05,-0.09117210142687224,-0.09845471678435902,0.06,0.005,0.05,-0.0070335906393396205,-0.006749547170324307,-3.5167953196698104e-05,-0.08493778025161382,-0.09172249537513483,0.002,8e-05,0,-0.01147421707504449,-0.00037704201357771416,-9.179373660035593e-07,-0.0,-0.00037795995094371774,0.1,0.02,0,-0.0073229116752393485,-0.011719508237795438,-0.00014645823350478698,-0.0,-0.011865966471300225,-0.11249245283873845,0.0,0.11249245283873845,-0.12074728387096238,0.0,0.12074728387096238,-0.18852100678885708,0.0,0.18852100678885708,-0.11719508237795437,0,0.11719508237795437,-0.098642123560906,0.09152092041891256,0.011865966471300225,0.4,0.0334322452545166,0.06674575805664062,STABILIZE
0.06,0.005,0.05,-0.01199743006612691,-0.007965501332614337,-5.998715033063455e-05,-0.06676464603616815,-0.07479013451911312,0.06,0.005,0.05,-0.01111859661462181,-0.007325718580563093,-5.559298307310905e-05,-0.06140879378798917,-0.06879010535162537,0.002,8e-05,0,-0.018836562709590037,-0.00044010112867943547,-1.506925016767203e-06,-0.0,-0.00044160805369620267,0.1,0.02,0,-0.011653414624747263,-0.01294328825643147,-0.00023306829249494527,-0.0,-0.013176356548926415,-0.12209530967605156,0.0,0.12209530967605156,-0.1327583555435723,0.0,0.1327583555435723,-0.22005056433971773,0.0,0.22005056433971773,-0.1294328825643147,0,0.1294328825643147,-0.0749453424609189,0.06862097681533208,0.013176356548926415,0.4,0.03345751762390137,0.10027050971984863,STABILIZE
0.06,0.005,0.05,-0.016667658364537832,-0.008376880280366691,-8.333829182268916e-05,-0.052635570937243095,-0.06109578950943248,0.06,0.005,0.05,-0.01535525600730174,-0.007599197780812243,-7.67762800365087e-05,-0.04775983598137051,-0.055435810042219265,0.002,8e-05,0,-0.027039803123041106,-0.0004904654081395191,-2.163184249843289e-06,-0.0,-0.0004926285923893623,0.1,0.02,0,-0.016229839616022236,-0.013681045769944037,-0.00032459679232044473,-0.0,-0.014005642562264482,-0.12665329634687073,0.0,0.12665329634687073,-0.13961467133944486,0.0,0.13961467133944486,-0.24523270406975956,0.0,0.24523270406975956,-0.13681045769944036,0,0.13681045769944036,-0.06122798444895659,0.055289768051025756,0.014005642562264482,0.4,0.03345084190368652,0.13367938995361328,STABILIZE
0.06,0.005,0.05,-0.021548293727447196,-0.00875328434147572,-0.00010774146863723598,-0.043983651911207455,-0.05284467772132041,0.06,0.005,0.05,-0.01972047987054826,-0.007828908092493677,-9.860239935274131e-05,-0.039352255122806296,-0.04727976561465271,0.002,8e-05,0,-0.0360945474642887,-0.0005413144393770217,-2.8875637971430964e-06,-0.0,-0.0005442020031741648,0.1,0.02,0,-0.02101876361880689,-0.014314670928794876,-0.0004203752723761378,-0.0,-0.014735046201171014,-0.13048180154156128,0.0,0.13048180154156128,-0.14588807235792867,0.0,0.14588807235792867,-0.27065721968851086,0.0,0.27065721968851086,-0.14314670928794876,0,0.14314670928794876,-0.052962635559228415,0.047147592034663545,0.014735046201171014,0.4,0.03345465660095215,0.1671142578125,STABILIZE
0.06,0.005,0.05,-0.026698231566271338,-0.009235678500569292,-0.0001334911578313567,-0.014204717820264069,-0.023573887478664717,0.06,0.005,0.05,-0.024330126196370178,-0.0082667427838978,-0.00012165063098185089,-0.011602074243239047,-0.019990467658118696,0.002,8e-05,0,-0.046237849009470366,-0.0006063521213750873,-3.6990279207576296e-06,-0.0,-0.0006100511492958449,0.1,0.02,0,-0.026063584908942287,-0.015078611621700622,-0.0005212716981788457,-0.0,-0.015599883319879469,-0.13777904639829666,0.0,0.13777904639829666,-0.1539279750094882,0.0,0.1539279750094882,-0.30317606068754366,0.0,0.30317606068754366,-0.15078611621700622,0,0.15078611621700622,-0.023626414980045536,0.01992835876929444,0.015599883319879469,0.4,0.03345680236816406,0.20058870315551758,STABILIZE
0.06,0.005,0.05,-0.03206799459116257,-0.009639314307346436,-0.00016033997295581288,-0.011930577101355255,-0.021730231381657503,0.06,0.005,0.05,-0.029048790433625543,-0.00847052048347346,-0.00014524395216812771,-0.008574357962532723,-0.017190122398174308,0.002,8e-05,0,-0.05741825018944672,-0.0006690015962619504,-4.593460015155738e-06,-0.0,-0.0006735950562771062,0.1,0.02,0,-0.03134721398706649,-0.01580782402357688,-0.0006269442797413298,-0.0,-0.01643476830331821,-0.14117534139122434,0.0,0.14117534139122434,-0.16065523845577395,0.0,0.16065523845577395,-0.3345007981309752,0.0,0.3345007981309752,-0.1580782402357688,0,0.1580782402357688,-0.02177757591929764,0.017130103649535055,0.01643476830331821,0.4,0.03342413902282715,0.23399567604064941,STABILIZE
0.06,0.005,0.05,-0.03768463474312226,-0.010066975117732786,-0.0001884231737156113,-0.010469844224965677,-0.020725242516414076,0.06,0.005,0.05,-0.03395484215532979,-0.008793353192027889,-0.00016977421077664896,-0.007311495564062547,-0.016274622966867085,0.002,8e-05,0,-0.07056505631839335,-0.0007854551629742873,-5.645204505471469e-06,-0.0,-0.0007911003674797587,0.1,0.02,0,-0.03694331455872367,-0.016716935061716287,-0.0007388662911744734,-0.0,-0.01745580135289076,-0.14655588653379814,0.0,0.14655588653379814,-0.16778291862887978,0.0,0.16778291862887978,-0.39272758148714365,0.0,0.39272758148714365,-0.16716935061716287,0,0.16716935061716287,-0.02077263797953351,0.016214084662696724,0.01745580135289076,0.4,0.033475637435913086,0.2675182819366455,STABILIZE
0.06,0.005,0.05,-0.043288751029440055,-0.010058640905570727,-0.00021644375514720028,-0.008378622878285474,-0.018653707539003403,0.06,0.005,0.05,-0.03875555405005556,-0.008616637231108717,-0.00019377777025027782,-0.005067843139548046,-0.01387825814090704,0.002,8e-05,0,-0.084486048982445,-0.0008328774725740311,-6.7588839185956e-06,-0.0,-0.0008396363564926267,0.1,0.02,0,-0.04247009950771968,-0.016533069123966744,-0.0008494019901543937,-0.0,-0.017382471114121136,-0.14361062051847862,0.0,0.14361062051847862,-0.16764401509284546,0.0,0.16764401509284546,-0.41643873628701555,0.0,0.41643873628701555,-0.16533069123966743,0,0.16533069123966743,-0.018693676438372483,0.013824373953049826,0.017382471114121136,0.4,0.03342866897583008,0.3009049892425537,STABILIZE
0.06,0.005,0.05,-0.0489743294621295,-0.010188359632807481,-0.0002448716473106475,-0.007149126234741752,-0.01758235751485988,0.06,0.005,0.05,-0.043602731746608676,-0.008685974551448766,-0.00021801365873304337,-0.004268595903418167,-0.013172584113599976,0.002,8e-05,0,-0.09953307658440994,-0.0008987917437574418,-7.962646126752795e-06,-0.0,-0.0009067543898841947,0.1,0.02,0,-0.048059734539974544,-0.01669405397034022,-0.0009611946907994909,-0.0,-0.017655248661139714,-0.1447662425241461,0.0,0.1447662425241461,-0.16980599388012468,0.0,0.16980599388012468,-0.44939587187872093,0.0,0.44939587187872093,-0.16694053970340222,0,0.16694053970340222,-0.0176206632872742,0.013121299224037358,0.017655248661139714,0.4,0.03348278999328613,0.3343942165374756,STABILIZE
0.06,0.005,0.05,-0.05467128923722662,-0.01022623073497819,-0.0002733564461861331,-0.004934889573715757,-0.015434476754880081,0.06,0.005,0.05,-0.0484158267293886,-0.008639664274693653,-0.000242079133646943,-0.0018565889462659726,-0.01073833235460657,0.002,8e-05,0,-0.11549542403820623,-0.0009550980088710549,-9.2396339230565e-06,-0.0,-0.0009643376427941113,0.1,0.02,0,-0.05358861779916834,-0.01654087974034365,-0.0010717723559833668,-0.0,-0.017612652096327015,-0.14399440457822757,0.0,0.14399440457822757,-0.17043717891630317,0.0,0.17043717891630317,-0.47754900443552745,0.0,0.47754900443552745,-0.16540879740343647,0,0.16540879740343647,-0.01546541318737197,0.010693729442939214,0.017612652096327015,0.4,0.03342556953430176,0.3678276538848877,STABILIZE
0.06,0.005,0.05,-0.06086764813009566,-0.010229568762096944,-0.0003043382406504783,-0.002937501103387887,-0.01347140810613531,0.06,0.005,0.05,-0.053508535049078085,-0.008407552054726953,-0.0002675426752453904,0.00022395940761195848,-0.008451135322360383,0.002,8e-05,0,-0.1337043717310072,-0.0010020383783950857,-1.0696349738480576e-05,-0.0,-0.0010127347281335662,0.1,0.02,0,-0.059438325379810315,-0.016095470197076148,-0.0011887665075962063,-0.0,-0.017284236704672353,-0.14012586757878254,0.0,0.14012586757878254,-0.17049281270161573,0.0,0.17049281270161573,-0.5010191891975428,0.0,0.5010191891975428,-0.16095470197076148,0,0.16095470197076148,-0.01349509576040559,0.00841325828774908,0.017284236704672353,0.4,0.03634381294250488,0.4041721820831299,STABILIZE
0.06,0.005,0.05,-0.06664648125070967,-0.010325397756325565,-0.00033323240625354836,-0.0012839079780672955,-0.01194253814064641,0.06,0.005,0.05,-0.05799201216285722,-0.008010905240716374,-0.00028996006081428614,0.003799909348545512,-0.004500955952985148,0.002,8e-05,0,-0.15238322092047743,-0.0011124884181416838,-1.2190657673638195e-05,-0.0,-0.001124679075815322,0.1,0.02,0,-0.06464555705230618,-0.015506803624438088,-0.0012929111410461237,0.0,-0.01679971476548421,-0.1335150873452729,0.0,0.1335150873452729,-0.17208996260542608,0.0,0.17208996260542608,-0.5562442090708419,0.0,0.5562442090708419,-0.15506803624438087,0,0.15506803624438087,-0.011954675989417301,0.004468617651976519,0.01679971476548421,0.4,0.03358030319213867,0.4377422332763672,STABILIZE
0.06,0.005,0.05,-0.07268747286838034,-0.010792280027527959,-0.00036343736434190174,-0.0036423738801466005,-0.01479809127201646,0.06,0.005,0.05,-0.06258892184461382,-0.008212416054618045,-0.0003129446092230691,0.0019188475281480888,-0.006606513135693024,0.002,8e-05,0,-0.17321166275908317,-0.0012403392858096557,-1.3856933020726655e-05,-0.0,-0.0012541962188303824,0.1,0.02,0,-0.07008601665460788,-0.016199041267426082,-0.0014017203330921578,0.0,-0.01760076160051824,-0.13687360091030074,0.0,0.13687360091030074,-0.17987133379213266,0.0,0.17987133379213266,-0.6201696429048278,0.0,0.6201696429048278,-0.16199041267426081,0,0.16199041267426081,-0.014816710473742738,0.006564648645913692,0.01760076160051824,0.4,0.0335850715637207,0.47138166427612305,STABILIZE
0.06,0.005,0.05,-0.07863795199966049,-0.010672095563895506,-0.00039318975999830247,-0.002397928021057823,-0.013463213344951631,0.06,0.005,0.05,-0.06702260158566545,-0.00795173848228104,-0.00033511300792832727,0.0035626570121967123,-0.004724194478012655,0.002,8e-05,0,-0.19484578974731248,-0.0012933494685391483,-1.5587663179784998e-05,-0.0,-0.0013089371317189333,0.1,0.02,0,-0.07535645692687336,-0.015754093356322194,-0.0015071291385374672,0.0,-0.01726122249485966,-0.132528974704684,0.0,0.132528974704684,-0.17786825939825845,0.0,0.17786825939825845,-0.6466747342695741,0.0,0.6466747342695741,-0.15754093356322194,0,0.15754093356322194,-0.013476152118270655,0.004687158107318154,0.01726122249485966,0.4,0.03345441818237305,0.504828691482544,STABILIZE
0.06,0.005,0.05,-0.08456306042411735,-0.010618950127176412,-0.00042281530212058674,-0.0019445200555174404,-0.012986285484814439,0.06,0.005,0.05,-0.07139130526655921,-0.00782956921367653,-0.00035695652633279605,0.003939942253265912,-0.004246583486743413,0.002,8e-05,0,-0.217459516921156,-0.0013509403476760344,-1.739676135369248e-05,-0.0,-0.001368337109029727,0.1,0.02,0,-0.08046389480335,-0.015255874999150744,-0.0016092778960670002,0.0,-0.016865152895217745,-0.13049282022794217,0.0,0.13049282022794217,-0.17698250211960687,0.0,0.17698250211960687,-0.6754701738380172,0.0,0.6754701738380172,-0.15255874999150743,0,0.15255874999150743,-0.01299754661302335,0.0042119905086869915,0.016865152895217745,0.4,0.033478498458862305,0.5382800102233887,STABILIZE
0.06,0.005,0.05,-0.09031174615457871,-0.0103275519570039,-0.00045155873077289355,-0.00047504925008489573,-0.011254159937861689,0.06,0.005,0.05,-0.07560147844060748,-0.0075636039682200696,-0.00037800739220303744,0.004202759654886277,-0.003738851705536831,0.002,8e-05,0,-0.24027332867351242,-0.0013661721261569004,-1.9221866293880995e-05,-0.0,-0.0013853939924507814,0.1,0.02,0,-0.08529196659576718,-0.014456104875160636,-0.0017058393319153437,0.0,-0.01616194420707598,-0.12606006613700116,0.0,0.12606006613700116,-0.17212586595006502,0.0,0.17212586595006502,-0.6830860630784502,0.0,0.6830860630784502,-0.14456104875160636,0,0.14456104875160636,-0.011263557477279596,0.0037104448438139578,0.01616194420707598,0.4,0.03339815139770508,0.5716819763183594,STABILIZE
0.06,0.005,0.05,-0.0958801066729751,-0.00999410767567752,-0.0004794005333648755,0.0016629791532730672,-0.008810529055769328,0.06,0.005,0.05,-0.07965028003205425,-0.007266799433817314,-0.00039825140016027126,0.003713849088057979,-0.003951201745919605,0.002,8e-05,0,-0.2632853362448831,-0.0013767336647952128,-2.106282689959065e-05,-0.0,-0.0013977964916948033,0.1,0.02,0,-0.08987107658812879,-0.013697663842957095,-0.0017974215317625758,0.0,-0.01549508537471967,-0.12111332389695523,0.0,0.12111332389695523,-0.166568461261292,0.0,0.166568461261292,-0.6883668323976064,0.0,0.6883668323976064,-0.13697663842957095,0,0.13697663842957095,-0.008819949980564528,0.003930127201485147,0.01549508537471967,0.4,0.033429861068725586,0.6051568984985352,STABILIZE
0.06,0.005,0.05,-0.10121034842122481,-0.009557325152572767,-0.000506051742106124,0.006155358369848237,-0.003908018524830654,0.06,0.005,0.05,-0.08338709702015804,-0.006700254261955923,-0.00041693548510079016,0.007535620250100056,0.00041843050304334224,0.002,8e-05,0,-0.2875824697885686,-0.0014521893284905106,-2.300659758308549e-05,-0.0,-0.0014751959260735962,0.1,0.02,0,-0.09413795650283908,-0.012751128578504934,-0.0018827591300567817,0.0,-0.014633887708561714,-0.11167090436593206,0.0,0.11167090436593206,-0.15928875254287947,0.0,0.15928875254287947,-0.7260946642452553,0.0,0.7260946642452553,-0.12751128578504933,0,0.12751128578504933,-0.00390707763411864,-0.00042712672272588744,0.014633887708561714,0.4,0.0334627628326416,0.6385881900787354,STABILIZE
0.06,0.005,0.05,-0.10656079143115628,-0.009595461044715179,-0.0005328039571557814,0.005366631190210177,-0.004761633811660784,0.06,0.005,0.05,-0.08703048253839292,-0.006534031620598451,-0.0004351524126919646,0.007065013635712935,9.582960242251939e-05,0.002,8e-05,0,-0.3136124660136753,-0.0015560693716294316,-2.5088997281094028e-05,-0.0,-0.0015811583689105257,0.1,0.02,0,-0.09842145063641222,-0.01280333267658817,-0.0019684290127282445,0.0,-0.014771761689316414,-0.10890052700997419,0.0,0.10890052700997419,-0.159924350745253,0.0,0.159924350745253,-0.7780346858147158,0.0,0.7780346858147158,-0.1280333267658817,0,0.1280333267658817,-0.004761407782224246,-0.00010646971600435138,0.014771761689316414,0.4,0.03345608711242676,0.6720585823059082,STABILIZE
0.06,0.005,0.05,-0.11173669881502615,-0.009290394369870517,-0.0005586834940751308,0.006623093716533347,-0.0032259841474123006,0.06,0.005,0.05,-0.09047970880109836,-0.0061911216478315835,-0.0004523985440054918,0.008166537052899249,0.0015230168610621733,0.002,8e-05,0,-0.339941500534258,-0.0015752929611043528,-2.719532004274064e-05,-0.0,-0.0016024882811470935,0.1,0.02,0,-0.10260969946062279,-0.012529359720681633,-0.0020521939892124558,0.0,-0.014581553709894089,-0.10318536079719307,0.0,0.10318536079719307,-0.15483990616450863,0.0,0.15483990616450863,-0.7876464805521765,0.0,0.7876464805521765,-0.12529359720681632,0,0.12529359720681632,-0.00322264592504047,-0.0015300677502173541,0.014581553709894089,0.4,0.03342747688293457,0.7054750919342041,STABILIZE
0.06,0.005,0.05,-0.11754987331090244,-0.009108266065928135,-0.0005877493665545123,0.005961609435020866,-0.0037344059974617812,0.06,0.005,0.05,-0.09423127974307315,-0.00587808026904242,-0.00047115639871536576,0.008201744918341821,0.0018525082505840354,0.002,8e-05,0,-0.370530441786551,-0.0015975907587071959,-2.9642435342924082e-05,-0.0,-0.00162723319405012,0.1,0.02,0,-0.1073919913523152,-0.01248841087469059,-0.002147839827046304,0.0,-0.014636250701736894,-0.09796800448404035,0.0,0.09796800448404035,-0.1518044344321356,0.0,0.1518044344321356,-0.7987953793535979,0.0,0.7987953793535979,-0.12488410874690589,0,0.12488410874690589,-0.003730359330896093,-0.0018606435001786079,0.014636250701736894,0.4,0.03829383850097656,0.7438223361968994,STABILIZE
0.06,0.005,0.05,-0.12373986675074035,-0.008900383121442753,-0.0006186993337537018,0.005129501762836919,-0.004389580692359536,0.06,0.005,0.05,-0.09793688663252381,-0.005328167361423296,-0.000489684433162619,0.008918399683901236,0.0031005478893153214,0.002,8e-05,0,-0.40413214527380975,-0.0016104919306535578,-3.233057162190478e-05,-0.0,-0.0016428225022754627,0.1,0.02,0,-0.11245089863202469,-0.012123387367824978,-0.002249017972640494,0.0,-0.014372405340465473,-0.08880278935705493,0.0,0.08880278935705493,-0.14833971869071255,0.0,0.14833971869071255,-0.805245965326779,0.0,0.805245965326779,-0.12123387367824978,0,0.12123387367824978,-0.004383010327725642,-0.003109828988179844,0.014372405340465473,0.4,0.04172849655151367,0.7854924201965332,STABILIZE
0.06,0.005,0.05,-0.12842634344901896,-0.008393999300303217,-0.0006421317172450948,0.005473451675270628,-0.0035626793422776845,0.06,0.005,0.05,-0.10038286880585495,-0.00438102522925959,-0.0005019143440292748,0.010808954199596937,0.0059260146263080725,0.002,8e-05,0,-0.43168450372309586,-0.0016449776127836157,-3.4534760297847675e-05,-0.0,-0.0016795123730814633,0.1,0.02,0,-0.1163911358787363,-0.011762336193155698,-0.002327822717574726,0.0,-0.014090158910730424,-0.0730170871543265,0.0,0.0730170871543265,-0.13989998833838696,0.0,0.13989998833838696,-0.8224888063918078,0.0,0.8224888063918078,-0.11762336193155697,0,0.11762336193155697,-0.003550506239462582,-0.005933316011358794,0.014090158910730424,0.4,0.03349876403808594,0.8190107345581055,STABILIZE
0.06,0.005,0.05,-0.13298821799554594,-0.008184103620575004,-0.0006649410899777298,0.006709424519224393,-0.002139620191328342,0.06,0.005,0.05,-0.1026788403498179,-0.004119023623740323,-0.0005133942017490896,0.011286547828404296,0.006654130002914883,0.002,8e-05,0,-0.4595693305728955,-0.00166753316027577,-3.676554644583164e-05,-0.0,-0.0017042987067216017,0.1,0.02,0,-0.12014398343036664,-0.011221152226463091,-0.002402879668607333,0.0,-0.013624031895070424,-0.06865039372900539,0.0,0.06865039372900539,-0.13640172700958342,0.0,0.13640172700958342,-0.833766580137885,0.0,0.833766580137885,-0.11221152226463091,0,0.11221152226463091,-0.0021265842454112035,-0.006658307600734651,0.013624031895070424,0.4,0.03344440460205078,0.8524444103240967,STABILIZE
0.06,0.005,0.05,-0.137449654769999,-0.008005399832656947,-0.0006872482738499951,0.0060791036134462545,-0.0026135444930606867,0.06,0.005,0.05,-0.10493762671332911,-0.0040530638201585105,-0.0005246881335666455,0.009905591408787934,0.005327839455062778,0.002,8e-05,0,-0.48787926982391094,-0.0016932690401467525,-3.903034158591288e-05,-0.0,-0.0017322993817326653,0.1,0.02,0,-0.1238265330884169,-0.011013000186066916,-0.0024765306617683383,0.0,-0.013489530847835253,-0.0675510636693085,0.0,0.0675510636693085,-0.13342333054428246,0.0,0.13342333054428246,-0.8466345200733763,0.0,0.8466345200733763,-0.11013000186066915,0,0.11013000186066915,-0.0026032988652696714,-0.005332853185136183,0.013489530847835253,0.4,0.03343820571899414,0.885894775390625,STABILIZE
0.06,0.005,0.05,-0.14180055580472595,-0.007806335931881962,-0.0007090027790236297,0.00627853064456327,-0.002236808066342322,0.06,0.005,0.05,-0.10716722333296885,-0.004000316271636055,-0.0005358361166648443,0.008806024413753506,0.004269872025452607,0.002,8e-05,0,-0.5164079417175359,-0.001706193688116165,-4.131263533740287e-05,-0.0,-0.0017475063234535678,0.1,0.02,0,-0.12743169905010598,-0.01078057792416844,-0.0025486339810021196,0.0,-0.013329211905170559,-0.06667193786060092,0.0,0.06667193786060092,-0.13010559886469938,0.0,0.13010559886469938,-0.8530968440580824,0.0,0.8530968440580824,-0.10780577924168439,0,0.10780577924168439,-0.002228770066434134,-0.004274073166238969,0.013329211905170559,0.4,0.03344130516052246,0.9193675518035889,STABILIZE
0.06,0.005,0.05,-0.1459799026282174,-0.0074928194482399724,-0.0007298995131410869,0.007009561068073281,-0.0012131578933077779,0.06,0.005,0.05,-0.10924106695371862,-0.003718029747332852,-0.0005462053347685931,0.008015435161004295,0.003751200078902849,0.002,8e-05,0,-0.5450753718212081,-0.0017131853922284365,-4.360602974569665e-05,-0.0,-0.001756791421974133,0.1,0.02,0,-0.13089856220393342,-0.010359106642125119,-0.0026179712440786685,0.0,-0.012977077886203787,-0.061967162455547536,0.0,0.061967162455547536,-0.12488032413733288,0.0,0.12488032413733288,-0.8565926961142182,0.0,0.8565926961142182,-0.10359106642125118,0,0.10359106642125118,-0.001206373724976379,-0.00375338734235388,0.012977077886203787,0.4,0.03346681594848633,0.9528396129608154,STABILIZE
0.06,0.005,0.05,-0.15002226420213807,-0.007255189130602126,-0.0007501113210106904,0.0056748580089106375,-0.002330442442702179,0.06,0.005,0.05,-0.11110262224105923,-0.003341100354273636,-0.0005555131112052962,0.005182303092144901,0.0012856896266659687,0.002,8e-05,0,-0.5751507461262767,-0.0017992991206316846,-4.601205969010214e-05,-0.0,-0.0018453111803217867,0.1,0.02,0,-0.13423417951903313,-0.00997788629485366,-0.0026846835903806625,0.0,-0.012662569885234324,-0.0556850059045606,0.0,0.0556850059045606,-0.12091981884336878,0.0,0.12091981884336878,-0.8996495603158423,0.0,0.8996495603158423,-0.09977886294853659,0,0.09977886294853659,-0.002328199920543223,-0.0012897460699093863,0.012662569885234324,0.4,0.03343009948730469,0.9862334728240967,STABILIZE
0.06,0.005,0.05,-0.15370529681445505,-0.00658271134193369,-0.0007685264840722753,0.007967544196909605,0.000616306370903639,0.06,0.005,0.05,-0.11248602281749204,-0.0024725620496727154,-0.0005624301140874602,0.008188714904412177,0.005153722740652001,0.002,8e-05,0,-0.6056168999344912,-0.0018150793773202155,-4.84493519947593e-05,-0.0,-0.0018635287293149749,0.1,0.02,0,-0.13734776581823957,-0.009274892913579065,-0.0027469553163647913,0.0,-0.012021848229943856,-0.041209367494545256,0.0,0.041209367494545256,-0.10971185569889484,0.0,0.10971185569889484,-0.9075396886601077,0.0,0.9075396886601077,-0.09274892913579064,0,0.09274892913579064,0.0006246482731271656,-0.005152718327757616,0.012021848229943856,0.4,0.033570051193237305,1.0198113918304443,STABILIZE
0.06,0.005,0.05,-0.15721103288669735,-0.006284260772455391,-0.0007860551644334868,0.008562916852782121,0.0014926009158932434,0.06,0.005,0.05,-0.11365559066743469,-0.0020965267232506044,-0.0005682779533371735,0.009732360989639225,0.007067556313051448,0.002,8e-05,0,-0.6361802216492605,-0.0018262249807186235,-5.089441773194084e-05,-0.0,-0.0018771193984505642,0.1,0.02,0,-0.14047146207362665,-0.009332382433759574,-0.002809429241472533,0.0,-0.012141811675232107,-0.034942112054176744,0.0,0.034942112054176744,-0.1047376795409232,0.0,0.1047376795409232,-0.9131124903593117,0.0,0.9131124903593117,-0.09332382433759573,0,0.09332382433759573,0.0015041106231570794,-0.007065115778639778,0.012141811675232107,0.4,0.03347158432006836,1.0532827377319336,STABILIZE
0.06,0.005,0.05,-0.16065223426426156,-0.006128460905981788,-0.0008032611713213078,0.008341547408425692,0.0014098253311225963,0.06,0.005,0.05,-0.11475411323645464,-0.001956366942797974,-0.0005737705661822732,0.010162840294045336,0.007632702785065089,0.002,8e-05,0,-0.6669697642422896,-0.0018277774473828624,-5.3357581139383175e-05,-0.0,-0.0018811350285222455,0.1,0.02,0,-0.14344352873362082,-0.008821625714059374,-0.0028688705746724164,0.0,-0.01169049628873179,-0.03260611571329957,0.0,0.03260611571329957,-0.10214101509969647,0.0,0.10214101509969647,-0.9138887236914311,0.0,0.9138887236914311,-0.08821625714059374,0,0.08821625714059374,0.0014215754542143263,-0.007630523081505661,0.01169049628873179,0.4,0.033690690994262695,1.0869708061218262,STABILIZE
0.06,0.005,0.05,-0.16401433736660012,-0.006029495032552972,-0.0008200716868330006,0.007273224064317111,0.00042365734493113837,0.06,0.005,0.05,-0.11571523881540213,-0.0017236538343790395,-0.0005785761940770107,0.00991631696005421,0.007614086931598159,0.002,8e-05,0,-0.6986200053927522,-0.0018920198259543758,-5.588960043142018e-05,-0.0,-0.001947909426385796,0.1,0.02,0,-0.14624965533466852,-0.008387372371162242,-0.0029249931066933706,0.0,-0.011312365477855612,-0.028727563906317328,0.0,0.028727563906317328,-0.10049158387588286,0.0,0.10049158387588286,-0.946009912977188,0.0,0.946009912977188,-0.08387372371162241,0,0.08387372371162241,0.00043480294051502006,-0.007613458593226041,0.011312365477855612,0.4,0.03345656394958496,1.1204330921173096,STABILIZE
0.06,0.005,0.05,-0.16731740742918164,-0.0059249780715346315,-0.0008365870371459082,0.0066092904033482535,-0.00015227470533228649,0.06,0.005,0.05,-0.11651126526052694,-0.0014278956069251549,-0.0005825563263026347,0.00951080561913064,0.00750035368590285,0.002,8e-05,0,-0.7311694492391996,-0.0019462170786261799,-5.849355593913597e-05,-0.0,-0.002004710634565316,0.1,0.02,0,-0.14907073473935337,-0.008433988831667072,-0.0029814146947870672,0.0,-0.011415403526454138,-0.02379826011541925,0.0,0.02379826011541925,-0.0987496345255772,0.0,0.0987496345255772,-0.9731085393130899,0.0,0.9731085393130899,-0.08433988831667072,0,0.08433988831667072,-0.00014123395815138302,-0.007500569709601091,0.011415403526454138,0.4,0.03344893455505371,1.1538848876953125,STABILIZE
0.06,0.005,0.05,-0.17062867742780538,-0.005526100865535707,-0.0008531433871390269,0.005119713479595449,-0.0012595307730792855,0.06,0.005,0.05,-0.1170956675525183,-0.0009752952833615863,-0.0005854783377625915,0.007296886600104569,0.005736112978980391,0.002,8e-05,0,-0.7661408990185117,-0.0019454344201753064,-6.129127192148094e-05,-0.0,-0.0020067256920967874,0.1,0.02,0,-0.1519099253507883,-0.007897097740842862,-0.003038198507015766,0.0,-0.010935296247858627,-0.016254921389359772,0.0,0.016254921389359772,-0.09210168109226179,0.0,0.09210168109226179,-0.9727172100876532,0.0,0.9727172100876532,-0.07897097740842861,0,0.07897097740842861,-0.0012516234742115384,-0.005737843545685403,0.010935296247858627,0.4,0.03595232963562012,1.1898479461669922,STABILIZE
0.06,0.005,0.05,-0.17377561798098926,-0.005370851390934667,-0.0008688780899049463,0.004369631723312584,-0.0018700977575270292,0.06,0.005,0.05,-0.11760703465811355,-0.0008727450309113171,-0.0005880351732905678,0.005910646600896745,0.00444986639669486,0.002,8e-05,0,-0.8004541050529274,-0.0019520666421117584,-6.40363284042342e-05,-0.0,-0.0020161029705159927,0.1,0.02,0,-0.15437087604913932,-0.0070001324873496616,-0.0030874175209827867,0.0,-0.010087550008332448,-0.014545750515188619,0.0,0.014545750515188619,-0.08951418984891112,0.0,0.08951418984891112,-0.9760333210558791,0.0,0.9760333210558791,-0.07000132487349661,0,0.07000132487349661,-0.0018646597228604393,-0.004452147873676676,0.010087550008332448,0.4,0.0351557731628418,1.2249901294708252,STABILIZE
0.06,0.005,0.05,-0.17660210567199566,-0.0050661945806025266,-0.0008830105283599783,0.005115747070481017,-0.0008334580384814876,0.06,0.005,0.05,-0.11804834214707847,-0.0007909992377066947,-0.0005902417107353923,0.0056242841473225025,0.004243043198880416,0.002,8e-05,0,-0.8318011479185565,-0.0018728805977006142,-6.654409183348453e-05,-0.0,-0.0019394246895340988,0.1,0.02,0,-0.15624453801226787,-0.00559725067598119,-0.0031248907602453575,0.0,-0.008722141436226547,-0.013183320628444913,0.0,0.013183320628444913,-0.08443657634337544,0.0,0.08443657634337544,-0.9364402988503071,0.0,0.9364402988503071,-0.0559725067598119,0,0.0559725067598119,-0.0008293125933015682,-0.004243855383029232,0.008722141436226547,0.4,0.03347468376159668,1.2584724426269531,STABILIZE
0.06,0.005,0.05,-0.17932951832315797,-0.00489279433391955,-0.0008966475916157899,0.005486819050291363,-0.0003026228752439769,0.06,0.005,0.05,-0.11842678348774709,-0.0006788982395294053,-0.0005921339174387354,0.0050236200058213325,0.0037525878488531917,0.002,8e-05,0,-0.8630674604727465,-0.0018696551943042196,-6.904539683781973e-05,0.0,-0.0019387005911420394,0.1,0.02,0,-0.15796840272933074,-0.005154161714702186,-0.003159368054586615,0.0,-0.008313529769288801,-0.011314970658823422,0.0,0.011314970658823422,-0.08154657223199249,0.0,0.08154657223199249,-0.9348275971521098,0.0,0.9348275971521098,-0.05154161714702186,0,0.05154161714702186,-0.0002992470343464512,-0.0037528585612058986,0.008313529769288801,0.4,0.03344607353210449,1.2919297218322754,STABILIZE
0.06,0.005,0.05,-0.18254459114154953,-0.004848449567637787,-0.0009127229557077477,0.005151800211964551,-0.0006093723113809839,0.06,0.005,0.05,-0.11878899631071933,-0.0005462304290237657,-0.0005939449815535967,0.0041056840903719955,0.0029655086797946333,0.002,8e-05,0,-0.8999349145435428,-0.0018532498002008285,-7.199479316348344e-05,0.0,-0.001925244593364312,0.1,0.02,0,-0.16009474628963624,-0.005344342154366394,-0.003201894925792725,0.0,-0.008546237080159119,-0.009103840483729428,0.0,0.009103840483729428,-0.08080749279396311,0.0,0.08080749279396311,-0.9266249001004142,0.0,0.9266249001004142,-0.05344342154366394,0,0.05344342154366394,-0.0006066059279325078,-0.0029660757899979983,0.008546237080159119,0.4,0.03978681564331055,1.3317232131958008,STABILIZE
0.06,0.005,0.05,-0.1851775245269432,-0.004728394526627818,-0.0009258876226347159,0.0039015943859269987,-0.0017526877633355351,0.06,0.005,0.05,-0.11895187087445945,-0.0002925008281592029,-0.0005947593543722973,0.003273267969815199,0.0023860077872836986,0.002,8e-05,0,-0.9307565033361517,-0.0018450477144291754,-7.446052026689214e-05,0.0,-0.0019195082346960676,0.1,0.02,0,-0.1618590671294287,-0.005280805209106336,-0.0032371813425885743,0.0,-0.00851798655169491,-0.004875013802653382,0.0,0.004875013802653382,-0.07880657544379698,0.0,0.07880657544379698,-0.9225238572145876,0.0,0.9225238572145876,-0.05280805209106336,0,0.05280805209106336,-0.0017504878969577884,-0.002387622181026318,0.00851798655169491,0.4,0.033410072326660156,1.365121841430664,STABILIZE
0.06,0.005,0.05,-0.18821393124141855,-0.004723921201843814,-0.0009410696562070928,0.003184918620006564,-0.002480072238044343,0.06,0.005,0.05,-0.11903892339797333,-0.00013543286528144456,-0.0005951946169898666,0.003465875300382676,0.002735247818111365,0.002,8e-05,0,-0.9673608138317616,-0.0018982511752542845,-7.738886510654094e-05,0.0,-0.0019756400403608257,0.1,0.02,0,-0.16380375099970176,-0.00504243679536952,-0.0032760750199940353,0.0,-0.008318511815363555,-0.0022572144213574095,0.0,0.0022572144213574095,-0.07873202003073024,0.0,0.07873202003073024,-0.9491255876271423,0.0,0.9491255876271423,-0.0504243679536952,0,0.0504243679536952,-0.0024776640649656688,-0.0027374293988300514,0.008318511815363555,0.4,0.03856635093688965,1.4036951065063477,STABILIZE
0.06,0.005,0.05,-0.19082002376365267,-0.004669262832283922,-0.0009541001188182634,0.0019400942056443085,-0.003683268745457877,0.06,0.005,0.05,-0.11907879991725903,-7.144564047250238e-05,-0.0005953939995862952,0.0033773281107862723,0.002710488470727475,0.002,8e-05,0,-0.9991370499364043,-0.001897753014362055,-7.993096399491235e-05,-0.0,-0.0019776839783569675,0.1,0.02,0,-0.16541974308436136,-0.004825546108967698,-0.0033083948616872273,0.0,-0.008133940970654925,-0.0011907606745417063,0.0,0.0011907606745417063,-0.07782104720473203,0.0,0.07782104720473203,-0.9488765071810275,0.0,0.9488765071810275,-0.048255461089676974,0,0.048255461089676974,-0.00368098462080749,-0.0027135896194141343,0.008133940970654925,0.4,0.03348827362060547,1.4371867179870605,STABILIZE
0.06,0.005,0.05,-0.19323038203553722,-0.0043192785410675815,-0.0009661519101776861,0.0028181258207287075,-0.00246730463051656,0.06,0.005,0.05,-0.11898525622922569,0.00016762704909376383,-0.0005949262811461285,0.004008740193820271,0.003581440961767906,0.002,8e-05,0,-1.0309582669545136,-0.0019007506258881153,-8.24766613563611e-05,-0.0,-0.001983227287244476,0.1,0.02,0,-0.16696921473532514,-0.004627665888280144,-0.003339384294706503,0.0,-0.007967050182986646,0.002793784151562731,0.0,-0.002793784151562731,-0.07198797568445969,0.0,0.07198797568445969,-0.9503753129440576,0.0,0.9503753129440576,-0.04627665888280144,0,0.04627665888280144,-0.0024644111675952286,-0.0035834325861427065,0.007967050182986646,0.4,0.03348278999328613,1.470667839050293,STABILIZE
0.06,0.005,0.05,-0.19553899565555283,-0.004136042660628472,-0.0009776949782777642,0.003544254508849615,-0.0015694831300566221,0.06,0.005,0.05,-0.11880029379469204,0.0003313731294021134,-0.0005940014689734601,0.004267891715867377,0.00400526337629603,0.002,8e-05,0,-1.0624108387095572,-0.0018783160224743849,-8.499286709676459e-05,-0.0,-0.0019633088895711494,0.1,0.02,0,-0.16848619368640513,-0.0045296230333104915,-0.0033697238737281027,0.0,-0.007899346907038595,0.005522885490035224,0.0,-0.005522885490035224,-0.06893404434380787,0.0,0.06893404434380787,-0.9391580112371924,0.0,0.9391580112371924,-0.04529623033310491,0,0.04529623033310491,-0.0015663162054333432,-0.0040065029082265126,0.007899346907038595,0.4,0.03349018096923828,1.5042109489440918,STABILIZE
0.06,0.005,0.05,-0.19756669622798265,-0.003638725290610817,-0.0009878334811399133,0.005424358329340538,0.0007977995575898077,0.06,0.005,0.05,-0.11847004933689084,0.0005926263852878803,-0.0005923502466844542,0.004304438502380077,0.004304714640983503,0.002,8e-05,0,-1.0925683452533288,-0.0018039297526571533,-8.740546762026631e-05,0.0,-0.0018913352202774196,0.1,0.02,0,-0.17144788571145772,-0.008857967674557682,-0.0034289577142291544,-0.0,-0.012286925388786837,0.009877106421464672,0.0,-0.009877106421464672,-0.060645421510180285,0.0,0.060645421510180285,-0.9019648763285766,0.0,0.9019648763285766,-0.08857967674557682,0,0.08857967674557682,0.0008044537205226274,-0.004303476093337283,0.012286925388786837,0.4,0.03343534469604492,1.537602186203003,STABILIZE
0.06,0.005,0.05,-0.20008878992792165,-0.00452691849652114,-0.0010004439496396082,0.0009766310686953497,-0.004550731377465398,0.06,0.005,0.05,-0.11825230079191551,0.0003908379438334312,-0.0005912615039595776,0.002619574098961682,0.0024191505388355358,0.002,8e-05,0,-1.1233400214761413,-0.0018410744779939249,-8.986720171809131e-05,0.0,-0.001930941679712016,0.1,0.02,0,-0.1706922651348624,0.0022604452038029773,-0.0034138453026972483,0.0,-0.001153400098894271,0.006513965730557188,0.0,-0.006513965730557188,-0.07544864160868567,0.0,0.07544864160868567,-0.9205372389969624,0.0,0.9205372389969624,0.02260445203802977,0,-0.02260445203802977,-0.0045516854316690865,-0.0024173549864527116,0.001153400098894271,0.4,0.03342795372009277,1.5710206031799316,STABILIZE
0.06,0.005,0.05,-0.20309501933966986,-0.005390398309916582,-0.0010154750966983493,-0.0035961882107646195,-0.01000206161737955,0.06,0.005,0.05,-0.11822209886413737,5.4154356888156116e-05,-0.0005911104943206869,0.0006241756812599171,8.721954382738637e-05,0.002,8e-05,0,-1.1536822939869253,-0.0018135335227797847,-9.229458351895403e-05,0.0,-0.0019058281062987387,0.1,0.02,0,-0.16608260287083693,0.013775792570467477,-0.0033216520574167385,0.0,0.010454140513050738,0.000902572614802602,0.0,-0.000902572614802602,-0.08983997183194305,0.0,0.08983997183194305,-0.9067667613898923,0.0,0.9067667613898923,0.13775792570467477,0,-0.13775792570467477,-0.010002242411745068,-6.317106434796254e-05,-0.010454140513050738,0.4,0.0334620475769043,1.6045026779174805,STABILIZE
0.06,0.005,0.05,-0.20621294837669918,-0.005598822184748012,-0.001031064741883496,-0.00637792045167154,-0.013007807378303048,0.06,0.005,0.05,-0.11722065461039392,0.0017982796394844522,-0.0005861032730519696,0.008133874970521008,0.00934605133695349,0.002,8e-05,0,-1.1855378224238504,-0.001906751107346751,-9.484302579390804e-05,-0.0,-0.002001594133140659,0.1,0.02,0,-0.1682261672455203,-0.006415281656980562,-0.003364523344910406,-0.0,-0.009779805001890969,0.029971327324740872,0.0,-0.029971327324740872,-0.09331370307913353,0.0,0.09331370307913353,-0.9533755536733755,0.0,0.9533755536733755,-0.06415281656980562,0,0.06415281656980562,-0.012997334659798703,-0.009360610029544051,0.009779805001890969,0.4,0.03341341018676758,1.6379036903381348,STABILIZE
0.06,0.005,0.05,-0.20766147957605785,-0.0025999572935616524,-0.0010383073978802893,0.007661966203001654,0.004023701511559712,0.06,0.005,0.05,-0.1190616187695576,-0.0033043321365272566,-0.0005953080938477881,-0.018121681755304334,-0.02202132198567938,0.002,8e-05,0,-1.2159802927688848,-0.0018213650453334923,-9.727842342151078e-05,0.0,-0.0019186434687550032,0.1,0.02,0,-0.17142982691788433,-0.009583706049893835,-0.003428596538357687,-0.0,-0.013012302588251522,-0.05507220227545428,0.0,0.05507220227545428,-0.04333262155936087,0.0,0.04333262155936087,-0.9106825226667461,0.0,0.9106825226667461,-0.09583706049893834,0,0.09583706049893834,0.003986861445696926,0.022028021510428694,0.013012302588251522,0.4,0.033428192138671875,1.6713809967041016,STABILIZE
0.06,0.005,0.05,-0.20834625438497312,-0.0012280283845788624,-0.0010417312719248656,0.012017198237232588,0.00974743858072886,0.06,0.005,0.05,-0.12047600449735422,-0.0025364627872758293,-0.0006023800224867711,-0.015598839113156774,-0.018737681922919375,0.002,8e-05,0,-1.2457055435986397,-0.001776907838042398,-9.965644348789118e-05,0.0,-0.0018765642815302892,0.1,0.02,0,-0.17515652711186888,-0.011138682769493466,-0.0035031305422373775,-0.0,-0.014641813311730843,-0.04227437978793049,0.0,0.04227437978793049,-0.02046713974298104,0.0,0.02046713974298104,-0.888453919021199,0.0,0.888453919021199,-0.11138682769493465,0,0.11138682769493465,0.009710992877006192,0.01875659617500777,0.014641813311730843,0.4,0.033457279205322266,1.7048008441925049,STABILIZE
0.06,0.005,0.05,-0.20832872749476014,3.143332010425159e-05,-0.0010416436374738008,0.022719930969853003,0.021709720652483454,0.06,0.005,0.05,-0.1212730076767873,-0.001429372567455791,-0.0006063650383839365,-0.00907749391656332,-0.011113231522403049,0.002,8e-05,0,-1.2737797686797467,-0.001678308954470258,-0.00010190238149437975,0.0,-0.0017802113359646377,0.1,0.02,0,-0.1791629384201282,-0.011975390156837363,-0.003583258768402564,-0.0,-0.015558648925239928,-0.023822876124263186,0.0,0.023822876124263186,0.0005238886684041932,0.0,-0.0005238886684041932,-0.8391544772351289,0.0,0.8391544772351289,-0.11975390156837362,0,0.11975390156837362,0.021686445485955382,0.011158582699612207,0.015558648925239928,0.4,0.03345537185668945,1.7382638454437256,STABILIZE
0.06,0.005,0.05,-0.20877978549021337,-0.0008102766150122804,-0.0010438989274510668,0.02282061083386517,0.02096643529140182,0.06,0.005,0.05,-0.12101355464909443,0.0004660791365031148,-0.0006050677732454721,0.002057706310989665,0.0019187176742473076,0.002,8e-05,0,-1.3000009111495068,-0.001570114322054724,-0.00010400007289196055,0.0,-0.0016741143949466847,0.1,0.02,0,-0.18359018449719078,-0.013255109842893412,-0.0036718036899438156,-0.0,-0.016926913532837227,0.0077679856083852465,0.0,-0.0077679856083852465,-0.013504610250204675,0.0,0.013504610250204675,-0.785057161027362,0.0,0.785057161027362,-0.13255109842893412,0,0.13255109842893412,0.020970818043944142,-0.0018702077183552458,0.016926913532837227,0.4,0.03340029716491699,1.7716505527496338,STABILIZE
0.06,0.005,0.05,-0.20900387353354233,-0.0003995720592993507,-0.0010450193676677117,0.025894478607048778,0.024449887180081717,0.06,0.005,0.05,-0.12145487224013458,-0.0007869147145796885,-0.000607274361200673,-0.012848179248869527,-0.014242368324649889,0.002,8e-05,0,-1.3258215136439349,-0.0015346931140367657,-0.0001060657210915148,0.0,-0.0016407588351282805,0.1,0.02,0,-0.18902627719163734,-0.01615518853061819,-0.003780525543832747,-0.0,-0.019935714074450935,-0.01311524524299481,0.0,0.01311524524299481,-0.006659534321655845,0.0,0.006659534321655845,-0.7673465570183828,0.0,0.7673465570183828,-0.1615518853061819,0,0.1615518853061819,0.02440963208537255,0.014311250821310684,0.019935714074450935,0.4,0.03364920616149902,1.8053081035614014,STABILIZE
0.06,0.005,0.05,-0.20902341201606736,-3.503373773270473e-05,-0.001045117060080337,0.01275837093009426,0.011678220132281219,0.06,0.005,0.05,-0.12257134248574253,-0.002001901924618005,-0.0006128567124287127,0.006540956269096241,0.003926197632049523,0.002,8e-05,0,-1.3508650538664528,-0.0014968218385258134,-0.00010806920430931624,0.0,-0.0016048910428351298,0.1,0.02,0,-0.19531501449735036,-0.01879350773154545,-0.003906300289947007,-0.0,-0.022699808021492456,-0.03336503207696675,0.0,0.03336503207696675,-0.0005838956288784121,0.0,0.0005838956288784121,-0.7484109192629067,0.0,0.7484109192629067,-0.1879350773154545,0,0.1879350773154545,0.011691035551885035,-0.003887871014898749,0.022699808021492456,0.4,0.0334622859954834,1.8387916088104248,STABILIZE
0.06,0.005,0.05,-0.20900344246343897,3.578092492845356e-05,-0.001045017212317195,0.006276593827304361,0.0052673575399156194,0.06,0.005,0.05,-0.12083781582783182,0.0031060879711423905,-0.0006041890791391591,0.02813906449385636,0.03064096338585959,0.002,8e-05,0,-1.3761192716702888,-0.0015083283506322563,-0.00011008954173362311,0.0,-0.0016184178923658794,0.1,0.02,0,-0.20456190929593215,-0.02761390926527978,-0.004091238185918643,-0.0,-0.03170514745119842,0.05176813285237317,0.0,-0.05176813285237317,0.0005963487488075594,0.0,-0.0005963487488075594,-0.7541641753161281,0.0,0.7541641753161281,-0.2761390926527978,0,0.2761390926527978,0.005414971030579883,-0.030615221400552936,0.03170514745119842,0.4,0.033486366271972656,1.8722620010375977,STABILIZE
0.06,0.005,0.05,-0.20812247834861555,0.0015799509602173226,-0.0010406123917430779,0.007694942684329681,0.008234281252803927,0.06,0.005,0.05,-0.11859384567945885,0.004024412267157523,-0.0005929692283972943,0.02719867777702102,0.030630120815781252,0.002,8e-05,0,-1.4006347561156913,-0.0014655634108876703,-0.00011205078048925531,0.0,-0.0015776141913769256,0.1,0.02,0,-0.21529031246919522,-0.032067804295285156,-0.004305806249383905,-0.0,-0.03637361054466906,0.06707353778595873,0.0,-0.06707353778595873,0.026332516003622044,0.0,-0.026332516003622044,-0.7327817054438351,0.0,0.7327817054438351,-0.3206780429528515,0,0.3206780429528515,0.008405584734145051,-0.030583554963685006,0.03637361054466906,0.4,0.03345537185668945,1.9057273864746094,STABILIZE
0.06,0.005,0.05,-0.2087125592255236,-0.0010223452523551036,-0.001043562796127618,-0.0006288649671165598,-0.0026947730155992815,0.06,0.005,0.05,-0.11684168624839175,0.0030357056902215224,-0.0005842084312419588,0.012982129442739155,0.015433626701718718,0.002,8e-05,0,-1.425930767700213,-0.0014608877279368541,-0.00011407446141601705,0.0,-0.0015749621893528711,0.1,0.02,0,-0.2228663559458095,-0.021876470336679575,-0.00445732711891619,-0.0,-0.026333797455595765,0.05059509483702537,0.0,-0.05059509483702537,-0.017039087539251728,0.0,0.017039087539251728,-0.7304438639684271,0.0,0.7304438639684271,-0.21876470336679574,0,0.21876470336679574,-0.002635825392659247,-0.01544380326451421,0.026333797455595765,0.4,0.03463101387023926,1.9403586387634277,STABILIZE
0.06,0.005,0.05,-0.20427345347024212,0.007517395153310469,-0.0010213672673512106,0.03750801986998883,0.044004047755948086,0.06,0.005,0.05,-0.11510554333999609,0.0029400678885606497,-0.0005755277166999804,0.018738405624906525,0.021102945796767195,0.002,8e-05,0,-1.4511807289703045,-0.001425316621087693,-0.00011609445831762436,0.0,-0.0015414110794053173,0.1,0.02,0,-0.22972600796196674,-0.01936077431747922,-0.004594520159239335,-0.0,-0.023955294476718555,0.04900113147601083,0.0,-0.04900113147601083,0.12528991922184116,0.0,-0.12528991922184116,-0.7126583105438465,0.0,0.7126583105438465,-0.19360774317479218,0,0.19360774317479218,0.044075105202976646,-0.020954131849246212,0.023955294476718555,0.4,0.0354306697845459,1.9758050441741943,STABILIZE
0.06,0.005,0.05,-0.19440861357124642,0.017693956401458485,-0.0009720430678562322,0.08639532955892021,0.10311724289252246,0.06,0.005,0.05,-0.1133390151127225,0.003168512997206044,-0.0005666950755636125,0.02592811957889419,0.02852993750053662,0.002,8e-05,0,-1.4750721915727119,-0.0014284215523089178,-0.00011800577532581696,0.0,-0.0015464273276347348,0.1,0.02,0,-0.23569969770639498,-0.017857732947852836,-0.0047139939541279,0.0,-0.022571726901980733,0.05280854995343407,0.0,-0.05280854995343407,0.29489927335764143,0.0,-0.29489927335764143,-0.7142107761544589,0.0,0.7142107761544589,-0.17857732947852833,0,0.17857732947852833,0.10320566293339259,-0.02820840750590068,0.022571726901980733,0.4,0.03345155715942383,2.0092363357543945,STABILIZE
0.06,0.005,0.05,-0.18917187511052433,0.009335791846061843,-0.0009458593755526216,0.04465256313041621,0.05304249560092543,0.06,0.005,0.05,-0.11339741308390784,-0.00010410894248545964,-0.0005669870654195392,-0.015701402380842118,-0.016372498388747117,0.002,8e-05,0,-1.5000738639495645,-0.0014857238009524179,-0.00012000590911596517,0.0,-0.001605729710068383,0.1,0.02,0,-0.23646552460032905,-0.002275462270237419,-0.004729310492006581,0.0,-0.007004772762244,-0.0017351490414243276,0.0,0.0017351490414243276,0.1555965307676974,0.0,-0.1555965307676974,-0.7428619004762089,0.0,0.7428619004762089,-0.02275462270237419,0,0.02275462270237419,0.053035989193556426,0.016393562557439616,0.007004772762244,0.4,0.03365588188171387,2.0429556369781494,STABILIZE
0.06,0.005,0.05,-0.18082017531650582,0.014987941832911826,-0.0009041008765825291,0.06513580976078402,0.07921965071711332,0.06,0.005,0.05,-0.10973288096334968,0.006576361174655629,-0.0005486644048167484,0.013025827625756124,0.019053524395595003,0.002,8e-05,0,-1.5260938275225258,-0.0015565122874959937,-0.00012208750620180207,-0.0,-0.0016785997936977959,0.1,0.02,0,-0.24051348992256222,-0.01210744923940064,-0.004810269798451244,0.0,-0.016917719037851883,0.10960601957759382,0.0,-0.10960601957759382,0.24979903054853045,0.0,-0.24979903054853045,-0.7782561437479969,0.0,0.7782561437479969,-0.12107449239400639,0,0.12107449239400639,0.07925973674074457,-0.018886079090770287,0.016917719037851883,0.4,0.03343367576599121,2.076334238052368,STABILIZE
0.06,0.005,0.05,-0.17460759471672316,0.01114582453803643,-0.0008730379735836158,0.05851239669221772,0.06878518325667053,0.06,0.005,0.05,-0.10361593299342368,0.01097425259697695,-0.0005180796649671184,0.039701171790805984,0.050157344722815814,0.002,8e-05,0,-1.5522096926141193,-0.001561792480568197,-0.00012417677540912955,-0.0,-0.0016859692559773266,0.1,0.02,0,-0.23573574022402166,0.014286054716256597,-0.004714714804480434,0.0,0.009571339911776163,0.18290420994961584,0.0,-0.18290420994961584,0.18576374230060716,0.0,-0.18576374230060716,-0.7808962402840984,0.0,0.7808962402840984,0.14286054716256597,0,-0.14286054716256597,0.06865990790113567,-0.050328696707789826,-0.009571339911776163,0.4,0.033443450927734375,2.109778881072998,STABILIZE
0.06,0.005,0.05,-0.1674893507933312,0.012772745172168894,-0.000837446753966656,0.026450414366268285,0.03838571278447052,0.06,0.005,0.05,-0.10246958749113878,0.002056965051707563,-0.0005123479374556939,-0.004295863847224891,-0.0027512467329730223,0.002,8e-05,0,-1.580670396073783,-0.001702298659722073,-0.00012645363168590265,-0.0,-0.0018287522914079758,0.1,0.02,0,-0.23129961303061708,0.01326673704041072,-0.004625992260612341,0.0,0.00864074477979838,0.03428275086179272,0.0,-0.03428275086179272,0.2128790862028149,0.0,-0.2128790862028149,-0.8511493298610365,0.0,0.8511493298610365,0.1326673704041072,0,-0.1326673704041072,0.038391980340567115,0.002662357993784066,-0.00864074477979838,0.4,0.03343796730041504,2.1432406902313232,STABILIZE
0.06,0.005,0.05,-0.15937672625844068,0.014557963578375384,-0.0007968836312922034,-0.0153538312939558,-0.001592751346872619,0.06,0.005,0.05,-0.10604585280639663,-0.006417545885701901,-0.0005302292640319831,-0.04767672598007088,-0.05462450112980476,0.002,8e-05,0,-1.6117373265914363,-0.0018583022096108927,-0.00012893898612731492,-0.0,-0.0019872411957382076,0.1,0.02,0,-0.22693181011097624,0.013063243908343722,-0.0045386362022195245,0.0,0.008524607706124197,-0.10695909809503168,0.0,0.10695909809503168,0.2426327263062564,0.0,-0.2426327263062564,-0.9291511048054464,0.0,0.9291511048054464,0.13063243908343722,0,-0.13063243908343722,-0.0014682053002841367,0.05462799057012096,-0.008524607706124197,0.4,0.033435821533203125,2.17668080329895,STABILIZE
0.06,0.005,0.05,-0.14940417896017233,0.017899136317854145,-0.0007470208948008617,0.04269446235821683,0.05984657778127011,0.06,0.005,0.05,-0.10826353276410255,-0.003980382813450688,-0.0005413176638205128,-0.019319546586675482,-0.023841247063946684,0.002,8e-05,0,-1.6443018612069422,-0.001948272013749967,-0.0001315441488965554,-0.0,-0.002079816162646522,0.1,0.02,0,-0.2251554527402998,0.005313798266380704,-0.0045031090548059965,0.0,0.0008106892115747073,-0.06633971355751148,0.0,0.06633971355751148,0.2983189386309024,0.0,-0.2983189386309024,-0.9741360068749835,0.0,0.9741360068749835,0.05313798266380704,0,-0.05313798266380704,0.0598686631935939,0.023785733142070158,-0.0008106892115747073,0.4,0.03342914581298828,2.2100870609283447,STABILIZE
0.06,0.005,0.05,-0.14321897591904106,0.011085011475386288,-0.0007160948795952053,-0.019404120333437243,-0.009035203737646161,0.06,0.005,0.05,-0.1076313736978545,0.001132944295770048,-0.0005381568684892725,-0.027166053222185828,-0.02657126579490505,0.002,8e-05,0,-1.677084352718859,-0.0019584067124113255,-0.00013416674821750875,-0.0,-0.002092573460628834,0.1,0.02,0,-0.22012142748879368,0.01503648500818482,-0.004402428549775874,0.0,0.010634056458408946,0.0188824049295008,0.0,-0.0188824049295008,0.18475019125643816,0.0,-0.18475019125643816,-0.9792033562056628,0.0,0.9792033562056628,0.1503648500818482,0,-0.1503648500818482,-0.00896544009112159,0.026594885908700117,-0.010634056458408946,0.4,0.033478736877441406,2.2435965538024902,STABILIZE
0.06,0.005,0.05,-0.1359812211341337,0.01299831320227338,-0.0006799061056706685,0.009287952224912613,0.021606359321515327,0.06,0.005,0.05,-0.10938229102780823,-0.0031444795412916317,-0.0005469114551390412,-0.07042155905582842,-0.0741129500522591,0.002,8e-05,0,-1.7094047185031243,-0.0019348092042390536,-0.00013675237748024996,-0.0,-0.0020715615817193038,0.1,0.02,0,-0.21502141067092367,0.01526523484736164,-0.004300428213418473,0.0,0.010964806633943166,-0.05240799235486053,0.0,0.05240799235486053,0.216638553371223,0.0,-0.216638553371223,-0.9674046021195268,0.0,0.9674046021195268,0.1526523484736164,0,-0.1526523484736164,0.02180374050448735,0.07405512155544722,-0.010964806633943166,0.4,0.03340935707092285,2.276979446411133,STABILIZE
0.06,0.005,0.05,-0.1301338142409893,0.01042527294896699,-0.0006506690712049465,-0.011564093933434069,-0.0017894900556720255,0.06,0.005,0.05,-0.11052116321480498,-0.002030481822181438,-0.0005526058160740249,-0.0204576037555338,-0.023040691393789264,0.002,8e-05,0,-1.7411422002387433,-0.0018861460920657725,-0.00013929137601909948,-0.0,-0.002025437468084872,0.1,0.02,0,-0.20948374888207907,0.016455053411639966,-0.004189674977641581,0.0,0.012265378433998384,-0.03384136370302397,0.0,0.03384136370302397,0.17375454914944982,0.0,-0.17375454914944982,-0.9430730460328862,0.0,0.9430730460328862,0.16455053411639964,0,-0.16455053411639964,-0.0017233110851702573,0.023045735689426645,-0.012265378433998384,0.4,0.03365325927734375,2.3106436729431152,STABILIZE
0.06,0.005,0.05,-0.12330405070673543,0.01224305862114374,-0.0006165202535336772,-0.011411244627974694,0.00021529373963536866,0.06,0.005,0.05,-0.11060015405335502,-0.00014159926065537203,-0.0005530007702667752,0.031190674271296844,0.030496074240374697,0.002,8e-05,0,-1.7724317554191915,-0.0018696589634592123,-0.00014179454043353534,-0.0,-0.0020114535038927477,0.1,0.02,0,-0.20481219402241674,0.0139570766766874,-0.004096243880448335,0.0,0.009860832796239064,-0.002359987677589534,0.0,0.002359987677589534,0.20405097701906233,0.0,-0.20405097701906233,-0.9348294817296061,0.0,0.9348294817296061,0.139570766766874,0,-0.139570766766874,0.00014100567006666427,-0.030496508207822424,-0.009860832796239064,0.4,0.033470869064331055,2.3441340923309326,STABILIZE
0.06,0.005,0.05,-0.11539709158456742,0.014184854693732173,-0.000576985457922837,-0.018392766831510313,-0.004784897595700978,0.06,0.005,0.05,-0.11376295358239333,-0.005673970366057958,-0.0005688147679119666,-0.008529417262594837,-0.014772202396564762,0.002,8e-05,0,-1.8033937026434148,-0.0018514944267229694,-0.00014427149621147318,0.0,-0.0019957659229344425,0.1,0.02,0,-0.20098919283097438,0.011430588244419294,-0.004019783856619488,0.0,0.007410804387799806,-0.09456617276763263,0.0,0.09456617276763263,0.23641424489553622,0.0,-0.23641424489553622,-0.9257472133614847,0.0,0.9257472133614847,0.11430588244419293,0,-0.11430588244419293,-0.004755417342476745,0.014781718930668724,-0.007410804387799806,0.4,0.03344535827636719,2.37756085395813,STABILIZE
0.06,0.005,0.05,-0.10975868530290864,0.010117949823854583,-0.0005487934265145432,-0.004742166800363297,0.004826989596976743,0.06,0.005,0.05,-0.11694857532762024,-0.00571650203371006,-0.0005847428766381012,-0.03419701777608189,-0.04049826268643005,0.002,8e-05,0,-1.8342935088736392,-0.0018482923092484418,-0.00014674348070989115,0.0,-0.001995035789958333,0.1,0.02,0,-0.1953201180412245,0.016954972559342193,-0.00390640236082449,0.0,0.013048570198517703,-0.09527503389516767,0.0,0.09527503389516767,0.16863249706424305,0.0,-0.16863249706424305,-0.9241461546242209,0.0,0.9241461546242209,0.16954972559342193,0,-0.16954972559342193,0.004946810785140844,0.04048380135615266,-0.013048570198517703,0.4,0.03343605995178223,2.411024808883667,STABILIZE
0.06,0.005,0.05,-0.10637590474157663,0.006066620600394981,-0.0005318795237078831,-0.03446908523320616,-0.028934344156519062,0.06,0.005,0.05,-0.12010546314248544,-0.00566150842585424,-0.0006005273157124272,-0.012584608256430619,-0.018846643997997285,0.002,8e-05,0,-1.8649781293306218,-0.001834309056357398,-0.00014919825034644975,0.0,-0.001983507306703848,0.1,0.02,0,-0.18791488698053735,0.02213402381509086,-0.003758297739610747,0.0,0.01837572607548011,-0.09435847376423734,0.0,0.09435847376423734,0.10111034333991635,0.0,-0.10111034333991635,-0.917154528178699,0.0,0.917154528178699,0.22134023815090859,0,-0.22134023815090859,-0.02886132166413223,0.0189582798152846,-0.01837572607548011,0.4,0.03345632553100586,2.444505214691162,STABILIZE
0.06,0.005,0.05,-0.10217571828351228,0.007540280005338098,-0.0005108785914175614,-0.014377436640140247,-0.007348035226219711,0.06,0.005,0.05,-0.12032344611731763,-0.00039132850006586283,-0.0006016172305865882,0.008179351942042057,0.007186406211389606,0.002,8e-05,0,-1.8957049729508688,-0.0018387199940616658,-0.00015165639783606952,0.0,-0.0019903763918977355,0.1,0.02,0,-0.18136412869010546,0.019600142458084203,-0.003627282573802109,0.0,0.015972859884282094,-0.006522141667764381,0.0,0.006522141667764381,0.12567133342230163,0.0,-0.12567133342230163,-0.9193599970308329,0.0,0.9193599970308329,0.19600142458084202,0,-0.19600142458084202,-0.007372575946498912,-0.007161227536810329,-0.015972859884282094,0.4,0.033421993255615234,2.477903127670288,STABILIZE
0.06,0.005,0.05,-0.09938228389895255,0.005009947197270396,-0.0004969114194947628,-0.036034800324746166,-0.03152176454697053,0.06,0.005,0.05,-0.12422798801479878,-0.007002687746679842,-0.000621139940073994,-0.0341631684699829,-0.041786996156736735,0.002,8e-05,0,-1.9258795974112335,-0.0018039117734961812,-0.0001540703677928987,0.0,-0.00195798214128908,0.1,0.02,0,-0.17395350118811054,0.022151258613678296,-0.003479070023762211,0.0,0.018672188589916084,-0.11671146244466403,0.0,0.11671146244466403,0.08349911995450661,0.0,-0.08349911995450661,-0.9019558867480906,0.0,0.9019558867480906,0.22151258613678296,0,-0.22151258613678296,-0.031359975665988284,0.04190855060946873,-0.018672188589916084,0.4,0.03345465660095215,2.511383533477783,STABILIZE
0.06,0.005,0.05,-0.09500828222631304,0.006641207405871123,-0.0004750414111315652,-0.038831254167374665,-0.03266508817263511,0.06,0.005,0.05,-0.1267477470259342,-0.0038258426626674507,-0.000633738735129671,0.006804702194126238,0.0023451207963291164,0.002,8e-05,0,-1.9614426439468648,-0.001799889328690709,-0.0001569154115157492,0.0,-0.001956804740206458,0.1,0.02,0,-0.1664167259993766,0.019072271017826978,-0.003328334519987532,0.0,0.015743936497839447,-0.06376404437779085,0.0,0.06376404437779085,0.11068679009785205,0.0,-0.11068679009785205,-0.8999446643453545,0.0,0.8999446643453545,0.19072271017826975,0,-0.19072271017826975,-0.03267271348119245,-0.00223637444344785,-0.015743936497839447,0.4,0.03951692581176758,2.5508840084075928,STABILIZE
0.06,0.005,0.05,-0.09212615931649178,0.005170592110904916,-0.0004606307965824589,-0.025887860572243293,-0.021177899257920837,0.06,0.005,0.05,-0.12888415169234996,-0.0038327571236560507,-0.0006444207584617498,0.0069822496879048054,0.002505071805787005,0.002,8e-05,0,-1.9914174912307496,-0.0017925179198464,-0.00015931339929845998,0.0,-0.00195183131914486,0.1,0.02,0,-0.15951416697544302,0.02063890538960389,-0.0031902833395088606,0.0,0.01744862205009503,-0.06387928539426752,0.0,0.06387928539426752,0.0861765351817486,0.0,-0.0861765351817486,-0.8962589599231999,0.0,0.8962589599231999,0.2063890538960389,0,-0.2063890538960389,-0.021186785531213656,-0.0024287693561037354,-0.01744862205009503,0.4,0.03344440460205078,2.584308624267578,STABILIZE
0.06,0.005,0.05,-0.08966136739829511,0.004419874562488226,-0.00044830683699147557,-0.009445097693898116,-0.005473529968401366,0.06,0.005,0.05,-0.13286131609555477,-0.0071318668512268145,-0.0006643065804777738,-0.009724975679771283,-0.01752114911147587,0.002,8e-05,0,-2.021508547527603,-0.0017986466836271537,-0.00016172068380220826,0.0,-0.001960367367429362,0.1,0.02,0,-0.15249989675589704,0.020963361578254694,-0.0030499979351179406,-0.0,0.017913363643136754,-0.1188644475204469,0.0,0.1188644475204469,0.07366457604147043,0.0,-0.07366457604147043,-0.8993233418135769,0.0,0.8993233418135769,0.2096336157825469,0,-0.2096336157825469,-0.005409387150340899,0.017541058324949673,-0.017913363643136754,0.4,0.03345966339111328,2.6177730560302734,STABILIZE
0.06,0.005,0.05,-0.08631520332001273,0.0057928935424498606,-0.0004315760166000637,-0.01019113652348928,-0.004829818997639483,0.06,0.005,0.05,-0.13625885554153103,-0.005881834798405116,-0.0006812942777076552,-0.029994693094435594,-0.036557822170548364,0.002,8e-05,0,-2.052839662338147,-0.0018080186587554772,-0.0001642271729870518,0.0,-0.001972245831742529,0.1,0.02,0,-0.1461675360859365,0.01827101639135575,-0.00292335072171873,-0.0,0.015347665669637021,-0.0980305799734186,0.0,0.0980305799734186,0.09654822570749767,0.0,-0.09654822570749767,-0.9040093293777386,0.0,0.9040093293777386,0.1827101639135575,0,-0.1827101639135575,-0.004713215620445731,0.03657303804606043,-0.015347665669637021,0.4,0.034657955169677734,2.652434825897217,STABILIZE
0.06,0.005,0.05,-0.08368740828162063,0.004625683909533075,-0.0004184370414081032,-0.003292655368530482,0.0009145914995944897,0.06,0.005,0.05,-0.14006141859877008,-0.0066936174594569055,-0.0007003070929938504,-0.0010271486718725243,-0.00842107322432328,0.002,8e-05,0,-2.083678032231663,-0.0018094834811260671,-0.00016669424257853305,-0.0,-0.0019761777237046,0.1,0.02,0,-0.13961116543482574,0.0192352002234384,-0.002792223308696515,-0.0,0.016442976914741884,-0.11156029099094843,0.0,0.11156029099094843,0.07709473182555125,0.0,-0.07709473182555125,-0.9047417405630336,0.0,0.9047417405630336,0.19235200223438398,0,-0.19235200223438398,0.0009428573154001947,0.008417955330324656,-0.016442976914741884,0.4,0.03408527374267578,2.6865203380584717,STABILIZE
