Mode,Time,Freq,time2delay,actualDelay,North-Desired,East-Desired,Down-Desired,Roll-UAV,Pitch-UAV,Yaw-UAV,Roll-Control,Pitch-Control,Yaw-Control,Thrust-Control,North-Pos,East-Pos,Down-Pos,Yaw-Ang,North-Vel,East-Vel,Down-Vel,Yaw-Vel,North-Acc,East-Acc,Down-Acc,North-Avg,East-Avg,Down-Avg,Yaw-Avg,North-Dif,East-Dif,Down-Dif,Yaw-Dif,North-One,East-One,Down-One,Yaw-One,North-Two,East-Two,Down-Two,Yaw-Two,Landing-State,Q-Size,Kalman-Time,Kalman-Dt
STABILIZE,0.03431510925292969,29.151403947734224,0.032679112752278645,0.03281831741333008,0.0,0.0,0.0,-0.23563821799256068,-0.9634774766576941,-127.86129152680044,-0.03005206412556413,0.02929573712326541,0.01779086052365028,0.4,0.09066549867298615,0.0927187250214428,0.12383456295362588,0.0886621382896898,-0.23449952714145184,-0.011382812954252586,1.4850298874080181,-0.03485138708553385,-3.946300595998764,-0.30581464525312185,22.79629409313202,0.0,0.0,0.0,0.0,0.0,0.0,0.0,0.0,0.0,0.0,0.0,0.0,0.0,0.0,0.0,0.0,False,0,0.14452695846557617,0.029846923828125
STABILIZE,0.06778240203857422,29.88162206833661,0.032363208134969075,0.03250408172607422,0.0,0.0,0.0,-0.23507814248061965,-0.964612888885503,-127.85746662086522,-0.005724343043270715,0.005604822602621118,0.019978648459498063,0.4,0.10247733384362515,0.10471267278815177,0.15041386186184094,0.09926920346680093,-0.023896509082987905,-0.05873951595276594,1.8824705854058266,-0.2118459210294824,-2.763574942946434,-0.3383312840014696,25.51961839199066,0.0,0.0,0.0,0.0,0.0,0.0,0.0,0.0,0.0,0.0,0.0,0.0,0.0,0.0,0.0,0.0,False,0,0.17321014404296875,0.034927001953125
STABILIZE,0.10109972953796387,30.01204974455114,0.03238871892293294,0.03250718116760254,0.0,0.0,0.0,-0.23527899273090033,-0.9656678329471526,-127.85567711130268,-0.006581195458354753,0.006487826618970344,0.022470068662228483,0.4,0.11627050879811221,0.1185753379060313,0.18173392949848743,0.11135384040332498,0.055106537183746696,0.006170237611513585,1.7014842480421066,-0.15026517559648545,1.03878453373909,-0.23099854588508606,22.401443123817444,0.0,0.0,0.0,0.0,0.0,0.0,0.0,0.0,0.0,0.0,0.0,0.0,0.0,0.0,0.0,0.0,False,0,0.20187640190124512,0.03492626953125
STABILIZE,0.13454556465148926,29.898875843829973,0.0325200875600179,0.03264570236206055,0.0,0.0,0.0,-0.2349443134615697,-0.9657779697475191,-127.8513467713689,-0.009002195377036738,0.00952227682099208,0.026097197753921896,0.4,0.13865476530381204,0.13905078933576087,0.241930057491389,0.12905797300349572,0.1682901056483388,-0.08849785081110895,1.485783513635397,-0.086012118650721,2.593006193637848,-2.3865925148129463,19.740259647369385,0.0,0.0,0.0,0.0,0.0,0.0,0.0,0.0,0.0,0.0,0.0,0.0,0.0,0.0,0.0,0.0,False,0,0.26030445098876953,0.03492626953125
STABILIZE,0.16803956031799316,29.856947608200457,0.03252390225728353,0.03267836570739746,0.0,0.0,0.0,-0.2350201925943803,-0.9649905770022635,-127.84969386558976,-0.00535773187670322,0.005044051853120288,0.027538503723160798,0.4,0.14550897991560555,0.14678265189868234,0.2742012346863069,0.13580986742352175,-0.10514726163819432,0.0069568020990118384,1.930023543536663,-0.02554009834898091,-1.9096273928880692,-0.19283057190477848,23.140399158000946,0.0,0.0,0.0,0.0,0.0,0.0,0.0,0.0,0.0,0.0,0.0,0.0,0.0,0.0,0.0,0.0,False,0,0.28901052474975586,0.039915771484375
STABILIZE,0.20151209831237793,29.875662430907745,0.0325041135152181,0.03262472152709961,0.0,0.0,0.0,-0.23465872617689854,-0.9653750953081941,-127.84806828056729,-0.006064116956732519,0.005297146203540873,0.02929456385027283,0.4,0.15264766297170815,0.1561496576599868,0.3104219181288704,0.14410828892637,-0.16346503980457783,0.06437724805437028,1.717899926006794,0.03824200237927661,-2.993466332554817,1.6238704323768616,18.941763043403625,0.0,0.0,0.0,0.0,0.0,0.0,0.0,0.0,0.0,0.0,0.0,0.0,0.0,0.0,0.0,0.0,False,0,0.31769466400146484,0.02993701171875
STABILIZE,0.23499178886413574,29.868854326895686,0.03244069417317708,0.03257107734680176,0.0,0.0,0.0,-0.23546394144701957,-0.9647656076464762,-127.84384722366022,-0.004095905658391604,0.003725089452677309,0.02990102704302517,0.4,0.1543161771987222,0.15868988609944576,0.3327672255922667,0.14665011085818408,-0.0077402350143529475,0.06701095262542367,1.5948174521327019,0.09094607655240897,-2.4848800152540207,-0.2578861778602004,22.573542594909668,0.0,0.0,0.0,0.0,0.0,0.0,0.0,0.0,0.0,0.0,0.0,0.0,0.0,0.0,0.0,0.0,False,0,0.3463919162750244,0.02993701171875
STABILIZE,0.2683901786804199,29.941563216093318,0.032425912221272786,0.03255867958068848,0.0,0.0,0.0,-0.2357025711811469,-0.9640325362494635,-127.8419620914493,-0.003946782237218657,0.0035441758155027293,0.030385877775315748,0.4,0.15523074959956124,0.1605202503446316,0.3547605296604263,0.1485774313502219,-0.0077402350143529475,0.06701095262542367,1.5948174521327019,0.09094607655240897,-2.4848800152540207,-0.2578861778602004,22.573542594909668,0.0,0.0,0.0,0.0,0.0,0.0,0.0,0.0,0.0,0.0,0.0,0.0,0.0,0.0,0.0,0.0,False,0,0.37566494941711426,0.02993701171875
STABILIZE,0.30179476737976074,29.934511404835995,0.0324437936147054,0.03255867958068848,0.0,0.0,0.0,-0.23620608418902378,-0.9633448215774078,-127.8386836006477,-0.0038543774835372935,0.0025523291895154635,0.03078450126568129,0.4,0.15289872781589736,0.1618688156831377,0.37928839396602987,0.1500687779364522,-0.24298198986798525,0.07978961803019047,1.8607735633850098,0.10044972449352635,-4.640161246061325,0.15412889188155532,35.87923049926758,0.0,0.0,0.0,0.0,0.0,0.0,0.0,0.0,0.0,0.0,0.0,0.0,0.0,0.0,0.0,0.0,False,0,0.4039003849029541,0.034927001953125
STABILIZE,0.3352978229522705,29.848873453934726,0.0325198491414388,0.032655954360961914,0.0,0.0,0.0,-0.23695911254501767,-0.9631457855961254,-127.83679846843677,-0.00428275860678999,0.003521241654533303,0.0307982333206907,0.4,0.1536728380916601,0.16438307386632747,0.412939473981942,0.14963674443106673,-0.0686170591507107,0.04608904127962887,2.131837047636509,-0.1914086876919084,-1.0335514321923256,1.7152003943920135,27.65316665172577,0.0,0.0,0.0,0.0,0.0,0.0,0.0,0.0,0.0,0.0,0.0,0.0,0.0,0.0,0.0,0.0,False,0,0.4327719211578369,0.034927001953125
STABILIZE,0.3687324523925781,29.909962847016708,0.03247884114583333,0.03258204460144043,0.0,0.0,0.0,-0.23675207243580168,-0.9634774766576941,-127.83491333622585,-0.0037053726000577185,0.0022529351024116848,0.0299922515038146,0.4,0.15034158321885266,0.16485270498260263,0.46111446320467764,0.1451220576220999,0.01721811422612518,0.00829187483759597,1.7201509326696396,-0.17796077892788056,0.128236785531044,-0.6334105506539345,17.220023274421692,0.0,0.0,0.0,0.0,0.0,0.0,0.0,0.0,0.0,0.0,0.0,0.0,0.0,0.0,0.0,0.0,False,0,0.4965236186981201,0.03492578125
STABILIZE,0.40218544006347656,29.89163109245494,0.032459290822347005,0.03259682655334473,0.0,0.0,0.0,-0.23748887909251679,-0.9633514383231663,-127.83103378877728,-0.003528986437505203,0.0023787139047903487,0.030289130583600977,0.4,0.1475285957378319,0.16465278247498086,0.4871264284240956,0.14611729863128284,-0.16890238039195538,0.0045630844397237524,1.638108491897583,0.11982707789055831,-4.159615188837051,1.3905509375035763,20.514583587646484,0.0,0.0,0.0,0.0,0.0,0.0,0.0,0.0,0.0,0.0,0.0,0.0,0.0,0.0,0.0,0.0,False,0,0.5250389575958252,0.03492724609375
STABILIZE,0.4356365203857422,29.896744670083326,0.03246000607808431,0.03258061408996582,0.0,0.0,0.0,-0.23757233546643788,-0.963070760236961,-127.82846563764936,-0.004312449041544557,0.0026192981170233,0.029988378519919996,0.4,0.14557878809172475,0.16683181664773788,0.5174798665166225,0.14413165321675142,-0.049609801499173045,0.23151873610913754,2.032492682337761,-0.06880309685111687,-2.1252548322081566,1.753421314060688,26.151016354560852,0.0,0.0,0.0,0.0,0.0,0.0,0.0,0.0,0.0,0.0,0.0,0.0,0.0,0.0,0.0,0.0,False,0,0.5539021492004395,0.02993701171875
STABILIZE,0.46952199935913086,29.51095850893919,0.032437833150227864,0.032555341720581055,0.0,0.0,0.0,-0.2379266515296323,-0.9630370361779341,-127.82688103376191,-0.0037704421272290456,0.0020701517522195103,0.029336559914622595,0.4,0.1419505410288713,0.16709296343889452,0.5407681476865239,0.1404030975092787,-0.049609801499173045,0.23151873610913754,2.032492682337761,-0.06880309685111687,-2.1252548322081566,1.753421314060688,26.151016354560852,0.0,0.0,0.0,0.0,0.0,0.0,0.0,0.0,0.0,0.0,0.0,0.0,0.0,0.0,0.0,0.0,False,0,0.582512617111206,0.02993701171875
STABILIZE,0.5025079250335693,30.31464523449866,0.031995566685994466,0.03213834762573242,0.0,0.0,0.0,-0.23798310731199068,-0.962168855101402,-127.82346593917691,-0.0024855162402482767,0.001639345129890463,0.02880813563767645,0.4,0.1371138926036608,0.1632259138533626,0.562744300851717,0.13730153380536658,-0.12537497095763683,-0.05759911146014929,1.9679293036460876,-0.01035004444945684,-5.535292252898216,-0.44104265980422497,27.80011296272278,0.0,0.0,0.0,0.0,0.0,0.0,0.0,0.0,0.0,0.0,0.0,0.0,0.0,0.0,0.0,0.0,False,0,0.6111054420471191,0.044906005859375
STABILIZE,0.5359911918640137,29.864600837344423,0.03247979482014974,0.03261208534240723,0.0,0.0,0.0,-0.2373869598634955,-0.962975564475404,-127.82050163707713,-0.0037990844235868764,0.0030253094951804113,0.02871528682652124,0.4,0.13686540811694928,0.1636249989232012,0.5986645593915754,0.13638105437653034,0.013424691860564053,-0.012314712512306869,1.6176465898752213,-0.053262909045243695,0.22747917100787163,-0.49144518561661243,24.990259110927582,0.0,0.0,0.0,0.0,0.0,0.0,0.0,0.0,0.0,0.0,0.0,0.0,0.0,0.0,0.0,0.0,False,0,0.6398255825042725,0.024947021484375
STABILIZE,0.5694801807403564,29.85949824871145,0.03245237668355306,0.0326998233795166,0.0,0.0,0.0,-0.23900635502702322,-0.9631867667311454,-127.81637620281843,-0.0008292449854031948,-0.0001439094357222283,0.026958114857329338,0.4,0.12657821682850623,0.15460479839971422,0.6213429361496696,0.12716853771704276,-0.04784843767993152,0.0023807417164789513,1.6012929379940033,-0.1348173420867529,-3.8653992116451263,-0.5204515065997839,25.09685456752777,0.0,0.0,0.0,0.0,0.0,0.0,0.0,0.0,0.0,0.0,0.0,0.0,0.0,0.0,0.0,0.0,False,0,0.6970834732055664,0.039917236328125
STABILIZE,0.6029894351959229,29.844200939234383,0.032540114720662434,0.03268170356750488,0.0,0.0,0.0,-0.23866858082822492,-0.9629243380566289,-127.81412224039234,-0.0029057986658393977,0.001957604705408278,0.026195346786134045,0.4,0.12350038210993058,0.152590276917958,0.6474742457176368,0.12294312276481259,-0.04784843767993152,0.0023807417164789513,1.6012929379940033,-0.1348173420867529,-3.8653992116451263,-0.5204515065997839,25.09685456752777,0.0,0.0,0.0,0.0,0.0,0.0,0.0,0.0,0.0,0.0,0.0,0.0,0.0,0.0,0.0,0.0,False,0,0.7259237766265869,0.039917236328125
STABILIZE,0.6365888118743896,29.762668085861275,0.0324893315633138,0.03263664245605469,0.0,0.0,0.0,-0.23865310618088661,-0.9625801605554837,-127.81169069304781,-0.0023066674937816255,0.0013987475950672688,0.025878782214981345,0.4,0.11879681650911479,0.14874917871669596,0.6776336999539706,0.12095549461382177,-0.1242390600964427,-0.07835532305762172,1.9683174788951874,0.04279473700770001,-7.3424674570560455,-0.4868770018219948,26.749438047409058,0.0,0.0,0.0,0.0,0.0,0.0,0.0,0.0,0.0,0.0,0.0,0.0,0.0,0.0,0.0,0.0,False,0,0.7545721530914307,0.029936767578125
STABILIZE,0.6699790954589844,29.94840450978572,0.032340081532796223,0.03249001502990723,0.0,0.0,0.0,-0.23845780545930656,-0.9625838958151861,-127.8069778625205,-0.0023107265861230675,0.002348764327201814,0.024754922851515794,0.4,0.11730532945090073,0.14507848973262832,0.6896661679194955,0.11495130874348286,0.16568776918575168,0.06337591330520809,1.696712151169777,-0.12589810220649472,-1.405588909983635,-0.465517258271575,23.257890343666077,0.0,0.0,0.0,0.0,0.0,0.0,0.0,0.0,0.0,0.0,0.0,0.0,0.0,0.0,0.0,0.0,False,0,0.7831597328186035,0.029937255859375
STABILIZE,0.7033545970916748,29.961454389599258,0.03243521054585775,0.032547712326049805,0.0,0.0,0.0,-0.23957240695448803,-0.9622497501543843,-127.80439605101424,-0.0026476385664772582,0.0011630046111074698,0.023829418172210032,0.4,0.11213873367324566,0.14263306744457527,0.6984542339962478,0.10995636005675682,-0.07357057183980942,0.13856027508154511,1.5192234888672829,-0.0651580903613242,1.4509918168187141,-0.5252998787909746,17.431947588920593,0.0,0.0,0.0,0.0,0.0,0.0,0.0,0.0,0.0,0.0,0.0,0.0,0.0,0.0,0.0,0.0,False,0,0.8121476173400879,0.03492578125
STABILIZE,0.7368776798248291,29.831252978286074,0.03249719937642415,0.03263735771179199,0.0,0.0,0.0,-0.24036556267185577,-0.9634520768917182,-127.8010082771859,-0.002862560469546067,0.0012221253224400789,0.022987651435106622,0.4,0.10742013545708554,0.1409382830185444,0.7128024835920694,0.10539493375243403,-0.07357057183980942,0.13856027508154511,1.5192234888672829,-0.0651580903613242,1.4509918168187141,-0.5252998787909746,17.431947588920593,0.0,0.0,0.0,0.0,0.0,0.0,0.0,0.0,0.0,0.0,0.0,0.0,0.0,0.0,0.0,0.0,False,0,0.8404901027679443,0.03492578125
STABILIZE,0.7703883647918701,29.842926870917708,0.03243616422017415,0.032562971115112305,0.0,0.0,0.0,-0.24067185396744853,-0.9640865374325889,-127.79901386194827,-0.001641745623240545,0.0005410367618886764,0.022358981186442427,0.4,0.10079481021357747,0.13544909841435765,0.7418969166838643,0.1019102782834186,0.08695655851624906,0.07411037222482264,1.7248066142201424,0.12286097588272657,-3.2305724918842316,1.633136346936226,26.320022344589233,0.0,0.0,0.0,0.0,0.0,0.0,0.0,0.0,0.0,0.0,0.0,0.0,0.0,0.0,0.0,0.0,False,0,0.897972583770752,0.03492724609375
STABILIZE,0.8038091659545898,29.921484979704232,0.032370599110921223,0.0325014591217041,0.0,0.0,0.0,-0.23979011923428217,-0.965051835261382,-127.79751122033086,-0.0018949917155659545,0.001071001817869856,0.021915993579365415,0.4,0.0962097138041478,0.13103764360375017,0.7566084267096269,0.09936334999399357,-0.05697045708075166,-0.013316851982381195,1.7274057492613792,0.06235429103692734,-1.3751016929745674,-0.45229969546198845,23.522624373435974,0.0,0.0,0.0,0.0,0.0,0.0,0.0,0.0,0.0,0.0,0.0,0.0,0.0,0.0,0.0,0.0,False,0,0.9266703128814697,0.029936767578125
STABILIZE,0.8372964859008789,29.861198917841378,0.032399686177571614,0.032541513442993164,0.0,0.0,0.0,-0.24065403144258302,-0.9650438311334485,-127.79352238985557,-0.002249556423202369,0.00047908852017364484,0.020787818339269713,0.4,0.08999899803911407,0.12794276433602178,0.7670929137600053,0.09340967650238428,-0.14366460964083672,0.10067372350022197,1.8758377060294151,-0.12947636093942771,-5.033713206648827,1.5981795266270638,24.06637966632843,0.0,0.0,0.0,0.0,0.0,0.0,0.0,0.0,0.0,0.0,0.0,0.0,0.0,0.0,0.0,0.0,False,0,0.9553642272949219,0.064863037109375
STABILIZE,0.8731527328491211,27.888030425936517,0.03236344655354818,0.034914255142211914,0.0,0.0,0.0,-0.24106170835866816,-0.9643394678752909,-127.79222465391327,-0.003258765942451803,0.0007404795212541218,0.019915579123354496,0.4,0.08462082279980056,0.12814907095682418,0.8175716639534584,0.08873024245453218,-0.14366460964083672,0.10067372350022197,1.8758377060294151,-0.12947636093942771,-5.033713206648827,1.5981795266270638,24.06637966632843,0.0,0.0,0.0,0.0,0.0,0.0,0.0,0.0,0.0,0.0,0.0,0.0,0.0,0.0,0.0,0.0,False,0,0.9840495586395264,0.064863037109375
STABILIZE,0.9064645767211914,30.018493601671867,0.03238991101582845,0.03251004219055176,0.0,0.0,0.0,-0.2408457036261665,-0.9646853529237286,-127.78852269138312,-0.002425664840877559,0.001015015859469123,0.01954032169953179,0.4,0.08073752759297856,0.12565297100437017,0.8626657786889279,0.08656471310873844,-0.014497345546260476,0.0002377028067712672,1.8163753673434258,0.05497488528853681,-0.7486171089112759,1.7057303339242935,29.407009482383728,0.0,0.0,0.0,0.0,0.0,0.0,0.0,0.0,0.0,0.0,0.0,0.0,0.0,0.0,0.0,0.0,False,0,1.0127503871917725,0.034927001953125
STABILIZE,0.9399619102478027,29.85375992028186,0.03253177007039388,0.032665252685546875,0.0,0.0,0.0,-0.24109105682775805,-0.9647703034015306,-127.7859545402552,-0.0015363389188360731,0.0010731343093684995,0.01836441486453093,0.4,0.07723077277754145,0.12045954235807035,0.8612482717559726,0.08041618959562495,0.02957642136607319,0.013459564070217311,1.3892896473407745,-0.10306902199894691,1.4793528243899345,-0.5134098697453737,21.36806696653366,0.0,0.0,0.0,0.0,0.0,0.0,0.0,0.0,0.0,0.0,0.0,0.0,0.0,0.0,0.0,0.0,False,0,1.0413341522216797,0.034927001953125
STABILIZE,0.9734914302825928,29.826585978111687,0.032482179005940755,0.03271341323852539,0.0,0.0,0.0,-0.24327383587610604,-0.9653650634678507,-127.78105046443113,0.0002635181433050971,0.00028335206708473486,0.01622919446100925,0.4,0.0714080296805707,0.10986844980789615,0.8599217574495605,0.06950697271909373,0.06874733371660113,-0.0059712911024689674,1.7934054136276245,-0.055966089811408465,2.13773176074028,1.4648421667516232,24.929805099964142,0.0,0.0,0.0,0.0,0.0,0.0,0.0,0.0,0.0,0.0,0.0,0.0,0.0,0.0,0.0,0.0,False,0,1.0987372398376465,0.02993701171875
STABILIZE,1.0069549083709717,29.880557672990474,0.03250292142232259,0.03265213966369629,0.0,0.0,0.0,-0.24639416510974405,-0.9710534371077076,-127.77488963379977,-0.002051891307283574,8.954468516493485e-05,0.015357908874179796,0.4,0.06532482989752797,0.10716870580981973,0.8513389539372443,0.06493310277430143,-0.13359152944758534,0.13110489817336202,1.295639481395483,-0.05111714908858865,-1.5549530275166035,-0.5430333781987429,21.828989684581757,0.0,0.0,0.0,0.0,0.0,0.0,0.0,0.0,0.0,0.0,0.0,0.0,0.0,0.0,0.0,0.0,False,0,1.1273398399353027,0.034926025390625
STABILIZE,1.040494441986084,29.82022423979581,0.032505305608113606,0.03263497352600098,0.0,0.0,0.0,-0.23874339274397774,-0.9599989893794536,-127.76385204810104,-0.0014897310515103544,-0.00026193669210271693,0.014694359470086384,0.4,0.05849396916530997,0.1028255090747697,0.8534722978090359,0.06140992413857987,-0.1830000663176179,0.02189808146795258,1.5749616548418999,-0.0011460110272142586,-2.392437309026718,1.409731898456812,24.583472311496735,0.0,0.0,0.0,0.0,0.0,0.0,0.0,0.0,0.0,0.0,0.0,0.0,0.0,0.0,0.0,0.0,False,0,1.1562330722808838,0.034927001953125
STABILIZE,1.0738866329193115,29.9439145582272,0.03242495854695638,0.03254556655883789,0.0,0.0,0.0,-0.2402037725658911,-0.9541822295275415,-127.74946766970899,-0.003547584017436977,-0.003328748152118412,0.009835001024377281,0.4,0.042463198101702314,0.1051566283151273,0.8626037619613239,0.03698945638759052,-0.6877751089632511,0.37595639005303383,1.9702503457665443,-1.1380777091324359,-8.96824449300766,7.591989636421204,31.717464327812195,0.0,0.0,0.0,0.0,0.0,0.0,0.0,0.0,0.0,0.0,0.0,0.0,0.0,0.0,0.0,0.0,False,0,1.1848292350769043,0.0648876953125
STABILIZE,1.1074185371398926,29.824889249169814,0.0324735959370931,0.03258991241455078,0.0,0.0,0.0,-0.24051529322506712,-0.9623232814096677,-127.75801906654985,-0.004239486538563858,-0.004525501625528547,0.004149497105982881,0.4,0.023663763422003072,0.10944925615285592,0.9019931065897019,0.008533396545141857,-0.6877751089632511,0.37595639005303383,1.9702503457665443,-1.1380777091324359,-8.96824449300766,7.591989636421204,31.717464327812195,0.0,0.0,0.0,0.0,0.0,0.0,0.0,0.0,0.0,0.0,0.0,0.0,0.0,0.0,0.0,0.0,False,0,1.2136378288269043,0.0648876953125
STABILIZE,1.1410562992095947,29.72406950704425,0.03236416180928548,0.032790422439575195,0.0,0.0,0.0,-0.23462702983028144,-0.959552465762464,-127.77439786017953,-0.0023725229015785694,0.0004671907166320987,0.0043485491749906645,0.4,0.021666422654238536,0.10754595577997288,0.9204854997085135,0.0094966267772694,0.186425622086972,0.058565690414980054,1.1536476202309132,0.38755896741083373,6.673391163349152,-19.94943469762802,11.779941618442535,0.0,0.0,0.0,0.0,0.0,0.0,0.0,0.0,0.0,0.0,0.0,0.0,0.0,0.0,0.0,0.0,False,0,1.2424671649932861,0.03492626953125
STABILIZE,1.1744813919067383,29.918070089091465,0.032500298817952473,0.03261446952819824,0.0,0.0,0.0,-0.23668088905804543,-0.96010229599065,-127.76632457658059,0.007013165453286171,-0.0003229251492672237,0.002800805332311048,0.4,0.01732228971928632,0.07631578298510078,0.909079654002186,0.0017520480271054034,0.0029692426323890686,-0.5019981414079666,1.5914032235741615,-0.09330918860310115,-1.1590154841542244,-11.738937348127365,32.595095038414,0.0,0.0,0.0,0.0,0.0,0.0,0.0,0.0,0.0,0.0,0.0,0.0,0.0,0.0,0.0,0.0,False,0,1.2997229099273682,0.0349267578125
STABILIZE,1.2079229354858398,29.90207317420937,0.032508166631062825,0.032672882080078125,0.0,0.0,0.0,-0.2423972237848172,-0.9654798960232714,-127.75622955698731,-7.705270782975899e-05,0.0030232909702923296,0.0008987993284860797,0.4,0.023734772488592116,0.06922698815531558,0.9162619429647388,-0.007732094257974572,0.40995259769260883,-0.12119585881009698,2.1925589069724083,-0.38496053399889346,6.452774256467819,7.0334292948246,22.775818407535553,0.0,0.0,0.0,0.0,0.0,0.0,0.0,0.0,0.0,0.0,0.0,0.0,0.0,0.0,0.0,0.0,False,0,1.328394889831543,0.0349267578125
STABILIZE,1.24147629737854,29.804967134482148,0.03255346616109212,0.03268003463745117,0.0,0.0,0.0,-0.24114964704423206,-0.9604014369319555,-127.75038291505777,-0.002125502501426907,-0.001958303503841283,0.0004314640236934065,0.4,0.014111209206869278,0.06897266867785258,0.898414375244006,-0.01003519813193752,-0.3836366580799222,0.20251411478966475,0.9482920169830322,-0.046272247115322004,-1.8699614331126213,-2.7219783514738083,25.549575686454773,0.0,0.0,0.0,0.0,0.0,0.0,0.0,0.0,0.0,0.0,0.0,0.0,0.0,0.0,0.0,0.0,False,0,1.3570401668548584,0.034926025390625
STABILIZE,1.274921178817749,29.900154693927014,0.0324437936147054,0.03258061408996582,0.0,0.0,0.0,-0.2391025112839323,-0.95306079784319,-127.73991906524931,0.0009848749044695708,0.0007871252408963368,0.002279664230806323,0.4,0.013693955485713841,0.05895046097457836,0.8925200352042727,-0.0007915487330602978,0.06430264911614358,-0.29613496735692024,1.5208757482469082,0.524241244625691,-8.448441326618195,-1.2096644379198551,10.088519006967545,0.0,0.0,0.0,0.0,0.0,0.0,0.0,0.0,0.0,0.0,0.0,0.0,0.0,0.0,0.0,0.0,False,0,1.3862369060516357,0.02993798828125
STABILIZE,1.3085346221923828,29.762668085861275,0.03245404561360677,0.03258395195007324,0.0,0.0,0.0,-0.23544003578492453,-0.9457737330507269,-127.72354027161963,-0.004533575961241941,-0.002237086841026961,0.0014213783210718148,0.4,0.00381940775344072,0.06682385409873993,0.8753817481426832,-0.005066034987779524,-0.4430143628269434,0.5935182794928551,1.1519442312419415,-0.18320787165454452,1.1194581165909767,7.390084862709045,31.938397884368896,0.0,0.0,0.0,0.0,0.0,0.0,0.0,0.0,0.0,0.0,0.0,0.0,0.0,0.0,0.0,0.0,False,0,1.4150781631469727,0.034926025390625
STABILIZE,1.3438377380371094,28.314256011449093,0.03225758870442708,0.034401655197143555,0.0,0.0,0.0,-0.24318173504401663,-0.9595653790888635,-127.7232943848095,-0.0045095948149483,-0.0022803531953501576,0.0005107169295222175,0.4,-0.006097501368052047,0.07449497107153143,0.8636288016379005,-0.009585352746288495,-0.4430143628269434,0.5935182794928551,1.1519442312419415,-0.18320787165454452,1.1194581165909767,7.390084862709045,31.938397884368896,0.0,0.0,0.0,0.0,0.0,0.0,0.0,0.0,0.0,0.0,0.0,0.0,0.0,0.0,0.0,0.0,False,1,1.4437766075134277,0.034926025390625
STABILIZE,1.3773083686828613,29.87736494187372,0.032459529240926106,0.032669782638549805,0.0,0.0,0.0,-0.2481645714869525,-0.9679718478532683,-127.739946386006,-0.0007296510634091616,0.0021550600518861233,-0.0017769308150087592,0.4,-0.0009461640078783865,0.06938232616195691,0.8609412687457914,-0.020953335441329355,-0.34926715306937695,0.2222307724878192,1.6032017767429352,0.058266476179527606,-6.889490038156509,-14.160826802253723,18.057741224765778,0.0,0.0,0.0,0.0,0.0,0.0,0.0,0.0,0.0,0.0,0.0,0.0,0.0,0.0,0.0,0.0,False,0,1.501068115234375,0.029936767578125
STABILIZE,1.4108102321624756,29.85036046999879,0.03252414067586263,0.03264665603637695,0.0,0.0,0.0,-0.2318612301032494,-0.9440326751426084,-127.75237733029542,0.0007310146901992932,0.00042393877096680174,0.0006815361648089561,0.4,-0.0015545845565358171,0.05999219400390361,0.8460812968179092,-0.008632138483867353,0.0043626438127830625,-0.32534950878471136,1.150655373930931,0.6717732773371136,-8.234282582998276,2.743029408156872,14.28554356098175,0.0,0.0,0.0,0.0,0.0,0.0,0.0,0.0,0.0,0.0,0.0,0.0,0.0,0.0,0.0,0.0,False,0,1.5299673080444336,0.03492724609375
STABILIZE,1.4442205429077148,29.92874421126992,0.03245499928792318,0.03258013725280762,0.0,0.0,0.0,-0.2387626026510184,-0.9377547708000146,-127.7482109149017,-0.0007336027727411289,-0.004401265711366829,0.0013472084135869756,0.4,-0.017247204117721283,0.05574767041376274,0.859660959244226,-0.005286092421215197,-0.806815642863512,-0.05972044309601188,2.438555285334587,0.21028807760976415,-35.686370730400085,13.044920563697815,53.91150712966919,0.0,0.0,0.0,0.0,0.0,0.0,0.0,0.0,0.0,0.0,0.0,0.0,0.0,0.0,0.0,0.0,False,0,1.5590753555297852,0.03492578125
STABILIZE,1.4775900840759277,29.96723419760937,0.03250315984090169,0.03261709213256836,0.0,0.0,0.0,-0.2663013917759809,-0.9876456741489611,-127.76876978430344,-0.00610343945446509,-0.013691804647896714,0.002237833304885776,0.4,-0.06100950821152241,0.06855868718615095,0.8611344304184275,-0.0008301936878049292,-2.3630591109395027,0.8710614405572414,1.7684519290924072,0.268174277671166,-53.63105535507202,37.271782755851746,-3.3157087862491608,0.0,0.0,0.0,0.0,0.0,0.0,0.0,0.0,0.0,0.0,0.0,0.0,0.0,0.0,0.0,0.0,False,0,1.5870954990386963,0.02993701171875
STABILIZE,1.5111119747161865,29.831040810230295,0.03256944020589193,0.0326998233795166,0.0,0.0,0.0,-0.2924341224272728,-1.0276653533216527,-127.78073627572931,-0.006256718698835206,-0.013897282585203927,0.003149104224979369,0.4,-0.10267941215449045,0.08102645527199395,0.858396585528152,0.003713731262633385,-2.3630591109395027,0.8710614405572414,1.7684519290924072,0.268174277671166,-53.63105535507202,37.271782755851746,-3.3157087862491608,0.0,0.0,0.0,0.0,0.0,0.0,0.0,0.0,0.0,0.0,0.0,0.0,0.0,0.0,0.0,0.0,False,0,1.6159398555755615,0.02993701171875
STABILIZE,1.5449283123016357,29.571296629229327,0.032505067189534505,0.03299570083618164,0.0,0.0,0.0,-0.3442888118843038,-1.0617852431553338,-127.76385204810104,0.0026646116451868504,0.007408137017348884,0.003434958783841418,0.4,-0.07460448509215556,0.06453505782797173,0.8527134472888964,0.005125678344565587,1.539213303476572,-0.7624804973602295,1.5718089416623116,0.09669189315040286,77.44987607002258,-51.76164507865906,35.1113498210907,0.0,0.0,0.0,0.0,0.0,0.0,0.0,0.0,0.0,0.0,0.0,0.0,0.0,0.0,0.0,0.0,True,1,1.6448657512664795,0.039916748046875
STABILIZE,1.5784170627593994,29.862261934427398,0.032503875096639,0.03263092041015625,0.0,0.0,0.0,-0.3551384606591633,-1.0659679869700263,-127.74169491443351,0.013187480296801554,0.014909262577125146,-0.003369097038577725,0.4,-0.025003849009758314,0.016256571424839144,0.8305365084954605,-0.028798255134096624,0.5710101220756769,-0.8327537216246128,2.1032704040408134,-4.836082998428971,-71.7830240726471,65.47720432281494,-105.85640668869019,0.0,0.0,0.0,0.0,0.0,0.0,0.0,0.0,0.0,0.0,0.0,0.0,0.0,0.0,0.0,0.0,True,0,1.701793909072876,0.029936767578125
STABILIZE,1.6118738651275635,29.889287953936492,0.03245094617207845,0.032637834548950195,0.0,0.0,0.0,-0.35119306591812893,-1.0650440971630764,-127.73142230992181,-0.00197178417167007,0.0032425542371314195,-0.014188354957216926,0.4,-0.015105038853894992,0.018525780897914887,0.8788311431776743,-0.08261772057253175,0.5421197973191738,0.2555418759584427,4.6606361865997314,-3.1373705556171947,-147.5622296333313,74.93901252746582,-80.9108555316925,0.0,0.0,0.0,0.0,0.0,0.0,0.0,0.0,0.0,0.0,0.0,0.0,0.0,0.0,0.0,0.0,True,0,1.7305777072906494,0.039916259765625
STABILIZE,1.6453526020050049,29.868216226224302,0.03251221974690755,0.032706499099731445,0.0,0.0,0.0,-0.3723108368930447,-1.0789981736374123,-127.79189680483312,-0.006779980849030075,-0.002962543405472671,-0.01673049541910222,0.4,-0.02532520277160389,0.035700441023482264,0.9220187072665487,-0.09501011449779649,-0.6063405890017748,1.1528991162776947,3.782355412840843,-0.5959568435286497,-47.693488001823425,22.15239107608795,-27.214375138282776,0.0,0.0,0.0,0.0,0.0,0.0,0.0,0.0,0.0,0.0,0.0,0.0,0.0,0.0,0.0,0.0,True,0,1.759174108505249,0.02993701171875
STABILIZE,1.6788792610168457,29.829131433529383,0.03255441983540853,0.032692909240722656,0.0,0.0,0.0,-0.37649144627362147,-1.0793629484277734,-127.77920631335523,0.0001923536402553461,0.017013316634225433,-0.0038926460274512848,0.4,0.027795071547912165,0.029937482801011377,0.9178465107154739,-0.03071804498201393,3.0633628368377686,-0.21920546423643827,1.6645079478621483,3.683444606646537,16.495254635810852,-17.160475254058838,-29.044494032859802,0.0,0.0,0.0,0.0,0.0,0.0,0.0,0.0,0.0,0.0,0.0,0.0,0.0,0.0,0.0,0.0,True,0,1.788142204284668,0.02993701171875
STABILIZE,1.7123255729675293,29.899302115040527,0.03246572812398275,0.03263449668884277,0.0,0.0,0.0,-0.37039166045797695,-1.0759216003031447,-127.74095725400315,0.00022257450252128892,0.01770160304085007,0.008717906831509034,0.4,0.07971532961778308,0.024366914619011474,0.9140612813473007,0.032226810350393896,3.0633628368377686,-0.21920546423643827,1.6645079478621483,3.683444606646537,16.495254635810852,-17.160475254058838,-29.044494032859802,0.0,0.0,0.0,0.0,0.0,0.0,0.0,0.0,0.0,0.0,0.0,0.0,0.0,0.0,0.0,0.0,True,0,1.8230841159820557,0.02993701171875
STABILIZE,1.745887041091919,29.79586269606729,0.03250864346822103,0.03262925148010254,0.0,0.0,0.0,-0.3506872050327248,-1.0583268195577802,-127.72840336630867,-0.0062708896856578005,0.0006704704167086614,0.004120308871283954,0.4,0.07489763909849916,0.039519636140313966,0.9083160832132089,0.009208020044673984,-0.26509861927479506,1.010493841022253,1.5262356959283352,-1.3862163472448834,-45.20708918571472,31.4820796251297,25.232315063476562,0.0,0.0,0.0,0.0,0.0,0.0,0.0,0.0,0.0,0.0,0.0,0.0,0.0,0.0,0.0,0.0,True,0,1.8517646789550781,0.02494775390625
STABILIZE,1.7792463302612305,29.97644368210406,0.032369407018025716,0.0324854850769043,0.0,0.0,0.0,-0.3522626308534706,-1.0570762546094332,-127.7792336341119,-0.0038597285491558716,-0.00590762438505746,0.0018298765601713718,0.4,0.04975042431858077,0.04613239126424486,0.9022043644808534,-0.0022366668709494445,-1.4427995309233665,0.5162393674254417,1.79094560444355,-0.7012285748544993,18.206864595413208,4.620138555765152,33.72335433959961,0.0,0.0,0.0,0.0,0.0,0.0,0.0,0.0,0.0,0.0,0.0,0.0,0.0,0.0,0.0,0.0,True,0,1.8803799152374268,0.029937255859375
STABILIZE,1.814702033996582,28.203448183114123,0.032463820775349934,0.03461408615112305,0.0,0.0,0.0,-0.37822620760109893,-1.0739656048795823,-127.74810163187499,-0.002543665672732845,-0.0020224029999232848,0.0032993898113209035,0.4,0.03767020087803459,0.04830107125901541,0.8937492127280102,0.005092827834612982,0.7424520328640938,-0.17286192160099745,1.2833356857299805,1.1283446895651676,38.91571760177612,-30.70877492427826,22.125358879566193,0.0,0.0,0.0,0.0,0.0,0.0,0.0,0.0,0.0,0.0,0.0,0.0,0.0,0.0,0.0,0.0,True,0,1.9387171268463135,0.03492578125
STABILIZE,1.8482563495635986,29.802849326748856,0.03250006039937337,0.03265666961669922,0.0,0.0,0.0,-0.3869579641247255,-1.0835184782074914,-127.6906324201985,0.004134277636273614,0.005936607868994611,0.006431411636690922,0.4,0.051927412087714356,0.02924427067677455,0.8934266678780551,0.020683698441889026,0.8807924576103687,-1.0926959104835987,1.4569117687642574,0.9420700629732874,17.687971889972687,-17.18076318502426,20.93670815229416,0.0,0.0,0.0,0.0,0.0,0.0,0.0,0.0,0.0,0.0,0.0,0.0,0.0,0.0,0.0,0.0,True,0,1.9673151969909668,0.03492724609375
STABILIZE,1.8816165924072266,29.97494407798352,0.03242042859395345,0.03253483772277832,0.0,0.0,0.0,-0.3819436447785841,-1.0826823136426937,-127.70119189265534,-0.005027628794454851,0.002297101988793867,-0.0015792846956957786,0.4,0.05383968057599,0.04010086733745501,0.8960621891699777,-0.019305257060458457,0.11339049087837338,0.772874103859067,1.6633899882435799,-2.498340191304917,-24.892766773700714,15.914522111415863,23.151637613773346,0.0,0.0,0.0,0.0,0.0,0.0,0.0,0.0,0.0,0.0,0.0,0.0,0.0,0.0,0.0,0.0,True,0,1.9960408210754395,0.0349267578125
STABILIZE,1.9150981903076172,29.86779084092317,0.03249719937642415,0.032630205154418945,0.0,0.0,0.0,-0.36691637483090983,-1.0628132933471266,-127.73845740476693,-0.005340427599916334,0.002291252138896246,-0.009785187210146293,0.4,0.05557425431460891,0.05124726068199949,0.8984061190640489,-0.060133550460064744,0.11339049087837338,0.772874103859067,1.6633899882435799,-2.498340191304917,-24.892766773700714,15.914522111415863,23.151637613773346,0.0,0.0,0.0,0.0,0.0,0.0,0.0,0.0,0.0,0.0,0.0,0.0,0.0,0.0,0.0,0.0,True,0,2.0248091220855713,0.0349267578125
STABILIZE,1.9486055374145508,29.84696179381898,0.03246477444966634,0.032596588134765625,0.0,0.0,0.0,-0.37927421475187273,-1.076627564386889,-127.72722857377143,-0.0008664753206958468,-0.00643624283629835,-0.008210356729146643,0.4,0.029838885655081745,0.047613551425161424,0.9045888948252168,-0.05208519353378002,-1.5502460300922394,-0.14109795447438955,1.913786120712757,0.5166947393664731,-51.46929621696472,-13.49010020494461,30.621281266212463,0.0,0.0,0.0,0.0,0.0,0.0,0.0,0.0,0.0,0.0,0.0,0.0,0.0,0.0,0.0,0.0,True,0,2.053457736968994,0.029937255859375
STABILIZE,1.9819483757019043,29.988231508955064,0.032392056783040364,0.032558441162109375,0.0,0.0,0.0,-0.36969145934634484,-1.0907631744827593,-127.71571287483079,-0.00156035297594351,0.004754358542053373,-0.0033172315679895568,0.4,0.04078429707374823,0.04638329235236154,0.8956927533956284,-0.027527436256972997,0.7288586813956499,0.023480980598833412,1.293588150292635,1.4714445149253603,37.98001706600189,20.02291828393936,24.742774665355682,0.0,0.0,0.0,0.0,0.0,0.0,0.0,0.0,0.0,0.0,0.0,0.0,0.0,0.0,0.0,0.0,True,1,2.0822365283966064,0.0349267578125
STABILIZE,2.0156757831573486,29.65178293696802,0.032546075185139973,0.03280377388000488,0.0,0.0,0.0,-0.38554048642853633,-1.0922167241155025,-127.68430766502706,-0.009101874785558378,0.00617225242978909,-0.013970244618625944,0.4,0.055476180159730194,0.06895148975742152,0.9149343706310022,-0.08052197381497268,0.4849363584071398,0.7674872875213623,2.1302135661244392,-1.6263941864362697,-2.240403927862644,0.8065702393651009,32.978516817092896,0.0,0.0,0.0,0.0,0.0,0.0,0.0,0.0,0.0,0.0,0.0,0.0,0.0,0.0,0.0,0.0,True,0,2.1397974491119385,0.034926025390625
STABILIZE,2.049266815185547,29.768582723549827,0.03238824208577474,0.0325319766998291,0.0,0.0,0.0,-0.3380305443355739,-0.9777706079912979,-127.68516826886248,-0.0019540571877809214,-0.005770016959112958,-0.017151102328591853,0.4,0.03174620333106134,0.067508294858779,0.9218822295803674,-0.09610462391482824,-1.3920390978455544,-0.013376249989960343,1.9805153831839561,-0.9420059232281128,-32.33763575553894,61.30102872848511,24.52852725982666,0.0,0.0,0.0,0.0,0.0,0.0,0.0,0.0,0.0,0.0,0.0,0.0,0.0,0.0,0.0,0.0,True,0,2.1682543754577637,0.06485546875
STABILIZE,2.082561731338501,30.03590584562062,0.032271655400594075,0.03239870071411133,0.0,0.0,0.0,-0.2184263547275401,-0.919629796620328,-127.65738305931887,-0.009816224458244458,-0.030261487507056494,-0.011795059381344005,0.4,-0.0672047746673894,0.09066104575936608,0.9200894299076957,-0.06909343572483244,-5.489211529493332,1.2058407068252563,-0.11074908543378115,1.878232012314514,-120.19065618515015,13.695546984672546,-68.58615279197693,0.0,0.0,0.0,0.0,0.0,0.0,0.0,0.0,0.0,0.0,0.0,0.0,0.0,0.0,0.0,0.0,True,0,2.196819305419922,0.03492724609375
STABILIZE,2.116960287094116,29.06917463111715,0.032413514455159505,0.03352165222167969,0.0,0.0,0.0,-0.23653169211336297,-0.9044409500101005,-127.64254788844161,-0.009074212763943686,-0.03198438455032322,-0.004697196677144884,0.4,-0.16797596455509128,0.11057417836588154,0.8858458484930551,-0.033488835223998745,-5.489211529493332,1.2058407068252563,-0.11074908543378115,1.878232012314514,-120.19065618515015,13.695546984672546,-68.58615279197693,0.0,0.0,0.0,0.0,0.0,0.0,0.0,0.0,0.0,0.0,0.0,0.0,0.0,0.0,0.0,0.0,True,0,2.2257423400878906,0.03492724609375
STABILIZE,2.154381036758423,26.722290534470787,0.03245261510213216,0.03657650947570801,0.0,0.0,0.0,-0.2439384986597129,-1.0142099873784332,-127.67527815494431,-0.009903731338895123,-0.011763125723268328,-0.03157065865021347,0.4,-0.19946798462664336,0.13348007473168993,0.9540500417072719,-0.1672297408669043,-1.6343383118510246,1.3722151517868042,5.574395507574081,-7.532791946911745,55.88396191596985,13.109447062015533,183.50024223327637,0.0,0.0,0.0,0.0,0.0,0.0,0.0,0.0,0.0,0.0,0.0,0.0,0.0,0.0,0.0,0.0,True,1,2.254326343536377,0.029936767578125
STABILIZE,2.187908411026001,29.827434414979482,0.03249028523763021,0.03262138366699219,0.0,0.0,0.0,-0.3125854216346318,-1.0214451854218867,-127.70870510074235,-0.021934621465863828,0.033733685662056014,0.04054575397242771,0.4,-0.08286026513313703,0.19000430333151963,0.9416151769065362,0.19270795978407002,3.2326288521289825,1.7347559332847595,1.5291806310415268,9.956212220097616,225.88820457458496,-64.73363041877747,6.534206867218018,0.0,0.0,0.0,0.0,0.0,0.0,0.0,0.0,0.0,0.0,0.0,0.0,0.0,0.0,0.0,0.0,True,0,2.3117406368255615,0.03492724609375
STABILIZE,2.2212328910827637,30.00711132732853,0.03240660031636556,0.032533884048461914,0.0,0.0,0.0,-0.31710551276129934,-1.0182003119576015,-127.70100064735858,0.008171355326487115,-0.013004719842363692,0.026904621661841103,0.4,-0.12026986230487101,0.14899477058197422,0.9302516855747232,0.12408737527146481,-2.132287248969078,-2.1829912438988686,1.096584927290678,-4.03094883680433,-38.826945424079895,-17.976146936416626,83.09780955314636,0.0,0.0,0.0,0.0,0.0,0.0,0.0,0.0,0.0,0.0,0.0,0.0,0.0,0.0,0.0,0.0,True,0,2.340486526489258,0.064863037109375
STABILIZE,2.255537986755371,29.151403947734224,0.032540114720662434,0.03343057632446289,0.0,0.0,0.0,-0.29889046546193315,-1.0132117125425535,-127.6897444956064,-0.018440164084424407,0.005860976863220872,0.03569258034133877,0.4,-0.0953826430536119,0.19472108526252296,0.9243395686195195,0.16745377488056487,1.7321649938821793,2.1338753402233124,0.04193085478618741,1.4772259498926588,-2.197689190506935,104.38870191574097,-32.00949430465698,0.0,0.0,0.0,0.0,0.0,0.0,0.0,0.0,0.0,0.0,0.0,0.0,0.0,0.0,0.0,0.0,True,0,2.369318962097168,0.0349267578125
STABILIZE,2.291520833969116,27.79046685130461,0.03244593938191732,0.03511190414428711,0.0,0.0,0.0,-0.265458503743719,-0.989068167765322,-127.6655792863229,-0.004722340078725789,-0.018741611418634403,0.028522242941411285,0.4,-0.1536569028378521,0.1935835189169849,0.9293043107292767,0.13112993552566285,-3.170958533883095,0.16885618679225445,2.167139947414398,-1.8539703266089824,-133.7465524673462,-0.4813718609511852,-44.13446485996246,0.0,0.0,0.0,0.0,0.0,0.0,0.0,0.0,0.0,0.0,0.0,0.0,0.0,0.0,0.0,0.0,True,0,2.397836685180664,0.034927001953125
STABILIZE,2.325021266937256,29.850572912959933,0.03244593938191732,0.03257918357849121,0.0,0.0,0.0,-0.2345365298237788,-0.9242686690055302,-127.62468011357285,0.0005337789169796189,-0.021483701054341497,0.03867005232846547,0.4,-0.2128573937933049,0.1761197100298264,0.9378821391875084,0.1812633801966792,-3.2416652888059616,-0.6734706461429596,2.3381011560559273,2.7086976380234393,-132.35546350479126,-18.83988380432129,54.304736852645874,0.0,0.0,0.0,0.0,0.0,0.0,0.0,0.0,0.0,0.0,0.0,0.0,0.0,0.0,0.0,0.0,True,0,2.426668405532837,0.02993701171875
STABILIZE,2.358419179916382,29.942204454597373,0.03239944775899251,0.032531023025512695,0.0,0.0,0.0,-0.24170235875847418,-0.9485119985776673,-127.63435166143759,-0.01668978243134976,0.0037609805641792824,0.0380539258837335,0.4,-0.1889962016250064,0.21337168916561994,0.8975091755257766,0.17758868194448194,-0.4256324376910925,0.367731018923223,0.6435285788029432,0.4286848704248028,-22.16392755508423,-25.966876745224,-71.59518599510193,0.0,0.0,0.0,0.0,0.0,0.0,0.0,0.0,0.0,0.0,0.0,0.0,0.0,0.0,0.0,0.0,True,0,2.4839956760406494,0.03492626953125
STABILIZE,2.391953706741333,29.821284341049996,0.032451661427815755,0.032599449157714844,0.0,0.0,0.0,-0.2593891336142222,-0.9555831653593345,-127.67428094732549,0.009559731215366185,-0.0069502505280706235,0.04270549725609736,0.4,-0.20038042441607523,0.16599649374253667,0.8799368766758457,0.20017669704510144,-0.7970322854816914,-2.290099114179611,0.8764505386352539,1.3509179296142575,-39.691659808158875,-49.39009249210358,86.20204329490662,0.0,0.0,0.0,0.0,0.0,0.0,0.0,0.0,0.0,0.0,0.0,0.0,0.0,0.0,0.0,0.0,True,0,2.5127413272857666,0.0349267578125
STABILIZE,2.4252829551696777,30.003676865079083,0.032369168599446614,0.03246784210205078,0.0,0.0,0.0,-0.27033109666458266,-0.9887515244642685,-127.66385807865205,0.010537327076437638,-0.0070820949621972825,0.047270177741541054,0.4,-0.21136239411063884,0.11853676250924633,0.8626891544677281,0.2222574034042968,-0.7970322854816914,-2.290099114179611,0.8764505386352539,1.3509179296142575,-39.691659808158875,-49.39009249210358,86.20204329490662,0.0,0.0,0.0,0.0,0.0,0.0,0.0,0.0,0.0,0.0,0.0,0.0,0.0,0.0,0.0,0.0,True,0,2.5415074825286865,0.0349267578125
STABILIZE,2.4588277339935303,29.80920365303294,0.032470019658406575,0.03259778022766113,0.0,0.0,0.0,-0.29278822504705565,-0.9964367679410022,-127.6517959645778,-0.00043903897254515654,-0.0029215583522913197,0.03986610295860091,0.4,-0.20838041224296056,0.1083087064213541,0.8384346953739322,0.18461953642550274,-0.0574811187107116,-0.2666149055585265,0.4750780761241913,-1.8761304484842656,-1.2265611439943314,37.27871775627136,35.64143776893616,0.0,0.0,0.0,0.0,0.0,0.0,0.0,0.0,0.0,0.0,0.0,0.0,0.0,0.0,0.0,0.0,True,0,2.569944143295288,0.02993701171875
STABILIZE,2.492156982421875,30.00260375684917,0.03236225446065267,0.0324862003326416,0.0,0.0,0.0,-0.2585690840269976,-0.9772361456887444,-127.65295709673671,-0.008968900683057439,0.005173667516714035,0.040629605948005416,0.4,-0.1800306453831996,0.12531100024987907,0.8223270792997265,0.1878090203626366,1.2310273945331573,1.2359147891402245,1.0658123530447483,0.47553313794192026,27.90323495864868,31.037312746047974,-14.374169707298279,0.0,0.0,0.0,0.0,0.0,0.0,0.0,0.0,0.0,0.0,0.0,0.0,0.0,0.0,0.0,0.0,True,0,2.5988495349884033,0.034927001953125
STABILIZE,2.5256764888763428,29.834860297046607,0.032500298817952473,0.03262734413146973,0.0,0.0,0.0,-0.23222525784166995,-0.9752924232613468,-127.64235664314485,0.0012272782315314824,-0.006684838624075522,0.046302426029292534,0.4,-0.19063989208369386,0.1093538152124395,0.8316557905857749,0.21545217368044792,-0.8374963887035847,-0.6147609557956457,2.264297194778919,1.747548081933956,-49.24100935459137,-36.16641163825989,-16.02129638195038,0.0,0.0,0.0,0.0,0.0,0.0,0.0,0.0,0.0,0.0,0.0,0.0,0.0,0.0,0.0,0.0,True,0,2.6273932456970215,0.02993701171875
STABILIZE,2.5618560314178467,27.639382936521013,0.03241017659505208,0.03538823127746582,0.0,0.0,0.0,-0.24073631387774053,-0.945274595632787,-127.62549973627326,-0.008025541495625413,-0.007283001082191825,0.04018657857863375,0.4,-0.20315457736133619,0.12443230281088676,0.8499955776999027,0.18420496733129796,0.34399833530187607,1.4073893427848816,1.378230843693018,0.39979095576025386,25.8167564868927,44.75982189178467,35.15849709510803,0.0,0.0,0.0,0.0,0.0,0.0,0.0,0.0,0.0,0.0,0.0,0.0,0.0,0.0,0.0,0.0,True,0,2.6852612495422363,0.034926025390625
STABILIZE,2.5955047607421875,29.71985715095516,0.03254726727803548,0.0327601432800293,0.0,0.0,0.0,-0.2380245153338339,-0.9649089348973408,-127.62836841572467,-0.010371058223486804,-0.00042354647507071976,0.04085546719572393,0.4,-0.1923081868419069,0.14474190411542698,0.8447287400290084,0.18692204140732382,0.34399833530187607,1.4073893427848816,1.378230843693018,0.39979095576025386,25.8167564868927,44.75982189178467,35.15849709510803,0.0,0.0,0.0,0.0,0.0,0.0,0.0,0.0,0.0,0.0,0.0,0.0,0.0,0.0,0.0,0.0,True,0,2.7138569355010986,0.034926025390625
STABILIZE,2.629035472869873,29.823404769692402,0.0324285348256429,0.03264451026916504,0.0,0.0,0.0,-0.2435755381383502,-0.9740261702222499,-127.64058079396065,-0.002062754504740309,-0.005435973883088406,0.0350637189534028,0.4,-0.19788863518333347,0.13761891211046257,0.8438585840825106,0.15743536690999252,-0.6046588532626629,-0.15776734799146652,1.6214800998568535,-1.420785001851376,-26.147809624671936,-35.531410574913025,29.88753616809845,0.0,0.0,0.0,0.0,0.0,0.0,0.0,0.0,0.0,0.0,0.0,0.0,0.0,0.0,0.0,0.0,True,0,2.7428529262542725,0.034927001953125
STABILIZE,2.6624093055725098,29.962738598696994,0.03243258794148763,0.032538414001464844,0.0,0.0,0.0,-0.245165584832788,-0.9730875528199021,-127.6373569446724,0.004708649565633667,-0.004424270861888145,0.03817074141397996,0.4,-0.19988925057273232,0.10970128953499964,0.8550959972880845,0.17239458165243327,-0.40873242542147636,-1.3380731455981731,2.303115837275982,1.125917197645463,-7.115573436021805,-30.489012598991394,58.686280250549316,0.0,0.0,0.0,0.0,0.0,0.0,0.0,0.0,0.0,0.0,0.0,0.0,0.0,0.0,0.0,0.0,True,0,2.7711892127990723,0.02993701171875
STABILIZE,2.6958651542663574,29.88907495955932,0.03249338467915853,0.03262495994567871,0.0,0.0,0.0,-0.24768752546210943,-0.9773221633836042,-127.62843671761637,0.005236579546363165,-0.00401360848460972,0.04102712187031243,0.4,-0.20038336493340972,0.08178750263460294,0.8623638815509652,0.18605382103558457,-0.40873242542147636,-1.3380731455981731,2.303115837275982,1.125917197645463,-7.115573436021805,-30.489012598991394,58.686280250549316,0.0,0.0,0.0,0.0,0.0,0.0,0.0,0.0,0.0,0.0,0.0,0.0,0.0,0.0,0.0,0.0,True,0,2.799774646759033,0.02993701171875
STABILIZE,2.7295305728912354,29.704912924312495,0.032492907842000325,0.032914161682128906,0.0,0.0,0.0,-0.24805379435635136,-0.9678686479637777,-127.63972019012523,-0.0013750902366689043,-0.0018837336771798335,0.0414507284551428,0.4,-0.1939516734939614,0.07626413404886263,0.8542311729633285,0.18753960424394794,-1.0844001546502113,-0.30594454146921635,1.6104700043797493,0.025844968911865454,-32.484376430511475,-17.369525134563446,69.25198435783386,0.0,0.0,0.0,0.0,0.0,0.0,0.0,0.0,0.0,0.0,0.0,0.0,0.0,0.0,0.0,0.0,True,0,2.8573315143585205,0.02993701171875
STABILIZE,2.7629613876342773,29.91230922835544,0.03257420857747396,0.03268313407897949,0.0,0.0,0.0,-0.2456625878166122,-0.9655168217334719,-127.63939234104507,0.0007478904838394907,-0.007655132676834305,0.044976213168870904,0.4,-0.20597707909556146,0.06450625579126835,0.8223776768038087,0.20448317525937268,-1.090553868561983,-0.46050860546529293,-0.04590608587022871,1.3559970290358083,-21.24103754758835,4.341837763786316,-2.9893912374973297,0.0,0.0,0.0,0.0,0.0,0.0,0.0,0.0,0.0,0.0,0.0,0.0,0.0,0.0,0.0,0.0,True,0,2.885969638824463,0.034927001953125
STABILIZE,2.796598434448242,29.73039028055402,0.03257349332173665,0.0327146053314209,0.0,0.0,0.0,-0.24360115134773774,-0.9664983412615439,-127.62664720805383,-0.005103681219206893,-0.0021285613848905927,0.04225848612841238,0.4,-0.19975292793892202,0.07173343542253445,0.829267222770002,0.19025764047787513,0.06689322181046009,0.6638852879405022,1.9952019676566124,-0.5694949831367279,5.661666393280029,5.178479105234146,23.528066277503967,0.0,0.0,0.0,0.0,0.0,0.0,0.0,0.0,0.0,0.0,0.0,0.0,0.0,0.0,0.0,0.0,True,0,2.9148287773132324,0.034926025390625
STABILIZE,2.8299875259399414,29.9507569265924,0.032392056783040364,0.03253459930419922,0.0,0.0,0.0,-0.24662137562135275,-0.9690671327197034,-127.61703030170244,-0.005359312755491182,-0.0019603979882367533,0.039458288081609366,0.4,-0.1932941274999754,0.07926162214097295,0.836298822672638,0.17566880550973207,0.06689322181046009,0.6638852879405022,1.9952019676566124,-0.5694949831367279,5.661666393280029,5.178479105234146,23.528066277503967,0.0,0.0,0.0,0.0,0.0,0.0,0.0,0.0,0.0,0.0,0.0,0.0,0.0,0.0,0.0,0.0,True,0,2.9435131549835205,0.034926025390625
STABILIZE,2.8633759021759033,29.9481906720361,0.03246429761250814,0.03258466720581055,0.0,0.0,0.0,-0.24637132666470682,-0.9714149035251894,-127.63391452933071,-0.0016048370984215628,-0.0033750439232865647,0.037318051127485256,0.4,-0.1916153842408348,0.0745183972801549,0.8416358105809848,0.16441790731874137,-0.2255536150187254,-0.07300456636585295,1.8892629072070122,-0.35690251709487775,-27.49010920524597,-18.90290677547455,1.9997963681817055,0.0,0.0,0.0,0.0,0.0,0.0,0.0,0.0,0.0,0.0,0.0,0.0,0.0,0.0,0.0,0.0,True,0,2.9721248149871826,0.0349267578125
STABILIZE,2.896871566772461,29.85439740341087,0.03250888188680013,0.03263354301452637,0.0,0.0,0.0,-0.24518596867859227,-0.9673998195102798,-127.61545935819333,0.0018713027288579259,-0.005494893116208996,0.03877033484542246,0.4,-0.19661586251444466,0.059163170519375176,0.8450338976754729,0.1711070197145579,-0.6236403249204159,-0.700811855494976,1.7722807824611664,0.7062922529895647,-7.317228615283966,-0.8262070827186108,23.80080819129944,0.0,0.0,0.0,0.0,0.0,0.0,0.0,0.0,0.0,0.0,0.0,0.0,0.0,0.0,0.0,0.0,True,0,3.0008153915405273,0.029937255859375
STABILIZE,2.9303433895111084,29.875236833482912,0.032475980122884114,0.03269791603088379,0.0,0.0,0.0,-0.2479701245390187,-0.970072771353282,-127.59649875305739,-0.005983919243435818,0.0010097948952715145,0.035413553113983295,0.4,-0.1807161030256273,0.06932072088833104,0.8399440961300623,0.1538075703409162,0.18178910249844193,0.5294294096529484,1.5917334705591202,-0.7749929637041975,0.5729339551180601,-4.4469621032476425,26.843419671058655,0.0,0.0,0.0,0.0,0.0,0.0,0.0,0.0,0.0,0.0,0.0,0.0,0.0,0.0,0.0,0.0,True,0,3.0582315921783447,0.029937255859375
STABILIZE,2.963815927505493,29.87587523416743,0.03255632718404134,0.03267669677734375,0.0,0.0,0.0,-0.24789627311861795,-0.970941486038343,-127.60473596119643,-0.0029522870372577985,-0.003755889915737718,0.035516488905535305,0.4,-0.1807161030256273,0.06932072088833104,0.8399440961300623,0.1538075703409162,0.18178910249844193,0.5294294096529484,1.5917334705591202,-0.7749929637041975,0.5729339551180601,-4.4469621032476425,26.843419671058655,0.0,0.0,0.0,0.0,0.0,0.0,0.0,0.0,0.0,0.0,0.0,0.0,0.0,0.0,0.0,0.0,True,0,3.0582315921783447,0.029937255859375
STABILIZE,2.997270345687866,29.89312237189081,0.032518895467122395,0.03261399269104004,0.0,0.0,0.0,-0.2455227823820385,-0.9720646252699869,-127.62555437778661,0.003156626652458114,-0.005043589311827164,0.03604758829738678,0.4,-0.18470283688545733,0.05017978822923618,0.8318432498510134,0.1559422193713698,-0.3460945561528206,-0.3174311248585582,1.7097774893045425,1.0859291080976827,3.6453239619731903,7.037556916475296,22.51482456922531,0.0,0.0,0.0,0.0,0.0,0.0,0.0,0.0,0.0,0.0,0.0,0.0,0.0,0.0,0.0,0.0,True,0,3.1227428913116455,0.039916015625
STABILIZE,3.030714988708496,29.899088977915913,0.032475980122884114,0.03260684013366699,0.0,0.0,0.0,-0.24505352704171748,-0.9693046952367729,-127.60357482903751,-0.005057352885636974,-0.0021825170078184535,0.03520570519789787,0.4,-0.17931149389170944,0.05791072416152378,0.833233173084659,0.15122687954153563,0.036464951699599624,0.6344465538859367,1.3884763233363628,-0.013803332064919753,-7.201506942510605,13.046921789646149,24.428024888038635,0.0,0.0,0.0,0.0,0.0,0.0,0.0,0.0,0.0,0.0,0.0,0.0,0.0,0.0,0.0,0.0,True,0,3.1514391899108887,0.024947265625
STABILIZE,3.0641167163848877,29.939853381016626,0.03248623212178548,0.032598257064819336,0.0,0.0,0.0,-0.24775411980651704,-0.9721519236253161,-127.6003236589926,-0.0036036268438184578,-0.002709912961460025,0.03129436050210028,0.4,-0.17583970374005772,0.0605651851708369,0.8300913884916536,0.13123164448424057,-0.23136213421821594,0.3239465644583106,1.8438348546624184,-0.8245515356613405,-10.331887751817703,-4.782675206661224,17.698276042938232,0.0,0.0,0.0,0.0,0.0,0.0,0.0,0.0,0.0,0.0,0.0,0.0,0.0,0.0,0.0,0.0,True,0,3.1806280612945557,0.0349267578125
STABILIZE,3.09771728515625,29.76309048203629,0.03251341183980306,0.03264737129211426,0.0,0.0,0.0,-0.24654005368154727,-0.9717702868054416,-127.61935256602024,-0.0002470657100283358,-0.0020386075854969144,0.032338427621200726,0.4,-0.17040825616984506,0.052494585682788544,0.8298346788122174,0.13599672561424403,-0.008094339136732742,-0.3320673946291208,1.4990735799074173,0.5942451340896211,11.079170554876328,-6.653081625699997,22.035880386829376,0.0,0.0,0.0,0.0,0.0,0.0,0.0,0.0,0.0,0.0,0.0,0.0,0.0,0.0,0.0,0.0,True,0,3.20884370803833,0.03492724609375
STABILIZE,3.13105845451355,29.99016130877474,0.03235987027486165,0.03247690200805664,0.0,0.0,0.0,-0.24842934803899627,-0.9737876472098284,-127.61498124495144,-8.065098704610625e-05,-0.001934426196875899,0.03342494239234164,0.4,-0.16491221287096292,0.04439466577114889,0.8294902409340534,0.1409580517755962,-0.008094339136732742,-0.3320673946291208,1.4990735799074173,0.5942451340896211,11.079170554876328,-6.653081625699997,22.035880386829376,0.0,0.0,0.0,0.0,0.0,0.0,0.0,0.0,0.0,0.0,0.0,0.0,0.0,0.0,0.0,0.0,True,0,3.237482786178589,0.03492724609375
STABILIZE,3.164515972137451,29.88843599464128,0.03247192700703939,0.03260040283203125,0.0,0.0,0.0,-0.24980146901022837,-0.9730124207390319,-127.5814859972617,-0.0012654375344844074,-0.0013684916656635931,0.03453084254898732,0.4,-0.15788939442809763,0.04048679523472692,0.8287097437175994,0.1459990412005367,0.08049632888287306,-0.08316889870911837,1.4778546057641506,0.589726803871099,3.1171765178442,5.0689708441495895,20.28024047613144,0.0,0.0,0.0,0.0,0.0,0.0,0.0,0.0,0.0,0.0,0.0,0.0,0.0,0.0,0.0,0.0,True,0,3.2662954330444336,0.029936767578125
STABILIZE,3.197910785675049,29.943487014006884,0.03247073491414388,0.03258395195007324,0.0,0.0,0.0,-0.24997798671159088,-0.9734608653467256,-127.59286509241893,-0.0032221526920626895,-0.0033201635714924264,0.03127063753838217,0.4,-0.1573333206364979,0.0429474294404315,0.8240452209936573,0.12926608175843365,-0.3361994167789817,0.284075946547091,1.4824600890278816,-0.6834022613684421,-13.620191812515259,1.4220385812222958,28.43189537525177,0.0,0.0,0.0,0.0,0.0,0.0,0.0,0.0,0.0,0.0,0.0,0.0,0.0,0.0,0.0,0.0,True,0,3.301225423812866,0.03492724609375
STABILIZE,3.2314207553863525,29.841652911377995,0.03251078923543294,0.03278088569641113,0.0,0.0,0.0,-0.24996443305495664,-0.9742721637540762,-127.59950403629219,-0.0027659899009813025,-0.004009667312208439,0.026025321562173832,0.4,-0.15890219841838296,0.04380491368920788,0.8220435029376466,0.10269475993941538,-0.41149575263261795,0.029150053160265088,1.4190894551575184,-0.32289639259955943,-6.894667446613312,-2.821085788309574,18.139974772930145,0.0,0.0,0.0,0.0,0.0,0.0,0.0,0.0,0.0,0.0,0.0,0.0,0.0,0.0,0.0,0.0,True,0,3.358659029006958,0.0349267578125
STABILIZE,3.265061378479004,29.726808178886564,0.03257945378621419,0.03274941444396973,0.0,0.0,0.0,-0.24969005154939253,-0.9736606483799485,-127.582100714287,-0.0011669880096634082,-0.0018367330906801523,0.02709377419122978,0.4,-0.15347099695472036,0.03955077276147988,0.8170245074311354,0.10767601112503607,0.0015329093002947047,-0.12986218789592385,1.2202177196741104,0.5823536680229231,5.254555866122246,-4.647887498140335,22.762103378772736,0.0,0.0,0.0,0.0,0.0,0.0,0.0,0.0,0.0,0.0,0.0,0.0,0.0,0.0,0.0,0.0,True,0,3.38718843460083,0.029937255859375
STABILIZE,3.298485040664673,29.91999086914341,0.032445700963338216,0.03257322311401367,0.0,0.0,0.0,-0.24968652973310176,-0.9736178529759301,-127.57682780824774,-0.0012144508751752387,-0.0030251950238040773,0.02737679070483627,0.4,-0.15203877228535684,0.03571135879524716,0.8101375395156477,0.10872754901607057,-0.26780935004353523,-0.1117426436394453,1.3356531038880348,0.3462364296539624,-4.362252354621887,-0.8419024758040905,19.199945032596588,0.0,0.0,0.0,0.0,0.0,0.0,0.0,0.0,0.0,0.0,0.0,0.0,0.0,0.0,0.0,0.0,True,0,3.415889024734497,0.0349267578125
STABILIZE,3.331911325454712,29.916149555641148,0.032462390263875325,0.03259110450744629,0.0,0.0,0.0,-0.24817481677070752,-0.971781812749666,-127.59492780954828,-0.0011453934194201936,-0.003231447000328864,0.02772903983396304,0.4,-0.15126361856416207,0.03188017133100082,0.807322205352502,0.11012051366222447,-0.26780935004353523,-0.1117426436394453,1.3356531038880348,0.3462364296539624,-4.362252354621887,-0.8419024758040905,19.199945032596588,0.0,0.0,0.0,0.0,0.0,0.0,0.0,0.0,0.0,0.0,0.0,0.0,0.0,0.0,0.0,0.0,True,0,3.4447124004364014,0.0349267578125
STABILIZE,3.365384817123413,29.874598460081057,0.0324886163075765,0.03261566162109375,0.0,0.0,0.0,-0.24817481677070752,-0.971781812749666,-127.59492780954828,-0.0024250106274516354,-0.0023168826292570355,0.02772192067189643,0.4,-0.14758453507227257,0.03227793868005433,0.8080057898928843,0.10971791526752456,-0.0923493702430278,0.13627795269712806,1.5479698777198792,0.23114656820048393,-7.289887219667435,-0.7161542773246765,22.717437148094177,0.0,0.0,0.0,0.0,0.0,0.0,0.0,0.0,0.0,0.0,0.0,0.0,0.0,0.0,0.0,0.0,True,0,3.4732744693756104,0.064863037109375
STABILIZE,3.3987410068511963,29.978800506043214,0.032460721333821614,0.03258180618286133,0.0,0.0,0.0,-0.2509423240450321,-0.972476250889186,-127.5736722608512,-0.0005918597604663223,-0.004611474543370167,0.028820977421265773,0.4,-0.15125904490566727,0.026908394034624358,0.8290803066289884,0.11482940257380297,-0.34241636749356985,-0.17019192455336452,1.468821708112955,0.4325381643337478,1.4920475892722607,-4.675345495343208,23.634766042232513,0.0,0.0,0.0,0.0,0.0,0.0,0.0,0.0,0.0,0.0,0.0,0.0,0.0,0.0,0.0,0.0,True,0,3.5020158290863037,0.034927001953125
STABILIZE,3.432284355163574,29.814500995166334,0.032558472951253255,0.03267240524291992,0.0,0.0,0.0,-0.25095171555514084,-0.9722498941512235,-127.5802565632111,0.0003688513663008459,-0.0026189503403761362,0.027939305216059265,0.4,-0.14838709500022038,0.018836657165035617,0.816316423230105,0.1100529288501666,-0.1395037630572915,-0.08315775194205344,1.107456348836422,-0.19765017325240425,-0.5782813765108585,2.9072267934679985,15.939265489578247,0.0,0.0,0.0,0.0,0.0,0.0,0.0,0.0,0.0,0.0,0.0,0.0,0.0,0.0,0.0,0.0,True,0,3.5593435764312744,0.03492724609375
STABILIZE,3.465691328048706,29.931734330509745,0.03243234952290853,0.03255772590637207,0.0,0.0,0.0,-0.24997627916429838,-0.9711017820404266,-127.58272909169064,-0.0013038570358338748,-0.004464192955319552,0.028030366581613213,0.4,-0.15139226690739624,0.01651653833583454,0.8075424446928127,0.11013964124551777,-0.478887464851141,-0.04045293608214706,1.1419459246098995,0.24929435414478138,-15.149123966693878,-4.784759879112244,20.196634531021118,0.0,0.0,0.0,0.0,0.0,0.0,0.0,0.0,0.0,0.0,0.0,0.0,0.0,0.0,0.0,0.0,True,0,3.5881876945495605,0.064864013671875
STABILIZE,3.4991557598114014,29.88247363921345,0.03249219258626302,0.03263211250305176,0.0,0.0,0.0,-0.2518068765835676,-0.9714845927990647,-127.56768901513827,-0.0008909766124162925,-0.005831108338619177,0.028583836662618472,0.4,-0.1584116623770312,0.013051076299464231,0.818938222001795,0.11253062893037992,-0.478887464851141,-0.04045293608214706,1.1419459246098995,0.24929435414478138,-15.149123966693878,-4.784759879112244,20.196634531021118,0.0,0.0,0.0,0.0,0.0,0.0,0.0,0.0,0.0,0.0,0.0,0.0,0.0,0.0,0.0,0.0,True,0,3.616909980773926,0.064864013671875
STABILIZE,3.532607078552246,29.89397459837783,0.032482179005940755,0.03260970115661621,0.0,0.0,0.0,-0.2512792444701841,-0.9706462938001514,-127.56715626038302,-0.00020911390518806586,-0.00404004542942608,0.026953581766394896,0.4,-0.1592969721906307,0.007649057261147561,0.8383783361686354,0.10403145967034896,-0.1745500136166811,-0.13825534842908382,1.685720682144165,-0.26575996588212514,0.5215421319007874,-2.634422853589058,25.691470503807068,0.0,0.0,0.0,0.0,0.0,0.0,0.0,0.0,0.0,0.0,0.0,0.0,0.0,0.0,0.0,0.0,True,0,3.6463072299957275,0.03492578125
STABILIZE,3.5663976669311523,29.59403928652066,0.03247884114583333,0.03291916847229004,0.0,0.0,0.0,-0.25045407224108196,-0.9721205474438164,-127.56850863783868,-0.002082615727337068,-0.0016342697201378932,0.024929984840771805,0.4,-0.15243832712032296,0.008445738964393108,0.8252831259896904,0.09359764716220338,-0.017201340233441442,0.08869424345903099,1.184762828052044,-0.24847916039516976,3.582600876688957,3.0397076159715652,15.637530386447906,0.0,0.0,0.0,0.0,0.0,0.0,0.0,0.0,0.0,0.0,0.0,0.0,0.0,0.0,0.0,0.0,True,0,3.674712657928467,0.034927001953125
STABILIZE,3.5998568534851074,29.88864897991178,0.03246000607808431,0.0326075553894043,0.0,0.0,0.0,-0.24940819952442372,-0.9718598263165923,-127.56375482617635,-0.0011208021041588221,-0.0019256978059529071,0.02474179773363099,0.4,-0.14690046659281641,0.006165816033412711,0.8206059378283014,0.09234740985714394,-0.06934500997886062,-0.06313135381788015,1.5562515705823898,0.18053267865572092,-7.597419619560242,-2.58664358407259,24.864332377910614,0.0,0.0,0.0,0.0,0.0,0.0,0.0,0.0,0.0,0.0,0.0,0.0,0.0,0.0,0.0,0.0,True,0,3.7028794288635254,0.0349267578125
