E-kp,E-ki,E-kd,E-I-Tot,E-P,E-I,E-D,E-PID,N-kp,N-ki,N-kd,N-I-Tot,N-P,N-I,N-D,N-PID,D-kp,D-ki,D-kd,D-I-Tot,D-P,D-I,D-D,D-PID,Y-kp,Y-ki,Y-kd,Y-I-Tot,Y-P,Y-I,Y-D,Y-PID,errorN,desiredN,actualN,errorE,desiredE,actualE,errorD,desiredD,actualD,errorY,desiredY,actualY,roll,pitch,yaw-rate,thrust,dt,Time,Mode
0.17,0.004,0.13,-0.0010366671636804913,-0.0053262467885857884,-4.146668654721965e-06,-0.12309735965284997,-0.12842775311009047,0.17,0.004,0.13,0.0007826049446850517,0.004020911647824538,3.1304197787402065e-06,0.09292915384719008,0.09695319591479336,0.002,8e-05,0,-0.02410045508854036,-0.0014567608470915864,-1.928036407083229e-06,-0.0,-0.0014586888834986697,0.2,0.02,0,-0.0003034168533725924,-0.0018340142985561001,-6.068337067451848e-06,-0.0,-0.0018400826356235519,0.023652421457791402,0.0,-0.023652421457791402,-0.03133086346226934,0.0,0.03133086346226934,-0.7283804235457932,0.0,0.7283804235457932,-0.0091700714927805,0,0.0091700714927805,-0.128412234305995,-0.0969737492703097,0.0018400826356235519,0.4,0.033087730407714844,0.03340721130371094,STABILIZE
0.17,0.004,0.13,-0.002008559947380203,-0.004883549638424007,-8.034239789520811e-06,-0.056545576306195534,-0.06143716018440906,0.17,0.004,0.13,0.001678470231877786,0.004501528021118073,6.713880927511144e-06,0.051896221261549455,0.05640446316359504,0.002,8e-05,0,-0.04874803929815058,-0.0014570440517917877,-3.899843143852046e-06,-0.0,-0.0014609438949356396,0.2,0.02,0,-0.0006592515109650535,-0.0021035196263344534,-1.318503021930107e-05,-0.0,-0.0021167046565537546,0.02647957659481219,0.0,-0.02647957659481219,-0.028726762578964747,0.0,0.028726762578964747,-0.7285220258958938,0.0,0.7285220258958938,-0.010517598131672266,0,0.010517598131672266,-0.061426805167235456,-0.05641574003099298,0.0021167046565537546,0.4,0.03383231163024902,0.06714582443237305,STABILIZE
0.17,0.004,0.13,-0.0030026831138517777,-0.0050446312219148744,-1.2010732455407111e-05,-0.0389226808463332,-0.04397932280070348,0.17,0.004,0.13,0.0026507338217315484,0.004933705829143426,1.0602935286926194e-05,0.037885815018027354,0.04283012378245771,0.002,8e-05,0,-0.07300201196423203,-0.0014479487391894916,-5.840160957138563e-06,-0.0,-0.00145378890014663,0.2,0.02,0,-0.0009734207303120719,-0.0018755728445337496,-1.946841460624144e-05,-0.0,-0.001895041259139991,0.029021798994961327,0.0,-0.029021798994961327,-0.029674301305381613,0.0,0.029674301305381613,-0.7239743695947458,0.0,0.7239743695947458,-0.009377864222668748,0,0.009377864222668748,-0.04397231200794658,-0.042837321507126505,0.001895041259139991,0.4,0.03350114822387695,0.10068035125732422,STABILIZE
0.17,0.004,0.13,-0.004284493453863814,-0.005438234126167136,-1.7137973815455258e-05,-0.0003941258944005063,-0.005849497994383097,0.17,0.004,0.13,0.0038807740061992564,0.005218593031217392,1.5523096024797025e-05,0.008721735554221167,0.013955851681463356,0.002,8e-05,0,-0.10192266608813312,-0.001443521697383078,-8.15381328705065e-06,0.0,-0.0014516755106701287,0.2,0.02,0,-0.0014027991017689701,-0.002143163819634371,-2.8055982035379402e-05,-0.0,-0.0021712198016697504,0.030697606065984658,0.0,-0.030697606065984658,-0.0319896125068655,0.0,0.0319896125068655,-0.721760848691539,0.0,0.721760848691539,-0.010715819098171854,0,0.010715819098171854,-0.0058468877804373955,-0.013956945447491988,0.0021712198016697504,0.4,0.040069580078125,0.14075374603271484,STABILIZE
0.17,0.004,0.13,-0.005426738484593882,-0.005814558892805929,-2.170695393837553e-05,-0.006601925820806387,-0.012438191667550691,0.17,0.004,0.13,0.00482778601875253,0.004820731954216701,1.931114407501012e-05,0.0020638602064713993,0.00690390330476311,0.002,8e-05,0,-0.12589955163527267,-0.0014359236243918782,-1.0071964130821814e-05,0.0,-0.0014459955885227,0.2,0.02,0,-0.0016374776381467577,-0.001405438808389257,-3.274955276293516e-05,0.0,-0.001438188361152192,0.028357246789510005,0.0,-0.028357246789510005,-0.034203287604740756,0.0,0.034203287604740756,-0.7179618121959391,0.0,0.7179618121959391,-0.007027194041946285,0,0.007027194041946285,-0.01243734482632598,-0.006905428768100416,0.001438188361152192,0.4,0.03339576721191406,0.17413640022277832,STABILIZE
0.17,0.004,0.13,-0.006717882763520086,-0.006560254637686805,-2.6871531054080346e-05,-0.011057388095492704,-0.01764451426423359,0.17,0.004,0.13,0.005734974882736656,0.004609391877691032,2.2939899530946622e-05,-0.002834570955994199,0.0017977608212277796,0.002,8e-05,0,-0.15070561369602362,-0.0014828076635121348,-1.205644909568189e-05,-0.0,-0.0014948641126078168,0.2,0.02,0,-0.0017392238805207737,-0.0006081985425831298,-3.4784477610415475e-05,0.0,-0.0006429830201935453,0.02711406986877077,0.0,-0.02711406986877077,-0.03858973316286356,0.0,0.03858973316286356,-0.7414038317560674,0.0,0.7414038317560674,-0.0030409927129156486,0,0.0030409927129156486,-0.017644418822622913,-0.0017986973072072084,0.0006429830201935453,0.4,0.03345823287963867,0.20759916305541992,STABILIZE
0.17,0.004,0.13,-0.00803169737140023,-0.006684158065695718,-3.212678948560092e-05,-0.00949868218861746,-0.016214967043798777,0.17,0.004,0.13,0.006400760167174409,0.0033872466117396863,2.5603040668697636e-05,-0.013969962525255628,-0.010557112872847245,0.002,8e-05,0,-0.1757209160952552,-0.001497267702896257,-1.4057673287620417e-05,-0.0,-0.0015113253761838774,0.2,0.02,0,-0.00183094848988183,-0.0005490091343501165,-3.66189697976366e-05,0.0,-0.0005856281041477531,0.019924980069056977,0.0,-0.019924980069056977,-0.03931857685703363,0.0,0.03931857685703363,-0.7486338514481286,0.0,0.7486338514481286,-0.002745045671750582,0,0.002745045671750582,-0.0162154728173649,0.010556336000280475,0.0005856281041477531,0.4,0.033414602279663086,0.24104762077331543,STABILIZE
0.17,0.004,0.13,-0.009291462158038777,-0.006346322937294488,-3.716584863215511e-05,-0.004074395703317109,-0.010457884489243754,0.17,0.004,0.13,0.006964969826083904,0.0028423216284166517,2.7859879304335617e-05,-0.015049356951632188,-0.0121791754439112,0.002,8e-05,0,-0.20078959042333522,-0.0014857479706506806,-1.606316723386682e-05,-0.0,-0.0015018111378845476,0.2,0.02,0,-0.0019814685939357297,-0.0008920892114734282,-3.962937187871459e-05,0.0,-0.0009317185833521427,0.016719538990686185,0.0,-0.016719538990686185,-0.03733131139584993,0.0,0.03733131139584993,-0.7428739853253403,0.0,0.7428739853253403,-0.00446044605736714,0,0.00446044605736714,-0.010458832599903599,0.012178361266243025,0.0009317185833521427,0.4,0.033745527267456055,0.2747688293457031,STABILIZE
0.17,0.004,0.13,-0.0105603414189907,-0.006446391956919901,-4.22413656759628e-05,0.0008444063954238176,-0.005644226927172046,0.17,0.004,0.13,0.00750358671343863,0.0027363797938504534,3.001434685375452e-05,-0.014246287130232373,-0.011479892989528166,0.002,8e-05,0,-0.2256558769527055,-0.0014862381910264895,-1.805247015621644e-05,-0.0,-0.001504290661182706,0.2,0.02,0,-0.0020344494818580593,-0.00031666255808504226,-4.068898963716119e-05,0.0,-0.0003573515477222034,0.016096351728532077,0.0,-0.016096351728532077,-0.03791995268776412,0.0,0.03791995268776412,-0.7431190955132447,0.0,0.7431190955132447,-0.0015833127904252113,0,0.0015833127904252113,-0.005644544160624115,0.011479737012457913,0.0003573515477222034,0.4,0.0334620475769043,0.30823683738708496,STABILIZE
0.17,0.004,0.13,-0.011817219848406625,-0.006387698774641465,-4.72688793936265e-05,0.0022368618514669323,-0.004198105802568159,0.17,0.004,0.13,0.007938514594590156,0.0022103874396030817,3.1754058378360625e-05,-0.008931451081161553,-0.006689309583180111,0.002,8e-05,0,-0.2502247983509898,-0.0014689882437136054,-2.0017983868079186e-05,0.0,-0.0014890062275816846,0.2,0.02,0,-0.0019457039934278701,0.0005306137663644989,-3.8914079868557406e-05,0.0,0.0004916996864959414,0.013002279056488715,0.0,-0.013002279056488715,-0.037574698674361556,0.0,0.037574698674361556,-0.7344941218568026,0.0,0.7344941218568026,0.0026530688318224943,0,-0.0026530688318224943,-0.004197796051016226,0.006689503968401117,-0.0004916996864959414,0.4,0.03345012664794922,0.3416862487792969,STABILIZE
0.17,0.004,0.13,-0.013082174811133907,-0.006427462532051849,-5.232869924453563e-05,-0.0006179806844393794,-0.007097771915735763,0.17,0.004,0.13,0.008415552502370914,0.0024239149764024182,3.366221000948366e-05,-0.0031884457983112667,-0.0007308686118993649,0.002,8e-05,0,-0.274598961831629,-0.0014570527818182951,-2.1967916946530324e-05,0.0,-0.0014790206987648255,0.2,0.02,0,-0.0018884829415051008,0.0003420592995893608,-3.7769658830102016e-05,0.0,0.00030428964075925876,0.014258323390602458,0.0,-0.014258323390602458,-0.037808603129716754,0.0,0.037808603129716754,-0.7285263909091475,0.0,0.7285263909091475,0.0017102964979468038,0,-0.0017102964979468038,-0.007097750095922529,0.0007310804822307505,-0.00030428964075925876,0.4,0.03345680236816406,0.37514376640319824,STABILIZE
0.17,0.004,0.13,-0.014317143166050744,-0.00627236863894741,-5.726857266420297e-05,0.0013254313010535026,-0.00500420591055811,0.17,0.004,0.13,0.008870638512808462,0.002311368715261048,3.548255405123385e-05,-0.0032385177998459367,-0.0008916665305336545,0.002,8e-05,0,-0.29900996066143937,-0.0014586206901661665,-2.3920796852915153e-05,0.0,-0.0014825414870190817,0.2,0.02,0,-0.001847385592441784,0.00024556735294882975,-3.694771184883568e-05,0.0,0.00020861964109999406,0.013596286560359105,0.0,-0.013596286560359105,-0.03689628611145535,0.0,0.03689628611145535,-0.7293103450830832,0.0,0.7293103450830832,0.0012278367647441486,0,-0.0012278367647441486,-0.0050041868011787925,0.0008917737694318105,-0.00020861964109999406,0.4,0.03347134590148926,0.40862107276916504,STABILIZE
0.17,0.004,0.13,-0.015515282691940021,-0.006089523558144692,-6.206113076776008e-05,0.0022715927445787916,-0.0038799919443336605,0.17,0.004,0.13,0.009269936554514543,0.002029425437647166,3.707974621805817e-05,-0.001378898832569882,0.0006876063512953419,0.002,8e-05,0,-0.3240601588088132,-0.0014978494324740218,-2.592481270470506e-05,-0.0,-0.0015237742451787268,0.2,0.02,0,-0.0017217913743610624,0.0007509770069182027,-3.4435827487221246e-05,0.0,0.0007165411794309814,0.011937796692042152,0.0,-0.011937796692042152,-0.03582072681261583,0.0,0.03582072681261583,-0.7489247162370108,0.0,0.7489247162370108,0.003754885034591013,0,-0.003754885034591013,-0.0038800369983573646,-0.0006873520741321463,-0.0007165411794309814,0.4,0.033448219299316406,0.4420642852783203,STABILIZE
0.17,0.004,0.13,-0.016624607105525487,-0.005640092199139065,-6.649842842210195e-05,0.006000766481584982,0.000294175854023815,0.17,0.004,0.13,0.009628065975317339,0.0018208225905923618,3.8512263901269354e-05,-0.004596005153797676,-0.002736670299304045,0.002,8e-05,0,-0.3487976538971619,-0.0014796684982357942,-2.7903812311772955e-05,-0.0,-0.001507572310547567,0.2,0.02,0,-0.0015352756154411611,0.0011156404151376927,-3.0705512308823224e-05,0.0,0.0010849349028288695,0.01071072112113154,0.0,-0.01071072112113154,-0.033177012936112145,0.0,0.033177012936112145,-0.7398342491178971,0.0,0.7398342491178971,0.005578202075688463,0,-0.005578202075688463,0.0002944422893558548,0.0027366416459636096,-0.0010849349028288695,0.4,0.03343653678894043,0.47551441192626953,STABILIZE
0.17,0.004,0.13,-0.017624134389400168,-0.005086606560658626,-7.049653755760067e-05,0.009043063021624258,0.003885959923408032,0.17,0.004,0.13,0.01007434061685243,0.002271097103711053,4.029736246740972e-05,-0.00030304872314466333,0.0020083457430337993,0.002,8e-05,0,-0.3732157363377465,-0.0014619284694083854,-2.9857258907019724e-05,-0.0,-0.001491785728315405,0.2,0.02,0,-0.0015110256698617393,0.0001451861992456777,-3.0220513397234785e-05,-0.0,0.00011496568584844292,0.013359394727712075,0.0,-0.013359394727712075,-0.029921215062697796,0.0,0.029921215062697796,-0.7309642347041927,0.0,0.7309642347041927,0.0007259309962283885,0,-0.0007259309962283885,0.003885934477584468,-0.002008394977541935,-0.00011496568584844292,0.4,0.033405303955078125,0.5089037418365479,STABILIZE
0.17,0.004,0.13,-0.018613385682110913,-0.005025273654097304,-7.445354272844365e-05,0.008116804118998575,0.0030170769221728273,0.17,0.004,0.13,0.010378980465522016,0.0015475325802329705,4.151592186208807e-05,-0.0036657244049807334,-0.002076675902885675,0.002,8e-05,0,-0.3974205813342088,-0.0014465600608139116,-3.179364650673671e-05,0.0,-0.0014783537073206482,0.2,0.02,0,-0.0015426690169808958,-0.0001891109079183647,-3.085338033961792e-05,-0.0,-0.0002199642882579826,0.009103132824899825,0.0,-0.009103132824899825,-0.029560433259395905,0.0,0.029560433259395905,-0.7232800304069558,0.0,0.7232800304069558,-0.0009455545395918234,0,0.0009455545395918234,0.0030170426502965416,0.0020767256935439295,0.0002199642882579826,0.4,0.03346538543701172,0.5423731803894043,STABILIZE
0.17,0.004,0.13,-0.019631742753028248,-0.005178624634426178,-7.852697101211299e-05,0.003521286135245592,-0.0017358654701926995,0.17,0.004,0.13,0.010668257770578723,0.0014710543294972462,4.267303108231489e-05,-0.002658594809911678,-0.0011448674493321168,0.002,8e-05,0,-0.42137521317359017,-0.0014331278128936926,-3.3710017053887214e-05,0.0,-0.0014668378299475798,0.2,0.02,0,-0.0015515373927939002,-5.305661184037021e-05,-3.103074785587801e-05,-0.0,-8.408735969624822e-05,0.008653260761748506,0.0,-0.008653260761748506,-0.03046249784956575,0.0,0.03046249784956575,-0.7165639064468463,0.0,0.7165639064468463,-0.00026528305920185105,0,0.00026528305920185105,-0.0017358707709823188,0.001144859412153649,8.408735969624822e-05,0.4,0.033429861068725586,0.5758061408996582,STABILIZE
0.17,0.004,0.13,-0.020684412433285573,-0.005350862102734237,-8.273764973314229e-05,-0.00201488679027063,-0.00744848654273801,0.17,0.004,0.13,0.010942049935588517,0.001391722538658413,4.376819974235407e-05,-0.006699100822543143,-0.005263610084142376,0.002,8e-05,0,-0.44524450092746015,-0.0014274213197486055,-3.561956007419682e-05,0.0,-0.0014630408798228024,0.2,0.02,0,-0.0015380477347068495,8.067029794994046e-05,-3.076095469413699e-05,-0.0,4.990934325580347e-05,0.0081866031685789,0.0,-0.0081866031685789,-0.031475659427848454,0.0,0.031475659427848454,-0.7137106598743027,0.0,0.7137106598743027,0.0004033514897497023,0,-0.0004033514897497023,-0.007448449487730433,0.005263662519953458,-4.990934325580347e-05,0.4,0.03344392776489258,0.6092545986175537,STABILIZE
0.17,0.004,0.13,-0.02163157504927514,-0.004814452485526743,-8.652630019710055e-05,0.0016062514331558614,-0.0032947273525679825,0.17,0.004,0.13,0.011245111834601985,0.001540471602597456,4.498044733840794e-05,-5.408667519470112e-05,0.0015313653747411626,0.002,8e-05,0,-0.4691576465562372,-0.0014300135070376772,-3.7532611724498976e-05,0.0,-0.0014675461187621762,0.2,0.02,0,-0.0015441252834945119,-3.6343929782198466e-05,-3.088250566989024e-05,0.0,-6.72264354520887e-05,0.009061597662337975,0.0,-0.009061597662337975,-0.028320308738392606,0.0,0.028320308738392606,-0.7150067535188386,0.0,0.7150067535188386,-0.00018171964891099232,0,0.00018171964891099232,-0.0032947224956635115,-0.0015313758243111232,6.72264354520887e-05,0.4,0.03344464302062988,0.6427128314971924,STABILIZE
0.17,0.004,0.13,-0.02258197435190856,-0.004826947485807849,-9.032789740763424e-05,0.0026803953231117035,-0.0022368800601037797,0.17,0.004,0.13,0.011576801280905375,0.0016846051280413109,4.63072051236215e-05,0.0016266877123250702,0.0033576000454900025,0.002,8e-05,0,-0.4930057542805622,-0.0014249560319757146,-3.944046034244498e-05,0.0,-0.0014643964923181595,0.2,0.02,0,-0.001645740603498647,-0.0006071649996504423,-3.291481206997294e-05,-0.0,-0.0006400798117204153,0.00990944192965477,0.0,-0.00990944192965477,-0.028393808740046166,0.0,0.028393808740046166,-0.7124780159878573,0.0,0.7124780159878573,-0.0030358249982522113,0,0.0030358249982522113,-0.0022367021540496304,-0.003357718562183868,0.0006400798117204153,0.4,0.03347206115722656,0.6761810779571533,STABILIZE
0.17,0.004,0.13,-0.023551014478660176,-0.004928502307948288,-9.42040579146407e-05,0.0032186916290904686,-0.00180401473677246,0.17,0.004,0.13,0.011785062335079671,0.001059208032586309,4.714024934031869e-05,-0.0025379490065044925,-0.0014316007245778648,0.002,8e-05,0,-0.5167887819412775,-0.0014230541249315065,-4.13431025553022e-05,0.0,-0.0014643972274868088,0.2,0.02,0,-0.00177532982095028,-0.0007753952653631402,-3.55065964190056e-05,-0.0,-0.0008109018617821458,0.006230635485801817,0.0,-0.006230635485801817,-0.02899119004675463,0.0,0.02899119004675463,-0.7115270624657533,0.0,0.7115270624657533,-0.003876976326815701,0,0.003876976326815701,-0.0018041116033397607,0.0014314786508358805,0.0008109018617821458,0.4,0.033425331115722656,0.7096073627471924,STABILIZE
0.17,0.004,0.13,-0.024578534743000632,-0.005220753912542984,-9.831413897200253e-05,-0.0030961188289479755,-0.008415186880462961,0.17,0.004,0.13,0.011829760893113848,0.00022711004331553994,4.7319043572455396e-05,-0.010010959715215722,-0.009736530628327727,0.002,8e-05,0,-0.5406127798051968,-0.00142409362648845,-4.324902238441575e-05,0.0,-0.0014673426488728658,0.2,0.02,0,-0.0019245521402706577,-0.0008919852792457153,-3.849104280541315e-05,-0.0,-0.0009304763220511285,0.0013359414312678819,0.0,-0.0013359414312678819,-0.030710317132605785,0.0,0.030710317132605785,-0.712046813244225,0.0,0.712046813244225,-0.004459926396228576,0,0.004459926396228576,-0.008415944750406676,0.009735875557318004,0.0009304763220511285,0.4,0.03345847129821777,0.7430999279022217,STABILIZE
0.17,0.004,0.13,-0.025568255133651168,-0.00499265637204494,-0.00010227302053460467,-0.00127566725290852,-0.006370596645488064,0.17,0.004,0.13,0.011993219057538484,0.000824566669421668,4.797287623015394e-05,-0.006589511551345833,-0.005716972005694011,0.002,8e-05,0,-0.5642883809466046,-0.001405080631771388,-4.514307047572837e-05,0.0,-0.0014502237022471164,0.2,0.02,0,-0.001955746445117199,-0.00018512946429389537,-3.9114928902343986e-05,0.0,-0.00022424439319623936,0.004850392173068635,0.0,-0.004850392173068635,-0.029368566894381998,0.0,0.029368566894381998,-0.702540315885694,0.0,0.702540315885694,-0.0009256473214694768,0,0.0009256473214694768,-0.0063706890057323015,0.005716869084178363,0.00022424439319623936,0.4,0.033699989318847656,0.7767655849456787,STABILIZE
0.17,0.004,0.13,-0.026477558059375055,-0.00461786281459669,-0.00010591023223750022,0.00235275709314803,-0.0023710159536861597,0.17,0.004,0.13,0.012095453194773686,0.0005191924576124912,4.838181277909474e-05,-0.004145579952872533,-0.003578005682480947,0.002,8e-05,0,-0.5877998871946982,-0.0014047335840744713,-4.7023990975575864e-05,0.0,-0.0014517575750500472,0.2,0.02,0,-0.0021843596415219964,-0.0013658871165622205,-4.3687192830439926e-05,-0.0,-0.0014095743093926604,0.0030540732800734775,0.0,-0.0030540732800734775,-0.02716389890939229,0.0,0.02716389890939229,-0.7023667920372356,0.0,0.7023667920372356,-0.006829435582811102,0,0.006829435582811102,-0.0023714424212972042,0.0035777230411215863,0.0014095743093926604,0.4,0.03347468376159668,0.8102564811706543,STABILIZE
0.17,0.004,0.13,-0.027346735475408158,-0.004416414519964806,-0.00010938694190163263,0.006114054695968347,0.0015882532341019084,0.17,0.004,0.13,0.012215669239736299,0.0006108348844689836,4.886267695894519e-05,0.0028919275296555645,0.0035516250910834933,0.002,8e-05,0,-0.6112437143382539,-0.0014014286136653743,-4.8899497147060315e-05,0.0,-0.0014503281108124346,0.2,0.02,0,-0.002434153274077235,-0.0014932201215728297,-4.86830654815447e-05,-0.0,-0.0015419031870543744,0.003593146379229315,0.0,-0.003593146379229315,-0.025978908940969447,0.0,0.025978908940969447,-0.7007143068326871,0.0,0.7007143068326871,-0.007466100607864148,0,0.007466100607864148,0.0015887160259131304,-0.0035514180987678418,0.0015419031870543744,0.4,0.033457040786743164,0.8437073230743408,STABILIZE
0.17,0.004,0.13,-0.02817472731328803,-0.004207864375394849,-0.00011269890925315212,0.005977927363085688,0.0016573640784376866,0.17,0.004,0.13,0.012353570441283296,0.000700815547650291,4.941428176513318e-05,-0.0009414895432315768,-0.0001912597138161526,0.002,8e-05,0,-0.6345208652820502,-0.0013917030371286643,-5.076166922256402e-05,0.0,-0.0014424647063512282,0.2,0.02,0,-0.002602034723674916,-0.001003735911868219,-5.2040694473498324e-05,-0.0,-0.0010557766063417173,0.004122444397942888,0.0,-0.004122444397942888,-0.02475214338467558,0.0,0.02475214338467558,-0.6958515185643321,0.0,0.6958515185643321,-0.005018679559341094,0,0.005018679559341094,0.0016573473191665736,0.0001914048857161449,0.0010557766063417173,0.4,0.03345131874084473,0.8771533966064453,STABILIZE
0.17,0.004,0.13,-0.02930097982438975,-0.00572726165412703,-0.000117203919297559,-0.008461327190073326,-0.014305792763497915,0.17,0.004,0.13,0.012147003719185067,-0.0010504408690148973,4.858801487674027e-05,-0.011969332383951214,-0.01297118523808937,0.002,8e-05,0,-0.6578122857404739,-0.0013934400923496357,-5.2624982859237915e-05,0.0,-0.0014460650752088735,0.2,0.02,0,-0.002596127592642686,3.534019415331559e-05,-5.192255185285372e-05,0.0,-1.6582357699538133e-05,-0.006179063935381748,0.0,0.006179063935381748,-0.033689774436041355,0.0,0.033689774436041355,-0.6967200461748179,0.0,0.6967200461748179,0.00017670097076657792,0,-0.00017670097076657792,-0.014305752760116497,0.012971229357289006,1.6582357699538133e-05,0.4,0.03343009948730469,0.9105863571166992,STABILIZE
0.17,0.004,0.13,-0.030441804383905757,-0.0057957838010200165,-0.00012176721753562303,-0.01051809178789508,-0.01643564280645072,0.17,0.004,0.13,0.012002060649345003,-0.0007363609849051185,4.8008242597380015e-05,-0.01027500457297868,-0.010963357315286418,0.002,8e-05,0,-0.681335744584738,-0.0014059684294993598,-5.4506859566779045e-05,-0.0,-0.0014604752890661388,0.2,0.02,0,-0.0025334620911982497,0.0003745440550767789,-5.066924182396499e-05,0.0,0.0003238748132528139,-0.0043315352053242264,0.0,0.0043315352053242264,-0.034092845888353034,0.0,0.034092845888353034,-0.7029842147496799,0.0,0.7029842147496799,0.0018727202753838943,0,-0.0018727202753838943,-0.016435284458860104,0.010963894510630377,-0.0003238748132528139,0.4,0.0334622859954834,0.9440622329711914,STABILIZE
0.17,0.004,0.13,-0.03148122077841478,-0.005283305541073933,-0.00012592488311365913,-0.008201409295594545,-0.013610639719782137,0.17,0.004,0.13,0.011845066914689503,-0.0007979919044966544,4.738026765875801e-05,-0.011430385075770965,-0.012180996712608862,0.002,8e-05,0,-0.7046917824514561,-0.001396678377355517,-5.6375342596116496e-05,-0.0,-0.0014530537199516334,0.2,0.02,0,-0.0024139683061412147,0.0007145663437005709,-4.8279366122824295e-05,0.0,0.0006662869775777466,-0.004694070026450908,0.0,0.004694070026450908,-0.031078267888670196,0.0,0.031078267888670196,-0.6983391886777585,0.0,0.6983391886777585,0.003572831718502854,0,-0.003572831718502854,-0.013609880114660427,0.012181845416802404,-0.0006662869775777466,0.4,0.033445119857788086,0.9774959087371826,STABILIZE
0.17,0.004,0.13,-0.03234077099935732,-0.004368213320050645,-0.00012936308399742928,0.010356911842009759,0.0058593354379616845,0.17,0.004,0.13,0.011743234214299812,-0.0005175113069847167,4.697293685719925e-05,0.004060082969079189,0.0035895445989516713,0.002,8e-05,0,-0.7278378889129933,-0.001383858237225082,-5.822703111303947e-05,0.0,-0.0014420852683381215,0.2,0.02,0,-0.0022748095132698815,0.0008320018838473102,-4.549619026539763e-05,0.0,0.0007865056935819126,-0.003044184158733628,0.0,0.003044184158733628,-0.025695372470886144,0.0,0.025695372470886144,-0.691929118612541,0.0,0.691929118612541,0.004160009419236551,0,-0.004160009419236551,0.005859074800540636,-0.0035899700115859553,-0.0007865056935819126,0.4,0.03345155715942383,1.0109672546386719,STABILIZE
0.17,0.004,0.13,-0.033033031540981576,-0.0034754704945753065,-0.0001321321261639263,0.017599278135714675,0.013991675514975443,0.17,0.004,0.13,0.011693286224507259,-0.0002507621832382154,4.6773144898029035e-05,0.0036755863477690976,0.003471597309428911,0.002,8e-05,0,-0.7511750261514151,-0.0013783918052126247,-6.009400209211321e-05,0.0,-0.001438485807304738,0.2,0.02,0,-0.0021118898022036026,0.0009622739599424575,-4.223779604407205e-05,0.0,0.0009200361638983855,-0.0014750716661071496,0.0,0.0014750716661071496,-0.020443944085737097,0.0,0.020443944085737097,-0.6891959026063124,0.0,0.6891959026063124,0.004811369799712287,0,-0.004811369799712287,0.013991383940882028,-0.0034727722375684075,-0.0009200361638983855,0.4,0.033861398696899414,1.0448102951049805,STABILIZE
0.17,0.004,0.13,-0.033757610131231935,-0.003680166179904461,-0.00013503044052492775,0.012134537524059978,0.00831934090363059,0.17,0.004,0.13,0.011571331156930719,-0.0006194150934104584,4.628532462772288e-05,0.0013377799306482409,0.0007646501618655053,0.002,8e-05,0,-0.7743245047107088,-0.0013832612780265941,-6.194596037685671e-05,0.0,-0.0014452072384034508,0.2,0.02,0,-0.0019690483455942665,0.000853527025753616,-3.938096691188533e-05,0.0,0.0008141460588417307,-0.003643618196532108,0.0,0.003643618196532108,-0.02164803635237918,0.0,0.02164803635237918,-0.691630639013297,0.0,0.691630639013297,0.00426763512876808,0,-0.00426763512876808,0.008319283926133146,-0.0007652698198966393,-0.0008141460588417307,0.4,0.033470869064331055,1.0782818794250488,STABILIZE
0.17,0.004,0.13,-0.03445829538035399,-0.0035587094638026553,-0.00013783318152141597,0.006086448644063048,0.002389905998738977,0.17,0.004,0.13,0.01164798188283393,0.000389301279027756,4.6591927531335715e-05,0.006882306601618099,0.00731819980817719,0.002,8e-05,0,-0.7974823045863161,-0.0013837190795629247,-6.379858436690529e-05,0.0,-0.00144751766392983,0.2,0.02,0,-0.0018485335163830375,0.0007200972002763351,-3.697067032766075e-05,-0.0,0.0006831265299486743,0.0022900075236926823,0.0,-0.0022900075236926823,-0.02093358508119209,0.0,0.02093358508119209,-0.6918595397814623,0.0,0.6918595397814623,0.003600486001381675,0,-0.003600486001381675,0.0023894461158900787,-0.007318349976222169,-0.0006831265299486743,0.4,0.03347182273864746,1.111786127090454,STABILIZE
0.17,0.004,0.13,-0.03519355311918081,-0.003736908190349396,-0.00014077421247672323,-0.0019919500143453246,-0.005869632417171444,0.17,0.004,0.13,0.011662614499555765,7.43694930179475e-05,4.665045799822306e-05,0.0024742586808176818,0.0025952786318338525,0.002,8e-05,0,-0.8206514728310155,-0.0013853654144599637,-6.565211782648124e-05,-0.0,-0.001451017532286445,0.2,0.02,0,-0.0016407853816502854,0.0012421985879582321,-3.281570763300571e-05,0.0,0.0012093828803252265,0.0004374676059879265,0.0,-0.0004374676059879265,-0.02198181288440821,0.0,0.02198181288440821,-0.6926827072299818,0.0,0.6926827072299818,0.00621099293979116,0,-0.00621099293979116,-0.005869913716795858,-0.0025946423350695406,-0.0012093828803252265,0.4,0.03344845771789551,1.1452224254608154,STABILIZE
0.17,0.004,0.13,-0.0358499660980048,-0.003338087403198542,-0.00014339986439201923,0.0026079810203782313,-0.0008735062472123296,0.17,0.004,0.13,0.011466068070807182,-0.0009995066811822179,4.586427228322873e-05,-0.002906614066043933,-0.003860256474942922,0.002,8e-05,0,-0.8437002980785796,-0.0013789560159351746,-6.749602384628637e-05,0.0,-0.0014464520397814609,0.2,0.02,0,-0.0011928667890554157,0.002679789669424422,-2.3857335781108314e-05,0.0,0.0026559323336433137,-0.005879451065777752,0.0,0.005879451065777752,-0.019635808254109068,0.0,0.019635808254109068,-0.6894780079675873,0.0,0.6894780079675873,0.013398948347122108,0,-0.013398948347122108,-0.0008726034801042796,0.003860460643856847,-0.0026559323336433137,0.4,0.03342938423156738,1.1786549091339111,STABILIZE
0.17,0.004,0.13,-0.03651079037585866,-0.0033585801603983217,-0.00014604316150343465,0.0015268683778429477,-0.0019777549440588085,0.17,0.004,0.13,0.011349121551502517,-0.0005943702020753431,4.539648620601007e-05,-0.007500994779320327,-0.008049968495189661,0.002,8e-05,0,-0.8667689989465192,-0.0013793482875276552,-6.934151991572154e-05,0.0,-0.0014486898074433767,0.2,0.02,0,-0.000791325901488948,0.0024009359643086463,-1.582651802977896e-05,0.0,0.0023851094462788674,-0.0034962953063255474,0.0,0.0034962953063255474,-0.019756353884696008,0.0,0.019756353884696008,-0.6896741437638276,0.0,0.6896741437638276,0.01200467982154323,0,-0.01200467982154323,-0.001976068261693519,0.008050382700059837,-0.0023851094462788674,0.4,0.03344869613647461,1.2120919227600098,STABILIZE
0.17,0.004,0.13,-0.037199967837041534,-0.003499190815367781,-0.00014879987134816614,0.0018143931305809329,-0.001833597556135014,0.17,0.004,0.13,0.011127300002073192,-0.0011262642383596238,4.450920000829277e-05,-0.009150337663936242,-0.010232092702287574,0.002,8e-05,0,-0.8897852672063324,-0.0013748412211744717,-7.11828213765066e-05,0.0,-0.0014460240425509783,0.2,0.02,0,-0.000309500521573475,0.002878109458223775,-6.1900104314695e-06,0.0,0.0028719194477923055,-0.00662508375505661,0.0,0.00662508375505661,-0.020583475384516357,0.0,0.020583475384516357,-0.6874206105872358,0.0,0.6874206105872358,0.014390547291118876,0,-0.014390547291118876,-0.0018310275810466585,0.010232552910369794,-0.0028719194477923055,0.4,0.03348207473754883,1.2456250190734863,STABILIZE
0.17,0.004,0.13,-0.037941818847525385,-0.0036450813641061976,-0.00015176727539010154,-0.0023014854047415274,-0.0060983340442378265,0.17,0.004,0.13,0.010789461769987407,-0.0016599665248892767,4.315784707994963e-05,-0.0048939415930725925,-0.006510750270881919,0.002,8e-05,0,-0.9134895472635004,-0.0013702454800044075,-7.307916378108004e-05,0.0,-0.0014433246437854875,0.2,0.02,0,0.00027031163424186326,0.0033516520385411725,5.406232684837265e-06,0.0,0.00335705827122601,-0.00976450896993692,0.0,0.00976450896993692,-0.021441655082977632,0.0,0.021441655082977632,-0.6851227400022037,0.0,0.6851227400022037,0.016758260192705862,0,-0.016758260192705862,-0.006096429474788438,0.006512533674679145,-0.00335705827122601,0.4,0.034598588943481445,1.2801902294158936,STABILIZE
0.17,0.004,0.13,-0.038619233603246594,-0.0034451589943701316,-0.00015447693441298637,-0.0006207715150076116,-0.00422040744379073,0.17,0.004,0.13,0.010402591988489055,-0.0019675212211166956,4.161036795395622e-05,-0.010326674176277943,-0.012252585029440682,0.002,8e-05,0,-0.9363616717759319,-0.001368491795138295,-7.490893374207455e-05,0.0,-0.0014434007288803695,0.2,0.02,0,0.0007738303925564373,0.0030126684955619053,1.5476607851128747e-05,0.0,0.003028145103413034,-0.011573654241862914,0.0,0.011573654241862914,-0.020265641143353715,0.0,0.020265641143353715,-0.6842458975691474,0.0,0.6842458975691474,0.015063342477809527,0,-0.015063342477809527,-0.004217186033053938,0.012253694171877024,-0.003028145103413034,0.4,0.033426761627197266,1.313600778579712,STABILIZE
0.17,0.004,0.13,-0.039217271970819256,-0.0030399747769303343,-0.00015686908788327704,0.0035379970793686013,0.00034115321455498995,0.17,0.004,0.13,0.009928538911905583,-0.0024097273250029065,3.9714155647622333e-05,-0.009647784167380775,-0.01201779733673606,0.002,8e-05,0,-0.9592507147135779,-0.0013688303975809741,-7.674005717708624e-05,0.0,-0.0014455704547580604,0.2,0.02,0,0.0012418402153793725,0.002798832933258518,2.4836804307587448e-05,-0.0,0.0028236697375661054,-0.014174866617664155,0.0,0.014174866617664155,-0.017882204570178434,0.0,0.017882204570178434,-0.6844151987904871,0.0,0.6844151987904871,0.013994164666292589,0,-0.013994164666292589,0.0003440884822410859,0.012017713653563666,-0.0028236697375661054,0.4,0.03344321250915527,1.3470687866210938,STABILIZE
0.17,0.004,0.13,-0.04066110121218425,-0.007133227942709509,-0.00016264440484873698,-0.02570953667637706,-0.033005409023935305,0.17,0.004,0.13,0.009382590587241632,-0.0026972537563282758,3.753036234896653e-05,-0.007845745227942692,-0.010505468621922,0.002,8e-05,0,-0.9823867180590969,-0.001344744205760977,-7.859093744472777e-05,0.0,-0.0014233351432057046,0.2,0.02,0,0.006648872981205011,0.03142753687236154,0.00013297745962410022,0.0,0.031560514331985645,-0.015866198566636916,0.0,0.015866198566636916,-0.04196016436887946,0.0,0.04196016436887946,-0.6723721028804884,0.0,0.6723721028804884,0.15713768436180772,0,-0.15713768436180772,-0.03297647294912943,0.010595948642702673,-0.031560514331985645,0.4,0.034409523010253906,1.3814616203308105,STABILIZE
0.17,0.004,0.13,-0.04136369804542433,-0.003562632363818926,-0.00016545479218169732,-8.658818206296127e-05,-0.0038146753380635845,0.17,0.004,0.13,0.009520816455382362,0.0007008969127916049,3.808326582152945e-05,0.020335952626087207,0.021074932804700342,0.002,8e-05,0,-1.007980584249094,-0.0015267987304158064,-8.063844673992753e-05,-0.0,-0.0016074371771557338,0.2,0.02,0,0.011483956718279942,0.028843628611707292,0.00022967913436559886,0.0,0.02907330774607289,0.004122923016421205,0.0,-0.004122923016421205,-0.02095666096364074,0.0,0.02095666096364074,-0.7633993652079032,0.0,0.7633993652079032,0.14421814305853645,0,-0.14421814305853645,-0.0038677105198963065,-0.021065264204176235,-0.02907330774607289,0.4,0.03352618217468262,1.4149839878082275,STABILIZE
0.17,0.004,0.13,-0.042541334865478585,-0.00598024627866154,-0.00017016533946191434,-0.021583396478951,-0.027733808097074455,0.17,0.004,0.13,0.009613311782480196,0.0004697074906718039,3.845324712992079e-05,0.02194606481449066,0.022454225552292383,0.002,8e-05,0,-1.0348301163590778,-0.0016040780270353912,-8.278640930872624e-05,-0.0,-0.0016868644363441175,0.2,0.02,0,0.01847284514967381,0.041753883532414174,0.0003694569029934762,0.0,0.04212334043540765,0.002762985239245905,0.0,-0.002762985239245905,-0.03517791928624435,0.0,0.03517791928624435,-0.8020390135176956,0.0,0.8020390135176956,0.20876941766207086,0,-0.20876941766207086,-0.02781544057982923,-0.022353022660673027,-0.04212334043540765,0.4,0.03347659111022949,1.448547124862671,STABILIZE
0.17,0.004,0.13,-0.042761714385971435,-0.0011200192427217117,-0.00017104685754388573,0.04577590959004396,0.04448484348977837,0.17,0.004,0.13,0.009244915804893906,-0.00187227280881257,3.6979663219575626e-05,0.006229172027605123,0.004393878882012129,0.002,8e-05,0,-1.0630333210045209,-0.001686295897436196,-8.504266568036168e-05,-0.0,-0.0017713385631165578,0.2,0.02,0,0.023929329800242302,0.03262483039197433,0.00047858659600484604,0.0,0.033103416987979174,-0.011013369463603352,0.0,0.011013369463603352,-0.006588348486598304,0.0,0.006588348486598304,-0.8431479487180981,0.0,0.8431479487180981,0.16312415195987165,0,-0.16312415195987165,0.04447215360766293,-0.004520511634350976,-0.033103416987979174,0.4,0.03344988822937012,1.4820137023925781,STABILIZE
0.17,0.004,0.13,-0.043975468058521414,-0.006169585818275997,-0.00017590187223408567,-0.019857675622199804,-0.026203163312709887,0.17,0.004,0.13,0.007554566338294264,-0.008592152042805947,3.0218265353177054e-05,-0.07082386137482359,-0.07938579515227637,0.002,8e-05,0,-1.0916912419971962,-0.0017137647587792994,-8.73352993597757e-05,-0.0,-0.001801100058139075,0.2,0.02,0,0.030474852424001928,0.03914270683926757,0.0006094970484800385,0.0,0.03975220388774761,-0.050542070840034974,0.0,0.050542070840034974,-0.03629168128397645,0.0,0.03629168128397645,-0.8568823793896496,0.0,0.8568823793896496,0.19571353419633786,0,-0.19571353419633786,-0.02593184135483441,0.07947483780102625,-0.03975220388774761,0.4,0.03344440460205078,1.51539945602417,STABILIZE
0.17,0.004,0.13,-0.04484822291309326,-0.004435635087126658,-0.00017939289165237304,0.011764548403465377,0.007149520424686346,0.17,0.004,0.13,0.006368155847608359,-0.0060297390185279345,2.5472623390433437e-05,-0.04953644490611061,-0.05554071130124811,0.002,8e-05,0,-1.1207735542144674,-0.0017388957413204797,-8.96618843371574e-05,-0.0,-0.001828557625657637,0.2,0.02,0,0.03761560069115907,0.042696112533401206,0.0007523120138231815,0.0,0.04344842454722439,-0.03546905305016432,0.0,0.03546905305016432,-0.026091971100745043,0.0,0.026091971100745043,-0.8694478706602399,0.0,0.8694478706602399,0.21348056266700602,0,-0.21348056266700602,0.007356411604976774,0.05551368716316508,-0.04344842454722439,0.4,0.03344917297363281,1.5488553047180176,STABILIZE
0.17,0.004,0.13,-0.04498348206278162,-0.0006710879234144558,-0.00017993392825112648,0.002733526558801705,0.0018825047071361228,0.17,0.004,0.13,0.005308473219180323,-0.005257612636399339,2.1233892876721294e-05,-0.025945442646198382,-0.031181821389721,0.002,8e-05,0,-1.1502952080246214,-0.001723195405600659,-9.202361664196971e-05,-0.0,-0.0018152190222426288,0.2,0.02,0,0.04293022597022195,0.03102176430312431,0.000858604519404439,-0.0,0.03188036882252875,-0.030927133155290224,0.0,0.030927133155290224,-0.003947576020085034,0.0,0.003947576020085034,-0.8615977028003295,0.0,0.8615977028003295,0.15510882151562155,0,-0.15510882151562155,0.0019669118740551937,0.03117661089394664,-0.03188036882252875,0.4,0.03426384925842285,1.5830857753753662,STABILIZE
0.17,0.004,0.13,-0.045607746762564204,-0.0031722493186903318,-0.00018243098705025682,0.022162180606993275,0.018807500301252687,0.17,0.004,0.13,0.004926418708912944,-0.0019414395212805748,1.9705674835651778e-05,0.050538574939483646,0.048616841093038723,0.002,8e-05,0,-1.1794917856213631,-0.0017454666533680751,-9.435934284970905e-05,-0.0,-0.0018398259962177843,0.2,0.02,0,0.04962823450577717,0.04004288003978623,0.0009925646901155435,0.0,0.041035444729901775,-0.011420232478121028,0.0,0.011420232478121028,-0.018660290109943127,0.0,0.018660290109943127,-0.8727333266840376,0.0,0.8727333266840376,0.20021440019893116,0,-0.20021440019893116,0.018637499105970814,-0.04868226507181374,-0.041035444729901775,0.4,0.033454179763793945,1.6165680885314941,STABILIZE
0.17,0.004,0.13,-0.04559462247938844,6.678773074887086e-05,-0.00018237848991755376,0.03366351453557132,0.03354792377640264,0.17,0.004,0.13,0.003762957142669484,-0.005920701099046545,1.5051828570677935e-05,0.000648291186728661,-0.005257358083747206,0.002,8e-05,0,-1.2086981763051714,-0.001748558070037111,-9.669585410441372e-05,-0.0,-0.0018452539241415246,0.2,0.02,0,0.05672786672512442,0.04250480432803827,0.0011345573345024884,0.0,0.04363936166254076,-0.0348276535238032,0.0,0.0348276535238032,0.00039286900440512265,0.0,-0.00039286900440512265,-0.8742790350185554,0.0,0.8742790350185554,0.21252402164019132,0,-0.21252402164019132,0.03356719377104874,0.005132884770275875,-0.04363936166254076,0.4,0.03340625762939453,1.6499567031860352,STABILIZE
0.17,0.004,0.13,-0.04600922484327885,-0.0021061735101399414,-0.0001840368993731154,-0.010893948156899766,-0.013184158566412823,0.17,0.004,0.13,0.004021171453122796,0.001311724649885415,1.6084685812491185e-05,0.04999387169443856,0.051321681030136464,0.002,8e-05,0,-1.2385140937811785,-0.0017819340405566513,-9.908112750249429e-05,-0.0,-0.0018810151680591456,0.2,0.02,0,0.06131605530341658,0.027421089485947115,0.0012263211060683317,-0.0,0.028647410592015445,0.007716027352267146,0.0,-0.007716027352267146,-0.012389255941999655,0.0,0.012389255941999655,-0.8909670202783256,0.0,0.8909670202783256,0.13710544742973557,0,-0.13710544742973557,-0.013306930481230267,-0.05128998520209468,-0.028647410592015445,0.4,0.033464670181274414,1.6834375858306885,STABILIZE
0.17,0.004,0.13,-0.04619978811842939,-0.0009688453387729473,-0.00018479915247371757,0.01683361323247746,0.015679968741230798,0.17,0.004,0.13,0.0038220320714427193,-0.0010124472386112092,1.5288128285770878e-05,0.007008788593673588,0.00601162948334815,0.002,8e-05,0,-1.267888209519412,-0.001756956956474438,-0.00010143105676155296,-0.0,-0.001858388013235991,0.2,0.02,0,0.06668689754564192,0.032124673041041475,0.0013337379509128383,-0.0,0.03345841099195431,-0.005955571991830642,0.0,0.005955571991830642,-0.00569909022807616,0.0,0.00569909022807616,-0.8784784782372189,0.0,0.8784784782372189,0.16062336520520737,0,-0.16062336520520737,0.01566305410657459,-0.0060555631303416,-0.03345841099195431,0.4,0.033437490463256836,1.716864824295044,STABILIZE
0.17,0.004,0.13,-0.04616416468913293,0.00018077070191807723,-0.00018465665875653172,0.0008657828906458031,0.0008618969338073486,0.17,0.004,0.13,0.003165851502446142,-0.003329781112743913,1.2663406009784568e-05,0.019739862995499815,0.016422745288765687,0.002,8e-05,0,-1.2970722550329157,-0.0017422837578511651,-0.00010376578040263326,0.0,-0.0018460495382537983,0.2,0.02,0,0.07288991177366293,0.037031915037961535,0.0014577982354732585,-0.0,0.03848971327343479,-0.019586947722023018,0.0,0.019586947722023018,0.0010633570701063366,0.0,-0.0010633570701063366,-0.8711418789255826,0.0,0.8711418789255826,0.18515957518980766,0,-0.18515957518980766,0.0008088200555365223,-0.016425444872573282,-0.03848971327343479,0.4,0.03350090980529785,1.7503643035888672,STABILIZE
0.17,0.004,0.13,-0.04492614608415254,0.006294765827221626,-0.00017970458433661017,0.0640297611154744,0.07014482235835942,0.17,0.004,0.13,0.00494537190813388,0.009048058077240415,1.9781487632535522e-05,0.059017430396023626,0.06808526996089657,0.002,8e-05,0,-1.3276184373598567,-0.0018272182367970629,-0.00010620947498878855,-0.0,-0.0019334277117858513,0.2,0.02,0,0.07517027949462488,0.013640753668487344,0.0015034055898924975,-0.0,0.015144159258379841,0.05322387104259067,0.0,-0.05322387104259067,0.03702803427777427,0.0,-0.03702803427777427,-0.9136091183985314,0.0,0.9136091183985314,0.06820376834243672,0,-0.06820376834243672,0.07006372531428066,-0.0681687207186624,-0.015144159258379841,0.4,0.03343462944030762,1.7838106155395508,STABILIZE
0.17,0.004,0.13,-0.04273120462304573,0.011152016171660353,-0.00017092481849218292,0.09236334071969429,0.10334443207286247,0.17,0.004,0.13,0.010114066966318471,0.026261005997941102,4.045626786527389e-05,0.20786753110589704,0.2341689933717034,0.002,8e-05,0,-1.358997911383856,-0.0018756732400367169,-0.00010871983291070849,-0.0,-0.0019843930729474255,0.2,0.02,0,0.07443013676354472,-0.004424121046238611,0.0014886027352708944,-0.0,-0.0029355183109677162,0.15447650587024175,0.0,-0.15447650587024175,0.06560009512741384,0.0,-0.06560009512741384,-0.9378366200183584,0.0,0.9378366200183584,-0.022120605231193052,0,0.022120605231193052,0.10343483172324945,-0.23412907697157656,0.0029355183109677162,0.4,0.03345942497253418,1.8172905445098877,STABILIZE
0.17,0.004,0.13,-0.04070085503551598,0.010320908949116641,-0.00016280342014206393,0.07728139923776504,0.08743950476673962,0.17,0.004,0.13,0.012913240293778754,0.014229083120933315,5.165296117511502e-05,0.13379184710138528,0.1480725831834937,0.002,8e-05,0,-1.390888036009301,-0.001907148083710623,-0.0001112710428807441,-0.0,-0.002018419126591367,0.2,0.02,0,0.07602038916639944,0.009510300942194204,0.001520407783327989,-0.0,0.011030708725522193,0.08370048894666655,0.0,-0.08370048894666655,0.06071122911245083,0.0,-0.06071122911245083,-0.9535740418553115,0.0,0.9535740418553115,0.04755150471097102,0,-0.04755150471097102,0.08731658474080363,-0.14814510087642926,-0.011030708725522193,0.4,0.03344273567199707,1.8507115840911865,STABILIZE
0.17,0.004,0.13,-0.03939877601864282,0.006612326853838932,-0.0001575951040745713,0.0024299808613445456,0.008884712611108906,0.17,0.004,0.13,0.014648890173895788,0.00881412277015303,5.8595560695583154e-05,-0.0018076461867122455,0.007065072144136368,0.002,8e-05,0,-1.4224734520546858,-0.0018870553937214672,-0.00011379787616437487,-0.0,-0.002000853269885842,0.2,0.02,0,0.07644827974714045,0.002556411563962624,0.0015289655949428092,-0.0,0.004085377158905433,0.05184778100090018,0.0,-0.05184778100090018,0.0388960403166996,0.0,-0.0388960403166996,-0.9435276968607336,0.0,0.9435276968607336,0.01278205781981312,0,-0.01278205781981312,0.00888313625019355,-0.007067054049909802,-0.004085377158905433,0.4,0.03347587585449219,1.8842096328735352,STABILIZE
0.17,0.004,0.13,-0.03882488528617045,0.0029160622910145984,-0.00015529954114468182,-0.06273516449847033,-0.059974401748600414,0.17,0.004,0.13,0.015333661691331055,0.0034794714167125204,6.133464676532422e-05,-0.17358416519376413,-0.1700433591302863,0.002,8e-05,0,-1.4535681820217148,-0.0018588119218629353,-0.0001162854545617372,0.0,-0.0019750973764246726,0.2,0.02,0,0.0757687963708832,-0.004061883804213498,0.001515375927417664,0.0,-0.0025465078767958347,0.020467478921838353,0.0,-0.020467478921838353,0.01715330759420352,0.0,-0.01715330759420352,-0.9294059609314677,0.0,0.9294059609314677,-0.02030941902106749,0,0.02030941902106749,-0.060034672608189045,0.170022089547922,0.0025465078767958347,0.4,0.03345656394958496,1.9176433086395264,STABILIZE
0.17,0.004,0.13,-0.038141430610138624,0.003471419668154251,-0.0001525657224405545,-0.05217087936044703,-0.04885202541473333,0.17,0.004,0.13,0.017598532366171683,0.011503786398999486,7.039412946468674e-05,-0.020763894810589933,-0.00918971428212576,0.002,8e-05,0,-1.4842569317373717,-0.0018338240755563881,-0.00011874055453898975,0.0,-0.001952564630095378,0.2,0.02,0,0.07503351950607542,-0.004393689639940565,0.0015006703901215086,-0.0,-0.002893019249819056,0.0676693317588205,0.0,-0.0676693317588205,0.020420115695025005,0.0,-0.020420115695025005,-0.9169120377781941,0.0,0.9169120377781941,-0.021968448199702825,0,0.021968448199702825,-0.048855545360080486,0.009170982677880008,0.002893019249819056,0.4,0.03346967697143555,1.9511492252349854,STABILIZE
0.17,0.004,0.13,-0.03627978798475564,0.009422074833276138,-0.00014511915193902257,0.02122658404649117,0.030503539727828283,0.17,0.004,0.13,0.018148919286104823,0.0027855973408427727,7.259567714441929e-05,-0.045692498464402716,-0.042834305446415526,0.002,8e-05,0,-1.515623275527549,-0.001867648775572853,-0.00012124986204220393,0.0,-0.001988898637615057,0.2,0.02,0,0.07452521827727059,-0.0030265821670194776,0.0014905043655454118,-0.0,-0.0015360778014740658,0.016385866710839837,0.0,-0.016385866710839837,0.05542396960750669,0.0,-0.05542396960750669,-0.9338243877864265,0.0,0.9338243877864265,-0.015132910835097386,0,0.015132910835097386,0.030492225304974814,0.042842360520338685,0.0015360778014740658,0.4,0.03358912467956543,1.9847147464752197,STABILIZE
0.17,0.004,0.13,-0.03605515786732089,0.00113937222579314,-0.00014422063146928357,-0.013605217008758358,-0.0126100654144345,0.17,0.004,0.13,0.01887762644937696,0.0036961593220462066,7.551050579750784e-05,0.0018768217080189532,0.005648491535862668,0.002,8e-05,0,-1.5466881092645133,-0.0018537354370914527,-0.00012373504874116107,0.0,-0.0019774704858326136,0.2,0.02,0,0.07589382253334688,0.008166888097083179,0.0015178764506669376,0.0,0.009684764547750116,0.02174211365909533,0.0,-0.02174211365909533,0.006702189563489058,0.0,-0.006702189563489058,-0.9268677185457264,0.0,0.9268677185457264,0.040834440485415895,0,-0.040834440485415895,-0.012614087865678861,-0.0056395029660389956,-0.009684764547750116,0.4,0.03351593017578125,2.0182225704193115,STABILIZE
0.17,0.004,0.13,-0.038038225932639516,-0.010005946673520064,-0.00015215290373055807,-0.10215607199789864,-0.11231417157514927,0.17,0.004,0.13,0.020032432169891007,0.005826791656736658,8.012972867956403e-05,-0.04311605269711259,-0.03720913131169637,0.002,8e-05,0,-1.5776440261303923,-0.0018375759959554764,-0.0001262115220904314,-0.0,-0.0019637875180459076,0.2,0.02,0,0.07936766843616308,0.02062111703013215,0.0015873533687232617,0.0,0.022208470398855415,0.034275245039627394,0.0,-0.034275245039627394,-0.058858509844235664,0.0,0.058858509844235664,-0.9187879979777382,0.0,0.9187879979777382,0.10310558515066075,0,-0.10310558515066075,-0.11224703073680972,0.037411183894028574,-0.022208470398855415,0.4,0.033692121505737305,2.0519347190856934,STABILIZE
0.17,0.004,0.13,-0.04156360000190911,-0.01789584015178186,-0.00016625440000763645,-0.20736859484551784,-0.22543068939730734,0.17,0.004,0.13,0.020762875532687162,0.0037079462785174233,8.305150213074864e-05,0.006917126413464947,0.010708124194113119,0.002,8e-05,0,-1.6083906267692325,-0.0018362214967057476,-0.0001286712501415386,0.0,-0.001964892746847286,0.2,0.02,0,0.08377264031633108,0.02630698643326171,0.0016754528063266216,0.0,0.02798243923958833,0.021811448697161312,0.0,-0.021811448697161312,-0.105269647951658,0.0,0.105269647951658,-0.9181107483528738,0.0,0.9181107483528738,0.13153493216630854,0,-0.13153493216630854,-0.22545467815977996,-0.01019057121911442,-0.02798243923958833,0.4,0.03348898887634277,2.085452079772949,STABILIZE
0.17,0.004,0.13,-0.046246742349764836,-0.023806063079039506,-0.00018498696939905934,-0.18942364474393544,-0.21341469479237402,0.17,0.004,0.13,0.020837469099425642,0.0003791853894596756,8.334987639770257e-05,-0.02538019777353631,-0.024917662507678934,0.002,8e-05,0,-1.639848722801054,-0.001881324578929667,-0.00013118789782408434,-0.0,-0.002012512476753751,0.2,0.02,0,0.08892104064929016,0.030789568697253217,0.0017784208129858032,0.0,0.03256798951023902,0.002230502290939268,0.0,-0.002230502290939268,-0.1400356651708206,0.0,0.1400356651708206,-0.9406622894648334,0.0,0.9406622894648334,0.15394784348626608,0,-0.15394784348626608,-0.2133469733225757,0.02549099512111898,-0.03256798951023902,0.4,0.03344249725341797,2.1188714504241943,STABILIZE
0.17,0.004,0.13,-0.04987803721741166,-0.01845770414711818,-0.00019951214886964664,-0.06433982574986813,-0.08299704204585595,0.17,0.004,0.13,0.02073193168840793,-0.0005364417873010891,8.292772675363172e-05,-0.04847821525907985,-0.04893172931962731,0.002,8e-05,0,-1.6706786094781747,-0.001843610476399085,-0.000133654288758254,-0.0,-0.001977264765157339,0.2,0.02,0,0.09293715581594872,0.02401615053996202,0.0018587431163189744,0.0,0.025874893656280994,-0.003155539925300524,0.0,0.003155539925300524,-0.10857473027716576,0.0,0.10857473027716576,-0.9218052381995425,0.0,0.9218052381995425,0.12008075269981008,0,-0.12008075269981008,-0.08289430850439591,0.04910556730299419,-0.025874893656280994,0.4,0.033445119857788086,2.1523540019989014,STABILIZE
0.17,0.004,0.13,-0.05289678954440765,-0.01533991393279451,-0.0002115871581776306,0.01946985318587729,0.003918352094905151,0.17,0.004,0.13,0.021044380608213013,0.0015877220185778226,8.417752243285206e-05,-0.016165777135530728,-0.014493877594520053,0.002,8e-05,0,-1.701659164882848,-0.0018521054669542456,-0.00013613273319062786,-0.0,-0.0019882382001448736,0.2,0.02,0,0.09642172605456845,0.020831749155665973,0.001928434521091369,-0.0,0.02276018367675734,0.009339541285751898,0.0,-0.009339541285751898,-0.0902347878399677,0.0,0.0902347878399677,-0.9260527334771228,0.0,0.9260527334771228,0.10415874577832986,0,-0.10415874577832986,0.003944694215042164,0.014486730425268185,-0.02276018367675734,0.4,0.03345441818237305,2.1857590675354004,STABILIZE
0.17,0.004,0.13,-0.0587952736603011,-0.029655526213202606,-0.0002351810946412044,-0.04340122422968608,-0.07329193153752989,0.17,0.004,0.13,0.02115487767423386,0.0005555408090417158,8.461951069693544e-05,0.001425182209460628,0.0020653425291992794,0.002,8e-05,0,-1.7273608119391066,-0.0015202228293868852,-0.00013818886495512854,0.0,-0.0016584116943420138,0.2,0.02,0,0.1025923199194489,0.036498352201835386,0.002051846398388978,0.0,0.038550198600224364,0.0032678871120100927,0.0,-0.0032678871120100927,-0.17444427184236827,0.0,0.17444427184236827,-0.7601114146934426,0.0,0.7601114146934426,0.1824917610091769,0,-0.1824917610091769,-0.0732981380481313,-0.0018318916294288617,-0.038550198600224364,0.4,0.0338129997253418,2.2195611000061035,STABILIZE
0.17,0.004,0.13,-0.06700057353443056,-0.04168338869722869,-0.00026800229413772225,-0.17578183617671714,-0.21773322716808355,0.17,0.004,0.13,0.01621254537670897,-0.025107328359580995,6.485018150683589e-05,-0.187074428089088,-0.21211690626716218,0.002,8e-05,0,-1.7471755214883868,-0.0011842335086654132,-0.00013977404171907097,0.0,-0.0013240075503844842,0.2,0.02,0,0.11657454904400265,0.08356531401054773,0.002331490980880053,0.0,0.08589680499142778,-0.14769016682106467,0.0,0.14769016682106467,-0.24519640410134524,0.0,0.24519640410134524,-0.5921167543327066,0.0,0.5921167543327066,0.4178265700527386,0,-0.4178265700527386,-0.21618059960210015,0.2136990605806605,-0.08589680499142778,0.4,0.03346419334411621,2.2530672550201416,STABILIZE
0.17,0.004,0.13,-0.0725789992965549,-0.028370453295408035,-0.0002903159971862196,-0.09801721372525156,-0.1266779830178458,0.17,0.004,0.13,0.015442443724165806,-0.003916540955789715,6.176977489666322e-05,-0.04166496811683467,-0.04551973929772772,0.002,8e-05,0,-1.7677645301642888,-0.0012318877255013477,-0.00014142116241314313,0.0,-0.0013733088879144908,0.2,0.02,0,0.12308963107097189,0.03898123365721628,0.0024617926214194376,0.0,0.04144302627863572,-0.023038476210527736,0.0,0.023038476210527736,-0.16688501938475314,0.0,0.16688501938475314,-0.6159438627506738,0.0,0.6159438627506738,0.19490616828608137,0,-0.19490616828608137,-0.12652240339061283,0.04595040247338182,-0.04144302627863572,0.4,0.033426761627197266,2.286468505859375,STABILIZE
0.17,0.004,0.13,-0.08106329191015185,-0.04311451042579235,-0.00032425316764060744,-0.10244163579311735,-0.1458803993865503,0.17,0.004,0.13,0.01764649660780751,0.011200304534343614,7.058598643123004e-05,0.08130050117008741,0.09257139169086226,0.002,8e-05,0,-1.787345713410266,-0.0011706520406136963,-0.00014298765707282127,0.0,-0.0013136396976865176,0.2,0.02,0,0.13365568153821827,0.06316864709006002,0.0026731136307643656,0.0,0.06584176072082439,0.06588414431966831,0.0,-0.06588414431966831,-0.2536147672105432,0.0,0.2536147672105432,-0.5853260203068481,0.0,0.5853260203068481,0.31584323545030013,0,-0.31584323545030013,-0.14638848052449918,-0.09176582291077,-0.06584176072082439,0.4,0.03345346450805664,2.3199257850646973,STABILIZE
0.17,0.004,0.13,-0.08926544747740223,-0.04171645550977849,-0.0003570617899096089,-0.0001618031942828857,-0.04223532049397098,0.17,0.004,0.13,0.018567194050705664,0.004682700004860227,7.426877620282265e-05,0.22707452702934935,0.2318314958104124,0.002,8e-05,0,-1.80725551755881,-0.0011913173342576033,-0.0001445804414047048,-0.0,-0.001335897775662308,0.2,0.02,0,0.14020452917472667,0.039185497007286595,0.0028040905834945335,-0.0,0.04198958759078113,0.027545294146236632,0.0,-0.027545294146236632,-0.24539091476340286,0.0,0.24539091476340286,-0.5956586671288017,0.0,0.5956586671288017,0.19592748503643295,0,-0.19592748503643295,-0.043027838288266694,-0.23168571358450327,-0.04198958759078113,0.4,0.03342485427856445,2.3533670902252197,STABILIZE
0.17,0.004,0.13,-0.09731894540719815,-0.04077481793029225,-0.00038927578162879263,-0.09453354761260675,-0.1356976413245278,0.17,0.004,0.13,0.0182326025110585,-0.0016940352166297554,7.293041004423401e-05,0.017070806920092198,0.015449702113506675,0.002,8e-05,0,-1.8276422985634235,-0.0012143313609800908,-0.0001462113838850739,0.0,-0.0013605427448651647,0.2,0.02,0,0.1428663898999475,0.015855278753744324,0.0028573277979989497,-0.0,0.018712606551743276,-0.00996491303899856,0.0,0.00996491303899856,-0.23985187017818968,0.0,0.23985187017818968,-0.6071656804900454,0.0,0.6071656804900454,0.07927639376872161,0,-0.07927639376872161,-0.13571888815953825,-0.01526193150210806,-0.018712606551743276,0.4,0.03357696533203125,2.3869330883026123,STABILIZE
0.17,0.004,0.13,-0.105709512062442,-0.04264004788280424,-0.00042283804824976804,0.003597334099794159,-0.03946555183125985,0.17,0.004,0.13,0.017667876323150575,-0.0028698838448555026,7.06715052926023e-05,-0.10707336037343058,-0.10987257271299349,0.002,8e-05,0,-1.8473215659098075,-0.001176566264903035,-0.00014778572527278461,-0.0,-0.0013243519901758197,0.2,0.02,0,0.1496877051775644,0.04078266378847937,0.002993754103551288,-0.0,0.043776417892030656,-0.016881669675620603,0.0,0.016881669675620603,-0.25082381107531904,0.0,0.25082381107531904,-0.5882831324515175,0.0,0.5882831324515175,0.20391331894239684,0,-0.20391331894239684,-0.03907427075796031,0.11001233285705521,-0.043776417892030656,0.4,0.03345203399658203,2.420430898666382,STABILIZE
0.17,0.004,0.13,-0.11639074644402359,-0.054307706811749054,-0.00046556298577609436,-0.09601482025432333,-0.15078809005184848,0.17,0.004,0.13,0.01828422792024535,0.003133780294690987,7.31369116809814e-05,-0.01159935022210541,-0.008392433015733442,0.002,8e-05,0,-1.8661741892632908,-0.0011276981943968375,-0.00014929393514106327,0.0,-0.0012769921295379008,0.2,0.02,0,0.1593780691370889,0.05796437840670481,0.003187561382741778,0.0,0.061151939789446594,0.018434001733476393,0.0,-0.018434001733476393,-0.31945709889264146,0.0,0.31945709889264146,-0.5638490971984187,0.0,0.5638490971984187,0.28982189203352404,0,-0.28982189203352404,-0.1507437093074418,0.00915506076667071,-0.061151939789446594,0.4,0.03343558311462402,2.453821897506714,STABILIZE
0.17,0.004,0.13,-0.12696829915290678,-0.05374260840473383,-0.0005078731966116271,-0.09885824355373736,-0.1531087251550828,0.17,0.004,0.13,0.016651967684415552,-0.00829321536683518,6.660787073766221e-05,-0.050244129945708225,-0.05847073744180574,0.002,8e-05,0,-1.8843627880455351,-0.00108721105654581,-0.00015074902304364283,0.0,-0.0012379600795894528,0.2,0.02,0,0.17179284544705112,0.074208476586498,0.0034358569089410224,0.0,0.07764433349543902,-0.04878361980491282,0.0,0.04878361980491282,-0.3161329906160813,0.0,0.3161329906160813,-0.543605528272905,0.0,0.543605528272905,0.37104238293249,0,-0.37104238293249,-0.15272686601375818,0.059461022974876834,-0.07764433349543902,0.4,0.03345918655395508,2.4872891902923584,STABILIZE
0.17,0.004,0.13,-0.1395644228546234,-0.06406753297040965,-0.0005582576914184936,-0.16338838169890843,-0.22801417236073657,0.17,0.004,0.13,0.016406531919661228,-0.0012483573774662445,6.562612767864492e-05,0.012443364787736772,0.011260633537949172,0.002,8e-05,0,-1.9027328441962466,-0.001099240300358141,-0.00015221862753569973,0.0,-0.0012514589278938408,0.2,0.02,0,0.18703409747298597,0.09120167253366807,0.0037406819494597192,0.0,0.09494235448312778,-0.0073432786909779085,0.0,0.0073432786909779085,-0.3768678410024097,0.0,0.3768678410024097,-0.5496201501790705,0.0,0.5496201501790705,0.45600836266834033,0,-0.45600836266834033,-0.22809657153656043,-0.009445566065326141,-0.09494235448312778,0.4,0.03342318534851074,2.5207371711730957,STABILIZE
0.17,0.004,0.13,-0.15026353335426573,-0.053771689908408984,-0.0006010541334170629,0.0031496132171042173,-0.05122313082472183,0.17,0.004,0.13,0.01753769448911828,0.005685007452056611,7.015077795647312e-05,0.01892195044464531,0.024677108674658395,0.002,8e-05,0,-1.9207944630530172,-0.0010679323937779707,-0.0001536635570442414,0.0,-0.001221595950822212,0.2,0.02,0,0.19840124086113045,0.06721070101846427,0.003968024817222609,0.0,0.07117872583568688,0.03344122030621535,0.0,-0.03344122030621535,-0.3163040582847587,0.0,0.3163040582847587,-0.5339661968889853,0.0,0.5339661968889853,0.33605350509232135,0,-0.33605350509232135,-0.05136698610087686,-0.024376249976971284,-0.07117872583568688,0.4,0.03382539749145508,2.554642677307129,STABILIZE
0.17,0.004,0.13,-0.16175712224335043,-0.058336130768012036,-0.0006470284889734017,-0.03589259262306183,-0.09487575188004727,0.17,0.004,0.13,0.016461907030677556,-0.005460198590693041,6.584762812271022e-05,0.02115694824733453,0.015762597284764198,0.002,8e-05,0,-1.938752799314883,-0.0010723316764398641,-0.00015510022394519065,0.0,-0.0012274319003850549,0.2,0.02,0,0.21326391446988885,0.088748286449574,0.004265278289397777,0.0,0.09301356473897178,-0.032118815239370824,0.0,0.032118815239370824,-0.34315371040007075,0.0,0.34315371040007075,-0.536165838219932,0.0,0.536165838219932,0.44374143224787,0,-0.44374143224787,-0.09499498265600705,-0.015027343017009677,-0.09301356473897178,0.4,0.033493995666503906,2.5880420207977295,STABILIZE
0.17,0.004,0.13,-0.17168297497082316,-0.050492604914834135,-0.0006867318998832927,0.10267722351892059,0.051497886704203154,0.17,0.004,0.13,0.018210933798243352,0.008897262530980034,7.284373519297342e-05,0.0769413668117705,0.0859114730779435,0.002,8e-05,0,-1.9563234134371705,-0.0010515452470687596,-0.00015650587307497365,0.0,-0.0012080511201437332,0.2,0.02,0,0.22555388921249936,0.0735515812779383,0.0045110777842499875,-0.0,0.07806265906218829,0.05233683841752961,0.0,-0.05233683841752961,-0.2970153230284361,0.0,0.2970153230284361,-0.5257726235343798,0.0,0.5257726235343798,0.3677579063896915,0,-0.3677579063896915,0.05094539947720143,-0.08624024474414203,-0.07806265906218829,0.4,0.03341865539550781,2.6214420795440674,STABILIZE
