Mode,Time,Freq,time2delay,actualDelay,North-Desired,East-Desired,Down-Desired,Roll-UAV,Pitch-UAV,Yaw-UAV,Roll-Control,Pitch-Control,Yaw-Control,Thrust-Control,North-Pos,East-Pos,Down-Pos,Yaw-Ang,North-Vel,East-Vel,Down-Vel,Yaw-Vel,North-Acc,East-Acc,Down-Acc,North-Avg,East-Avg,Down-Avg,Yaw-Avg,North-Dif,East-Dif,Down-Dif,Yaw-Dif,North-One,East-One,Down-One,Yaw-One,North-Two,East-Two,Down-Two,Yaw-Two,Landing-State,Q-Size,Kalman-Time,Kalman-Dt
STABILIZE,0.034924983978271484,28.642378633815223,0.0326879342397054,0.03309798240661621,-10.0,40.0,10.0,-0.5638879847975292,-1.5165392380947829,0.8846970075537093,3.9997974474105438,4.000202542333088,0.0005821858509771749,0.518581744897795,-0.040391734237913084,0.036177178052443075,0.7214728936220309,0.002901278671733923,-0.08987723267637193,0.07607307634316385,1.10000716522336,-0.13757404378836707,-1.940210536122322,-0.3845680505037308,12.605056166648865,0.0,0.0,0.0,0.0,0.0,0.0,0.0,0.0,0.0,0.0,0.0,0.0,0.0,0.0,0.0,0.0,False,0,3.5358362197875977,0.034919921875
STABILIZE,0.06798267364501953,30.2481844471849,0.031996758778889973,0.03212857246398926,-10.0,40.0,10.0,-0.5632121162348153,-1.5172669734065065,0.8850927849995998,3.999854058458559,4.000145936216902,0.0004214104327958402,0.5186004974535173,-0.03768119341804127,0.034552537364795285,0.7244871305032575,0.0020904204613171324,0.0842518056742847,-0.02211442042607814,1.569768600165844,-0.02578946028464588,3.073853999376297,-2.1377068012952805,22.855259478092194,0.0,0.0,0.0,0.0,0.0,0.0,0.0,0.0,0.0,0.0,0.0,0.0,0.0,0.0,0.0,0.0,False,0,3.5653791427612305,0.02993212890625
STABILIZE,0.10144209861755371,29.88651926379319,0.032444032033284505,0.03258252143859863,-10.0,40.0,10.0,-0.563769363621553,-1.516633900247811,0.8859914884839853,4.000147172174793,3.999852822410095,-0.0004197093226879967,0.5186412731424294,-0.03444543622259199,0.0329243744794741,0.7165236346138745,-0.002108124902708633,-0.042279643821530044,0.12574788415804505,1.1098389513790607,-0.007910799801902815,5.868774652481079,1.641981303691864,11.605751514434814,0.0,0.0,0.0,0.0,0.0,0.0,0.0,0.0,0.0,0.0,0.0,0.0,0.0,0.0,0.0,0.0,False,0,3.622697114944458,0.034919921875
STABILIZE,0.13486456871032715,29.92041774264884,0.03244665463765462,0.03256702423095703,-10.0,40.0,10.0,-0.5643245299350282,-1.5169394444914632,0.8879801407495169,4.000176946201677,3.999823045970487,-0.0005067045227509419,0.518674908229164,-0.03392980204049786,0.0338851233517861,0.7121316232419832,-0.0025346237028095967,-0.042279643821530044,0.12574788415804505,1.1098389513790607,-0.007910799801902815,5.868774652481079,1.641981303691864,11.605751514434814,0.0,0.0,0.0,0.0,0.0,0.0,0.0,0.0,0.0,0.0,0.0,0.0,0.0,0.0,0.0,0.0,False,0,3.651346445083618,0.034919921875
STABILIZE,0.16858386993408203,29.65870215459026,0.03245499928792318,0.0325775146484375,-10.0,40.0,10.0,-0.5633961044555825,-1.5170755146663346,0.8884028120652643,4.000078591822632,3.7230476052500534,-0.0002424873877423985,0.5187003064051154,-0.03265706239240982,0.034863936353661515,0.711916816157791,-0.0012094738385170201,0.0026869834982790053,0.12550987303256989,1.3536492362618446,0.09221478419073884,-0.4296703729778528,-0.1440265798009932,17.934267222881317,0.0,0.0,0.0,0.0,0.0,0.0,0.0,0.0,0.0,0.0,0.0,0.0,0.0,0.0,0.0,0.0,False,0,3.6801109313964844,0.029930908203125
STABILIZE,0.20175480842590332,30.143404362355817,0.03217819531758626,0.03229165077209473,-10.0,40.0,10.0,-0.5632212409406596,-1.517250644985522,0.8888867416401303,3.999955760315806,1.7261791694414776,0.0002940758513374704,0.5187360355813789,-0.035769290396987785,0.03421836544178867,0.7064158317813015,0.0014684584932906516,-0.26223529130220413,0.038622680585831404,1.234131120145321,0.16635508690883885,-2.0844120532274246,-0.28721552807837725,11.359480768442154,0.0,0.0,0.0,0.0,0.0,0.0,0.0,0.0,0.0,0.0,0.0,0.0,0.0,0.0,0.0,0.0,False,0,3.7090508937835693,0.039908935546875
STABILIZE,0.23538494110107422,29.739243880994923,0.032422574361165364,0.03255605697631836,-10.0,40.0,10.0,-0.5625257355840819,-1.5173830866223967,0.8889104338588137,3.999994628441727,1.72888210879773,3.610654892537574e-05,0.5187543095478706,-0.037175776060067174,0.034169857714882845,0.7097194798224704,0.0001780160272776229,-0.1405282993800938,0.0546609575394541,1.3416411355137825,-0.06405407432533493,2.1871551871299744,1.7941148951649666,15.98462462425232,0.0,0.0,0.0,0.0,0.0,0.0,0.0,0.0,0.0,0.0,0.0,0.0,0.0,0.0,0.0,0.0,False,0,3.7375011444091797,0.02993115234375
STABILIZE,0.2687652111053467,29.957174487536605,0.03224757512410482,0.03238248825073242,-10.0,40.0,10.0,-0.5629452052486559,-1.516669545297542,0.8899539586979448,4.000098325744091,1.7329751133436568,-0.0006517992034433507,0.5187862544845864,-0.035816606454342675,0.03428405419177249,0.7061793543212992,-0.0032506417766971054,0.0007357230060733855,0.08281321497634053,1.3452705927193165,-0.19560663934967462,5.3077563643455505,-0.25133828166872263,14.086267352104187,0.0,0.0,0.0,0.0,0.0,0.0,0.0,0.0,0.0,0.0,0.0,0.0,0.0,0.0,0.0,0.0,False,0,3.7661869525909424,0.029930908203125
STABILIZE,0.30672478675842285,26.342159473446213,0.03229716618855794,0.03693342208862305,-10.0,40.0,10.0,-0.5634272138328178,-1.5169236496790077,0.891187821699337,4.000063421251884,1.7400273941697704,-0.0004209069497728961,0.5188081768251471,-0.03320870885998499,0.03435597478497482,0.7093256065605842,-0.002088253239148549,-0.01927935372805223,0.05108148907311261,1.383244525641203,0.03986733393768841,2.2803880274295807,-0.1727025373838842,18.49948614835739,0.0,0.0,0.0,0.0,0.0,0.0,0.0,0.0,0.0,0.0,0.0,0.0,0.0,0.0,0.0,0.0,False,0,3.8234612941741943,0.029930908203125
STABILIZE,0.3400416374206543,30.01505653356233,0.03233531316121419,0.032456398010253906,-10.0,40.0,10.0,-0.5630555554924339,-1.5164276071905354,0.8918092621921023,4.000095006697129,1.7420994213312002,-0.0006302389816078032,0.5188349287755555,-0.036666786367444894,0.03347551624323445,0.7083692089242845,-0.0031244726502694426,-0.28169015422463417,0.02267213858431205,1.4770839363336563,-0.058828285919187595,-9.257414191961288,1.7472241073846817,15.295979380607605,0.0,0.0,0.0,0.0,0.0,0.0,0.0,0.0,0.0,0.0,0.0,0.0,0.0,0.0,0.0,0.0,False,0,3.8521106243133545,0.02993115234375
STABILIZE,0.3735482692718506,29.84547511634195,0.03246906598409017,0.03259778022766113,-10.0,40.0,10.0,-0.5622143216466116,-1.5171668684464836,0.8926778167946047,4.000197064780879,1.7487888509153724,-0.0013007894996886643,0.5188658298536672,-0.036012724583042506,0.03309673180400993,0.7053583158708988,-0.006455625243738481,-0.03720663953572512,0.0509575882460922,1.334946695715189,-0.1982842469270915,-1.9069943577051163,-2.258632332086563,10.031915456056595,0.0,0.0,0.0,0.0,0.0,0.0,0.0,0.0,0.0,0.0,0.0,0.0,0.0,0.0,0.0,0.0,False,0,3.880885601043701,0.034919921875
STABILIZE,0.40700435638427734,29.88886196821777,0.032392295201619466,0.03252291679382324,-10.0,40.0,10.0,-0.5629079593733382,-1.51727017505768,0.8928584966424927,4.000302661246285,1.7545200239423389,-0.0019926346036262237,0.5188892849006369,-0.03555305080523976,0.0328819937318149,0.706067362211598,-0.009881792743145401,-0.03720663953572512,0.0509575882460922,1.334946695715189,-0.1982842469270915,-1.9069943577051163,-2.258632332086563,10.031915456056595,0.0,0.0,0.0,0.0,0.0,0.0,0.0,0.0,0.0,0.0,0.0,0.0,0.0,0.0,0.0,0.0,False,0,3.909519672393799,0.034919921875
STABILIZE,0.44047021865844727,29.882686539516527,0.0323970635732015,0.03253054618835449,-10.0,40.0,10.0,-0.5627314950328285,-1.5175596043237594,0.8934204397842849,4.000374601795253,1.7571574882815768,-0.0024667866050583007,0.5189204280857236,-0.03793977943542953,0.03371707294051048,0.7029338726251682,-0.01221170908714781,-0.2075403928756714,0.11346372775733471,1.1089276522397995,-0.13270833441752633,-0.22141984663903713,1.7231665551662445,12.21323311328888,0.0,0.0,0.0,0.0,0.0,0.0,0.0,0.0,0.0,0.0,0.0,0.0,0.0,0.0,0.0,0.0,False,0,3.9383115768432617,0.029931884765625
STABILIZE,0.47389936447143555,29.912735882696943,0.032367976506551106,0.03249073028564453,-10.0,40.0,10.0,-0.562490517421174,-1.518275600247847,0.8950276686733536,4.000435598348822,1.758803918516875,-0.0028711900734930684,0.5189652140259978,-0.04119361437826937,0.033499812578779486,0.692986455554061,-0.014186300808128856,-0.14253759291023016,0.017294548160862178,1.2739031575620174,-0.0007610324839275145,-0.44000004418194294,-0.276372442021966,10.871823132038116,0.0,0.0,0.0,0.0,0.0,0.0,0.0,0.0,0.0,0.0,0.0,0.0,0.0,0.0,0.0,0.0,False,0,3.9957828521728516,0.034919921875
STABILIZE,0.5073709487915039,29.87715211739146,0.0323977788289388,0.032509803771972656,-10.0,40.0,10.0,-0.5623111715946083,-1.518635999448271,0.8959273326530912,4.000409062963204,1.7655922335510454,-0.0026970346538039854,0.5189846211191678,-0.041080401922609665,0.0342990834638462,0.6957279017459318,-0.01327114642801838,-0.05471982294693589,0.1096428488381207,1.4316383749246597,0.05680018664315661,-3.805522993206978,-0.183481490239501,15.359905362129211,0.0,0.0,0.0,0.0,0.0,0.0,0.0,0.0,0.0,0.0,0.0,0.0,0.0,0.0,0.0,0.0,False,0,4.024338245391846,0.034919189453125
STABILIZE,0.5425429344177246,28.430176913170204,0.032353909810384114,0.03426241874694824,-10.0,40.0,10.0,-0.5622073313748829,-1.5182267217065992,0.8966573091206362,4.000503489640723,1.7708219253890523,-0.0033113855149532814,0.519014946869855,-0.040310957419164975,0.03490759484846287,0.6937047226742337,-0.016285416680640222,-0.01727628259686753,0.09763335110619664,1.1464093811810017,-0.18403376425516071,-1.2719789519906044,-0.26619876734912395,13.274022936820984,0.0,0.0,0.0,0.0,0.0,0.0,0.0,0.0,0.0,0.0,0.0,0.0,0.0,0.0,0.0,0.0,False,0,4.052988290786743,0.02993212890625
STABILIZE,0.5760383605957031,29.85737268469084,0.032425912221272786,0.032563209533691406,-10.0,40.0,10.0,-0.5627734366632006,-1.5179530872529756,0.8973967838199959,4.000535690509821,1.7796218150099326,-0.0035140149138897362,0.5190448609984674,-0.03400378403333011,0.035336865538976026,0.6911834601575472,-0.017240982392361024,0.3037775633856654,0.09788228198885918,1.3182229362428188,-0.07323342835311555,6.36502280831337,1.8100209534168243,16.62076562643051,0.0,0.0,0.0,0.0,0.0,0.0,0.0,0.0,0.0,0.0,0.0,0.0,0.0,0.0,0.0,0.0,False,0,4.0816497802734375,0.034919921875
STABILIZE,0.6094660758972168,29.912949214431915,0.032373698552449544,0.03249526023864746,-10.0,40.0,10.0,-0.5636139768179353,-1.5188379169156094,0.8977549418645985,4.00047122920818,1.7861411022643563,-0.003098245602856622,0.5190747231491034,-0.03364800630593778,0.03618543043473462,0.6887046404411565,-0.015111612881236067,-0.047668261686339974,0.11135832173749804,1.1061611585319042,0.12384285559655557,0.5960126407444477,-0.23175468668341637,12.03029751777649,0.0,0.0,0.0,0.0,0.0,0.0,0.0,0.0,0.0,0.0,0.0,0.0,0.0,0.0,0.0,0.0,False,0,4.110551834106445,0.03990771484375
STABILIZE,0.6428437232971191,29.9605983113562,0.03240063985188802,0.03250408172607422,-10.0,40.0,10.0,-0.5628716206325195,-1.5186839174941669,0.8982890840020347,4.000377718233729,1.7927590809558198,-0.0024977647005632237,0.5190943660802223,-0.03387666263116399,0.03456100183964988,0.6913283707190817,-0.012068869787096401,-0.07475846214219928,-0.04751445085275918,1.228049397468567,0.17970209030005035,0.3711085766553879,-0.2661073114722967,11.354116350412369,0.0,0.0,0.0,0.0,0.0,0.0,0.0,0.0,0.0,0.0,0.0,0.0,0.0,0.0,0.0,0.0,False,0,4.139055252075195,0.02993212890625
STABILIZE,0.6763076782226562,29.88247363921345,0.032451661427815755,0.03256535530090332,-10.0,40.0,10.0,-0.5630479782513234,-1.51855051536194,0.8988827768512968,4.000239930808651,1.7942630789240808,-0.0016212156360459354,0.5191152656845173,-0.039650834889041656,0.03314253204985577,0.693325000258402,-0.007660512191148246,-0.2502677496522665,0.03011734806932509,1.5300784260034561,0.112838940595989,-6.950502097606659,1.8706902861595154,19.72624361515045,0.0,0.0,0.0,0.0,0.0,0.0,0.0,0.0,0.0,0.0,0.0,0.0,0.0,0.0,0.0,0.0,False,0,4.196678876876831,0.029930908203125
STABILIZE,0.7098855972290039,29.783379607603656,0.03242019017537435,0.03255796432495117,-10.0,40.0,10.0,-0.5616377576311273,-1.5185799705527359,0.8995190516611659,4.00016873660794,1.800860215728437,-0.001166291291889074,0.5191395120995631,-0.03689655348592917,0.03367281660754461,0.6936577197004847,-0.005367928920976615,0.09134846040979028,0.10368201183155179,1.4686567708849907,0.12108839505076281,1.0583851486444473,1.892533153295517,18.59935075044632,0.0,0.0,0.0,0.0,0.0,0.0,0.0,0.0,0.0,0.0,0.0,0.0,0.0,0.0,0.0,0.0,False,0,4.225256443023682,0.035007080078125
STABILIZE,0.7433352470397949,29.895466111661523,0.032285245259602864,0.03242182731628418,-10.0,40.0,10.0,-0.5622080784268234,-1.5181910766568683,0.8994121165119728,4.000198951538989,1.802143973574715,-0.0013618427399460483,0.5191657398659562,-0.03786878130911272,0.035340298694915624,0.6930056067505282,-0.0063245153477168616,-0.12322672409936786,0.16196073265746236,1.1860341764986515,-0.07650937117399614,0.05178933497518301,-0.2082252874970436,10.488956421613693,0.0,0.0,0.0,0.0,0.0,0.0,0.0,0.0,0.0,0.0,0.0,0.0,0.0,0.0,0.0,0.0,False,0,4.253793478012085,0.034919921875
STABILIZE,0.7778828144073486,28.943201186902666,0.032292874654134114,0.03361225128173828,-10.0,40.0,10.0,-0.5614649751894671,-1.5183736774954602,0.9000330233962093,4.00019149599503,1.8073053843333247,-0.00131517346781385,0.5191958279531866,-0.037645765345036795,0.036113444866293046,0.6908515575720701,-0.00607015624868357,-0.05101702408865094,0.1068698475137353,1.1088920757174492,-0.001479036110105271,0.8743537589907646,-0.13142437674105167,14.52549397945404,0.0,0.0,0.0,0.0,0.0,0.0,0.0,0.0,0.0,0.0,0.0,0.0,0.0,0.0,0.0,0.0,False,0,4.282654762268066,0.029930908203125
STABILIZE,0.8188230991363525,24.4270996523147,0.03240016301472982,0.03999733924865723,-10.0,40.0,10.0,-0.5619697688578135,-1.5182686633369713,0.9009226555356035,4.000053290849663,1.8141694568700508,-0.00043911902369155563,0.5192365299384206,-0.03705226036130642,0.03567327306741809,0.6857464088506441,-0.0016829970804187917,0.2339818049222231,0.052002439042553306,1.2685559689998627,0.24649144194456382,4.498671367764473,-0.1393045298755169,14.044125378131866,0.0,0.0,0.0,0.0,0.0,0.0,0.0,0.0,0.0,0.0,0.0,0.0,0.0,0.0,0.0,0.0,False,0,4.340001583099365,0.034920166015625
STABILIZE,0.8522582054138184,29.90804335424986,0.03238037427266439,0.03251361846923828,-10.0,40.0,10.0,-0.5608276331625404,-1.5175637664702848,0.9011006673408469,4.000086985267806,1.8243079876723807,-0.0006507055481054941,0.5192608875173954,-0.03327727879211659,0.03515064271584128,0.6860308232047565,-0.0027317910452727854,0.15998828457668424,0.029757371521554887,1.2574038468301296,-0.08098942165067577,2.1735284477472305,-0.1276389812119305,14.811088144779205,0.0,0.0,0.0,0.0,0.0,0.0,0.0,0.0,0.0,0.0,0.0,0.0,0.0,0.0,0.0,0.0,False,0,4.368626117706299,0.029931884765625
STABILIZE,0.8856747150421143,29.925754689384046,0.03239587148030599,0.032515764236450195,-10.0,40.0,10.0,-0.5601203350574738,-1.5180624770014015,0.9017298985181343,4.000020917934027,1.828581602055466,-0.00023587020472378846,0.519303394403807,-0.03258832129527142,0.03715582884137328,0.6772454936902332,-0.0006554229460315338,-0.034868676448240876,0.19431767286732793,0.9073048830032349,0.11257347035285765,3.218521922826767,-0.03677835047710687,17.64100044965744,0.0,0.0,0.0,0.0,0.0,0.0,0.0,0.0,0.0,0.0,0.0,0.0,0.0,0.0,0.0,0.0,False,0,4.399136781692505,0.034919189453125
STABILIZE,0.9190800189971924,29.933870495792863,0.03239467938741048,0.03249669075012207,-10.0,40.0,10.0,-0.5601746030448637,-1.5186124139512933,0.9016444144318034,3.999952892404862,1.834552192996851,0.00019045381228781323,0.5193391680587341,-0.03203124828238028,0.039377922569628694,0.671826110245552,0.001471281087179877,-0.034868676448240876,0.19431767286732793,0.9073048830032349,0.11257347035285765,3.218521922826767,-0.03677835047710687,17.64100044965744,0.0,0.0,0.0,0.0,0.0,0.0,0.0,0.0,0.0,0.0,0.0,0.0,0.0,0.0,0.0,0.0,False,0,4.4272871017456055,0.034919189453125
STABILIZE,0.9525561332702637,29.873321795118336,0.03244808514912923,0.03257632255554199,-10.0,40.0,10.0,-0.5589279334387777,-1.5190099523053293,0.9017908366121355,3.9999825514027862,1.8359933320325275,5.466738641499708e-06,0.5193574829673044,-0.037265572890931534,0.037606577340076816,0.6751513977797411,0.0005445233984775592,-0.3821195801720023,-0.04628617607522756,1.4418240636587143,-0.07086926242557878,-5.030681937932968,-0.081176299136132,17.90900230407715,0.0,0.0,0.0,0.0,0.0,0.0,0.0,0.0,0.0,0.0,0.0,0.0,0.0,0.0,0.0,0.0,False,0,4.455943822860718,0.034919921875
STABILIZE,0.986015796661377,29.886306308874037,0.03241995175679525,0.03252530097961426,-10.0,40.0,10.0,-0.5575803050990225,-1.5185666303395131,0.9032409711502939,3.9998118320547786,1.8437625719057364,0.0010700817117544996,0.519383430890527,-0.033204458482146024,0.03722939838598863,0.6746436934571143,0.005848053878313898,0.17876586643978953,0.04030859854537994,1.2122062966227531,0.3043911956625999,3.1645819544792175,1.7246576026082039,13.467249274253845,0.0,0.0,0.0,0.0,0.0,0.0,0.0,0.0,0.0,0.0,0.0,0.0,0.0,0.0,0.0,0.0,False,0,4.487660646438599,0.02993212890625
STABILIZE,1.019465446472168,29.895253029223092,0.032384427388509114,0.032505035400390625,-10.0,40.0,10.0,-0.5576497275686333,-1.5167705040312114,0.9036805578564077,3.999774878573923,1.8462159458864154,0.0013026201811144472,0.5194137441950802,-0.03446826815418704,0.036865696594506794,0.6719646193299291,0.006987379682083649,-0.1507391920313239,0.05356681649573147,1.269620843231678,0.06304973636254554,8.845289051532745,1.6728069633245468,12.258884310722351,0.0,0.0,0.0,0.0,0.0,0.0,0.0,0.0,0.0,0.0,0.0,0.0,0.0,0.0,0.0,0.0,False,0,4.516249656677246,0.034919921875
STABILIZE,1.053018569946289,29.80581434185374,0.032362969716389973,0.032501935958862305,-10.0,40.0,10.0,-0.5570821815372875,-1.5165544992987097,0.9041229193268717,3.9998370553565006,1.8514035945572618,0.0009171517947972892,0.5194399170243923,-0.03346470215794311,0.037278358179071165,0.6713646811230431,0.005043161937314364,0.05796847981400788,0.051017606165260077,1.2379957363009453,-0.06800450499686089,0.3547254716977477,-0.20778223406523466,17.154385149478912,0.0,0.0,0.0,0.0,0.0,0.0,0.0,0.0,0.0,0.0,0.0,0.0,0.0,0.0,0.0,0.0,False,0,4.573687553405762,0.029930908203125
STABILIZE,1.086331844329834,30.01548612403212,0.0322757085164388,0.03239130973815918,-10.0,40.0,10.0,-0.5565879533178136,-1.5171239663207594,0.9039596351170262,3.999843611099218,1.8570222786092956,0.0008768646968669721,0.5194692695917378,-0.03207364102040012,0.03623616367255489,0.6691654485728725,0.004825594666785459,0.010043375368695706,0.013362930621951818,1.289452612400055,-0.01343781022261829,1.1508263647556305,-0.3160153981298208,10.195564478635788,0.0,0.0,0.0,0.0,0.0,0.0,0.0,0.0,0.0,0.0,0.0,0.0,0.0,0.0,0.0,0.0,False,0,4.602622747421265,0.034919921875
STABILIZE,1.1198618412017822,29.824677171625236,0.03241470654805501,0.03255653381347656,-10.0,40.0,10.0,-0.5576787025117529,-1.5175847906463238,0.9041361528183887,3.999847805090538,1.8653361432297346,0.0008499250745302214,0.5194919805032596,-0.03081808077006932,0.03537722794598516,0.6703096261449051,0.004675237206163054,0.010043375368695706,0.013362930621951818,1.289452612400055,-0.01343781022261829,1.1508263647556305,-0.3160153981298208,10.195564478635788,0.0,0.0,0.0,0.0,0.0,0.0,0.0,0.0,0.0,0.0,0.0,0.0,0.0,0.0,0.0,0.0,False,0,4.631051301956177,0.034919921875
STABILIZE,1.1532459259033203,29.955034995000712,0.03233483632405599,0.032480478286743164,-10.0,40.0,10.0,-0.5572833519526855,-1.517142749340977,0.9047452135932834,3.9998870162912783,1.868190017865023,0.0006102626167286017,0.5195142975632311,-0.030999397158132172,0.035122087550428956,0.6716280569613415,0.003465337450499402,-0.07616083021275699,0.050541217206045985,1.3035216368734837,-0.07484347869728078,0.8311448618769646,-0.1688327407464385,15.936797857284546,0.0,0.0,0.0,0.0,0.0,0.0,0.0,0.0,0.0,0.0,0.0,0.0,0.0,0.0,0.0,0.0,False,0,4.659779071807861,0.0399091796875
STABILIZE,1.1866629123687744,29.92361968223619,0.03242019017537435,0.0325322151184082,-10.0,40.0,10.0,-0.5566608976037152,-1.5178354799332043,0.9047527908343939,3.999959865208944,1.8725456343758269,0.00016362898038181203,0.5195333687279382,-0.03268004609888816,0.03564860952989656,0.6745605328187579,0.0012280644811327995,-0.15642514917999506,0.08783946977928281,1.219190750271082,-0.1343943239254617,-5.488467961549759,-0.19017182057723403,15.792226791381836,0.0,0.0,0.0,0.0,0.0,0.0,0.0,0.0,0.0,0.0,0.0,0.0,0.0,0.0,0.0,0.0,False,0,4.6884071826934814,0.024942138671875
STABILIZE,1.2201848030090332,29.832950431387054,0.03244164784749349,0.03257441520690918,-10.0,40.0,10.0,-0.55683634808802,-1.5183247989542124,0.9056636605932386,4.000034488294199,1.8760845007405529,-0.0002933397389121642,0.5195718632862756,-0.0339516041730665,0.03567646639945215,0.6678039621663724,-0.0010532547845007775,-0.15642514917999506,0.08783946977928281,1.219190750271082,-0.1343943239254617,-5.488467961549759,-0.19017182057723403,15.792226791381836,0.0,0.0,0.0,0.0,0.0,0.0,0.0,0.0,0.0,0.0,0.0,0.0,0.0,0.0,0.0,0.0,False,0,4.717237949371338,0.024942138671875
STABILIZE,1.2536780834197998,29.858860547728714,0.03237036069234212,0.032514333724975586,-10.0,40.0,10.0,-0.5563534857302117,-1.5177312128266558,0.9056352726195007,4.0000097687247465,1.882944874562169,-0.00014233752748700514,0.5196052488631824,-0.030142009699802283,0.03599284573120988,0.6636077657585272,-0.0002972490711189849,0.15373826026916504,0.104633963201195,1.339216437190771,0.04634345383845137,6.355147808790207,1.8751217052340508,18.35043430328369,0.0,0.0,0.0,0.0,0.0,0.0,0.0,0.0,0.0,0.0,0.0,0.0,0.0,0.0,0.0,0.0,False,0,4.7457380294799805,0.034919921875
STABILIZE,1.2872803211212158,29.75886705973337,0.03224185307820638,0.032521724700927734,-10.0,40.0,10.0,-0.5567026791515287,-1.518658944615014,0.9058249170906744,4.000192380675567,1.8895344112618788,-0.0012533816171340015,0.5195887518449435,-0.026197046327199183,0.0363604382457959,0.6843756198946831,-0.005832872405113886,-0.02367194974794984,0.06708138389512897,1.2785237282514572,-0.235421492888545,0.22134704049676657,1.8097668886184692,15.798655152320862,0.0,0.0,0.0,0.0,0.0,0.0,0.0,0.0,0.0,0.0,0.0,0.0,0.0,0.0,0.0,0.0,False,0,4.808072805404663,0.034919921875
STABILIZE,1.3206639289855957,29.952895808041134,0.03232935269673665,0.03244757652282715,-10.0,40.0,10.0,-0.5571834070752212,-1.518688293084104,0.9069958676465084,4.000333230050219,1.8947829535866851,-0.0021084587218231955,0.5196148396116981,-0.025494519165495323,0.03630987517329334,0.6837908300339393,-0.010074574682023375,-0.02367194974794984,0.06708138389512897,1.2785237282514572,-0.235421492888545,0.22134704049676657,1.8097668886184692,15.798655152320862,0.0,0.0,0.0,0.0,0.0,0.0,0.0,0.0,0.0,0.0,0.0,0.0,0.0,0.0,0.0,0.0,False,0,4.836717844009399,0.034919921875
STABILIZE,1.354140043258667,29.87268350355398,0.03238418896993001,0.03251385688781738,-10.0,40.0,10.0,-0.5556713739477096,-1.5178855324132159,0.908280796984117,4.000343085923965,1.8992662014959678,-0.002170068489817488,0.5196427562517767,-0.027506923018853383,0.03697926807442539,0.6822971555081653,-0.010348016184847103,-0.17422420205548406,0.10709676425904036,1.2221909128129482,-0.012521631058910992,-12.716196477413177,1.750173419713974,15.151755511760712,0.0,0.0,0.0,0.0,0.0,0.0,0.0,0.0,0.0,0.0,0.0,0.0,0.0,0.0,0.0,0.0,False,0,4.865365028381348,0.039907958984375
STABILIZE,1.3885948657989502,29.024919208066045,0.03236416180928548,0.033470869064331055,-10.0,40.0,10.0,-0.5548129045464036,-1.51822138562131,0.9086769479559778,4.000322471750663,1.9039611430962127,-0.00204762604367849,0.5196621038341497,-0.029252728114279106,0.037788397529620994,0.6854525239641993,-0.009702395572789936,-0.15004146844148636,0.1039479742757976,1.3035092502832413,0.043806792283838714,-6.3271500170230865,-0.08942773565649986,18.633849918842316,0.0,0.0,0.0,0.0,0.0,0.0,0.0,0.0,0.0,0.0,0.0,0.0,0.0,0.0,0.0,0.0,False,0,4.8940629959106445,0.02993212890625
STABILIZE,1.4220445156097412,29.89418766259221,0.03232625325520833,0.0325016975402832,-10.0,40.0,10.0,-0.5554858916230615,-1.51783078417815,0.9086591254311123,4.000290604640114,1.9062299434014227,-0.0018596625012620948,0.5196938938951757,-0.03077039225365871,0.03820684980545247,0.6820349305785883,-0.008733341402572878,-0.15004146844148636,0.1039479742757976,1.3035092502832413,0.043806792283838714,-6.3271500170230865,-0.08942773565649986,18.633849918842316,0.0,0.0,0.0,0.0,0.0,0.0,0.0,0.0,0.0,0.0,0.0,0.0,0.0,0.0,0.0,0.0,False,0,4.922760725021362,0.02993212890625
STABILIZE,1.4554786682128906,29.908256619057465,0.032388957341512044,0.03252363204956055,-10.0,40.0,10.0,-0.5557688108650881,-1.5164721101418464,0.9097981661969177,4.000391423570706,1.9085668578960322,-0.002470485398062294,0.5197210852180356,-0.031663148155728266,0.035957687608815306,0.6809157165215755,-0.011748134699039781,-0.11586833279579878,-0.04762412572745234,1.4125327579677105,-0.1814021937535753,5.215510725975037,1.8690455704927444,21.318742632865906,0.0,0.0,0.0,0.0,0.0,0.0,0.0,0.0,0.0,0.0,0.0,0.0,0.0,0.0,0.0,0.0,False,0,4.951411724090576,0.064850830078125
STABILIZE,1.4888794422149658,29.938784833257195,0.03241566022237142,0.032538652420043945,-10.0,40.0,10.0,-0.553690565727553,-1.5175004804987564,0.9101001886242792,4.000598896378609,1.9159560852547666,-0.003713608005806531,0.5197279720552307,-0.026801352749643615,0.03905764792829276,0.6899252296801295,-0.01790387824705308,0.09515328565612435,0.127609190531075,1.0696733370423317,-0.1480423625682562,-1.6761654987931252,-0.21346253342926502,15.642040967941284,0.0,0.0,0.0,0.0,0.0,0.0,0.0,0.0,0.0,0.0,0.0,0.0,0.0,0.0,0.0,0.0,False,0,5.009087562561035,0.034919921875
STABILIZE,1.5251035690307617,27.609363069064482,0.03246310551961263,0.03528714179992676,-10.0,40.0,10.0,-0.5545638160851097,-1.5157843954697907,0.9112163909450474,4.000548968622908,1.920587671616488,-0.00341910672907577,0.5197697157593256,-0.0298114328999335,0.03790757465587884,0.6825254604132496,-0.01637219072268942,-0.221073511056602,0.013073002628516406,0.9911254979670048,0.06685838724794085,3.3575672656297684,-0.3581709461286664,8.469395339488983,0.0,0.0,0.0,0.0,0.0,0.0,0.0,0.0,0.0,0.0,0.0,0.0,0.0,0.0,0.0,0.0,False,0,5.037493467330933,0.02993212890625
STABILIZE,1.558568000793457,29.879919072179636,0.03235796292622884,0.03249526023864746,-10.0,40.0,10.0,-0.5546327583070445,-1.516201250452573,0.9112437117017274,4.000617275916726,1.927947725677088,-0.0038246394723847653,0.519798620622119,-0.027222939253177432,0.0373322216700097,0.6805560016237461,-0.018338445648450132,0.072065758286044,0.05268918466754258,1.4309289865195751,-0.1313338922491935,3.967994824051857,-0.15890299109742045,20.88456153869629,0.0,0.0,0.0,0.0,0.0,0.0,0.0,0.0,0.0,0.0,0.0,0.0,0.0,0.0,0.0,0.0,False,0,5.066267728805542,0.069839111328125
STABILIZE,1.5919413566589355,29.964022917887096,0.032367738087972005,0.032483816146850586,-10.0,40.0,10.0,-0.5549741610438395,-1.5168519326927226,0.911953411045174,4.000742009680132,1.93472430652413,-0.004564717607013972,0.5197773925565149,-0.025206955323712324,0.03814730995423326,0.7035858986073392,-0.02196549604956844,0.072065758286044,0.05268918466754258,1.4309289865195751,-0.1313338922491935,3.967994824051857,-0.15890299109742045,20.88456153869629,0.0,0.0,0.0,0.0,0.0,0.0,0.0,0.0,0.0,0.0,0.0,0.0,0.0,0.0,0.0,0.0,False,0,5.0950798988342285,0.069839111328125
STABILIZE,1.6253831386566162,29.901220485913083,0.03243616422017415,0.03256559371948242,-10.0,40.0,10.0,-0.5557195587978699,-1.516952784704686,0.9123922506993474,4.00082448375943,1.9396421397683743,-0.005056721976341488,0.5197669449165145,-0.02574629074373445,0.037951310736837024,0.7212299807643197,-0.024344052488281306,-0.06861034780740738,0.0168715589097701,1.272906083613634,-0.06924633877565367,2.402126230299473,-0.3482465632259846,14.747239649295807,0.0,0.0,0.0,0.0,0.0,0.0,0.0,0.0,0.0,0.0,0.0,0.0,0.0,0.0,0.0,0.0,False,0,5.123900413513184,0.029931640625
STABILIZE,1.6588690280914307,29.86438819466695,0.03245070775349935,0.03257036209106445,-10.0,40.0,10.0,-0.5554376534120482,-1.5178753938511667,0.9118260920501767,4.000929092977286,1.9464878443609852,-0.0056731684338091545,0.519831711446945,-0.019000420449913555,0.037105295974047665,0.7012836564319738,-0.027334884433577865,0.09822926949709654,0.06693768664263189,1.1519473046064377,-0.11559401479159001,0.338626466691494,1.6375930979847908,15.648111701011658,0.0,0.0,0.0,0.0,0.0,0.0,0.0,0.0,0.0,0.0,0.0,0.0,0.0,0.0,0.0,0.0,False,0,5.181095600128174,0.03492041015625
STABILIZE,1.692371129989624,29.851422715044198,0.032399924596150716,0.03253769874572754,-10.0,40.0,10.0,-0.5493444309813093,-1.5230303724055279,0.9118013326144355,4.000949496077971,1.9519789565835302,-0.005796105337355097,0.5198725118072491,-0.02025594490619527,0.036389723381320245,0.693339828721075,-0.027856359190389552,-0.11600066209211946,0.046313696657307446,1.1208203621208668,-0.06643927776912388,-0.021928653586655855,-0.34557029139250517,16.23784899711609,0.0,0.0,0.0,0.0,0.0,0.0,0.0,0.0,0.0,0.0,0.0,0.0,0.0,0.0,0.0,0.0,False,0,5.209803819656372,0.064850830078125
STABILIZE,1.7258176803588867,29.896531569418507,0.032334121068318684,0.03248310089111328,-10.0,40.0,10.0,-0.5531684831428701,-1.517668140298539,0.913544845121787,4.000874377930012,1.9519203124190825,-0.005372871667335232,0.5198737473902246,-0.026402790645560253,0.03548142007747458,0.7051668148685575,-0.025654319932072237,-0.32888571731746197,-0.0019647177396109328,1.1941958218812943,0.12326879954115716,1.1411448940634727,-0.4458219278603792,12.559166550636292,0.0,0.0,0.0,0.0,0.0,0.0,0.0,0.0,0.0,0.0,0.0,0.0,0.0,0.0,0.0,0.0,False,0,5.242386817932129,0.03497412109375
STABILIZE,1.7592363357543945,29.923406198276354,0.03237775166829427,0.03249382972717285,-10.0,40.0,10.0,-0.5754563508999738,-1.5181334469357461,0.9788133857784884,4.0018958257632375,1.9587765169935762,-0.01135898315676194,0.5198684262183783,-0.01885620173395878,0.03515998123087451,0.7202341281756903,-0.05539970862292211,0.2933303127065301,0.06708421860821545,2.261405810713768,-1.4294556068375897,12.960244715213776,1.8798647448420525,31.265762448310852,0.0,0.0,0.0,0.0,0.0,0.0,0.0,0.0,0.0,0.0,0.0,0.0,0.0,0.0,0.0,0.0,False,0,5.271096706390381,0.034919921875
STABILIZE,1.792832612991333,29.767526365842926,0.03239920934041341,0.03253912925720215,-10.0,40.0,10.0,-0.5714953747898953,-1.5119114647669818,0.9303589565893601,4.002892471530733,1.9667585871848707,-0.017162967656084088,0.5198633530802514,-0.011577253949677846,0.034874227639644144,0.7351743261391128,-0.08413802387153332,0.2933303127065301,0.06708421860821545,2.261405810713768,-1.4294556068375897,12.960244715213776,1.8798647448420525,31.265762448310852,0.0,0.0,0.0,0.0,0.0,0.0,0.0,0.0,0.0,0.0,0.0,0.0,0.0,0.0,0.0,0.0,False,0,5.29977822303772,0.034919921875
STABILIZE,1.8285586833953857,27.988522467936313,0.03225448926289876,0.03478288650512695,-10.0,40.0,10.0,-0.5636601339556858,-1.5138540132556157,0.882562680159786,4.004582047368685,1.9582333082424137,-0.027180573561619275,0.5199295091729577,-0.02325123170545994,0.07325213466273865,0.715409072854795,-0.13374661895890427,-0.607564439997077,1.9282778725028038,0.5949962884187698,-2.480965043830051,-41.14075005054474,55.352914333343506,-38.510847091674805,0.0,0.0,0.0,0.0,0.0,0.0,0.0,0.0,0.0,0.0,0.0,0.0,0.0,0.0,0.0,0.0,False,0,5.328443765640259,0.03492041015625
STABILIZE,1.8620574474334717,29.851847634231053,0.0323822816212972,0.032525062561035156,-10.0,40.0,10.0,-0.5605060806630209,-1.527257192284708,0.9674781532423233,4.001078255980592,1.966363705253615,-0.006732392445548193,0.5199308076409364,-0.030384768499298047,0.07369161760551718,0.7271705573713487,-0.0314006471216039,-0.3998465370386839,0.1224866253323853,2.0977655425667763,4.890560587248992,-29.121673107147217,-62.62603998184204,37.782636284828186,0.0,0.0,0.0,0.0,0.0,0.0,0.0,0.0,0.0,0.0,0.0,0.0,0.0,0.0,0.0,0.0,False,1,5.3631956577301025,0.029931884765625
STABILIZE,1.895463228225708,29.934511404835995,0.0323522408803304,0.03249239921569824,-10.0,40.0,10.0,-0.5524432024303795,-1.5154318936755946,0.9011068571997822,4.000962127228119,2.0093038966263816,-0.005955055453101666,0.5199819044154906,0.023134683984228962,0.037328167061256835,0.7140485912756539,-0.0274222214055388,0.3171859309077263,1.5036697499454021,1.3818247243762016,1.34194839713015,-13.42538297176361,100.74378252029419,-53.95159721374512,0.0,0.0,0.0,0.0,0.0,0.0,0.0,0.0,0.0,0.0,0.0,0.0,0.0,0.0,0.0,0.0,False,0,5.414702653884888,0.02993115234375
STABILIZE,1.9294657707214355,29.408740648291626,0.03240946133931478,0.03314971923828125,-10.0,40.0,10.0,-0.5580515347909004,-1.521606384685286,0.9437856143937242,4.000430079671281,1.9975312143392916,-0.0029457022696311548,0.5201011848656507,0.0007443337764067269,0.03160272312380356,0.6671245442919875,-0.012333444246761329,-1.1718322522938251,-0.21173988934606314,-0.8122174069285393,0.7138968148567276,-69.29843425750732,-112.67316341400146,19.21241730451584,0.0,0.0,0.0,0.0,0.0,0.0,0.0,0.0,0.0,0.0,0.0,0.0,0.0,0.0,0.0,0.0,False,0,5.443374156951904,0.034919921875
STABILIZE,1.963066577911377,29.76372409877945,0.032474788029988606,0.0326080322265625,-10.0,40.0,10.0,-0.561014342786805,-1.52580503003414,0.9811197485621312,4.000184219500483,1.9999994213373213,-0.0015379479506857745,0.520160055700251,0.001416061144351805,0.019384434402634494,0.6502031259055229,-0.005277015432770001,0.007455534068867564,-0.5714637693017721,0.5217514932155609,0.3023091085436567,58.615779876708984,66.86646342277527,-11.499018222093582,0.0,0.0,0.0,0.0,0.0,0.0,0.0,0.0,0.0,0.0,0.0,0.0,0.0,0.0,0.0,0.0,False,0,5.472276926040649,0.034919921875
STABILIZE,1.996473789215088,29.932375148081015,0.03231194814046224,0.03244185447692871,-10.0,40.0,10.0,-0.5504690109559813,-1.5214747968220577,0.8948478959599647,4.001779476293418,2.0213930418932717,-0.010595221784364539,0.5201975378687319,0.0234774967570333,0.044991630863040505,0.6439775027058919,-0.05039485282993558,1.1565494351089,1.4441459439694881,1.066805887967348,-2.482672804565966,6.485489010810852,4.4898562133312225,2.0292259752750397,0.0,0.0,0.0,0.0,0.0,0.0,0.0,0.0,0.0,0.0,0.0,0.0,0.0,0.0,0.0,0.0,False,0,5.5010998249053955,0.034920166015625
STABILIZE,2.0298681259155273,29.9432732464751,0.03236225446065267,0.0325772762298584,-10.0,40.0,10.0,-0.5552334947888883,-1.5215329601517085,0.9366476398242378,4.003391927877131,2.0408117486936037,-0.019594716143406056,0.5202343118563987,0.04522472484254268,0.07035720266901815,0.6381418106962156,-0.09507366505951009,1.1565494351089,1.4441459439694881,1.066805887967348,-2.482672804565966,6.485489010810852,4.4898562133312225,2.0292259752750397,0.0,0.0,0.0,0.0,0.0,0.0,0.0,0.0,0.0,0.0,0.0,0.0,0.0,0.0,0.0,0.0,False,0,5.529770135879517,0.034920166015625
STABILIZE,2.063743829727173,29.52238301706177,0.03252104123433431,0.03298759460449219,-10.0,40.0,10.0,-0.5616688670083626,-1.5244844556468002,0.9661026171765063,4.000884445221752,2.0154563658650266,-0.005623423111720173,0.5202804028126748,0.030097576678480335,0.054245443525442666,0.6277699583756209,-0.025132237046224845,-0.8322103880345821,-0.7982448674738407,0.7998677901923656,3.7288615226457136,-58.67476463317871,-35.120993852615356,-9.286974370479584,0.0,0.0,0.0,0.0,0.0,0.0,0.0,0.0,0.0,0.0,0.0,0.0,0.0,0.0,0.0,0.0,False,1,5.558283090591431,0.029931640625
STABILIZE,2.0972189903259277,29.87289626437805,0.032424004872639973,0.0325319766998291,-10.0,40.0,10.0,-0.5547364918050641,-1.5208702183588056,0.8917614508679123,4.0026655819478565,2.0324721226353564,-0.015656436155338335,0.5203195693674204,0.037732016802536364,0.062232567493294616,0.6207248388203769,-0.07504649801250399,1.2951270677149296,-0.02653695992194116,1.0235861875116825,-1.9428490169574195,53.1987726688385,-44.49656307697296,-2.5981180369853973,0.0,0.0,0.0,0.0,0.0,0.0,0.0,0.0,0.0,0.0,0.0,0.0,0.0,0.0,0.0,0.0,False,0,5.6156299114227295,0.02993212890625
STABILIZE,2.130702018737793,29.863962918396265,0.0323667844136556,0.0326235294342041,-10.0,40.0,10.0,-0.5594351817063569,-1.5219588864794822,0.9374046168833456,4.000643353015341,2.0457400645382355,-0.004261849429464633,0.520365801483196,0.044764698260675355,0.047531982072658685,0.6102198147868917,-0.018013082776475328,0.43417722918093204,-0.7222811691462994,0.8563012816011906,3.125521884954515,-26.686391234397888,16.02703332901001,2.489844709634781,0.0,0.0,0.0,0.0,0.0,0.0,0.0,0.0,0.0,0.0,0.0,0.0,0.0,0.0,0.0,0.0,False,0,5.644306182861328,0.034919921875
STABILIZE,2.1642770767211914,29.786129220105956,0.032471450169881184,0.0326077938079834,-10.0,40.0,10.0,-0.5632312194201502,-1.5222542921610853,0.9552681228838678,4.002075172565439,2.0244112327817225,-0.012433128612083575,0.5204075468759256,0.024751356191769054,0.08102913793073904,0.6019311929274908,-0.05867306964664569,-1.1359959840774536,1.9984928891062737,0.7995688356459141,-2.4049540029910945,-30.433011054992676,45.32947242259979,-2.7720890939235687,0.0,0.0,0.0,0.0,0.0,0.0,0.0,0.0,0.0,0.0,0.0,0.0,0.0,0.0,0.0,0.0,False,0,5.673054933547974,0.034919921875
STABILIZE,2.197805881500244,29.82828290011734,0.032349618275960286,0.032502174377441406,-10.0,40.0,10.0,-0.5506258385026271,-1.5243955564658842,0.9188258620106763,4.001648567974076,2.028249098006886,-0.0100362684248897,0.5204424466969383,0.037609519750015426,0.04691463284725561,0.5970770576939508,-0.04653293461769677,0.7525190711021423,-1.8679304048418999,0.9821263141930103,0.6202591368432311,47.0919668674469,-77.60500907897949,3.148866444826126,0.0,0.0,0.0,0.0,0.0,0.0,0.0,0.0,0.0,0.0,0.0,0.0,0.0,0.0,0.0,0.0,False,0,5.701700210571289,0.034919921875
STABILIZE,2.2323648929595947,28.931621750256944,0.03227976163228353,0.03367757797241211,-10.0,40.0,10.0,-0.547618847720529,-1.5203417324717758,0.932294674888824,4.001279526069969,2.060475778036106,-0.007866033177762468,0.5204726530979598,0.0678043861263391,0.03294759854172058,0.5950209407887087,-0.03555843702805647,1.7486661672592163,-0.7040365599095821,1.1283045634627342,0.5488509498137759,14.560957252979279,21.87386453151703,7.944544404745102,0.0,0.0,0.0,0.0,0.0,0.0,0.0,0.0,0.0,0.0,0.0,0.0,0.0,0.0,0.0,0.0,False,0,5.730536460876465,0.029930908203125
STABILIZE,2.2658393383026123,29.873321795118336,0.0324585755666097,0.032566070556640625,-10.0,40.0,10.0,-0.5464755380864924,-1.5199699140488334,0.9366100737838028,4.000916786723363,2.0680029829249187,-0.00584921572306396,0.5205136663867053,0.0761598196516178,0.029858757491490674,0.5871012620668868,-0.025389472495418734,-1.1202560737729073,0.7180022541433573,1.1440268717706203,-0.12762395227153941,-45.805102586746216,-38.92727494239807,6.082572788000107,0.0,0.0,0.0,0.0,0.0,0.0,0.0,0.0,0.0,0.0,0.0,0.0,0.0,0.0,0.0,0.0,False,0,5.787801027297974,0.03492041015625
STABILIZE,2.299325942993164,29.863325026699894,0.03242019017537435,0.032547712326049805,-10.0,40.0,10.0,-0.559899047600536,-1.528351516655791,0.9349911055070982,4.000869059825681,2.0643446928420013,-0.005609633328452537,0.5205264142093644,0.06775156675394804,0.011400804992961911,0.5933182930972986,-0.024110878860262863,-0.46354816295206547,-0.9992926381528378,1.5460645779967308,-0.004212339077726858,56.53511881828308,-4.816558584570885,25.26116967201233,0.0,0.0,0.0,0.0,0.0,0.0,0.0,0.0,0.0,0.0,0.0,0.0,0.0,0.0,0.0,0.0,False,0,5.816471576690674,0.034919921875
STABILIZE,2.333120107650757,29.590907487494974,0.032384427388509114,0.03248953819274902,-10.0,40.0,10.0,-0.5621420710517976,-1.5279282583706617,0.9558522107796096,4.001011171540691,2.0992757540210283,-0.0063231793962441685,0.5205678959368581,0.09959583495948875,0.010810419854789172,0.5853064115579922,-0.027585368336032097,1.9239230081439018,0.056969793513417244,0.6959490478038788,-0.2809369930634373,2.7486398816108704,4.116552323102951,4.338999837636948,0.0,0.0,0.0,0.0,0.0,0.0,0.0,0.0,0.0,0.0,0.0,0.0,0.0,0.0,0.0,0.0,False,0,5.8453192710876465,0.029931884765625
STABILIZE,2.3662233352661133,30.208317128329227,0.032015355428059895,0.03216433525085449,-10.0,40.0,10.0,-0.5664000536690659,-1.5237397515838573,0.973916246865295,4.001401004020214,2.078075078149854,-0.008552220801634829,0.520594365860193,0.07008385175798662,0.022889409356742482,0.5845341628022477,-0.038602834459940866,-1.647159643471241,0.7902800105512142,1.272780355066061,-0.7313346079728875,-74.11431670188904,31.546562910079956,26.784420013427734,0.0,0.0,0.0,0.0,0.0,0.0,0.0,0.0,0.0,0.0,0.0,0.0,0.0,0.0,0.0,0.0,False,0,5.874291896820068,0.034919921875
STABILIZE,2.3997232913970947,29.851210259987045,0.03238538106282552,0.03251767158508301,-10.0,40.0,10.0,-0.5590100024305236,-1.5251895659568981,0.945180360366582,4.0009203712659005,2.0664120114791054,-0.005950380028722695,0.5206290411633296,0.06438160883221614,0.03255154680111724,0.5798004266329699,-0.025508307416675695,-0.27309092693030834,0.6481018383055925,0.8579657413065434,0.7150211280271351,48.49158227443695,-40.774208307266235,9.47769358754158,0.0,0.0,0.0,0.0,0.0,0.0,0.0,0.0,0.0,0.0,0.0,0.0,0.0,0.0,0.0,0.0,False,0,5.905160665512085,0.034919921875
STABILIZE,2.433310031890869,29.774499712498848,0.032334121068318684,0.0326995849609375,-10.0,40.0,10.0,-0.5572902888635614,-1.5240736838012474,0.9419913023544207,4.000442222101663,2.064619385540442,-0.003310917686344876,0.5206638049446931,0.05849179794124357,0.04236974147693463,0.5751152769703677,-0.012269672955362581,-0.27309092693030834,0.6481018383055925,0.8579657413065434,0.7150211280271351,48.49158227443695,-40.774208307266235,9.47769358754158,0.0,0.0,0.0,0.0,0.0,0.0,0.0,0.0,0.0,0.0,0.0,0.0,0.0,0.0,0.0,0.0,False,0,5.933532953262329,0.034919921875
STABILIZE,2.4668056964874268,29.85354743195536,0.032430203755696614,0.03257036209106445,-10.0,40.0,10.0,-0.557335378784254,-1.5271260313083026,0.9199708791920054,3.9997578387482173,2.081572219346348,0.0004807373560812892,0.5206895899203349,0.0686077566156458,0.012147177653739002,0.5748399929591177,0.006666292299025213,0.6834060419350863,-1.7290923744440079,1.115519180893898,1.047477064061215,10.09841114282608,-27.160736918449402,21.678659319877625,0.0,0.0,0.0,0.0,0.0,0.0,0.0,0.0,0.0,0.0,0.0,0.0,0.0,0.0,0.0,0.0,False,0,5.9632041454315186,0.02993115234375
STABILIZE,2.500255823135376,29.895253029223092,0.0323973019917806,0.032531023025512695,-10.0,40.0,10.0,-0.558737328472252,-1.5301160533391815,0.935462388559829,3.9988092408313376,2.0604516488219917,0.005795742938000751,0.5207003877465168,0.048654144876823645,-0.004111462644210133,0.5820428033910221,0.03313049433601494,-0.6227609701454639,-1.567152515053749,1.3214428909122944,1.6534063039432008,14.05966728925705,-59.23631191253662,18.598592281341553,0.0,0.0,0.0,0.0,0.0,0.0,0.0,0.0,0.0,0.0,0.0,0.0,0.0,0.0,0.0,0.0,False,0,6.020367383956909,0.034920166015625
STABILIZE,2.5337204933166504,29.882260741943988,0.0323825200398763,0.03251218795776367,-10.0,40.0,10.0,-0.563903726249132,-1.536707079166538,0.968346547762267,3.997753141888059,2.0739356109532143,0.011638813201589767,0.5207180192186152,0.03655351585725819,-0.031733353023934846,0.5858227455162333,0.06213800213875334,-0.6227609701454639,-1.567152515053749,1.3214428909122944,1.6534063039432008,14.05966728925705,-59.23631191253662,18.598592281341553,0.0,0.0,0.0,0.0,0.0,0.0,0.0,0.0,0.0,0.0,0.0,0.0,0.0,0.0,0.0,0.0,False,0,6.049043655395508,0.034920166015625
STABILIZE,2.567153215408325,29.9110293383538,0.03235009511311849,0.03247570991516113,-10.0,40.0,10.0,-0.5595500142617778,-1.535845728279176,0.9745359798107679,3.9979691230484944,2.0772888585665004,0.010462408253899168,0.5207444534111143,0.030410782732809935,-0.01034627298929646,0.5852009024234239,0.056068454445606805,-0.2620725193992257,1.3477552682161331,1.0568582452833652,-0.4299009642621824,-25.122341513633728,14.764891564846039,12.693122029304504,0.0,0.0,0.0,0.0,0.0,0.0,0.0,0.0,0.0,0.0,0.0,0.0,0.0,0.0,0.0,0.0,False,0,6.077854871749878,0.06485205078125
STABILIZE,2.6006040573120117,29.893761537200568,0.03240207036336263,0.03253293037414551,-10.0,40.0,10.0,-0.5680100039616319,-1.5386728929870324,1.002209238285015,3.998361312378256,2.082287324330478,0.008303702177513266,0.5207390351563314,0.027217294671025627,-0.03500405465991802,0.6004929823102444,0.045123907636664226,-0.05664709024131298,-1.1802179738879204,1.0298124514520168,-0.9493331153819498,-4.2681291699409485,-40.029969811439514,25.058141350746155,0.0,0.0,0.0,0.0,0.0,0.0,0.0,0.0,0.0,0.0,0.0,0.0,0.0,0.0,0.0,0.0,False,0,6.1113831996917725,0.034919921875
STABILIZE,2.634066343307495,29.884602778767366,0.03240660031636556,0.03253602981567383,-10.0,40.0,10.0,-0.5817650978155384,-1.5406743518572577,0.984105501724779,3.9994773246507,2.0921398454630857,0.002151996508219551,0.5207834038049599,0.04541247529231433,-0.03860592537333858,0.5908903773623253,0.014317516373231205,1.090038474649191,-0.16579530201852322,0.6697283126413822,-1.6683912053736798,33.60777497291565,8.291130512952805,-16.115881502628326,0.0,0.0,0.0,0.0,0.0,0.0,0.0,0.0,0.0,0.0,0.0,0.0,0.0,0.0,0.0,0.0,False,0,6.139904975891113,0.029930908203125
STABILIZE,2.6675009727478027,29.908469886906545,0.032396586736043294,0.032518863677978516,-10.0,40.0,10.0,-0.5801105912108087,-1.547609768629171,0.9838032658540058,4.000602284492774,2.1161562549603623,-0.003982954799012732,0.520832536666497,0.06324425552881974,-0.0412708282571562,0.5789288484429151,-0.016302709724552437,1.090038474649191,-0.16579530201852322,0.6697283126413822,-1.6683912053736798,33.60777497291565,8.291130512952805,-16.115881502628326,0.0,0.0,0.0,0.0,0.0,0.0,0.0,0.0,0.0,0.0,0.0,0.0,0.0,0.0,0.0,0.0,False,0,6.16862940788269,0.029930908203125
STABILIZE,2.7009875774383545,29.863537654237483,0.03240803082784017,0.0325322151184082,-10.0,40.0,10.0,-0.5726984485791696,-1.5568806832104054,0.9954888657502514,4.000068259292436,2.1387350202791318,-0.001089352302062456,0.5208651242457135,0.07978176452246774,-0.025001835968405033,0.5752422865480543,-0.0018285821352877416,1.0414904914796352,0.8974580094218254,1.100638322532177,0.8364339303830471,-12.200362235307693,16.281864047050476,22.195425629615784,0.0,0.0,0.0,0.0,0.0,0.0,0.0,0.0,0.0,0.0,0.0,0.0,0.0,0.0,0.0,0.0,False,0,6.197514772415161,0.034919921875
STABILIZE,2.7343857288360596,29.941776959209605,0.032355578740437825,0.032462120056152344,-10.0,40.0,10.0,-0.5630259402190795,-1.5308990704945,0.95184192924146,4.000075793581496,2.1474799838853573,-0.0011294156104782723,0.5209044378189165,0.08096429129405769,-0.02026699864299094,0.5681913656259636,-0.0020221420593698816,-0.8260015398263931,-0.6308981217443943,0.7752293720841408,-0.7878434843799004,-15.79744815826416,-27.266395092010498,30.74321448802948,0.0,0.0,0.0,0.0,0.0,0.0,0.0,0.0,0.0,0.0,0.0,0.0,0.0,0.0,0.0,0.0,False,0,6.255112409591675,0.0649326171875
STABILIZE,2.7679765224456787,29.769427863697985,0.03238991101582845,0.032703399658203125,-10.0,40.0,10.0,-0.5213448708916354,-1.5990377847064876,0.9566676713334856,3.9990654037152944,2.1511951935276277,0.004272258157212756,0.520915443907738,0.07357148825359047,-0.027302150120749265,0.5753683630761686,0.02490246639235045,-0.5078095477074385,-0.28947137761861086,0.7261975668370724,1.4910776802511505,25.09523630142212,-12.451408058404922,-11.99718713760376,0.0,0.0,0.0,0.0,0.0,0.0,0.0,0.0,0.0,0.0,0.0,0.0,0.0,0.0,0.0,0.0,False,0,6.2839531898498535,0.034920166015625
STABILIZE,2.801466226577759,29.860348559061396,0.03242948849995931,0.032578468322753906,-10.0,40.0,10.0,-0.5504975590122778,-1.6061947557396032,1.0315344420430532,3.9980216055422724,2.141644420499956,0.009922044050471219,0.5209590633752883,0.061449941741137284,-0.032434338879124884,0.5661916389125505,0.052974049222118035,-0.5078095477074385,-0.28947137761861086,0.7261975668370724,1.4910776802511505,25.09523630142212,-12.451408058404922,-11.99718713760376,0.0,0.0,0.0,0.0,0.0,0.0,0.0,0.0,0.0,0.0,0.0,0.0,0.0,0.0,0.0,0.0,False,0,6.312611103057861,0.034920166015625
STABILIZE,2.8350348472595215,29.788456211870486,0.03242209752400716,0.03278493881225586,-10.0,40.0,10.0,-0.564061460930277,-1.5510570931693233,1.0306098051841628,3.994059734984316,2.125846741375199,0.03154024181649615,0.5210559372757921,0.030710411573478424,-0.05585467996482976,0.530507008338555,0.1605246022954274,-1.4929107390344143,-1.2599176727235317,-0.6911742966622114,5.697941454223744,-73.96037578582764,-29.668736457824707,-49.681538343429565,0.0,0.0,0.0,0.0,0.0,0.0,0.0,0.0,0.0,0.0,0.0,0.0,0.0,0.0,0.0,0.0,False,0,6.342543601989746,0.034919921875
STABILIZE,2.8687033653259277,29.703019658942836,0.032537015279134114,0.032686710357666016,-10.0,40.0,10.0,-0.554784890098636,-1.5626187891651566,0.8105677905527973,3.9881681965522096,2.0706181653557696,0.06549980212070616,0.521266406567635,-0.068190191194501,-0.006137988156675177,0.438083034633188,0.3292197154442358,-5.120810866355896,2.610519342124462,-3.7274476140737534,8.982984541678022,-74.90191459655762,129.15232181549072,-523.0663776397705,0.0,0.0,0.0,0.0,0.0,0.0,0.0,0.0,0.0,0.0,0.0,0.0,0.0,0.0,0.0,0.0,False,0,6.3711936473846436,0.034919921875
STABILIZE,2.9021072387695312,29.938784833257195,0.032319100697835286,0.032434701919555664,-10.0,40.0,10.0,-0.5574794530870589,-1.539309808127136,0.9605911881248348,3.982624287564048,2.0229232991785344,0.09926291796280323,0.5214752573802647,-0.16637350226755904,0.0434508225183283,0.3465648592692989,0.4963760819922295,-5.120810866355896,2.610519342124462,-3.7274476140737534,8.982984541678022,-74.90191459655762,129.15232181549072,-523.0663776397705,0.0,0.0,0.0,0.0,0.0,0.0,0.0,0.0,0.0,0.0,0.0,0.0,0.0,0.0,0.0,0.0,False,0,6.39987587928772,0.034919921875
STABILIZE,2.9429476261138916,24.48385081927978,0.032358439763387044,0.0398714542388916,-10.0,40.0,10.0,-0.573856058921781,-1.5055981288180686,1.0172678844141891,3.9735183445860653,1.9760803837796423,0.1563204291651207,0.521529401792879,-0.30144653140653627,0.04803713094506717,0.33527786683287525,0.7784849250342463,-3.9741531014442444,2.6666270568966866,0.8833306841552258,-7.601467791468931,153.63481044769287,183.8212251663208,-81.80246353149414,0.0,0.0,0.0,0.0,0.0,0.0,0.0,0.0,0.0,0.0,0.0,0.0,0.0,0.0,0.0,0.0,False,0,6.457204103469849,0.034920166015625
STABILIZE,2.976346254348755,29.94049454628519,0.03237417538960775,0.03249526023864746,-10.0,40.0,10.0,-0.5430830151422588,-1.5508551757019848,0.8347011434071266,3.979685048536791,1.9261904825318634,0.12323706853072557,0.5215590856942536,-0.3768540743343562,0.1009388769305336,0.33336890345315856,0.6110243977607877,-3.9741531014442444,2.6666270568966866,0.8833306841552258,-7.601467791468931,153.63481044769287,183.8212251663208,-81.80246353149414,0.0,0.0,0.0,0.0,0.0,0.0,0.0,0.0,0.0,0.0,0.0,0.0,0.0,0.0,0.0,0.0,False,0,6.485882759094238,0.034920166015625
STABILIZE,3.0098390579223633,29.860135976933755,0.032419474919637044,0.03252768516540527,-10.0,40.0,10.0,-0.5623196559702179,-1.5142710816818097,1.0021118013676367,3.975745907856677,1.9445772272546038,0.14631689849546367,0.5215688183180829,-0.3905479236382778,0.036181661371040466,0.34141633793046383,0.7240035245691218,-0.9249400347471237,-3.282904624938965,1.3539173640310764,6.632040259548804,-180.7865858078003,43.19835305213928,59.17995572090149,0.0,0.0,0.0,0.0,0.0,0.0,0.0,0.0,0.0,0.0,0.0,0.0,0.0,0.0,0.0,0.0,False,0,6.514684677124023,0.06983984375
STABILIZE,3.0432076454162598,29.966377789050277,0.03232315381368001,0.032440185546875,-10.0,40.0,10.0,-0.5467468246625888,-1.5389051194188128,0.8609511078522195,3.9696934325840556,1.9767608630849998,0.18059675699186062,0.5215717556747916,-0.43917007552766735,-0.03048826074470496,0.3528507180605763,0.8924187925645456,-0.9249400347471237,-3.282904624938965,1.3539173640310764,6.632040259548804,-180.7865858078003,43.19835305213928,59.17995572090149,0.0,0.0,0.0,0.0,0.0,0.0,0.0,0.0,0.0,0.0,0.0,0.0,0.0,0.0,0.0,0.0,False,0,6.543313503265381,0.06983984375
STABILIZE,3.0766677856445312,29.88651926379319,0.032427104314168294,0.0325467586517334,-10.0,40.0,10.0,-0.547082197623007,-1.5465786235079104,0.8548982262262659,3.9746721500531916,1.9686062068406132,0.15201536967409932,0.5215724736009336,-0.5160119214435852,0.0369068154754283,0.36537961808439157,0.747013726765956,-2.46159415692091,3.1593360006809235,1.2283425778150558,-7.512352605820482,-48.20321500301361,174.10606145858765,6.398671120405197,0.0,0.0,0.0,0.0,0.0,0.0,0.0,0.0,0.0,0.0,0.0,0.0,0.0,0.0,0.0,0.0,False,1,6.57187294960022,0.02993212890625
STABILIZE,3.110145330429077,29.869705170203673,0.03240016301472982,0.032543182373046875,-10.0,40.0,10.0,-0.5604580558954192,-1.5137292555815574,0.9829462905565808,3.973622440030521,2.0861899065240346,0.14978386567405597,0.5214518359456806,-0.4222042311951848,0.02732361307850508,0.4384962542552048,0.7334021106195528,1.1379114352166653,-0.1635723398067057,2.6477131992578506,1.426509981036316,106.96107149124146,-121.07877731323242,76.06308460235596,0.0,0.0,0.0,0.0,0.0,0.0,0.0,0.0,0.0,0.0,0.0,0.0,0.0,0.0,0.0,0.0,False,0,6.629384994506836,0.029930908203125
STABILIZE,3.1435418128967285,29.94370078459089,0.032395394643147786,0.03251075744628906,-10.0,40.0,10.0,-0.5480262044714969,-1.5350920595929474,0.8833447901806054,3.9784640826567683,2.092147872251748,0.12263856032259693,0.5214934447704693,-0.4612746665961874,0.08820110375178147,0.43048941590121487,0.5956840216228931,-2.7937430888414383,3.0029525980353355,0.6323185283690691,-5.0055690200409595,-52.15734243392944,21.589353680610657,-19.0362349152565,0.0,0.0,0.0,0.0,0.0,0.0,0.0,0.0,0.0,0.0,0.0,0.0,0.0,0.0,0.0,0.0,False,0,6.658090829849243,0.06983984375
STABILIZE,3.177004337310791,29.884602778767366,0.03243401845296224,0.032601356506347656,-10.0,40.0,10.0,-0.5599447244906104,-1.5216591052079422,0.9710169382843304,3.9750714949013948,2.0917337718467297,0.14211610434007174,0.5214329425890014,-0.48958475442790755,0.038696574864745856,0.47349664667486274,0.6907593970660911,-0.7836596108973026,-2.587445080280304,2.077294886112213,4.970358114209074,54.15374040603638,-148.86221885681152,47.26264774799347,0.0,0.0,0.0,0.0,0.0,0.0,0.0,0.0,0.0,0.0,0.0,0.0,0.0,0.0,0.0,0.0,False,0,6.686818361282349,0.02993212890625
STABILIZE,3.21056866645813,29.79416946070353,0.03246358235677083,0.03258872032165527,-10.0,40.0,10.0,-0.5579489752316444,-1.5210279530399506,0.956802781013005,3.972059670238892,2.1289537286860636,0.1567561414170972,0.5214174381128416,-0.482983424694173,-0.01851523246056464,0.4939829420481385,0.761409662173689,-0.7836596108973026,-2.587445080280304,2.077294886112213,4.970358114209074,54.15374040603638,-148.86221885681152,47.26264774799347,0.0,0.0,0.0,0.0,0.0,0.0,0.0,0.0,0.0,0.0,0.0,0.0,0.0,0.0,0.0,0.0,False,0,6.7153708934783936,0.02993212890625
STABILIZE,3.24393367767334,29.97066032140739,0.03234246571858724,0.03246665000915527,-10.0,40.0,10.0,-0.5517274733105562,-1.5295242814806234,0.904057392199522,3.974103312315258,2.149914777131752,0.14454677197260732,0.5214551429131071,-0.5078963623527809,0.00937768543411275,0.48784433784628245,0.6980303742178781,-2.270006388425827,1.3585634529590607,0.8323938585817814,-1.3312622460085477,-116.56423807144165,-48.72519075870514,-13.698311150074005,0.0,0.0,0.0,0.0,0.0,0.0,0.0,0.0,0.0,0.0,0.0,0.0,0.0,0.0,0.0,0.0,False,0,6.7440478801727295,0.069840087890625
STABILIZE,3.277388572692871,29.892057157110788,0.032410415013631184,0.03254532814025879,-10.0,40.0,10.0,-0.5555884511823175,-1.5219097944948228,0.9462351977065259,3.971936879919305,2.0831317041107424,0.16187735144210902,0.5214848634068227,-0.5580274245041981,-0.007847656410585949,0.4857151596564432,0.7820670608826976,-1.9042391330003738,-0.6593257654458284,-0.11236194986850023,3.980208642120775,64.62405323982239,-24.525757133960724,-14.102059602737427,0.0,0.0,0.0,0.0,0.0,0.0,0.0,0.0,0.0,0.0,0.0,0.0,0.0,0.0,0.0,0.0,False,1,6.772692441940308,0.029930908203125
STABILIZE,3.310821056365967,29.909109708703248,0.0324278195699056,0.032533884048461914,-10.0,40.0,10.0,-0.5522963000023713,-1.5218981618288925,0.9274113030756765,3.9725780025370074,2.149046315496685,0.15394898688935527,0.5215721984645534,-0.48807146552971714,0.012485111838022735,0.45481204029579264,0.7399514671517563,2.778538130223751,1.6644086688756943,0.9552574716508389,-2.359753945498066,50.63462853431702,75.54824352264404,-3.7466920912265778,0.0,0.0,0.0,0.0,0.0,0.0,0.0,0.0,0.0,0.0,0.0,0.0,0.0,0.0,0.0,0.0,False,0,6.830266952514648,0.034919921875
STABILIZE,3.344186544418335,29.971088641966485,0.03242209752400716,0.03252887725830078,-10.0,40.0,10.0,-0.5532054622139234,-1.5267895377699738,0.9441556185476685,3.974748511361092,2.2114848310082658,0.13861890702503923,0.5215986408745258,-0.4116670483277074,0.04556224734635024,0.4543485818253001,0.6610921964038697,2.778538130223751,1.6644086688756943,0.9552574716508389,-2.359753945498066,50.63462853431702,75.54824352264404,-3.7466920912265778,0.0,0.0,0.0,0.0,0.0,0.0,0.0,0.0,0.0,0.0,0.0,0.0,0.0,0.0,0.0,0.0,False,0,6.858815431594849,0.034919921875
STABILIZE,3.3777263164520264,29.815984588371613,0.03248766263326009,0.03261852264404297,-10.0,40.0,10.0,-0.5518308332826055,-1.5242298176568057,0.9223775603790829,3.9752775679799743,2.1979034292459274,0.13707239982218875,0.5216295980556204,-0.43410537099384294,0.03122112868221965,0.45165137583751114,0.6511804908288578,-2.0511671900749207,-0.6622125394642353,0.8302203379571438,0.9670066567461809,7.970623672008514,42.31545925140381,-6.458967179059982,0.0,0.0,0.0,0.0,0.0,0.0,0.0,0.0,0.0,0.0,0.0,0.0,0.0,0.0,0.0,0.0,False,0,6.8873982429504395,0.06485205078125
STABILIZE,3.4111385345458984,29.930025617788306,0.03236344655354818,0.032475948333740234,-10.0,40.0,10.0,-0.5510852220851634,-1.5265062983628297,0.9141999029518736,3.9763026187603505,2.243740256453394,0.12942798486896484,0.5216336377368542,-0.38494476356488394,0.06728186476501605,0.46238726998879914,0.6109157980339857,1.9813485443592072,1.6678713262081146,0.8099856786429882,-1.272659756538367,79.48356866836548,23.05586040019989,-7.194022089242935,0.0,0.0,0.0,0.0,0.0,0.0,0.0,0.0,0.0,0.0,0.0,0.0,0.0,0.0,0.0,0.0,False,0,6.916112184524536,0.034919921875
STABILIZE,3.4446215629577637,29.86672743067918,0.03242209752400716,0.03254103660583496,-10.0,40.0,10.0,-0.5530634689843812,-1.523996737451379,0.959745311884811,3.9778842152616782,2.3082559311660593,0.11833054230846847,0.5216678352635418,-0.3237764342706947,0.10039812736495679,0.4580504055919529,0.5535776265622148,1.9813485443592072,1.6678713262081146,0.8099856786429882,-1.272659756538367,79.48356866836548,23.05586040019989,-7.194022089242935,0.0,0.0,0.0,0.0,0.0,0.0,0.0,0.0,0.0,0.0,0.0,0.0,0.0,0.0,0.0,0.0,False,0,6.946833848953247,0.034919921875
STABILIZE,3.478029489517212,29.93152073075002,0.03235295613606771,0.03246307373046875,-10.0,40.0,10.0,-0.5479451493359558,-1.5255389728216266,0.9097143896578792,3.978108611107851,2.291587311040733,0.11837735349222238,0.5217017916947336,-0.3051825636334431,0.05686514918076959,0.453834174550108,0.5519669121992165,0.020023291290272027,-2.012060582637787,0.7943980395793915,1.3254113352107855,-61.68927550315857,-67.53112077713013,-10.03311350941658,0.0,0.0,0.0,0.0,0.0,0.0,0.0,0.0,0.0,0.0,0.0,0.0,0.0,0.0,0.0,0.0,False,0,6.975419044494629,0.034920166015625
STABILIZE,3.512411117553711,29.085502683660874,0.03240969975789388,0.033484697341918945,-10.0,40.0,10.0,-0.552911764079613,-1.5294910910301254,0.9682970288907844,3.980995985306214,2.2328372035660737,0.10660529268134096,0.5217371900390162,-0.3413022182406857,0.06500798146507397,0.44927488218551426,0.49141638250571834,-2.638850547373295,0.49154460430145264,0.7575701922178268,-1.6277420815802894,-54.64140772819519,73.67532849311829,-4.215802624821663,0.0,0.0,0.0,0.0,0.0,0.0,0.0,0.0,0.0,0.0,0.0,0.0,0.0,0.0,0.0,0.0,False,1,7.008059740066528,0.02993212890625
STABILIZE,3.5458896160125732,29.869917888604817,0.032415183385213216,0.032538652420043945,-10.0,40.0,10.0,-0.5513976498788385,-1.525260535891243,0.9521504616928742,3.983804367711341,2.2588748781113757,0.09128510690305422,0.5217554478997111,-0.31681804408932907,0.09967437672497541,0.4529223573374109,0.4134322611827695,-1.4802999794483185,1.361799892038107,1.2837806716561317,-1.8696868053325932,-22.501936554908752,10.089566558599472,29.771724343299866,0.0,0.0,0.0,0.0,0.0,0.0,0.0,0.0,0.0,0.0,0.0,0.0,0.0,0.0,0.0,0.0,False,0,7.064678907394409,0.06983984375
