Mode,Time,Freq,North-Vision,East-Vision,Down-Vision,Yaw-Vision,North-Desired,East-Desired,Down-Desired,Roll-UAV,Pitch-UAV,Yaw-UAV,Roll-Control,Pitch-Control,Yaw-Control,Thrust-Control,northVraw,eastVraw,downVraw,yawVraw,zGyro
GUIDED_NOGPS,0.015094995498657227,66.49814503598947,320.2618344321861,-40.81756390640587,-18.52525631544865,0.0054761824148871685,316.2749640637233,-28.62876366295125,-16.178867046188163,0.2846030971004416,0.7827376511710514,117.16820690941694,-2.656249315820691,-1.0857541430854718,-0.00021904729659548674,0.5011731946346303,320.2618344321861,-40.81756390640587,-18.52525631544865,13.695932219632809,5.328507494716656
GUIDED_NOGPS,0.018949031829833984,258.62029843383897,321.292031409694,-41.953270016695626,-18.101190884965774,0.07023285761922482,316.27476572463894,-28.628677986514436,-16.178888940864592,0.2846030971004416,0.7827376511710514,117.16820690941694,-1.1088648865051045,-0.9012955813451861,-0.002809314304768993,0.5009611509720506,322.3222283872019,-43.088976126985386,-17.677125454482894,6.108182129816967,5.328507494716656
GUIDED_NOGPS,0.03528785705566406,61.23876129710473,320.9028421390038,-42.68244830082883,-17.812209074865468,0.09152340601594902,316.2733933567178,-28.628085165417833,-16.179041324003318,0.22450426259349943,0.7868237051203057,117.28636918205815,-0.6702485370742374,-0.15879919349768254,-0.003660936240637961,0.500816583875431,320.1244635976233,-44.140804869095234,-17.23424545466485,13.79659903649727,4.755549699585833
GUIDED_NOGPS,0.07524633407592773,25.03075802967189,319.99407841311853,-43.68540927800534,-17.371578446593265,0.1552105505311606,316.2697166543231,-28.626496942090903,-16.17945227315172,0.2799891175531129,0.8123459876145278,117.52673719932925,-0.6630333613598836,-0.11650604038582942,-0.006208422021246424,0.5005960630867208,317.2677872354628,-46.69429220953486,-16.049686561776664,-5.674266277724641,3.6096341093241864
GUIDED_NOGPS,0.11688399314880371,24.022359679266895,319.6945970553825,-44.550761834333045,-17.152033757296074,0.32430307585179957,316.2626524191667,-28.62344540790138,-16.180247251878985,0.32150458147361066,0.47884279148161457,117.75277547972165,-0.6882313341219884,-0.14657948521219002,-0.012972123034071983,0.5004858932527085,318.4966716244383,-48.012172059643895,-16.273855000107304,15.305242390516582,3.0939720937064457
GUIDED_NOGPS,0.1546788215637207,26.46348757681679,321.0145766527469,-46.513841513440404,-16.775865582736163,0.46620415064790754,316.2511639105529,-28.61848272248026,-16.18154912749799,0.028941392483408424,0.11486905424421663,117.87666145088734,-0.843263373965195,-0.3366886411965923,-0.0186481660259163,0.5002971582276191,327.6144746395688,-50.632962301942655,-16.644415442649088,6.08834953048715,2.4064227395494577
GUIDED_NOGPS,0.19502544403076172,24.791961224731057,320.9214114234407,-48.01365343991467,-16.614323230236543,0.5726982900979636,316.2342601956214,-28.611180833046777,-16.1834781887872,-0.3287225439615803,-0.09061670668794096,117.97881376011405,-0.8682329431467036,-0.2200308702072372,-0.022907931603918543,0.5002154225207247,320.36242004760356,-50.58803575935673,-16.869413691984807,14.050078761205981,1.948056503444799
GUIDED_NOGPS,0.23757600784301758,23.51568159137036,320.9883153329429,-49.55420094040447,-16.74039659673993,0.6628115498044097,316.2109954995909,-28.601131193733416,-16.18615216371252,-0.5413286170209175,-0.32078818534312625,118.03189799034338,-0.9294755634952248,-0.23457485194162092,-0.026512461992176387,0.5002771222165137,321.45664269945803,-51.84354237154424,-17.86461228718179,10.779706450595583,1.5469860468532228
GUIDED_NOGPS,0.27858996391296387,24.382653179862807,321.1792913823616,-50.99146326093212,-17.637058479246853,0.727634264895775,316.18046855600295,-28.587944484910878,-16.18968623714924,-0.7755823343243755,-0.3863581347773809,118.09935293858643,-0.9842340586100641,-0.2536297774750479,-0.029105370595831,0.5007236861210488,321.78964282753645,-53.88060381217307,-20.53299597431129,5.012511070844553,0.7448451336700702
GUIDED_NOGPS,0.3182942867279053,25.187989430699016,319.87336577367375,-51.897757330698234,-18.54164369693979,0.776244421016008,316.14182195696486,-28.571250332513078,-16.194193068603855,-0.7429691415329166,-0.33495509157921693,118.11849112864081,-0.9899608376131238,-0.07794339221224869,-0.03104977684064032,0.5011737253141679,311.8748235176989,-52.54364240847443,-20.79678108857197,28.985153956944174,0.2291831180523293
GUIDED_NOGPS,0.35887718200683594,24.647439061655266,320.11505968874684,-52.75722294339236,-19.632144241858562,0.7912608551963297,316.09424150339356,-28.550697027362148,-16.199782809936,-0.692266726333208,-0.23758055303778305,118.13858554517898,-1.0237727762433884,-0.20843133102545663,-0.03165043420785319,0.5017161807159612,322.05801491820773,-54.93029036541326,-22.09691816724295,10.857703604554814,-0.34377467707849396
GUIDED_NOGPS,0.39734983444213867,25.996677823230446,320.95948244024936,-53.887363184403135,-20.473764209795405,0.7870902197835306,316.03695555525894,-28.525951244493402,-16.20656312308031,-0.5704088944641873,-0.12253362039045519,118.10424335403216,-1.090956477991335,-0.3014086627697434,-0.031483608791341225,0.5021336005433575,324.02316924748294,-56.23873696441063,-21.07751353166903,11.794118256047057,-0.8021409131831525
GUIDED_NOGPS,0.4323852062225342,28.547245193125743,322.0294433563866,-55.00258717731704,-20.906484720587432,0.7737281154187818,315.9692343818272,-28.496697762480352,-16.214639197768328,-0.5567680995571727,-0.049923480149636365,118.10252214636132,-1.144165829542911,-0.38488377808296714,-0.030949124616751273,0.5023459227614095,327.05635895353623,-57.41966233611374,-20.02821484114192,9.173643682888525,-0.8021409131831525
GUIDED_NOGPS,0.47734522819519043,22.247290896457347,321.5759843617857,-55.66234430704121,-20.317639650241045,0.7277094143920539,315.89038951190463,-28.46263918275967,-16.224113769250362,-0.5037352558291673,0.03518673336552561,118.00700878100787,-1.128722536957407,-0.24497270336855048,-0.02910837657568216,0.5020467629404953,323.98680268276155,-57.17938946079397,-17.588770622579368,6.281068253682918,-1.8907607239317168
GUIDED_NOGPS,0.528174877166748,19.67687970012995,322.3843230222068,-56.69828347407908,-19.53085116754854,0.6228481262122575,315.7997730840807,-28.423495648956195,-16.23508713601739,-0.4515964731913461,0.0026442970649998582,117.87816409250475,-1.186280564726388,-0.36947386080039,-0.0249139250484903,0.5016478820157656,326.8291293309725,-57.723338243663804,-16.86283867510946,12.060678979231568,-3.8388172273765155
GUIDED_NOGPS,0.564943790435791,27.204472781283847,323.0368430675507,-57.252209329536946,-17.909221352027444,0.4581855930098313,315.69677719697177,-28.379004566207925,-16.247657177522953,-0.3838680505772352,-0.06754064577278843,117.73705238425228,-1.1978174052502726,-0.41909630186123314,-0.01832742372039325,0.5008307820872523,326.6768030622092,-57.699919642702596,-13.988769089637465,12.538124840939432,-4.92743703812508
GUIDED_NOGPS,0.6102917194366455,22.05613020271869,323.680942138114,-57.49179782050119,-16.239261554995892,0.28199556056369524,315.5808332594645,-28.32892032049099,-16.26191937190502,-0.2333892714866282,-0.2362295096034428,117.45357221294007,-1.1846426637318206,-0.4496598640416934,-0.01127982242254781,0.49998867109154543,326.9424353920428,-57.436679419231815,-12.727714546511262,7.343374555848484,-5.7868737308213145
GUIDED_NOGPS,0.6429741382598877,30.60485818733719,326.12612951219376,-57.505024926805675,-14.672514921107773,0.05623623374469968,315.4514113409592,-28.27301399794466,-16.277966813707888,-0.24072975049283496,-0.37118745753756277,117.28408789887537,-1.1757055849568603,-0.7691368243357026,-0.0022494493497879874,0.49919727405369996,331.43632251033694,-57.48579786763616,-12.194481671701327,8.987664880524449,-6.0733526283867265
GUIDED_NOGPS,0.6833243370056152,24.78873772177634,327.28869692113534,-57.453160489306924,-13.53545640215521,-0.1335087602245276,315.3080195216136,-28.21107310419632,-16.29589023160407,-0.2503122390940984,-0.5934519783722534,117.00369497306801,-1.1692963165061374,-0.6991059569578871,0.005340350408981104,0.49861978308527555,331.3585541897407,-56.92006727330021,-11.903478027816567,10.072284373603736,-6.64631042351755
GUIDED_NOGPS,0.7234644889831543,24.9172988611588,328.4525412657055,-57.122159558431555,-12.359205687409418,-0.3851129761908995,315.1502032425859,-28.142901283686463,-16.31577800611616,-0.3620846563233605,-0.9686916857587642,116.7103520085943,-1.1389845230340443,-0.7717289739369351,0.01540451904763598,0.49802171384064664,333.3339240040445,-56.068333589286944,-10.981585101380483,11.014620617352719,-7.219268218648373
GUIDED_NOGPS,0.7631731033325195,25.18904830253494,329.0988375351102,-56.54677127150021,-11.76361021557673,-0.6639514146467512,314.97754465627867,-28.068318038993688,-16.337716187338764,-0.3884496667672857,-1.3294681474126557,116.40942753414188,-1.1005965091031764,-0.780948000606632,0.02655805658587005,0.497712947014119,332.2267291087738,-54.822978208045875,-11.010791730474022,6.609076862890049,-7.906817572805361
GUIDED_NOGPS,0.8064658641815186,23.100203778157184,330.82919448544527,-55.98914243747163,-11.475459538556217,-0.9516254296878446,314.7896619765819,-27.98715845015968,-16.361788512660326,-0.45782651284889686,-1.6953501754711318,116.10978713525343,-1.0788706564568193,-0.9524768054608309,0.03806501718751378,0.49755683551294794,337.82965828544224,-54.648535249088916,-11.286961161408707,5.2805494486269,-8.078704911344607
GUIDED_NOGPS,0.8419597148895264,28.183928127456845,332.12305920526467,-54.802653860742296,-11.620377318287733,-1.2680214339086557,314.5862088291168,-27.899272894014196,-16.388076424485064,-0.48320029208952403,-1.904935063761502,115.88006055270921,-0.9790369478480098,-1.0270645753247405,0.05072085735634623,0.49761615044690133,337.1800470895278,-51.55335498398947,-12.919070570358912,8.630321238256258,-7.964113352318443
GUIDED_NOGPS,0.8816728591918945,25.18526702614418,333.74148171984433,-53.487518155846544,-12.072956740407061,-1.5014055088478937,314.3668736014791,-27.80452676350007,-16.41665908795483,-0.6128970466916036,-2.1807957321677387,115.53467154676001,-0.9257985900971282,-1.130484515047189,0.06005622035391575,0.4978281488262261,339.6241831788468,-50.34438874882148,-14.166375138413201,7.901813954272967,-7.219268218648373
GUIDED_NOGPS,0.9201948642730713,25.9649739688121,335.5919678077324,-52.086371946674866,-12.90856296415692,-1.7978264558563373,314.13137879348244,-27.702800186998193,-16.44761340867101,-0.697533175709258,-2.331330540153881,115.20981408945586,-0.8559996308612541,-1.2622571041603439,0.0719130582342535,0.49823047477774296,341.7463240951472,-49.062602543428554,-15.159616220129788,8.41378614419925,-8.021409131831525
GUIDED_NOGPS,0.9616575241088867,24.121553697334974,336.7040201981571,-50.56292824709377,-13.883590030618763,-2.105395128686222,313.87948036740215,-27.593987747652488,-16.481014050416398,-0.7231676760771092,-2.5156841760416953,114.84848342198384,-0.7919079186802962,-1.2683479845495262,0.08421580514744888,0.49870128799010116,340.3327416337348,-47.205759710140406,-15.885927062783239,4.297511780678647,-8.651662706475431
GUIDED_NOGPS,1.0029375553131104,24.230945654748492,338.4227161219489,-48.60053713497746,-14.92519724283002,-2.4431762591631756,313.61096709821834,-27.47799820269493,-16.516933452877087,-0.7483513305988867,-2.594093040166149,114.5953702717215,-0.6785050790135446,-1.4135294848555016,0.09772705036652703,0.4992041318949765,345.10812158007514,-44.83657968850735,-16.49499722246501,4.255896437552451,-8.708958485988513
GUIDED_NOGPS,1.0401833057403564,26.855404946824518,339.5984282539303,-46.87775748142106,-15.598292275836013,-2.791342164774673,313.3256599238596,-27.354754202770508,-16.555441849364357,-0.7646505098360643,-2.8714661685867204,114.17529997738738,-0.6081145963780854,-1.4599956179374913,0.11165368659098691,0.49952142521323584,342.73962105989585,-42.93945671620747,-16.28454573538888,3.0348044920642394,-9.167324722093172
GUIDED_NOGPS,1.0768344402313232,27.28819028782595,341.3185683781362,-45.08238679849491,-16.012147137856417,-3.114940992324118,313.0234112954464,-27.224192011262236,-16.59660728453656,-0.8767745750858763,-2.95069935116663,113.81367561178106,-0.5201233622457011,-1.6059991992824938,0.12459763969296471,0.49970776992665994,345.98785010242074,-41.36753533419073,-16.23564944851522,13.906615331703122,-9.511099399171666
GUIDED_NOGPS,1.1118988990783691,28.52802263576015,342.32809250398066,-43.162196641393656,-16.227107879651577,-3.4524771449500884,312.70410452753464,-27.08626122361612,-16.640495632121006,-0.9220655061113779,-3.0422008341563527,113.61292269169604,-0.4232894521964361,-1.619701653619421,0.13809908579800353,0.49979330612376527,345.9058512921978,-39.461651757922326,-16.23441992910559,13.387330986231902,-10.026761414789407
GUIDED_NOGPS,1.1488401889801025,27.07592199291197,343.8795788975943,-41.33792497796966,-16.30656756044036,-3.7429678087176885,312.3676531483589,-26.94092448666617,-16.687170612635846,-0.9428959822543301,-3.1756315678003135,113.16650152754401,-0.35478828145552954,-1.7480324790793944,0.14971871234870754,0.4998096984739023,349.5919382384369,-38.0844013930204,-16.28322546672716,10.328327315511089,-9.167324722093172
GUIDED_NOGPS,1.192690372467041,22.808021925436115,344.2558764003239,-39.36736311870992,-16.341474502069673,-4.033262651980252,312.01400025007604,-26.78815721795937,-16.736693811111966,-0.9193463437697724,-3.1937584629707043,112.82448663504479,-0.28709091103642903,-1.6787515735135063,0.16133050607921007,0.49980239034547885,342.6345632006842,-34.98377039220868,-16.669531930611587,21.46587939698442,-8.078704911344607
GUIDED_NOGPS,1.2334542274475098,24.537420656974874,345.3389303672642,-37.54951128449161,-16.488759039964805,-4.38559160506365,311.6431178390089,-26.627947325080683,-16.789124694814863,-0.7833006615299014,-3.2437490443928505,112.51081702760114,-0.20222575917836424,-1.8029300758803621,0.175423664202546,0.499849817172575,350.41075583066925,-33.85019754511593,-17.02096842486453,-4.133407193418478,-7.849521793292278
GUIDED_NOGPS,1.27384614944458,24.760933219986775,345.56967075265607,-35.13182375215883,-16.398318431556987,-4.6948990907777,311.2550061858892,-26.460294924978022,-16.844520630966535,-0.711178666371327,-3.2772592331214025,112.24063523460293,-0.06970038220432734,-1.762272771495558,0.187795963631108,0.49977689890029525,342.17866471686983,-29.27909767252683,-15.783446406476129,-14.89350897626717,-7.333859777674538
GUIDED_NOGPS,1.309497594833374,28.055920480541545,345.8945679336728,-32.78986513714428,-16.3457308747102,-4.966458177905093,310.8496931761016,-26.285212063287272,-16.90293690446737,-0.6463667878936644,-3.2636069656310163,111.98350593310863,0.04235708690362215,-1.8042996782811338,0.1986583271162037,0.4997213969851214,347.70729902820887,-27.751858682849626,-15.97148214487164,10.09169995121627,-6.589014644004467
GUIDED_NOGPS,1.3524010181427002,23.313604731307112,346.6815742944652,-30.40693338725282,-16.225185671000872,-5.16329740223999,310.4272336599268,-26.102722433657235,-16.964426735618037,-0.6261926502412681,-3.3317658502453966,111.74919629363134,0.12078201000218694,-1.8797432116778268,0.2065318960895996,0.4996303794676914,349.0356719462345,-26.169742643563097,-15.680499448180532,4.701396183089344,-5.271211715203574
GUIDED_NOGPS,1.3946242332458496,23.68820137465196,347.56795523830556,-28.388374539056667,-15.942255252832656,-5.3716842317361095,309.98770880278516,-25.912861097074657,-17.029041297841356,-0.6595395547599745,-3.3247918002159906,111.59529847125262,0.18871553706343683,-1.9481185895399105,0.21486736926944439,0.49945660697749567,353.07889765314405,-24.890976151227928,-15.254879839770497,9.273048039191096,-4.068000345428845
GUIDED_NOGPS,1.433880090713501,25.48025028856084,348.59438927631714,-26.31093612031584,-15.536097643272015,-5.54501613876311,309.53122543548005,-25.715674201189195,-17.096829735404192,-0.5728102929268286,-3.294655298050602,111.43942672420376,0.2895312574137918,-2.0301871796261985,0.2218006455505244,0.49921963395393393,354.1173235962906,-23.46300545141182,-14.990180377061337,1.8867171028045107,-3.6096341093241864
GUIDED_NOGPS,1.4727363586425781,25.74076983503535,348.4666062425289,-24.543467601461344,-15.205094503219518,-5.65729657904317,309.0579154044415,-25.511218699638423,-17.167839181139346,-0.4478875203894705,-3.18833614654336,111.32336131963774,0.33046446472500923,-1.9560952337158755,0.2262918631617268,0.4990186276610401,348.5696739681308,-20.44175507825433,-14.128430706213653,10.684675654566547,-2.2345354010102105
GUIDED_NOGPS,1.515371561050415,23.459388108954638,349.4846338408186,-22.93123036279638,-14.764874334012736,-5.7396681012023105,308.56793492196937,-25.299562071372804,-17.24211477416744,-0.43335602612600393,-3.0316166022637714,111.28815169446632,0.38745550538250423,-2.104410138771475,0.22958672404809244,0.49876137977992263,350.7787839870022,-19.69067248952482,-13.770381298837727,-0.3623855166394776,-1.3750987083139758
GUIDED_NOGPS,1.5569350719451904,24.066329663015473,350.2037125140428,-21.44893072485444,-14.273371737906853,-5.792689123524883,308.0614639164772,-25.080782039980694,-17.319699677618793,-0.3257359903861394,-2.847618563099621,111.25834474892838,0.43963655283822933,-2.143492848340303,0.23170756494099531,0.49847683603014403,356.16338521646276,-18.758244453853393,-13.222986467651117,8.07202066779854,-0.5729577951308232
GUIDED_NOGPS,1.585862398147583,34.57252367724759,351.5144906947333,-20.0487369332657,-13.587688291251443,-5.82131179287098,307.5387053827354,-24.85496629301332,-17.400635096355327,-0.28280462291461267,-2.711139430651719,111.25115255973236,0.5245700982172837,-2.316872475174975,0.23285247171483922,0.49809352659744804,352.66489016239365,-17.89000719328425,-11.826462606493441,8.739030013195446,-0.17188733853924698
GUIDED_NOGPS,1.622384786605835,27.389226640197993,351.892133048108,-18.83132649249115,-12.803537931531277,-5.8283208004818485,306.9998847321147,-24.622212201309782,-17.48496029469242,-0.34521659703351487,-2.4698758048257123,111.26371327761602,0.5307619852558398,-2.2569781622225475,0.23313283201927396,0.4976592888184194,350.7284378552069,-17.37595324753905,-11.069428578460522,-0.39668737612180394,-0.11459155902616465
GUIDED_NOGPS,1.673067331314087,19.73353658249705,351.49110629903737,-18.103774813408442,-11.968451721217605,-5.825094658473281,306.4452491428299,-24.38262653832203,-17.572712614120835,-0.275847915162396,-2.306406326098858,111.2799554674623,0.5011733421641439,-2.2004615289335168,0.23300378633893126,0.4971978695535484,345.8274579536697,-16.803996682840793,-9.952999654645284,-7.042171674189234,0.5729577951308232
GUIDED_NOGPS,1.7181642055511475,22.177886115238394,350.9146959964261,-17.401431087740967,-10.649344708028483,-5.804560616787292,305.87506691018297,-24.136325199439863,-17.663927491028566,-0.12687747396023785,-2.247925819538386,111.35162464242325,0.5189650926991227,-2.1893546637203594,0.23218242467149167,0.4964927086085,348.4676152322534,-16.178953861187452,-7.174846232892128,4.0639199926550305,1.3750987083139758
GUIDED_NOGPS,1.7692656517028809,19.573392568809908,350.1927610529973,-16.846492075494737,-9.171234399988636,-5.749409482917878,305.2896267968068,-23.883432921315908,-17.758638474422753,0.04664957838137885,-2.1698029695854264,111.42163408141587,0.5174234759927968,-2.1759789863635572,0.22997637931671513,0.4957062979627829,348.3418440488604,-15.983549392622239,-5.8324349274518745,4.045117513531125,1.948056503444799
GUIDED_NOGPS,1.8102364540100098,24.413876600698487,349.7697719060592,-16.41202248978841,-7.73866429631393,-5.650762074073512,304.68923738290846,-23.624083001190623,-17.856877243651553,0.14541766227648045,-2.055395166553597,111.54627137339027,0.5196472175084713,-2.2068559687704203,0.22603048296294048,0.4949408935263312,345.18576079262596,-15.71765926475262,-4.663612088119911,7.331721249201848,2.864788975654116
GUIDED_NOGPS,1.8433074951171875,30.243386090781268,349.1989211485704,-16.097290392001696,-6.394824588699845,-5.52520380614671,304.0742264165129,-23.35841701621727,-17.958673626126025,0.10916564618405765,-1.9686684126805372,111.66380526862785,0.5094076590406126,-2.2027836487721886,0.2210081522458684,0.49421807548128693,346.21197792709154,-15.802292758605494,-4.350230040390102,2.1027647881653877,3.7815214478634336
GUIDED_NOGPS,1.8817658424377441,26.0079618031872,348.0708322536167,-15.916940734661182,-5.1557299528850535,-5.403604437227373,303.4449401637061,-23.086584542786923,-18.064055615042026,0.008969986051357253,-1.8147552223761774,111.83738769619455,0.4854342346302142,-2.1390401927400693,0.21614417748909492,0.49354583716892153,347.1386740568333,-15.902248396138216,-3.757526475571327,7.432721262355827,3.9534087864026803
GUIDED_NOGPS,1.9313552379608154,20.169868573544473,346.6160885544247,-15.869324774973446,-4.428048482829998,-5.250037965138045,302.8017427588789,-22.80874287585344,-18.17304938710209,-0.13517639392564135,-1.6717288200002889,112.0337624650216,0.45947804174204504,-2.089797180214796,0.2100015186055218,0.49312749954786395,341.02694056885775,-15.940874062748772,-3.53643888261685,2.2542256345849125,4.640958140559668
GUIDED_NOGPS,1.9714853763580322,24.924109981400377,346.25125325642716,-16.138667991557817,-3.6839061088991167,-5.044670090165559,302.1450155549702,-22.525056748258464,-18.28567932023732,-0.2979497669863226,-1.5171770070085329,112.30576108833901,0.4186371018437981,-2.1826136881497944,0.20178680360662235,0.4926991133943309,347.809755471226,-17.330265475544103,-2.1117230577974704,-0.17512752674069532,5.67228217179515
GUIDED_NOGPS,2.0079715251922607,27.412139155213094,346.27654934583853,-16.53030346229743,-3.027792431529638,-4.818676334607807,301.4751564737104,-22.235698050056406,-18.401968011329263,-0.38175987000122846,-1.445457993010989,112.43026177653,0.3750325915623034,-2.2599415366541153,0.1927470533843123,0.4923129122101002,346.02982666896054,-17.67583661845068,-1.3830437012725196,5.070530192262424,6.016056848873644
GUIDED_NOGPS,2.044957160949707,27.044148274238996,345.6284169688859,-17.052660570763365,-2.30999750978878,-4.610280203263508,300.79257935586526,-21.940845547839444,-18.52193629393181,-0.4419270063998708,-1.4094053730856058,112.68169470025651,0.3216259500193312,-2.214021384719936,0.18441120813054032,0.49189403060792847,343.2825562166325,-18.41407830093517,-0.7612554316858119,1.575980179306299,6.245239966925974
GUIDED_NOGPS,2.086463451385498,24.096747691901115,344.8731304262717,-17.692054322941186,-1.5486553013775826,-4.365754230900134,300.09771331147874,-21.640684604062496,-18.645603255993066,-0.45674974419841496,-1.4701198851132011,113.06895959600706,0.27265665559184604,-2.209810323471229,0.17463016923600536,0.49145152602269226,342.2995517079467,-19.099217157027322,0.049184566484663066,16.161101111162367,7.16197243913529
GUIDED_NOGPS,2.1217997074127197,28.306994573873606,344.3733988002101,-18.706320060233292,-0.7155410053479769,-4.064329943717935,299.3910020701171,-21.33540689636822,-18.772986257577255,-0.4252750052033797,-1.6354831405091468,113.36748667406081,0.175314276772992,-2.25129641954003,0.1625731977487174,0.49097127737388535,341.18790778413296,-21.01220274920931,0.6291325975311788,2.7311870195421903,8.307888029396937
GUIDED_NOGPS,2.155742645263672,29.467418872113363,343.7453900323403,-19.442707514966333,-0.167369874282247,-3.7949863453745896,298.67290333111185,-21.025210136912005,-18.904100948586592,-0.405121091314229,-1.7222541838901062,113.61210989918482,0.13826238266696828,-2.250269424022613,0.15179945381498358,0.49063163446284785,341.18790778413296,-21.01220274920931,0.6291325975311788,2.7311870195421903,8.250592249883855
GUIDED_NOGPS,2.194575071334839,25.75831680310502,341.93416366841547,-20.247832518051865,0.1989640160865928,-3.543535134039712,297.9438881138036,-20.710297791686962,-19.038961286483172,-0.3520323254123942,-1.8938637540037344,113.96107109406994,0.0792266655208285,-2.1097258473526423,0.1417414053615885,0.49038103734871513,332.6488631454346,-21.701461633878342,0.4486257505716795,-12.6239755880719,8.021409131831525
GUIDED_NOGPS,2.2324841022491455,26.38341877653719,341.23299412811735,-21.438702186991048,0.09571260784655922,-3.246924938286607,297.20444010778533,-20.3908787998489,-19.177579554010855,-0.2574049636603335,-2.0254755228943564,114.24966707707048,-0.01321834461383925,-2.2046344234415853,0.12987699753146428,0.49036335391907127,335.4175842464729,-24.368426645631086,-1.27751247288598,-0.21651324561322838,8.13600069085769
GUIDED_NOGPS,2.274467706680298,23.826940556262496,340.5417660945159,-22.821824792559973,-0.3955612300243416,-2.955419343375856,296.4550550231458,-20.067167293041322,-19.319966376917165,-0.2198458201154995,-2.112401632913816,114.58588313896436,-0.09454322861661754,-2.2134947249087595,0.11821677373503425,0.49053779742655357,342.27993120241445,-26.014830184871958,-2.407184622869841,9.31581093263496,7.964113352318443
GUIDED_NOGPS,2.312314510345459,26.428970201826075,339.619145857436,-24.074975416595713,-1.0365521542375515,-2.6357817976381637,295.6962399407132,-19.73938231472044,-19.46613074167516,-0.1484071907194701,-2.1490949032390056,114.93193467326306,-0.17406362650987298,-2.191974697226978,0.10543127190552655,0.49078521070628117,338.64886477232176,-27.277955869388,-2.57582202353487,2.9507906963363126,7.792226013779196
GUIDED_NOGPS,2.3470637798309326,28.786076070992273,338.74319779248486,-25.518160539527333,-1.8107968022235834,-2.3777333806283485,294.92851266229854,-19.407747539480102,-19.616080013205305,-0.08633613908968671,-2.134471254782597,115.14215423553772,-0.27661952270464113,-2.194246029944646,0.09510933522513394,0.49109735839450913,336.27497169702326,-28.228128363867402,-3.2420906423989813,-1.223390394580278,6.818197762056797
GUIDED_NOGPS,2.3893675804138184,23.641869116735247,338.2548140478512,-27.144657933285593,-2.5904527027698094,-2.1501923391087305,294.15240106093904,-19.072490992376856,-19.769819952597413,0.028283453167265788,-2.1437479323359434,115.42764248246591,-0.35316996853649163,-2.240873040346685,0.08600769356434922,0.4914103163750862,338.39248175087755,-29.833948602669672,-3.449653752159451,6.374145570950134,6.41712730546522
GUIDED_NOGPS,2.429488182067871,24.928405862564933,337.26446114731266,-28.33760271999543,-3.0449601160087227,-1.8832526158590273,293.3684424311417,-18.733844768254883,-19.927354734832466,0.19777873288723125,-2.0919225913480024,115.70463397406661,-0.40318356614101375,-2.195120733779099,0.07533010463436109,0.4915588026905881,333.2650845798249,-30.333150579180263,-3.5500495390805487,1.8343029499415167,6.302535746439056
GUIDED_NOGPS,2.4681382179260254,25.879103860606023,336.114348130001,-29.412199416175877,-3.3141508314881576,-1.6282369027452281,292.57718283912675,-18.39204475107102,-20.088686966504536,0.22203592294090674,-2.0527555118827987,115.96106659626557,-0.4686944440277769,-2.1648652109835322,0.06512947610980913,0.49161273193249183,331.9870036456399,-31.3878136657742,-3.7531382002670175,3.5155789948007765,6.130648407899809
GUIDED_NOGPS,2.5104315280914307,23.64933410016126,335.42030601218147,-30.492469126147693,-3.385897366199218,-1.4315554825382573,291.77917647307095,-18.047330333219726,-20.253817703542673,0.1729537700185852,-1.9983372603311915,116.17856714019545,-0.5246059527423144,-2.2054202283223083,0.05726221930153029,0.4915660398313283,327.0965262028781,-32.679304419247075,-2.9345546970901717,9.075073552271917,4.469070802020421
GUIDED_NOGPS,2.556769609451294,21.585075779018602,334.63076472642194,-31.58316208843766,-3.2507180424118522,-1.254656116802961,290.97498499335137,-17.69994413485809,-20.42274646893278,0.2034964149755385,-1.896696148075174,116.30011718666499,-0.5864841826054372,-2.199780956091549,0.05018624467211844,0.49141398578673956,329.1012539603967,-33.68159317531723,-2.5661940234621516,10.821875817037892,3.20856365273261
GUIDED_NOGPS,2.5867722034454346,33.332570411342104,332.43160406137343,-32.4184122290145,-3.027339569186956,-1.1013350320241906,290.16517688278856,-17.350131723230795,-20.59547127043949,0.18458626252599128,-1.8374632534889426,116.39683266531237,-0.6538684510904912,-1.9998057757308558,0.04405340128096762,0.49121593414937376,324.6866458820265,-34.010199305553854,-2.332761386034967,13.469940236525673,2.7501974166279517
GUIDED_NOGPS,2.630122184753418,23.072882801111202,330.4749073064335,-33.2219071889058,-2.665216399904332,-1.0228507637595277,289.3503267968903,-16.998141331995164,-20.771988618328074,0.20594973354804244,-1.7017892295894554,116.48330286020473,-0.6787003310661204,-1.9927224190053547,0.040914030550381106,0.49094661389078814,322.99529073280235,-34.350625378636785,-1.7394336926674314,15.262246865328436,1.8907607239317168
GUIDED_NOGPS,2.6700632572174072,25.04077039265906,328.8137640203217,-33.885189553225366,-2.1914118109517124,-0.9413424465041818,288.5310149140947,-16.64422358054607,-20.952293543086324,0.15415093958441445,-1.6374868405351934,116.54463795895145,-0.7197513395736439,-1.966358949077182,0.03765369786016727,0.4906195591339327,322.98582540812845,-34.704225487372,-1.3841152555039185,15.375254766898593,0.8021409131831525
GUIDED_NOGPS,2.70698881149292,27.088162543028567,326.78475093909606,-34.31615651348234,-1.6708725153529336,-0.8955120736618406,287.707826286014,-16.28863119334098,-21.136379613146417,0.10842022841970728,-1.6066845016474343,116.55766995988783,-0.7443374532672737,-1.8711492968836618,0.03582048294647362,0.49026724645110326,322.16037710107213,-34.83413922053197,-0.3318582190962767,10.150323312483138,0.2864788975654116
GUIDED_NOGPS,2.7493882179260254,23.592134275300364,325.38475571007393,-34.50917728389165,-1.1178166175902111,-0.8977238710714114,286.8813501876779,-15.931618719224932,-21.324238952606827,0.09485219770571579,-1.5290446741348416,116.51047335272305,-0.7464177182856354,-1.8993209775130642,0.03590895484285646,0.4898967888324917,322.0651227476477,-34.6466970273638,0.19908546535146143,10.190429456990316,-0.9167324722093172
GUIDED_NOGPS,2.7968714237213135,21.06187544566189,323.8554448891569,-34.53899275912399,-0.5275369231091112,-0.9275034718383095,286.052179467777,-15.573442250755516,-21.515862258954193,-0.01835141095892844,-1.5025787583180998,116.44603734809314,-0.7490973592261198,-1.8627585102824322,0.03710013887353238,0.4895058373320775,319.7525170783036,-34.159276681715575,0.6186370863705323,7.090071413159308,-1.8334649444186344
GUIDED_NOGPS,2.839625597000122,23.398010699602253,322.26689468024256,-34.18871303423666,0.09065986876148986,-0.9862022447724477,285.22090989890637,-15.214359143527886,-21.71123882078522,-0.08881016167311226,-1.5068576583897013,116.35795522855666,-0.7296241646443209,-1.815698720158444,0.03944808979089791,0.48909905065522663,314.3881245315633,-32.5992267542001,1.3515502666855739,1.0061431592650933,-2.3491269600363753
GUIDED_NOGPS,2.8794362545013428,25.122362313198167,320.57918798091004,-33.644024678630785,0.6548058732495903,-1.0788519040718043,284.38813952780885,-14.854627735499708,-21.91035653552855,-0.057950379827216174,-1.501376431580766,116.23924654078183,-0.7086855290524654,-1.7624237754486263,0.043154076162872174,0.4887174187956109,315.5996003657364,-31.98078370934261,1.436614766936584,6.8843353868067965,-3.151267873219528
GUIDED_NOGPS,2.920705556869507,24.23640629153232,319.43752235249315,-32.9019829709227,1.0757837300275797,-1.1915650819358992,283.5544680256186,-14.494507066316196,-22.113201927166656,-0.011552357846577425,-1.4695678137291937,116.08697430342558,-0.6783267801375823,-1.7898304837535972,0.04766260327743597,0.48840550717140285,315.55332085469144,-31.123930681991578,1.7730310647936707,5.3213926561736855,-3.6096341093241864
GUIDED_NOGPS,2.958716869354248,26.314394699859466,318.25339252159455,-31.780229374571853,1.3932619896313367,-1.327124991607483,282.7204960381048,-14.134256596635076,-22.319760163957735,-0.010493745226291562,-1.4813415657544147,115.93806251914096,-0.6184402826117144,-1.7673595425840938,0.05308499966429932,0.48814348892320547,313.52225208561373,-29.037929045609523,1.7864767633702465,14.354113030344507,-4.18259190445501
GUIDED_NOGPS,3.001784563064575,23.222988760312276,317.07044585628023,-30.755959847350645,1.6268299250312797,-1.4826196100265507,281.88682453591457,-13.774135927451567,-22.530015076157575,-0.05956785400003982,-1.46072517335326,115.73888054256504,-0.5985171401764825,-1.7543179111584042,0.05930478440106203,0.48792157749940557,313.52225208561373,-29.037929045609523,1.7864767633702465,14.354113030344507,-4.984732817638163
GUIDED_NOGPS,3.041762113571167,25.019410410279047,315.97863458236907,-29.81102495824091,1.7360376162154758,-1.689099162723676,281.054054164817,-13.414404519423382,-22.743949173741463,-0.12811584595369935,-1.4509511726509718,115.51435856416839,-0.5708105929161938,-1.7474240282673605,0.06756396650894704,0.48776000660502156,313.42588690978306,-27.874552308651392,1.8975887226065549,8.07713983337456,-5.844169510334397
GUIDED_NOGPS,3.090127944946289,20.67932119156321,314.88315777803814,-28.51261322074519,1.8414890306086011,-1.8906960378013866,280.22278459594634,-13.055321412195752,-22.96154366412605,-0.1817143947636257,-1.4114055512953616,115.22026427888598,-0.5160727344385203,-1.7374086806570428,0.07562784151205547,0.4875984836526327,313.3013083130005,-25.488725021864,1.9638718389022114,3.4598568382591566,-5.729577951308232
GUIDED_NOGPS,3.1310882568359375,24.419988704972724,313.3815824884837,-26.643387717853557,1.874697402964302,-2.133527257673831,279.39361387604544,-12.697144943726336,-23.182778469891264,-0.19742537731938886,-1.3986838970793898,115.00743558434839,-0.408385313915132,-1.668678298384778,0.08534109030695325,0.4874712620635722,307.73991476186785,-21.777803167533378,1.9390729265721751,8.502508067967966,-5.614986392282068
GUIDED_NOGPS,3.164348602294922,30.072947064264255,312.3467140315735,-24.85708725140582,1.92906058017804,-2.359731627711882,278.5671377777093,-12.340132469610282,-23.40763224650216,-0.19422623410603124,-1.2939551124317032,114.77329669960035,-0.3302562674946171,-1.687259730064097,0.09438926510847528,0.4873316535866599,306.1091768762823,-20.10642671337083,2.0582926494389375,3.4554048153907218,-6.130648407899809
GUIDED_NOGPS,3.2001099586486816,27.969298684324592,311.4681234936557,-22.815708471104482,1.9903128830008867,-2.549314045072437,277.7439491496287,-11.9845400824052,-23.636082400030837,-0.15193919893316005,-1.202757039251518,114.55878094833776,-0.24646810842190764,-1.6957302153215144,0.10197256180289749,0.48718680235848416,308.570876062394,-18.831035144102863,2.092738277484478,2.6629906985766496,-6.0733526283867265
GUIDED_NOGPS,3.2384555339813232,26.081384936822207,310.1265644780056,-20.61119564909432,2.0907688152035893,-2.7501166736460214,276.9246372668331,-11.630622330956097,-23.868105104878317,-0.042586776423771636,-1.1669689824347667,114.34041980057245,-0.16700187093806992,-1.630408591658116,0.11000466694584086,0.48702056303995905,304.82084872949065,-16.851988198600576,2.399868383620068,11.376726323069974,-6.0733526283867265
GUIDED_NOGPS,3.2801759243011475,23.975260513424374,308.8430044450003,-18.548091700712284,2.2041670208410156,-2.9853810835161894,276.10978718093475,-11.278631939720462,-24.10367532149641,0.014850365380128329,-1.0748202322994802,114.08566057472014,-0.10955867830092704,-1.6113633041456694,0.11941524334064757,0.4868460788288313,303.2537718215714,-15.173205279953827,2.530862867089344,2.3142698146295544,-6.64631042351755
GUIDED_NOGPS,3.3264660835266113,21.61121187139324,307.75032621702894,-16.882995878590297,2.4202939211283185,-3.2575077711490983,275.299979070372,-10.928819528093186,-24.34276681410964,0.07431906157528395,-0.9744302186003385,113.79297330840676,-0.07959356171665011,-1.6111203044876465,0.13030031084596394,0.48661846963238103,304.78082626184295,-13.452324056923441,3.0197074280086897,6.809408572730831,-7.276563998161455
GUIDED_NOGPS,3.366443634033203,25.016724323034712,306.21211955428856,-14.859706671071757,2.8309152240805,-3.5599494800252085,274.4957875906524,-10.581433329731539,-24.58535216843709,0.1476469453081227,-0.9723636594895865,113.43178607490731,0.022959488876748493,-1.5317381535166574,0.14239797920100836,0.4862918663037412,301.1202336078601,-9.989980675778135,4.111399164199846,5.575159786086019,-7.505747116213785
GUIDED_NOGPS,3.4098668098449707,23.0324649650749,304.4224202604721,-12.743977937863376,3.229798455858443,-3.8501448934449005,273.6977812245966,-10.236718911880239,-24.831402809414307,0.11382662330256987,-0.9409515127749921,113.10401895701673,0.09485830068846982,-1.46327750408146,0.15400579573779602,0.4859693993673636,298.9837139624687,-8.252391478060959,4.0871544363741945,8.023137833465057,-7.964113352318443
GUIDED_NOGPS,3.4491796493530273,25.464007528154692,303.2502883992908,-10.63960852739542,3.582194937521441,-4.200375412376241,272.90652163258164,-9.894918894696382,-25.080889018915205,0.0427932028831794,-0.8486876099191674,112.78333474529548,0.18708620527014264,-1.4752119984152219,0.16801501649504963,0.48566845802178166,298.36285987241774,-6.330141146260812,4.1618507919350565,-8.679891157988408,-8.938141604040842
GUIDED_NOGPS,3.505354642868042,17.82019645831209,302.5915330611707,-8.490302764973233,3.9241715565210677,-4.50431135768447,272.12256300278426,-9.556272670574408,-25.333779953473908,-0.0019307690803583115,-0.8444174076665871,112.5044922724297,0.2695854142569033,-1.5122043729699575,0.1801724543073788,0.4853710242450025,300.8391341713214,-4.426676467842881,4.240745962087477,-2.5717115467686114,-8.422479588423101
GUIDED_NOGPS,3.520371198654175,66.58788042356602,301.69416302939453,-5.857086283079699,4.118045399222839,-4.803814685286637,271.3464514014248,-9.221016123471166,-25.59004366200668,-0.022784950782207186,-0.7776234936691515,112.33862795862511,0.43247106500564253,-1.469756649109705,0.1921525874114655,0.4851459554693852,301.39191580818454,-0.2862416474557749,3.9890766415175496,-1.955119396687735,-8.193296470370772
GUIDED_NOGPS,3.5698978900909424,20.19541037913003,300.223782517934,-3.457247934464889,4.111428819214219,-5.039971232732182,270.57872412301015,-8.889381348230827,-25.84964710353378,-0.06036901384534116,-0.5631460021380836,111.8340750544471,0.44184742746297534,-1.4006582077865564,0.2015988493092873,0.485019462038626,293.05780463780627,2.009211067295915,4.0783162641567445,11.43661057695121,-7.677634454753031
GUIDED_NOGPS,3.609487771987915,25.26536955605084,299.0484915467861,-1.0223698274929411,4.206048096647852,-5.417113951650937,269.81990904057756,-8.561596369909928,-26.11255616490137,-0.0064409617688145826,-0.40873618237586984,111.52094503194786,0.561358741014689,-1.3759658510798038,0.21668455806603748,0.4848406978692254,293.851444052388,3.9219990567987804,4.560250823542362,-0.7352219030740486,-7.792226013779196
GUIDED_NOGPS,3.642589569091797,30.215933895728725,298.17666327143166,1.395221782745455,4.325661534031311,-5.701267686217751,269.07052395593803,-8.237884863102373,-26.37873567850339,0.07191792991690713,-0.30118567582732186,111.2921200343741,0.6766290329850113,-1.3753997425315954,0.22805070744871003,0.48464780139373265,297.80620005900727,5.757816904931169,4.75991797885235,-2.90850454460616,-7.448451336700702
GUIDED_NOGPS,3.675487518310547,30.405625430425168,297.23883234412887,3.843962043678334,4.569731284449062,-5.923269232568574,268.33107594991975,-7.918465871264303,-26.648149440003436,0.03922827102325587,-0.1259237954571616,111.05119194159107,0.7693522332307166,-1.3457938672756078,0.23693076930274296,0.48439105963777374,293.6175861894374,7.817024836821513,5.461094714176229,2.438016464100457,-6.875493541569879
GUIDED_NOGPS,3.71966814994812,22.63716241013795,296.31276552815734,5.844799179091006,4.917132637184088,-6.122160973978086,267.6020607326115,-7.603553526039256,-26.920760226056668,0.06219991808951448,0.030467446175017034,110.77381112920767,0.7765175978592912,-1.3368899175442688,0.24488643895912343,0.4840810535683796,291.5751794346964,9.717944029607583,5.726083405192681,-2.6934442142820814,-6.130648407899809
GUIDED_NOGPS,3.7612643241882324,24.04577194289973,294.9400881447454,8.13476187622302,5.487201638402879,-6.3985070142050935,266.88396199360625,-7.293356766583038,-27.19652981203168,0.05475393133692954,0.1726402883480654,110.52569084722863,0.8773512688078671,-1.2549289172101414,0.2559402805682037,0.4836581342747827,287.3814408051219,13.459024552955993,6.928661270250695,7.976478010058472,-6.245239966925974
GUIDED_NOGPS,3.7981982231140137,27.082740362885,292.6042308739073,10.359320000966072,6.011818922202576,-6.63443284012719,266.1772507522446,-6.988079058888765,-27.475418989732383,0.07326421089512689,0.2812820243382287,110.27573324436284,0.9497274380271524,-1.0770637324794468,0.2653773136050876,0.4832563810440325,282.15227600461645,15.044789680514038,7.183337242540849,13.671840708663098,-5.729577951308232
GUIDED_NOGPS,3.832770586013794,28.93261961260416,290.2134793517391,12.547727769113832,6.555974712282861,-6.8371089217724,265.4823847078581,-6.68791811511182,-27.757387585119908,0.08668726684192089,0.34074735879965223,110.10906296823619,1.0230406529846197,-0.9656674060992181,0.273484356870896,0.4828433188512986,282.2659036308394,16.69985574566997,7.480696929253775,7.578439012075947,-5.614986392282068
GUIDED_NOGPS,3.867182493209839,29.070987953811393,288.87004302477783,14.6649268635011,7.019464144925007,-7.0065934191366805,264.79980759001296,-6.393065612894851,-28.04239447603447,0.07656279205784637,0.39862888978642613,109.96505525977564,1.102110677079326,-1.0083171761589518,0.28026373676546723,0.4824690706895203,282.31031402211596,18.403020308757846,7.778541877386958,7.449165834871437,-4.92743703812508
GUIDED_NOGPS,3.901796340942383,28.896540796009617,287.19778007692435,16.680715868090132,7.473043636641995,-7.153637681237692,264.12994850875316,-6.103706914692808,-28.330397609917277,0.06211099222817208,0.5378049331002785,109.76646067946835,1.1543472457032091,-0.9210283582331845,0.28614550724950766,0.48209827937672034,280.47334046956047,19.796889052552743,7.99398086377762,4.936514024194395,-4.469070802020421
GUIDED_NOGPS,3.938561201095581,27.20694330027309,284.81933711460783,18.25214178602128,7.719616220335185,-7.308864678541736,263.47322130484446,-5.820020787097832,-28.621354021532397,0.004714604775667415,0.6198360386406606,109.61267897030551,1.155854137337656,-0.7779803758260765,0.29235458714166945,0.4818295148790662,278.7786563604749,21.316154142611733,8.161524188716637,8.804933584496908,-4.640958140559668
GUIDED_NOGPS,3.9743447303771973,27.948238868824713,282.79503260084783,19.77301991755781,7.921633781314286,-7.473415317483356,262.8300239000172,-5.5421791201643416,-28.91521985068865,-0.011243265106207904,0.7460641243614315,109.43687673125855,1.2008440522458874,-0.7248601134891515,0.29893661269933425,0.4815815731839985,277.42315007935764,22.649180338196697,8.19342504743636,8.072861414188225,-4.640958140559668
GUIDED_NOGPS,4.017112731933594,23.387182032095104,281.01872218083076,21.23488712098815,8.126862464405745,-7.622101465360631,262.2007376472104,-5.270346646733991,-29.211950359961513,-0.012625217814585112,0.8739350840210022,109.25555569936222,1.2306852752727115,-0.6956089451283789,0.30488405861442525,0.4813305935878164,277.36469607456013,24.00919176282166,8.506840344711069,7.958040639728878,-4.239887683968092
GUIDED_NOGPS,4.057538986206055,24.741799047916803,280.1219534372117,22.67879224007829,8.320549091787914,-7.779158360671351,261.5857266808149,-5.004680661760638,-29.511499952414972,-0.04446350430036486,0.9848745383366401,109.11611055726725,1.2889183337320813,-0.7290276876228583,0.31116633442685404,0.48108397547789855,280.2072908561696,25.622545904208543,8.746975014297792,-1.491104752110175,-3.20856365273261
GUIDED_NOGPS,4.088748455047607,32.05061704810301,279.2513548556308,24.336545783467532,8.576366511412774,-7.8986011105142895,260.98533726691653,-4.745330741635364,-29.813822189323425,-0.07477318911381046,1.0569726278331195,109.03788440070309,1.3804328288808332,-0.6952130531055982,0.3159440444205716,0.4808049056496319,275.1874873519689,28.08565676949893,9.273067961901923,5.352660046227086,-2.635605857601787
GUIDED_NOGPS,4.123550176620483,28.740905197519442,278.366552820772,25.69044630884497,8.79867526604983,-7.969220907769699,260.3998971535404,-4.492438463511398,-30.11886980789358,-0.09822760515638468,1.1371014189679471,108.96810035795306,1.3914155012986855,-0.6772908488054443,0.318768836310788,0.4805412274630283,275.1874873519689,28.08565676949893,9.273067961901923,5.352660046227086,-2.291831180523293
GUIDED_NOGPS,4.160002708435059,27.44604109409763,277.6007521642933,27.019376388485256,9.042555574529331,-8.045783392406214,259.8297149208935,-4.246137124629236,-30.42659473898632,-0.08819597825634003,1.2271308894698256,108.88180774797912,1.43077700366056,-0.669690213792357,0.32183133569624855,0.4802654248432422,276.18390877028634,29.29383073639811,9.412826589833868,-13.14391049895869,-1.8334649444186344
GUIDED_NOGPS,4.200573444366455,24.65250944826816,277.2690563825924,28.603322630858592,9.356914231946467,-8.103942596502097,259.2750793316086,-4.006551461641486,-30.73694812483861,-0.08216078575311973,1.2484347830996243,108.83535563143387,1.4992556063118128,-0.7018307851655325,0.3241577038600839,0.4799530688216075,277.8197742159532,31.928922974688355,10.078633631796757,-1.7516052188470184,-1.2032113697747289
GUIDED_NOGPS,4.229478597640991,34.607039720127396,276.4258541060603,29.98211592381036,9.620271033467253,-8.146058094622243,258.73625868098804,-3.773797369937931,-31.049880336785346,-0.12871511501208863,1.2501928097589623,108.83301970673773,1.5514706916794787,-0.6306158608157425,0.3258423237848897,0.4796649243148737,272.0330381482182,32.51651236896736,10.063759021901717,5.131046753204075,-0.5156620156177409
GUIDED_NOGPS,4.267683029174805,26.183307322554466,275.75209011466785,30.868287043704044,9.778409245467213,-8.14702728082334,258.2135001472461,-3.5479816229705605,-31.36534099298129,-0.16085400986262827,1.1803102628745057,108.82600510246012,1.5264300984232095,-0.6461809395287821,0.3258810912329336,0.47942812488077574,272.0330381482182,32.51651236896736,10.063759021901717,5.131046753204075,0.0
GUIDED_NOGPS,4.304556131362915,27.12530153207396,274.68302549564595,31.88278652267137,9.94229823268176,-8.147310549286665,257.707029141754,-3.329201591578446,-31.683278976122935,-0.1961808955082714,1.072408001583702,108.8602653313369,1.5593379610341702,-0.5801513510371487,0.3258924219714666,0.47918721139559767,268.8121791223849,33.15815416433556,10.092512897974657,5.065858755982134,0.4583662361046586
GUIDED_NOGPS,4.34659743309021,23.790450477022382,273.139635394421,32.92545731563664,9.965020611714,-8.132868010677502,257.2170486592819,-3.117544963312845,-32.003642451170364,-0.24450246951391497,0.9361925784707857,108.896506315073,1.5762485029410034,-0.4969650950639046,0.3253147204271001,0.4790156684685578,267.86017004637,34.507184701224475,9.526438484995074,5.600700059176788,0.7448451336700702
GUIDED_NOGPS,4.3830177783966064,27.463113439188085,272.1897008592598,33.584798831153314,9.729708050736884,-8.092075780532891,256.74373862824325,-2.913089461762077,-32.3263788830692,-0.24832588134524117,0.8595291478443874,108.95711058357851,1.5783172436532718,-0.5099207425055152,0.32368303122131564,0.478971956533097,267.58801107067956,35.22563055227173,8.902070826911173,0.6670294028745474,1.7188733853924698
GUIDED_NOGPS,4.418516159057617,28.176544088997566,271.11517137219107,34.20743071260445,9.391027580443907,-8.035916330804543,256.28725526093814,-2.7159025658765827,-32.65143505447239,-0.2755578989269349,0.7691484562087821,109.03342428717507,1.587447829168329,-0.46673358752466965,0.32143665323218173,0.47897876868254186,266.59125145541896,35.62967177622302,8.370356670436841,3.3532480069730752,1.948056503444799
GUIDED_NOGPS,4.448107481002808,33.79913775736331,269.46454809716664,34.970302094095345,8.799094714390742,-7.96848205719531,255.8477304037965,-2.5260412292940018,-32.97875708346221,-0.210713830514766,0.7096073493362538,109.09272398954911,1.6088946123783188,-0.33629157616999183,0.3187392822878124,0.4791110741010735,262.97892257009124,36.33086927642189,7.104094691635885,7.215300614412641,2.177239621497128
GUIDED_NOGPS,4.4914772510528564,23.062099301699014,267.6094416414339,35.60484511651261,8.201411073122987,-7.905808747245446,255.42527088762174,-2.3435515996640035,-33.30829044127209,-0.17898850895455592,0.6173485691223065,109.19056644940956,1.5987474812415472,-0.291535839616407,0.31623234988981785,0.4792451492428025,262.97892257009124,36.33086927642189,7.104094691635885,7.215300614412641,2.119943841984046
GUIDED_NOGPS,4.527975797653198,27.403721513694332,266.46505352426124,36.13350467063166,7.456494677992595,-7.811535461119742,255.01995787783414,-2.1684687379732352,-33.63997997000848,-0.12784047727235676,0.5297313293362061,109.2976774759737,1.6107312556158921,-0.2942536608236882,0.3124614184447897,0.4794517626759995,262.8779332108371,37.150482471819714,5.801856509343109,4.722711641268901,2.635605857601787
GUIDED_NOGPS,4.570511341094971,23.51502239764082,265.3316217613785,36.59489094805559,6.754155214417308,-7.72716885922556,254.63184622471448,-2.000816337870596,-33.97376990037278,-0.04398424380012682,0.49762527809062074,109.40303314392114,1.6114933496354267,-0.2676931046934631,0.3090867543690224,0.47963603744260497,262.96558404515645,37.53256193939139,5.390373509034737,5.934415821585944,2.4064227395494577
GUIDED_NOGPS,4.603959560394287,29.903991900697996,264.7844452769422,37.09390981048311,6.056197808554103,-7.647207381794439,254.26096381364727,-1.8406064449919128,-34.309603869383196,0.07119384982360645,0.5331865512825863,109.47046760159668,1.6359818834493576,-0.2945150106040726,0.3058882952717776,0.4798170991610313,264.43476724689424,38.12476608836064,4.880569641120812,1.0399214765331237,1.776169164905552
GUIDED_NOGPS,4.636594295501709,30.651154633148202,264.50951941190726,37.54408452046583,5.546036931341634,-7.586381088186689,253.90731091536446,-1.687839176285074,-34.64742493809663,0.15988968586940033,0.4930015601876394,109.52922088883713,1.6486744834690006,-0.3214199155300238,0.30345524352746756,0.47990326906528086,265.6607631260902,38.5817428263355,4.55329030557354,0.162407513933843,1.776169164905552
GUIDED_NOGPS,4.672013998031616,28.238386340990495,264.0760331997656,38.057539430183986,4.960932000731496,-7.513013033155329,253.57085953618872,-1.5425024393351592,-34.98717560933059,0.25220937749692235,0.47637463859200696,109.62631885807802,1.663214133674935,-0.30159373496300457,0.30052052132621315,0.48002594619496897,264.12012137354617,38.89814382501265,4.1785700385852,3.892948663113387,2.291831180523293
GUIDED_NOGPS,4.711688041687012,25.20918379612934,263.6351849635123,38.4514572238913,4.561722863086159,-7.427260570682976,253.2515527682769,-1.404571651689018,-35.328797845385054,0.3286276683651406,0.3820584239731521,109.73619611125602,1.6627095811718748,-0.2972548247393162,0.29709042282731907,0.4800547396457644,263.0644655653923,39.120071440356284,3.805810821116422,5.890584423197126,2.521014298575622
GUIDED_NOGPS,4.756540775299072,22.300638026371757,263.47753489927396,38.82199328513909,4.168271848078849,-7.334525454580021,252.94930413986373,-1.2740094601807286,-35.672233085764375,0.3960171962025425,0.2705038791062428,109.84600506254232,1.6725968051161293,-0.3247008387404109,0.29338101818320084,0.48007974753307836,261.7177220561845,39.38524224563031,3.423118433998187,2.6096362879664383,2.4064227395494577
GUIDED_NOGPS,4.803791522979736,21.167317688619733,262.97101878802874,39.14097968492338,3.727726751699329,-7.220839944549015,252.66399696550502,-1.1507654602563022,-36.01742226489911,0.4732951304108304,0.1365493553303065,109.97146197721712,1.6724939594658572,-0.2935880973280629,0.2888335977819606,0.4801274254917008,258.92679368012915,39.71969808728214,2.6778441592232114,7.69059483918403,2.6929016371148693
GUIDED_NOGPS,4.849036455154419,22.105766899619475,262.81880430664387,39.544786379235184,3.2397621847897904,-7.08564440619002,252.39548369632115,-1.0347759152987734,-36.364305829868016,0.5466582456467902,-0.022812058095475672,110.12316047868309,1.6918577776236499,-0.3226412852913588,0.2834257762476008,0.4801979659926711,261.6602173597581,40.6007762978945,2.1134674710258468,4.154069507248167,3.2658594322456924
GUIDED_NOGPS,4.886245489120483,26.87949961868996,262.30638585252416,39.85964915077271,2.711060099552301,-6.9525865299044005,252.14358527024086,-0.9259634759530329,-36.71282375811978,0.6278052685764788,-0.10973523326802646,110.24227214761895,1.6923888958364477,-0.28528971596791886,0.278103461196176,0.480288058071164,258.86623641219876,40.47245768270029,1.5350596123977522,6.593019249160832,3.0366763141933633
GUIDED_NOGPS,4.924927234649658,25.8601164052481,261.76117458366474,40.26257882622231,2.1341967962414268,-6.838334348932881,251.90809046224427,-0.8242368994511864,-37.06291557519509,0.6805717349268535,-0.18717386368479474,110.34335211714597,1.7071903859290942,-0.26833020383324235,0.27353337395731525,0.48040144381428174,260.0730770960192,41.134719817604285,0.9214943045620515,4.568770315670463,3.151267873219528
GUIDED_NOGPS,4.959131240844727,29.24408746095493,261.4371991553626,40.747275989120304,1.5190841756370883,-6.726257166450081,251.6887552346065,-0.7294907689370334,-37.41452037244835,0.7246777348530639,-0.2876042448691482,110.49222292029556,1.731618185237965,-0.2787835820450006,0.26905028665800323,0.48053319772595726,263.0689596996732,41.8087280601203,0.34755533097649627,3.2451821490142976,3.20856365273261
GUIDED_NOGPS,5.001432418823242,23.644801226689516,260.95782893278584,41.182296840388844,0.7986713548159414,-6.60278621983148,251.48530208714146,-0.6416052127915677,-37.767576824769705,0.7990494769303641,-0.32515246277935284,110.63964572334112,1.7345487903560195,-0.2582885440663405,0.2641114487932592,0.4807168759102072,260.28515959293213,41.89480234362487,-0.9242199448825233,6.817120142476753,3.7815214478634336
GUIDED_NOGPS,5.03756308555603,27.68261678788759,260.43123038417633,41.43641385119856,0.029288474404189024,-6.44347437617936,251.29741940744464,-0.5604456239575413,-38.122023208306814,0.8379789405176452,-0.3153366004879718,110.80841969773213,1.7297994830068721,-0.2383539240433706,0.2577389750471744,0.4809243441586445,258.8516771765163,41.871361351943044,-1.7334469310329153,6.557417024941969,4.068000345428845
GUIDED_NOGPS,5.081141471862793,22.952052620634557,260.0911278007451,41.78862494716718,-0.6783634036601145,-6.309318345436617,251.12476082113744,-0.4858623792647947,-38.477797418186796,0.8776460111744346,-0.2692625989462988,110.97242620008248,1.745000186396722,-0.249050936748109,0.2523727338174647,0.48110028299273666,258.9969013887346,42.23351316254338,-2.003199777923765,5.261808866605435,3.8388172273765155
GUIDED_NOGPS,5.110029458999634,34.69434954877454,260.15404997576195,42.03340226472073,-1.313589867884278,-6.150563557155223,250.96694454210973,-0.4176905587549342,-38.834836986238116,0.9099283666779711,-0.24031334907730217,111.09388062390364,1.7558853557510083,-0.2983796319715796,0.24602254228620893,0.4812393764408231,259.43017108026424,42.35860640537204,-2.2546380165587654,3.785446853922352,3.9534087864026803
GUIDED_NOGPS,5.154033184051514,22.715133659720117,260.28260887954485,42.26086400784796,-1.8365974105824663,-6.02819857436125,250.8235527227642,-0.3557496650065488,-39.19307909871247,0.9644192957112154,-0.17664822200868774,111.2811849015129,1.7568995874760462,-0.3107902297245603,0.24112794297445,0.481321759155935,262.68868859002106,42.94603677575642,-2.2674823825144466,2.196368123051755,4.469070802020421
GUIDED_NOGPS,5.1938817501068115,25.10116340307368,261.0134246934687,42.56078837508728,-2.120606999776734,-5.842564781816352,250.6941308042588,-0.2998433424601714,-39.552460614006634,0.9796457083618779,-0.12318798452945415,111.48152118005855,1.780521857082532,-0.40331960966166314,0.2337025912726541,0.481284073192885,264.7127629235895,43.39442417982146,-2.3442678908538603,-0.4492687321513813,4.5263665815335035
GUIDED_NOGPS,5.236400604248047,23.524254474276066,260.81817343883034,42.73132983710002,-2.201952942129716,-5.665531490447604,250.57818686675148,-0.249759096743297,-39.9129180803844,1.0151654668102945,-0.16864150607371386,111.6643653441398,1.7688887633012393,-0.3360407322296576,0.22662125961790416,0.48114451743087266,258.51106705891215,42.72406866200676,-2.140176642797825,6.077344911765522,4.698253920072751
GUIDED_NOGPS,5.273023366928101,27.310044862320208,260.199985706733,42.817262849730504,-2.205057567153414,-5.474167290818815,250.4751909796426,-0.20526801399505956,-40.27438775369845,1.0245830170152728,-0.19911799691329587,111.85998196196896,1.7594404289330507,-0.2811230888118803,0.2189666916327526,0.4809653349067275,258.12345784289454,42.66317822569581,-2.018722903042257,6.380465579508041,4.755549699585833
GUIDED_NOGPS,5.30942964553833,27.47264724376441,259.9853470872182,42.8632188176662,-2.1586811271235433,-5.281996083978472,250.38457455181873,-0.16612448019153447,-40.63680561511218,1.0546975345092706,-0.29421231948900334,112.06753775046731,1.758922757969355,-0.3126878015772549,0.21127984335913888,0.4807609377560057,258.56805063681344,42.58838624505053,-2.022755816409411,5.636239545972302,5.614986392282068
GUIDED_NOGPS,5.349097013473511,25.21630704670751,259.9396133766477,42.806307439176514,-2.1061710310554407,-5.059267376978386,250.3057296818962,-0.13206590047092703,-41.00010738882172,1.0714750404317606,-0.4150093909634092,112.32857392016685,1.7494490469505783,-0.3348477702532153,0.20237069507913544,0.48055303182111686,258.48580749195224,42.661479883307976,-2.004931902173934,7.2388121543328765,6.760901982543714
GUIDED_NOGPS,5.3859944343566895,27.107069688685524,259.8785730657372,42.61586738039704,-2.1221123772661037,-4.804066145160535,250.23800850846425,-0.10281241845782318,-41.364228559777644,1.0864520444560117,-0.48893818460086363,112.59146107113148,1.7303676507249477,-0.34278635148080433,0.1921626458064214,0.48037894190874425,258.5085789014508,42.44222388592411,-2.423974621907175,6.085416826338019,7.16197243913529
GUIDED_NOGPS,5.421710014343262,28.00571558297611,259.6258452365526,42.428516521109295,-2.388753192993317,-4.555313209575588,250.18072256032963,-0.07806663558906024,-41.729104391407034,1.1530544997132754,-0.5332879369030787,112.81057353970549,1.7183550841449693,-0.32476734708047256,0.18221252838302351,0.48032982440079314,257.40834844678716,41.78731436556802,-3.473380721433889,7.826830376863043,7.276563998161455
GUIDED_NOGPS,5.460467100143433,25.80776638096,258.9646394200262,42.196949793081814,-2.7631584913388396,-4.304465582623843,250.1331421067585,-0.057513330438176524,-42.09466994333522,1.250880524431018,-0.4865318769397564,113.12371722258305,1.7008867268698211,-0.2720667086594764,0.17217862330495373,0.4803342442740018,257.3990420578098,41.505344585558404,-3.8907493947698715,7.854377431283396,7.505747116213785
GUIDED_NOGPS,5.496222972869873,27.972469722029558,257.74202954066504,41.80894766652123,-3.2071894782455344,-4.03075575004792,250.0944955077204,-0.04081917804040103,-42.4608600891078,1.348341347471576,-0.41265374943212174,113.39485524206505,1.6643292570286043,-0.17265392932866208,0.1612302300019168,0.48037316469456887,254.93188388870038,40.64837561224757,-4.242910750942884,10.64844652223195,7.39115555718762
GUIDED_NOGPS,5.533050775527954,27.16905258521292,258.0611213230561,41.46301186859337,-3.7010420076497588,-3.765437329082351,250.06396856413227,-0.027632469217813593,-42.82760953391234,1.4240002066814537,-0.37932640166599985,113.63368646677289,1.6622540557660883,-0.32532118532848625,0.15061749316329404,0.48043671623686873,261.0638013180405,40.93180089366871,-4.4741945491950545,5.199751952454889,7.849521793292278
GUIDED_NOGPS,5.571065664291382,26.306307662395493,258.54630089782484,41.087110480977444,-4.10065634855125,-3.510758503587809,250.04070386810184,-0.01758282990441984,-43.19485283230051,1.4935662169865622,-0.3255495475661392,113.99994853082565,1.646942674765019,-0.3704795217936714,0.14043034014351236,0.4804529017581254,262.0048944410443,40.56271694784446,-4.4220463264146295,3.3905917767703073,7.333859777674538
