Mode,Time,Freq,North-Vision,East-Vision,Down-Vision,Yaw-Vision,North-Desired,East-Desired,Down-Desired,Roll-UAV,Pitch-UAV,Yaw-UAV,Roll-Control,Pitch-Control,Yaw-Control,Thrust-Control,northVraw,eastVraw,downVraw,yawVraw,zGyro
GUIDED_NOGPS,0.0030765533447265625,328.81028535591093,23.977903926408867,-14.850263459758942,109.8831645943644,2.4305911544630807,20.585427596215588,-17.05212557815605,100.76577513273574,-1.352657600140201,1.083197779481618,-125.82429688987085,2.5,2.5,-10.0,0.486323915807557,23.977903926408867,-14.850263459758942,109.8831645943644,5.934016935052501,3.151267873219528
GUIDED_NOGPS,0.005599260330200195,396.9247657802593,24.672890666014126,-15.667511711442945,111.09302319714834,3.4209114301612717,20.58536599082782,-17.052074546774577,100.76573762522898,-1.352657600140201,1.083197779481618,-125.82429688987085,-0.9786125412112483,1.1385888886867637,-10.0,0.484509071642121,25.36787740561938,-16.484759963126947,112.30288179993227,6.086930106599617,3.151267873219528
GUIDED_NOGPS,0.04646492004394531,24.47799241318938,25.014332417034016,-16.654439827430608,112.38307732813807,3.463887844242958,20.58493972457667,-17.051721445260878,100.76547657950749,-1.159622580373889,1.026961416950318,-125.61324404451746,-0.0735232529020315,0.21436083628757596,-3.015476009983708,0.48257359887705414,25.6972159190738,-18.628296059405933,114.9631855901175,6.357019073207335,3.896113006889598
GUIDED_NOGPS,0.10906100273132324,15.977448821777124,25.315369089714025,-17.57530133164024,113.74896853068293,3.6355328726906326,20.583797717304265,-17.050775453183267,100.76477258746587,-0.6873179874752692,0.596035817590928,-125.35560930902459,-0.07326652560455245,0.21312573915477107,-4.030303498719205,0.4805237060851744,26.21847910775405,-20.337885844269138,117.84664213831752,6.630633847647999,3.0939720937064457
GUIDED_NOGPS,0.12192535400390625,77.8048527120279,25.742182263979352,-18.27739190111597,115.13806040391471,3.821481511047432,20.581603520696426,-17.048957870530437,100.7634107189733,-0.5816279070627564,0.5731920364684088,-125.2608062833448,-0.2463230151375511,0.34764544024305943,-10.0,0.4784380254725879,27.449434961040648,-21.0857541790189,120.6944278968418,6.806960269462449,3.380450991271857
GUIDED_NOGPS,0.16318988800048828,24.241869390066988,26.433737671601097,-19.5141387034242,117.88396590738917,3.899271218595993,20.578035116464168,-17.046001950533256,100.76118049151442,-0.28389427821106766,0.2908608310406427,-125.1133015180292,-0.20241102735771135,0.3103224048995944,-3.82924341702698,0.47431582187618787,27.435680964517584,-21.03399747130011,123.61269211173673,6.9556540742748405,3.6096341093241864
GUIDED_NOGPS,0.20404267311096191,24.48084982198097,27.089728220960023,-20.32833196657968,120.69904323586343,4.062475592640617,20.57278471452512,-17.04165273248656,100.75787583983018,0.010006547299186024,0.08631310054145114,-125.01153169939602,-0.19627958884121824,0.3361582030501796,-5.061208038822734,0.47008824890595013,28.647830152414016,-20.555726278904338,126.37826844230355,7.089279370381142,2.807493196141034
GUIDED_NOGPS,0.24215054512023926,26.249344439785464,28.10250179783509,-20.84434336193139,123.57205971898584,4.187089096834988,20.56555855118503,-17.03566687457093,100.75329508555862,0.24049923160834702,-0.06746690107409345,-124.97315969663889,-0.1932367988955488,0.4240448454291329,-4.819092633610753,0.4657718530498592,30.761083803449132,-21.208353036164493,129.32826800572963,7.273367922103694,0.9167324722093172
GUIDED_NOGPS,0.2800629138946533,26.38408263142334,28.906748229534536,-20.89139702430132,126.45161584507147,4.266839440985263,20.556076687319212,-17.02781248667448,100.74724090687583,0.47544514589550346,-0.3554445385113445,-124.93515652409694,-0.1504534308914576,0.43899353646352074,-4.320899678696774,0.46144343759270656,30.239711266251312,-20.573154156118772,132.24442276874572,7.3806026720858275,0.2864788975654116
GUIDED_NOGPS,0.3124983310699463,30.835935891780622,29.63673046211889,-19.344462694975686,129.47050805227155,4.329110950037118,20.544072806554016,-17.017868963214664,100.7395203081367,0.6477436046199508,-0.45280845824305316,-124.9429566001291,0.08733988055030192,0.47546120093505007,-4.274785274280385,0.4569035183837977,31.09934612396241,-13.35108253239073,135.7888889328423,7.346482398581899,0.5156620156177409
GUIDED_NOGPS,0.343364953994751,32.41447958205818,30.369463494007856,-17.807879707193813,131.9057474164927,4.3668025629502925,20.529294013448293,-17.005626815960035,100.72994458951587,0.7684639965487529,-0.5287304931793877,-124.94281999634569,0.1550508641069931,0.515681786043203,-3.9800938918014612,0.4532362957595348,31.09934612396241,-13.35108253239073,135.7888889328423,7.346482398581899,-0.40107045659157625
GUIDED_NOGPS,0.3870365619659424,22.90304860402003,11.329293351093849,-30.977374233019155,113.85296321365381,3.9789499449575034,20.511500631674863,-16.990887506852054,100.71832931664844,0.904610637522293,-0.5533301665271291,-124.95064739313453,-1.6238796263202075,-2.1509425421303883,1.5362052692952886,0.4802980491544919,-66.55302056215602,-86.40319890803104,36.11434742810918,-30.45838847752815,-0.6302535746439055
GUIDED_NOGPS,0.4253203868865967,26.1265494773823,-8.54995271831654,-44.100950643108526,95.1969936381727,3.581945985937563,20.49046600220198,-16.973463280826866,100.70449429027099,1.0427808821200082,-0.8688608937979173,-125.00923675583489,-2.2149366455033315,-2.5,2.5133392750952464,0.5082612509781474,-68.63514654360281,-86.82623508661132,36.04842012832411,-30.661998780510046,-1.1459155902616465
GUIDED_NOGPS,0.47167396545410156,21.577968813503517,-28.324924280287366,-57.35156682920704,75.95779311008839,3.167118568234534,20.465976281474802,-16.9531769986371,100.68826351586227,1.08473307794099,-1.1887327398947776,-125.15462416250779,-2.488360204899477,-2.5,2.0744605061468797,0.5370957056086608,-68.63514654360281,-86.82623508661132,36.04842012832411,-30.661998780510046,-2.0626480624709638
GUIDED_NOGPS,0.5096428394317627,26.34017433243739,-32.931098791024766,-73.39799629995814,76.89044465600409,4.055962146715264,20.43783023959685,-16.929861969673645,100.66946517328421,0.8232858695916254,-1.3056077353208624,-125.27673428448928,-2.5,-2.5,-10.0,0.5356685307759201,8.068473570275428,-93.58322988614626,140.4521466624208,95.78745176690445,-3.0366763141933633
GUIDED_NOGPS,0.5444753170013428,28.716701584302125,-21.56185416322018,-74.25987900547753,75.72945130962873,4.005872973176923,20.40583905851148,-16.903361784787442,100.64793158642262,0.42971393447280043,-1.824778098096348,-125.3510740634157,-2.166129741931679,-0.34548129709374176,-2.2797072000943523,0.5373777204151908,87.94556926298534,-17.660496059987675,129.98392220096542,7.584935390078147,-2.46371851906254
GUIDED_NOGPS,0.5812067985534668,27.234856011168468,10.911951557059997,-59.60394941706561,93.85526313817239,3.9210415357285164,20.369826130183345,-16.87353014911127,100.6234991928281,-0.20549800724789602,-2.0811799844440415,-125.51476637706422,-0.13612804407358992,2.5,-1.833160453403678,0.5101523540819836,95.81600803924485,-13.12355096597142,126.74340657082743,6.654314063864245,-4.469070802020421
GUIDED_NOGPS,0.6113128662109375,33.228000126754765,43.80218247362953,-44.863412592937635,111.99426042667305,3.813425709422655,20.32962685477986,-16.840230714881542,100.59600851335695,-0.5860118746536996,-2.378305593057467,-125.61835302601663,0.7527268874139847,2.5,-1.1379428614863396,0.4829026221300258,95.81600803924485,-13.12355096597142,126.74340657082743,6.654314063864245,-4.239887683968092
GUIDED_NOGPS,0.6401956081390381,34.627896800825596,76.69241339019906,-30.122875768809656,130.13325771517373,3.7265068990468455,20.285088438852686,-16.803336914260075,100.5653041218119,-1.0299979696449177,-2.7356854229814522,-125.78173115096334,1.3966099327881771,2.5,-1.4162503122943997,0.4556480696099573,95.81600803924485,-13.12355096597142,126.74340657082743,6.654314063864245,-4.297183463481175
GUIDED_NOGPS,0.6748769283294678,28.840508557322718,94.24192028399294,-14.030939984774687,127.39150969685507,3.637626904754441,20.236069693519163,-16.762731792155908,100.53123461458311,-1.1419082713180495,-2.7554786708659145,-125.91426414161826,1.8264045188282823,2.5,-1.5855465340007693,0.45970958737659207,95.81600803924485,-13.12355096597142,126.74340657082743,6.654314063864245,-4.469070802020421
GUIDED_NOGPS,0.715294361114502,24.74676232675867,95.81600803924485,-13.123550965971436,126.74340657082749,3.538712335802848,20.182440832643803,-16.71830783904705,100.49365258028884,-0.9536691115661443,-1.8648234972001325,-126.09781864537318,0.20420280003713884,2.5,-1.5884401047712704,0.46062536901419204,95.81600803924485,-13.12355096597142,126.74340657082743,6.654314063864245,-3.552338329811104
GUIDED_NOGPS,0.7511956691741943,27.860243908919415,95.81600803924485,-13.123550965971436,126.74340657082749,3.4448819265989346,20.12408327101975,-16.669966823802298,100.45241456941648,-0.32492725329972755,-0.9543281180993447,-126.22309797512956,0.1176203182982469,2.5,-1.4450591309886136,0.4605635119978835,95.81600803924485,-13.12355096597142,126.74340657082743,6.654314063864245,-2.291831180523293
GUIDED_NOGPS,0.784508228302002,30.02794959908362,95.81600803924485,-13.123550965971436,126.74340657082749,3.375084639819823,20.06088942255024,-16.617619626503025,100.40738106396324,0.1993367630699346,-0.08530159221405456,-126.30801088689115,0.11492028818476697,2.5,-1.6728724654504412,0.46049596173970364,95.81600803924485,-13.12355096597142,126.74340657082743,6.654314063864245,-2.864788975654116
GUIDED_NOGPS,0.8077230453491211,43.09098380866278,95.81600803924485,-13.123550965971436,126.74340657082749,3.3185954957276365,19.99276249843007,-16.561186071264938,100.35841644707715,0.30593836691174003,-0.13644028574699785,-126.3331459830368,0.10964841129295291,2.5,-1.4614807217843553,0.46042251481437446,95.81600803924485,-13.12355096597142,126.74340657082743,6.654314063864245,-2.7501974166279517
GUIDED_NOGPS,0.8345460891723633,37.28833690424331,95.81600803924485,-13.123550965971436,126.74340657082749,3.283126846513024,19.91961630532707,-16.500594759059908,100.30538897269778,0.6982277739313365,0.8438585594542626,-126.41741685701642,0.10826079192000215,2.5,-2.036753213754177,0.46034297360280546,95.81600803924485,-13.12355096597142,126.74340657082743,6.654314063864245,-3.323155211758775
GUIDED_NOGPS,0.869683027267456,28.471476282277553,95.81600803924485,-13.123550965971436,126.74340657082749,3.2152635452528058,19.841375043563563,-16.435782900537717,100.2481707351972,1.0129408528532802,1.8641522176707672,-126.60494653086829,0.10737793287177289,2.5,-1.6705801660059323,0.46025714624655456,95.81600803924485,-13.12355096597142,126.74340657082743,6.654314063864245,-4.411775022507339
GUIDED_NOGPS,0.907351016998291,26.556312523743195,95.81600803924485,-13.123550965971436,126.74340657082749,3.111178191154181,19.75797310529783,-16.366696148847875,100.18663763902073,1.0019140460468237,2.5785417666430877,-126.85603794513631,0.1049703874686142,2.5,-1.1761573736721531,0.46016484660228985,95.81600803924485,-13.12355096597142,126.74340657082743,6.654314063864245,-4.698253920072751
GUIDED_NOGPS,0.9397716522216797,30.853855716818327,95.81600803924485,-13.123550965971436,126.74340657082749,2.986602567542322,19.669354872705572,-16.293288432461395,100.12066936832785,0.8349644258552894,2.854054522288477,-127.03516648630905,0.10073521712716221,2.5,-0.5381923039658971,0.46006589419625055,95.81600803924485,-13.12355096597142,126.74340657082743,6.654314063864245,-4.755549699585833
GUIDED_NOGPS,0.9738776683807373,29.326080420631648,95.81600803924485,-13.123550965971436,126.74340657082749,2.878849807789894,19.575474516161396,-16.215521787992586,100.05014935663307,0.5988660238673992,3.2278007661242825,-127.16265879735651,0.09788844944142414,2.5,-0.8280263489879365,0.45996011417870836,95.81600803924485,-13.12355096597142,126.74340657082743,6.654314063864245,-4.755549699585833
GUIDED_NOGPS,1.0001318454742432,38.1061334253968,95.81600803924485,-13.123550965971436,126.74340657082749,2.7520085546017428,19.47629579242026,-16.13336619302083,99.9749647564467,0.44334197613597415,3.203838328081762,-127.33438341346897,0.09163660223318502,2.5,0.14305557247950684,0.4598473372784288,95.81600803924485,-13.12355096597142,126.74340657082743,6.654314063864245,-5.271211715203574
GUIDED_NOGPS,1.0323827266693115,31.01447089184173,95.81600803924485,-13.123550965971436,126.74340657082749,2.666943035552333,19.371791842798952,-16.046799398912384,99.89500640891578,0.3043244145552072,3.093980711697631,-127.49501580236934,0.09024893705214937,2.5,-0.9617161556151912,0.45972739975713245,95.81600803924485,-13.12355096597142,126.74340657082743,6.654314063864245,-4.92743703812508
GUIDED_NOGPS,1.0681755542755127,27.945631895954374,95.81600803924485,-13.123550965971436,126.74340657082749,2.5505992897480447,19.26194499135754,-15.955806763642165,99.8101688134649,0.1064894259888159,3.14642034282405,-127.6966020055331,0.08744256442045338,2.5,-0.5625657858491779,0.4596001433639561,95.81600803924485,-13.12355096597142,126.74340657082743,6.654314063864245,-4.92743703812508
GUIDED_NOGPS,1.0943853855133057,38.17098341857629,95.81600803924485,-13.123550965971436,126.74340657082749,2.423844877978887,19.146746543080866,-15.860381084615526,99.720350097437,0.06865700817611528,3.0815215928778814,-127.82151250507428,0.07980522241664893,2.5,0.35285710771900636,0.45946541528991425,95.81600803924485,-13.12355096597142,126.74340657082743,6.654314063864245,-5.271211715203574
GUIDED_NOGPS,1.1220791339874268,36.11980503263809,95.81600803924485,-13.123550965971436,126.74340657082749,2.3401265744180493,19.026196582059974,-15.760522431490052,99.62545198573437,0.06055516318065045,2.8414955119521164,-127.92754436174957,0.07623860793285195,2.5,-0.5343910261981601,0.45932306812236035,95.81600803924485,-13.12355096597142,126.74340657082743,6.654314063864245,-4.870141258611998
GUIDED_NOGPS,1.156019687652588,29.4703175171968,95.81600803924485,-13.123550965971436,126.74340657082749,2.256021973084776,18.90030376967362,-15.656237978997359,99.5253797704593,-0.025243078501577917,2.834310579832086,-128.08954278848393,0.07454928285948526,2.5,-0.7794911758802852,0.4591729597994477,95.81600803924485,-13.12355096597142,126.74340657082743,6.654314063864245,-4.698253920072751
GUIDED_NOGPS,1.1952054500579834,25.525219084712756,95.81600803924485,-13.123550965971436,126.74340657082749,2.1588540570896515,18.7690851427697,-15.547541839764856,99.42004228055505,-0.012536618788466675,2.78957113322121,-128.28073344373092,0.07166990347061729,2.5,-0.714267416739697,0.4590149535645913,95.81600803924485,-13.12355096597142,126.74340657082743,6.654314063864245,-3.666929888837269
GUIDED_NOGPS,1.2339513301849365,25.815390864943712,96.15389509288892,-17.493735087124954,130.51115130991886,2.019972525780214,18.632565911846736,-15.434454897137556,99.30935185144673,-0.10034142864258462,2.728030701912572,-128.46934228747165,-0.5235629186313053,2.5,-0.03810043533834051,0.4531973008122918,97.5054433074651,-34.974471571739,145.5821302662843,4.835943227048518,-4.18259190445501
GUIDED_NOGPS,1.2663593292236328,30.86634384704826,96.49178214653296,-21.863919208278467,134.27889604901023,1.895021324801419,18.49077925923534,-15.317004637999853,99.19322429468207,-0.07361780658680728,2.564578725545466,-128.5803055407277,-0.7830662285479916,2.5,0.1898583330261192,0.44737149236850776,97.5054433074651,-34.974471571739,145.5821302662843,4.835943227048518,-3.896113006889598
GUIDED_NOGPS,1.3003344535827637,29.442803391924524,99.45506544186799,-22.12714188718923,137.85291652739645,1.7949239458009818,18.343766137279676,-15.195224985597314,99.07157886757226,-0.21487693753559456,2.6912569634212233,-128.7532459305124,-0.31672048524298496,2.5,-0.22553290207559207,0.4418279935102637,110.63242451592004,-14.439664360525217,144.61350896275866,4.677293156633588,-3.9534087864026803
GUIDED_NOGPS,1.3430020809173584,23.44208090676384,99.75621690200555,-26.05410941440386,141.85665224070715,1.7010490275060977,18.191575066518922,-15.06915613235846,98.94433824283291,-0.3055660949215479,2.510282990512096,-128.9069661679727,-0.7949598322640132,2.5,-0.5624697036474802,0.43563152900318863,97.32176533993263,-32.75838860204457,146.76208513738098,4.492210012541965,-3.20856365273261
GUIDED_NOGPS,1.3834044933319092,24.757571643597085,92.13586940567745,-24.83155193156545,149.57390713369537,1.5925974390328685,18.03426193386876,-14.938844372716563,98.81142847822478,-0.5802706204086279,2.700815813164656,-129.05202572556544,-0.2891727568625926,2.454224544312153,-0.23645230788284,0.42385628201679415,57.714270557604316,-7.0107635517793865,165.32968103576857,3.9598354958077238,-2.3491269600363753
GUIDED_NOGPS,1.4212384223937988,26.43280101841465,85.67054451078765,-18.03842670695371,152.850275407276,1.5066691959066554,17.8718897908028,-14.804341935931426,98.67277898619471,-0.6659291433676685,2.8171113097283476,-129.11438535268766,0.5472541714115862,2.274354563249218,-0.40170122940563036,0.4187337553683781,65.17881883301605,-1.0088454486803005,161.96397163418757,3.85085410472679,-2.4064227395494577
GUIDED_NOGPS,1.4680275917053223,21.3783500005097,78.84213706687615,-10.898040337169542,156.26675089787165,1.4264180559362396,17.704528651534094,-14.665706818911174,98.52832250351643,-0.900784664370028,2.8703453772326037,-129.2747718547779,0.7243375484974603,2.100910833968524,-0.6462961748114466,0.4133923574084672,63.363406087907585,0.7274602771818502,162.66450771926245,3.6526003801163234,-2.7501974166279517
GUIDED_NOGPS,1.5055510997772217,26.655379941914042,68.35848788052775,-10.299808703482721,160.58016989963866,1.3312037962717442,17.532255291196563,-14.523002619034042,98.37799506093143,-0.9202008644679645,2.8672094666299217,-129.37169223910038,0.20360087278630948,1.087655799104443,-0.13624107077536718,0.40669673774193915,58.21417858417806,-11.448506192091111,166.18060397159377,3.754857029734377,-2.291831180523293
GUIDED_NOGPS,1.5455901622772217,24.97873328767531,61.21655032545671,-7.319408565071136,164.29233993255008,1.2891550902167983,17.35515304402648,-14.376298366970168,98.22173595278977,-0.731160544870758,2.8505536234520226,-129.4428218291169,0.5478606622295974,1.2362286321681517,-0.9305931513604526,0.4008940940303595,61.6120775645774,-17.856387909986637,165.32293530193803,3.834591788487433,-1.0313240312354819
GUIDED_NOGPS,1.5806429386138916,28.535203793532762,60.95770197597767,-6.987416824158427,164.4585098042807,1.2399253665341652,17.173311601543944,-14.225668359503368,98.05948770669099,-0.5287197676479567,2.5961674966831287,-129.51075489060185,0.2971327956985025,1.987186509855255,-0.6981228230705385,0.40040146685361544,56.420028810209125,-5.350804847215842,166.16053039442156,3.437993405589533,-1.7188733853924698
GUIDED_NOGPS,1.6171619892120361,27.396561634529967,50.02503323726391,-22.745391551796036,166.50265843204997,1.1702126794564498,16.98682681073433,-14.071191992352931,97.89119605312493,-0.40523944568594067,2.5589707133500625,-129.5800266691641,-2.086597458022789,0.23058773013838696,-0.3742996767676696,0.3970828064316124,10.51547513944727,-79.79871908686835,172.18471477303396,1.875554037457867,-2.6929016371148693
GUIDED_NOGPS,1.6489815711975098,31.434489994753804,39.45544704757186,-38.850627424606074,168.40669984280427,1.0935581742645972,16.795800472229757,-13.912953592995411,97.71680989511259,-0.24147376086469033,2.189608597187759,-129.66526743000585,-2.5,-0.38257630375142493,-0.02991372954089999,0.39396516507846246,10.51547513944727,-79.79871908686835,172.18471477303396,1.875554037457867,-2.521014298575622
GUIDED_NOGPS,1.6789307594299316,33.398660646743586,29.915706358625698,-52.52067000356152,169.60752200309233,1.0336971286743306,16.600340138490576,-13.75104225348641,97.53628127784694,-0.21061159112062738,2.2448422025715367,-129.69133143187864,-2.5,-0.7024996139413657,-0.24166544661362943,0.3918931389121319,10.51547513944727,-79.79871908686835,172.18471477303396,1.875554037457867,-2.177239621497128
GUIDED_NOGPS,1.712724208831787,29.59946930883121,8.285479592932358,-58.33169478657935,172.8269917771625,0.9370731901880247,16.400558911986806,-13.585551663282365,97.34956535833385,-0.3432023315585958,1.8045929681082562,-129.84723732987334,-2.5,-2.5,0.31805243123394433,0.386783860371757,-46.5390562638893,-46.91151182507585,181.42028417228883,-0.8107748311984274,-3.2658594322456924
GUIDED_NOGPS,1.7524325847625732,25.18995597782676,-13.65239803649202,-66.15085543939892,175.61987222532701,0.8250337524668916,16.19657524337961,-13.416579942062334,97.15662037503284,-0.7843800982230279,1.1469535399588675,-129.97018073493356,-2.5,-2.5,0.41194392986355277,0.38230512222455876,-53.26935933691275,-44.4466081113137,180.12493263524428,-1.7476726607148625,-2.9220847551671985
GUIDED_NOGPS,1.7850518226623535,30.666393706314157,-26.40936493176402,-59.080433244287995,177.2079157977691,0.7022968116496829,15.988512729702776,-13.244229472549794,96.95740761749802,-1.2780374632926943,0.7893483137922718,-130.04614609888245,-1.026140028324078,-2.5,0.9753450715967735,0.3796242377295934,-53.26935933691275,-44.4466081113137,180.12493263524428,-1.7476726607148625,-2.6929016371148693
GUIDED_NOGPS,1.8258404731750488,24.521927234671985,-39.16633182703602,-52.010011049177066,178.79595937021116,0.5933830456373278,15.77649991254417,-13.068606733334416,96.75189139601889,-1.9476980243813053,0.2628248254884444,-130.16600225843783,-0.9119072921758525,-2.5,0.4750372038737549,0.3769338980387116,-53.26935933691275,-44.4466081113137,180.12493263524428,-1.7476726607148625,-2.979380534680281
GUIDED_NOGPS,1.8495666980743408,42.165250872095946,-51.923298722308026,-44.939588854066145,180.38400294265324,0.4656738064814524,15.560670076227193,-12.889822131693858,96.54003901126123,-2.2662501498644723,-0.16044733346253484,-130.2230479983858,-0.14102316181986962,-2.5,2.107951911795273,0.374234054102912,-53.26935933691275,-44.4466081113137,180.12493263524428,-1.7476726607148625,-3.724225668350351
GUIDED_NOGPS,1.8844540119171143,28.67057207111755,-53.26935933691273,-44.446608111313715,180.12493263524433,0.37968840823386657,15.341161045992273,-12.707989836415559,96.32182072390786,-2.6365196139693294,-1.0701186075512783,-130.32276876026796,-1.2711258344161158,-2.5,0.533622856310255,0.37429533213299526,-53.26935933691275,-44.4466081113137,180.12493263524428,-1.7476726607148625,-3.0939720937064457
GUIDED_NOGPS,1.9168624877929688,30.86634384704826,-53.26935933691273,-44.44660811131371,180.12493263524433,0.2773182801100294,15.118114986178302,-12.523227610618513,96.09720972429962,-2.613274772676484,-1.7351073192476008,-130.3658126124174,-1.339356738336805,-2.5,0.9964277712526338,0.3739584156335829,-53.26935933691275,-44.4466081113137,180.12493263524428,-1.7476726607148625,-1.948056503444799
GUIDED_NOGPS,1.9487781524658203,31.340068145137188,-53.26935933691273,-44.44660811131371,180.12493263524433,0.2146041612469842,14.891678198404133,-12.335656644575074,95.86618210207612,-2.3971323691743724,-2.151415673452929,-130.38512838739018,-1.349195786554252,-2.5,0.3779039474346858,0.37361187420024766,-53.26935933691275,-44.4466081113137,180.12493263524428,-1.7476726607148625,-0.5729577951308232
GUIDED_NOGPS,1.9864225387573242,26.568592549424515,-53.26935933691273,-44.44660811131371,180.12493263524433,0.18027521751869707,14.66200091975001,-12.145401388532726,95.62871681581663,-2.0228508092623674,-2.612019085086259,-130.3686539711121,-1.3551445161069828,-2.5,-0.19164621260733838,0.3732556762708584,-53.26935933691275,-44.4466081113137,180.12493263524428,-1.7476726607148625,0.2291831180523293
GUIDED_NOGPS,2.018275022506714,31.4161248764119,-53.26935933691273,-44.44660811131371,180.12493263524433,0.1499248948745559,14.429237120939069,-11.952589385535884,95.38479566268094,-1.6861471358947742,-2.9533654728204626,-130.396288916494,-1.3687065524150448,-2.5,-0.1406393246149913,0.3728897945411549,-53.26935933691275,-44.4466081113137,180.12493263524428,-1.7476726607148625,0.0
GUIDED_NOGPS,2.0484204292297363,33.182522290171754,-53.26935933691273,-44.44660811131371,180.12493263524433,0.12398436101788696,14.193544304518785,-11.757351104247675,95.13440324805016,-1.5322555033749823,-3.064001303883152,-130.39440378428307,-1.3796631983144079,-2.5,-0.17573157457541855,0.37251420591920875,-53.26935933691275,-44.4466081113137,180.12493263524428,-1.7476726607148625,-0.40107045659157625
GUIDED_NOGPS,2.0858306884765625,26.735576647267674,-53.26935933691273,-44.44660811131371,180.12493263524433,0.10183853251816662,13.955083303042432,-11.559819771771725,94.87752695516765,-1.4312701960009917,-3.0099292575451,-130.39773691659803,-1.3846439582538386,-2.5,-0.3085159262487869,0.372128891479885,-53.26935933691275,-44.4466081113137,180.12493263524428,-1.7476726607148625,-0.2291831180523293
GUIDED_NOGPS,2.1177115440368652,31.37570317175344,-53.26935933691273,-44.44660811131371,180.12493263524433,0.0856900882422307,13.714018077250573,-11.36013120647396,94.61415691477978,-1.3256011931253706,-3.184990634510523,-130.4106596345077,-1.3981349829888445,-2.5,-0.3466910066771856,0.37173383641930313,-53.26935933691275,-44.4466081113137,180.12493263524428,-1.7476726607148625,0.17188733853924698
GUIDED_NOGPS,2.155836582183838,26.231942611621523,-53.26935933691273,-44.44660811131371,180.12493263524433,0.09059044515620766,13.470515514252503,-11.15842365080437,94.34428597477687,-1.4105783513538497,-2.9596456183188775,-130.36213797064391,-1.4042223684845607,-2.5,-0.708260363569424,0.3713290300092988,-53.26935933691275,-44.4466081113137,180.12493263524428,-1.7476726607148625,1.1459155902616465
GUIDED_NOGPS,2.1929619312286377,26.94407934886649,-53.26935933691273,-44.44660811131371,180.12493263524433,0.12030775629425064,13.224745225707727,-10.954837604118824,94.06790966983395,-1.4675746791520192,-2.8712104633796685,-130.32047381670685,-1.4154884056665398,-2.5,-1.120219874619842,0.37091446555188445,-53.26935933691275,-44.4466081113137,180.12493263524428,-1.7476726607148625,2.0053522829578814
GUIDED_NOGPS,2.2219176292419434,34.548033441785755,-45.19112012655076,-54.75517992675515,193.99121700961814,0.52846527653836,12.976879346007427,-10.749515655500826,93.7850261910517,-1.5524234511684432,-2.7585296309907945,-130.26215766157327,-2.5,-1.335381701141865,-8.971057536026349,0.34969071377215033,-12.878163285102941,-95.98946718852092,249.45635450711316,49.09446789192788,2.46371851906254
GUIDED_NOGPS,2.257049798965454,28.467804662843182,-19.159157059178217,-51.3427077827635,210.47805546229242,0.9088787933793339,12.727092330455918,-10.542602316583338,93.49563635559721,-1.5670948042273363,-2.844769306998668,-130.19243509052578,-1.3770957909800396,2.049005917398835,-7.688656602580732,0.3245263713399572,76.89045599994996,-27.384247391355462,262.5591248986156,46.18757355875149,2.46371851906254
GUIDED_NOGPS,2.296614408493042,25.283493378182058,6.872806008194327,-47.930235638771855,226.9648939149667,1.301840899002536,12.475560753452124,-10.334243854370543,93.19974357634493,-1.6403595754114186,-2.681793095995936,-130.0871135735242,-1.3115843860540728,2.5,-7.693104781548927,0.29935227449206736,76.89045599994996,-27.384247391355462,262.5591248986156,46.18757355875149,2.5783100780887045
GUIDED_NOGPS,2.332099676132202,28.184685683566844,32.90476907556687,-44.517763494780205,243.451732367641,1.7189392229584035,12.222463106671036,-10.124588124059636,92.89735383151742,-1.7249647017735434,-2.4320873563557934,-129.98358156608515,-1.155109608499465,2.5,-9.393217408035543,0.27416843219581466,76.89045599994996,-27.384247391355462,262.5591248986156,46.18757355875149,3.495042550298022
GUIDED_NOGPS,2.3746259212493896,23.519109994616905,58.93673214293941,-41.10529135078856,259.93857082031525,2.1524998980667376,11.967979597245197,-9.913784401862632,92.58847563432627,-1.642646621566315,-1.7380873094381362,-129.82106404497387,-1.1126067569276166,2.5,-8.836150136475982,0.24897485722101653,76.89045599994996,-27.384247391355462,262.5591248986156,46.18757355875149,4.755549699585833
GUIDED_NOGPS,2.409330129623413,28.82564292881393,76.89045599994998,-27.384247391355473,262.5591248986158,2.624877974267003,11.71229194594614,-9.701983217828111,92.27312000261291,-1.6201676152341569,-1.2388238531637703,-129.75468826661967,0.9229285360671676,2.5,-10.0,0.24457099265599574,76.89045599994996,-27.384247391355462,262.5591248986156,46.18757355875149,4.870141258611998
GUIDED_NOGPS,2.4429526329040527,29.748735734905065,76.89045599994998,-27.384247391355473,262.5591248986158,3.064073268799996,11.45558318536587,-9.489336188663055,91.9513004284895,-1.429459875705821,-0.07209798277477365,-129.5556565542055,-0.8816134336427053,2.5,-10.0,0.2440882632948106,76.89045599994996,-27.384247391355462,262.5591248986156,46.18757355875149,4.411775022507339
GUIDED_NOGPS,2.4688034057617188,38.68962908983571,76.89045599994998,-27.384247391355473,262.5591248986158,3.4860090791494507,11.198037458098328,-9.275995850554606,91.62303284797976,-1.2668775745191283,0.4353622341121365,-129.50143851257394,-0.9008711193915088,2.5,-10.0,0.24359586192404592,76.89045599994996,-27.384247391355462,262.5591248986156,46.18757355875149,3.896113006889598
GUIDED_NOGPS,2.5031673908233643,29.109928167401186,76.89045599994998,-27.384247391355473,262.5591248986158,3.86961705177801,10.939839814920866,-9.062115491991863,91.28833561065977,-1.0123424642489636,1.5215640161680908,-129.3611874081569,-0.9024450218780202,2.5,-10.0,0.24309381606806596,76.89045599994996,-27.384247391355462,262.5591248986156,46.18757355875149,3.9534087864026803
GUIDED_NOGPS,2.5343270301818848,32.09844646820234,76.89045599994998,-27.384247391355473,262.5591248986158,4.2599740463539195,10.6811760129757,-8.847848986587662,90.94722944929893,-0.8270116310621617,2.1552036536779355,-129.29098672386752,-0.9161843968458934,2.5,-10.0,0.24258215682602474,76.89045599994996,-27.384247391355462,262.5591248986156,46.18757355875149,2.521014298575622
GUIDED_NOGPS,2.563366651535034,34.4473061760841,76.89045599994998,-27.384247391355473,262.5591248986158,4.612539647328943,10.422232313951366,-8.633350625900373,90.59973744950071,-0.6437321491430378,2.4576670551277258,-129.2490766831203,-0.9293752750158341,2.5,-10.0,0.2420609188263274,76.89045599994996,-27.384247391355462,262.5591248986156,46.18757355875149,1.948056503444799
GUIDED_NOGPS,2.597050189971924,29.699023557818265,76.89045599994998,-27.384247391355473,262.5591248986158,4.940242154353513,10.163195282264237,-8.418774952255692,90.24588501934355,-0.615126036238555,3.105922443687752,-129.19301449041285,-0.9354090314851333,2.5,-10.0,0.24153014018109165,76.89045599994996,-27.384247391355462,262.5591248986156,46.18757355875149,1.5469860468532228
GUIDED_NOGPS,2.6292831897735596,31.035354357509657,76.89045599994998,-27.384247391355473,262.5591248986158,5.257459338124596,9.904251583239908,-8.204276591568405,89.88569985902168,-0.5523455520695895,3.0396213705276147,-129.18786452777866,-0.9475532347026152,2.5,-10.0,0.24098986244060888,76.89045599994996,-27.384247391355462,262.5591248986156,46.18757355875149,0.8594366926962349
GUIDED_NOGPS,2.663134813308716,29.54775625220148,76.89045599994998,-27.384247391355473,262.5591248986158,5.550483663076341,9.645587781294736,-7.990010086164197,89.51921193048602,-0.5915921925664529,3.4227757730582895,-129.16439599779048,-0.9569248057658204,2.5,-10.0,0.2404401305478054,76.89045599994996,-27.384247391355462,262.5591248986156,46.18757355875149,0.34377467707849396
GUIDED_NOGPS,2.6992406845092773,27.704192977357394,76.89045599994998,-27.384247391355473,262.5591248986158,5.837487041961435,9.387390138117276,-7.776129727601457,89.146453427085,-0.5790362771595596,3.376496972563222,-129.16103554471886,-0.9660260376716019,2.5,-10.0,0.23988099279270386,76.89045599994996,-27.384247391355462,262.5591248986156,46.18757355875149,0.5729577951308232
GUIDED_NOGPS,2.729874849319458,32.65244097062739,76.89045599994998,-27.384247391355473,262.5591248986158,6.106261391420327,9.129844410849731,-7.562789389493005,88.76745874320537,-0.5250927771161212,2.9497984065264236,-129.18932618826105,-0.9815517336431571,2.5,-10.0,0.23931250076688437,76.89045599994996,-27.384247391355462,262.5591248986156,46.18757355875149,-0.2291831180523293
GUIDED_NOGPS,2.7712717056274414,24.16226834649661,76.89045599994998,-27.384247391355473,262.5591248986158,6.338762739660063,8.873135650269457,-7.3501423603279505,88.38226444391312,-0.5295075872800353,3.0346528347932535,-129.22100460563155,-0.9843050036331953,2.5,-10.0,0.23873470931794605,76.89045599994996,-27.384247391355462,262.5591248986156,46.18757355875149,-1.5469860468532228
GUIDED_NOGPS,2.806032419204712,28.77008238045916,76.89045599994998,-27.384247391355473,262.5591248986158,6.5344862191970305,8.617447998970405,-7.138341176293437,87.99090923459428,-0.37580277110621374,2.5557097249082044,-129.32500106593417,-0.9994329863324238,2.5,-10.0,0.23814767650396773,76.89045599994996,-27.384247391355462,262.5591248986156,46.18757355875149,-2.635605857601787
GUIDED_NOGPS,2.8423244953155518,27.562734519264257,76.89045599994998,-27.384247391355473,262.5591248986158,6.707285130657196,8.362964489544563,-6.927537454096424,87.59343393059584,-0.23513721294476966,2.3680622302931518,-129.44941979185512,-1.0092132462311985,2.5,-9.901656338512927,0.23755146354797008,76.89045599994996,-27.384247391355462,262.5591248986156,46.18757355875149,-2.864788975654116
GUIDED_NOGPS,2.8773069381713867,28.593953028598698,76.89045599994998,-27.384247391355473,262.5591248986158,6.843481985665062,8.109866842763477,-6.717881723785517,87.18988142686646,-0.14347588752021342,2.543937040100041,-129.55064319535472,-1.0207729252416513,2.5,-9.49599326461565,0.23694613479237603,76.89045599994996,-27.384247391355462,262.5591248986156,46.18757355875149,-4.18259190445501
GUIDED_NOGPS,2.919140577316284,23.90938577739775,76.89045599994998,-27.384247391355473,262.5591248986158,6.955645908800378,7.858335265759688,-6.509523261572728,86.7802966675975,0.018659903389702942,2.4631875555243887,-129.73493535954,-1.0271976148219466,2.5,-8.87594537114742,0.23633175765347259,76.89045599994996,-27.384247391355462,262.5591248986156,46.18757355875149,-4.640958140559668
GUIDED_NOGPS,2.9416794776916504,44.37336944447383,76.89045599994998,-27.384247391355473,262.5591248986158,7.021421908481324,7.608548250208173,-6.302609922655233,86.36472661586372,0.1644816940855513,2.2955098264951608,-129.88741250257135,-1.0564504307427542,2.5,-9.092962456337718,0.23570840257587194,76.89045599994996,-27.384247391355462,262.5591248986156,46.18757355875149,-5.042028597151244
GUIDED_NOGPS,2.9694535732269287,36.019923740166945,76.89045599994998,-27.384247391355473,262.5591248986158,7.116824017454654,7.360682370507874,-6.097287974037236,85.94322022326423,0.23435766424488907,2.593495185170361,-130.10734459384577,-1.0594075591952752,2.5,-9.563091750452303,0.23507614298697266,76.89045599994996,-27.384247391355462,262.5591248986156,46.18757355875149,-7.505747116213785
GUIDED_NOGPS,3.0011916160583496,31.547268583634818,76.89045599994998,-27.384247391355473,262.5591248986158,7.163994827360908,7.114912081963091,-5.893701927351689,85.51582839956329,0.3431804536089106,2.355736727049041,-130.38425412317642,-1.0656716828043857,2.5,-8.401301575092484,0.23443505525142128,76.89045599994996,-27.384247391355462,262.5591248986156,46.18757355875149,-8.307888029396937
GUIDED_NOGPS,3.0283219814300537,36.86295602956557,76.89045599994998,-27.384247391355473,262.5591248986158,7.151879831702081,6.871409518965024,-5.6919943716820995,85.08260398233114,0.36438840442521175,2.6190153332304678,-130.75696388580567,-1.079863374052324,2.5,-7.187402137950332,0.23378521862557305,76.89045599994996,-27.384247391355462,262.5591248986156,46.18757355875149,-9.625690958197831
GUIDED_NOGPS,3.0586819648742676,32.94637372650365,76.89045599994998,-27.384247391355473,262.5591248986158,7.122602237564809,6.63034429317317,-5.492305806384344,84.64360170658492,0.3583067079386972,2.4572640739666953,-131.08012745619567,-1.0868266859834912,2.5,-6.86135304573627,0.23312671521195372,76.89045599994996,-27.384247391355462,262.5591248986156,46.18757355875149,-11.516451682129548
GUIDED_NOGPS,3.0894546508789062,32.50264636367159,76.89045599994998,-27.384247391355473,262.5591248986158,7.030153995822546,6.391883291696814,-5.29477447390839,84.19887817442948,0.3615955507457641,2.7886546072119587,-131.43434106655252,-1.0964190044467856,2.5,-5.522521415857268,0.23245962991372054,76.89045599994996,-27.384247391355462,262.5591248986156,46.18757355875149,-12.719663051904275
GUIDED_NOGPS,3.1245086193084717,28.535786208022643,76.89045599994998,-27.384247391355473,262.5591248986158,6.909631343777317,6.1561904752765315,-5.099536192620167,83.7484918246982,0.3337807259287979,2.874408486015115,-131.8938488731543,-1.1030450404626002,2.5,-5.1658990584541575,0.23178405038912364,76.89045599994996,-27.384247391355462,262.5591248986156,46.18757355875149,-13.006141949469688
GUIDED_NOGPS,3.1530840396881104,35.00036716846357,76.89045599994998,-27.384247391355473,262.5591248986158,6.720761984837854,5.9234266764655885,-4.906724189623336,83.29250290259391,0.37371742897524424,2.716879137432057,-132.1700890439463,-1.1184380798616083,2.5,-3.029054518173271,0.2311000670059672,76.89045599994996,-27.384247391355462,262.5591248986156,46.18757355875149,-13.407212406061264
GUIDED_NOGPS,3.1991126537323,21.730568767032445,76.89045599994998,-27.384247391355473,262.5591248986158,6.579209329887624,5.693749397811459,-4.7164689335809875,82.83097342932967,0.2893247855293303,2.736300780336988,-132.97312804504304,-1.117169199838323,2.5,-5.164209840163728,0.23040777279607083,76.89045599994996,-27.384247391355462,262.5591248986156,46.18757355875149,-14.55312799632291
GUIDED_NOGPS,3.2268052101135254,36.12478252631216,76.89045599994998,-27.384247391355473,262.5591248986158,6.185881780846016,5.46731261003729,-4.528897967537546,82.36396717176969,0.17754213635652638,3.0179432038756406,-133.41939894503332,-1.1390560029359664,2.5,2.2152273444955846,0.22970726340973086,76.89045599994996,-27.384247391355462,262.5591248986156,46.18757355875149,-15.641747807071475
STABILIZE,3.2578418254852295,32.23437007662217,76.89045599994998,-27.384247391355473,262.5591248986158,5.991924244149121,5.2442665502233226,-4.344135741740498,81.8915496120701,0.11466416190932947,3.1348073136877357,-133.94761845468545,-1.1452103085065544,2.5,-2.687211432308846,0.22899863707018148,76.89045599994996,-27.384247391355462,262.5591248986156,46.18757355875149,-17.131438074411616
STABILIZE,3.2819061279296875,41.55862273965816,76.89045599994998,-27.384247391355473,262.5591248986158,5.730448908107526,5.024757519988405,-4.162303446462197,81.41378791731984,0.056729790337980514,3.197496497437405,-134.15076194097995,-1.1619561454204979,2.5,0.4194968138094657,0.2282819945280561,76.89045599994996,-27.384247391355462,262.5591248986156,46.18757355875149,-17.47521275149011
STABILIZE,3.3112070560455322,34.140557084018425,76.89045599994998,-27.384247391355473,262.5591248986158,5.563620417855342,4.808927683671428,-3.9835188448216456,80.93075090918157,-0.04064531516251534,2.9583113835531982,-134.89773874936924,-1.1653211386010092,2.5,-2.675990959089522,0.22755743901584868,76.89045599994996,-27.384247391355462,262.5591248986156,46.18757355875149,-17.933578987594768
STABILIZE,3.3394668102264404,35.39676270528466,76.89045599994998,-27.384247391355473,262.5591248986158,5.312883968445897,4.596914866512826,-3.807896105606268,80.44250903353242,-0.13633088265835863,3.074052354133649,-135.42302127767823,-1.1750590710993976,2.5,-0.490460754863002,0.22682507620237496,76.89045599994996,-27.384247391355462,262.5591248986156,46.18757355875149,-18.105466326134014
STABILIZE,3.36836576461792,34.61446538804344,76.89045599994998,-27.384247391355473,262.5591248986158,5.073984522725,4.388852352835997,-3.635545636093731,79.9491343301049,-0.09124908615554894,2.7171433803755716,-135.89370327376216,-1.1841462865071914,2.5,-0.5108511511589997,0.2260850141472337,76.89045599994996,-27.384247391355462,262.5591248986156,46.18757355875149,-17.704395869542438
STABILIZE,3.407963275909424,25.261565332610594,76.89045599994998,-27.384247391355473,262.5591248986158,4.843869564206482,4.184868684228796,-3.466573914873706,79.45070040212772,-0.012837227153226573,2.4378347470989477,-136.63570770443565,-1.185002928026196,2.5,-2.0679840875316153,0.22533736325526793,76.89045599994996,-27.384247391355462,262.5591248986156,46.18757355875149,-18.563832562238673
STABILIZE,3.4310362339019775,43.34391534391534,76.89045599994998,-27.384247391355473,262.5591248986158,4.398423515842823,3.9850874577250224,-3.3010833246696407,78.94728238596664,0.02408583501483016,2.0949400408572667,-136.9122347431728,-1.2064867426649324,2.5,6.597302778099743,0.2245822362310263,76.89045599994996,-27.384247391355462,262.5591248986156,46.18757355875149,-18.44924100321251
STABILIZE,3.469111204147339,26.272527968129488,76.89045599994998,-27.384247391355473,262.5591248986158,4.213708383455859,3.789627123985845,-3.139171985160644,78.43895692076539,0.1707098661132509,1.2750927979867726,-137.8402115645674,-1.2033900772749657,2.5,-2.1034922261289686,0.22381974803322446,76.89045599994996,-27.384247391355462,262.5591248986156,46.18757355875149,-18.73571990077792
STABILIZE,3.492588520050049,42.607720438845995,76.89045599994998,-27.384247391355473,262.5591248986158,3.7915874694465916,3.598600785481274,-2.980933585803129,77.9258021180864,0.18674250789023936,1.0863750981061435,-138.14567128462872,-1.2230778436335628,2.5,6.531075917076553,0.22305001582920592,76.89045599994996,-27.384247391355462,262.5591248986156,46.18757355875149,-18.563832562238673
STABILIZE,3.5258026123046875,30.116565782765726,76.89045599994998,-27.384247391355473,262.5591248986158,3.6113198933436825,3.412115994671666,-2.826457218652699,77.40789753155175,0.22678789365381088,0.627964817526622,-138.72981638320488,-1.2224881898975584,2.5,-1.2542702637864234,0.22227315894940397,76.89045599994996,-27.384247391355462,262.5591248986156,46.18757355875149,-19.251381916395662
STABILIZE,3.547996997833252,45.108288611896796,76.89045599994998,-27.384247391355473,262.5591248986158,3.279033043014477,3.2302745521891225,-2.67582721118589,76.885324126484,0.30462291516627793,0.280325264245898,-139.0878685598753,-1.2412029912754754,2.5,5.314099139632318,0.2214892988418023,76.89045599994996,-27.384247391355462,262.5591248986156,46.18757355875149,-19.079494577856416
STABILIZE,3.578275680541992,33.03980401269821,76.89045599994998,-27.384247391355473,262.5591248986158,3.139048919004285,3.0531723050190394,-2.5291229591220272,76.35816424954697,0.26295790745555386,-0.10508182005041149,-139.77408400540813,-1.2397830545471553,2.5,-1.4084747092106569,0.2206985590263968,76.89045599994996,-27.384247391355462,262.5591248986156,46.18757355875149,-18.73571990077792
STABILIZE,3.6131670475006104,28.668416447944008,76.89045599994998,-27.384247391355473,262.5591248986158,2.8396912179417706,2.8808989446814977,-2.386418759244883,75.8265015983867,0.30276953266282436,-0.3958999624087416,-140.5180555305626,-1.2449575034769933,2.5,1.4207435396417178,0.2199010650496564,76.89045599994996,-27.384247391355462,262.5591248986156,46.18757355875149,-18.04817054662093
STABILIZE,3.6371676921844482,41.694955017645015,76.89045599994998,-27.384247391355473,262.5591248986158,2.4817703288865043,2.7135378054128054,-2.2477836422246327,75.29042119127222,0.29319552843717056,-0.5725423147236114,-140.86485155548084,-1.260908050214932,2.5,5.904148898972207,0.2190969444389847,76.89045599994996,-27.384247391355462,262.5591248986156,46.18757355875149,-17.074142294898532
STABILIZE,3.672044515609741,28.676844818509377,76.89045599994998,-27.384247391355473,262.5591248986158,2.369176944628423,2.5511656623468326,-2.1132812054394847,74.75000933673643,0.22310398043215426,-0.7284057374794214,-141.50541401660132,-1.2596186900788156,2.5,-1.6225467318133462,0.21828632665718095,76.89045599994996,-27.384247391355462,262.5591248986156,46.18757355875149,-15.699043586584557
STABILIZE,3.7033443450927734,31.954897643554247,76.89045599994998,-27.384247391355473,262.5591248986158,2.064251990125867,2.393852529696666,-1.982969445797579,74.20535360321693,0.1352083570765229,-0.6169497501078013,-141.9629820494788,-1.2688482870677353,2.5,2.8148073887227367,0.21746934305690174,76.89045599994996,-27.384247391355462,262.5591248986156,46.18757355875149,-15.068790011940651
STABILIZE,3.738797187805176,28.212933690285606,76.89045599994998,-27.384247391355473,262.5591248986158,1.8561407164974253,2.24166145893593,-1.8569005925587518,73.65654278869691,0.005902430701228168,-0.4798664660834702,-142.5144788438223,-1.2739379214815547,2.5,0.5672456896859095,0.2166461268351217,76.89045599994996,-27.384247391355462,262.5591248986156,46.18757355875149,-14.209353319244416
STABILIZE,3.768657922744751,33.50163342572106,76.89045599994998,-27.384247391355473,262.5591248986158,1.6245404245112058,2.0946483369802493,-1.7351209401561931,73.10366689034599,-0.000323520180969852,-0.4157625794019618,-142.9199325333326,-1.283372303859869,2.5,1.899879835531951,0.2158168129875953,76.89045599994996,-27.384247391355462,262.5591248986156,46.18757355875149,-13.006141949469688
STABILIZE,3.7968475818634033,35.48450520723175,76.89045599994998,-27.384247391355473,262.5591248986158,1.4908606663531696,1.9528616843688624,-1.6176706810185024,72.546817074161,0.15794899167040435,-0.2874051822074394,-143.27966493653884,-1.2910720607764348,2.5,0.12619928807882053,0.21498153826331784,76.89045599994996,-27.384247391355462,262.5591248986156,46.18757355875149,-11.917522138721123
STABILIZE,3.8328144550323486,27.810736261404625,76.89045599994998,-27.384247391355473,262.5591248986158,1.437393461387198,1.8163424534458912,-1.5045837383911902,71.98608564460696,0.8449114224426494,0.03705036115273417,-143.61064224333933,-1.2934705758160483,2.5,-1.928968587995701,0.21414044111898678,76.89045599994996,-27.384247391355462,262.5591248986156,46.18757355875149,-9.224620501606255
STABILIZE,3.8686516284942627,27.907885369050707,76.89045599994998,-27.384247391355473,262.5591248986158,1.3634450995666487,1.6851238265419752,-1.395887599158705,71.42156601425776,2.6021007966377545,0.12479225189118734,-143.83982241074992,-1.2998841071660396,2.5,-1.5028549600512016,0.21329366167346298,76.89045599994996,-27.384247391355462,262.5591248986156,46.18757355875149,-6.187944187412891
STABILIZE,3.905905246734619,26.849044284269418,76.89045599994998,-27.384247391355473,262.5591248986158,1.3733373343261777,1.559231014155607,-1.2916031466660058,70.85335267343724,4.090273725500945,0.014090466814324742,-143.95012996584563,-1.3056817765491067,2.5,-3.0143288641331933,0.21244134166223222,76.89045599994996,-27.384247391355462,262.5591248986156,46.18757355875149,-3.896113006889598
STABILIZE,3.92637300491333,48.87611722892268,76.89045599994998,-27.384247391355473,262.5591248986158,1.45809264801896,1.4386810531347365,-1.1917444935405257,70.28154115985978,5.188587353946036,0.004681240902397489,-144.02008476332492,-1.3214721499708324,2.5,-5.597199744915201,0.211583624391866,76.89045599994996,-27.384247391355462,262.5591248986156,46.18757355875149,-3.323155211758775
STABILIZE,3.952165365219116,38.790892107356235,76.89045599994998,-27.384247391355473,262.5591248986158,1.6279908512906818,1.3234826048580501,-1.096318814513893,69.70622802827134,5.945800054580221,-0.049682796022672754,-144.0546865016602,-1.322088293499021,2.5,-7.3384755475573105,0.2107206546944833,76.89045599994996,-27.384247391355462,262.5591248986156,46.18757355875149,-2.9220847551671985
STABILIZE,3.98360276222229,31.817936308051767,76.89045599994998,-27.384247391355473,262.5591248986158,1.7793200372709266,1.2136357534166464,-1.0053261792436672,69.12751082009025,7.590472040678857,-0.33246287294495563,-144.2078603239869,-1.3244071839121083,2.5,-6.338365132120627,0.2098525788822117,76.89045599994996,-27.384247391355462,262.5591248986156,46.18757355875149,-2.9220847551671985
STABILIZE,4.013231039047241,33.76512638866527,76.89045599994998,-27.384247391355473,262.5591248986158,1.8971554437471143,1.109131803795357,-0.9187593851352176,68.54548803304806,7.9276024941478695,-0.8750917338682614,-144.45290019065027,-1.330400684980855,2.5,-5.923474895513774,0.20897954470164842,76.89045599994996,-27.384247391355462,262.5591248986156,46.18757355875149,-3.6096341093241864
STABILIZE,4.04770302772522,29.01508066078198,76.89045599994998,-27.384247391355473,262.5591248986158,2.0197381703070953,1.0099530800541956,-0.8366037901634797,67.96025909083033,6.995149337525961,-1.167748157608677,-144.6287092598864,-1.3336127580365542,2.5,-5.760372525408365,0.20810170128832184,76.89045599994996,-27.384247391355462,262.5591248986156,46.18757355875149,-3.8388172273765155
STABILIZE,4.075179100036621,36.409837061729036,76.89045599994998,-27.384247391355473,262.5591248986158,2.105922274303332,0.9160727235100339,-0.7588371456946561,67.37192431271762,5.727600270034055,-1.3762277291922687,-144.79637674363187,-1.3413199826984683,2.5,-5.620284141742625,0.20721919912115278,76.89045599994996,-27.384247391355462,262.5591248986156,46.18757355875149,-4.698253920072751
STABILIZE,4.111602306365967,27.46329326104607,76.89045599994998,-27.384247391355473,262.5591248986158,2.2030847753980964,0.8274544909177521,-0.6854294293081722,66.78058488322623,3.8512559512514035,-1.4133574912941043,-145.00513464542414,-1.3426794814683412,2.5,-5.365522088484077,0.20633218997691566,76.89045599994996,-27.384247391355462,262.5591248986156,46.18757355875149,-5.328507494716656
STABILIZE,4.136444568634033,40.264029951041564,76.89045599994998,-27.384247391355473,262.5591248986158,2.2519050902109554,0.744052552652029,-0.6163426776183201,66.18634282174904,3.332406393923497,-1.409886261091857,-145.05791834733,-1.3512445076406483,2.5,-4.982243512332583,0.2054408268846999,76.89045599994996,-27.384247391355462,262.5591248986156,46.18757355875149,-5.213915935690491
STABILIZE,4.164374113082886,35.81171608848968,76.89045599994998,-27.384247391355473,262.5591248986158,2.3576617127119306,0.6658112908884917,-0.5515308190961292,65.58930095219647,1.621404946690987,-1.322383000087531,-145.19793722531526,-1.3539280145758423,2.5,-6.265962711036867,0.20454526408037105,76.89045599994996,-27.384247391355462,262.5591248986156,46.18757355875149,-4.92743703812508
STABILIZE,4.209916591644287,21.96557195900476,76.89045599994998,-27.384247391355473,262.5591248986158,2.486612507656456,0.5926650977855061,-0.49093950689112376,64.98956287263715,-0.22119512932212082,-1.0676486403926726,-145.3449775377673,-1.354568403568854,2.5,-5.8029474577568045,0.20364565696103204,76.89045599994996,-27.384247391355462,262.5591248986156,46.18757355875149,-2.46371851906254
STABILIZE,4.221010446548462,90.2272512154197,76.89045599994998,-27.384247391355473,262.5591248986158,2.6174038500776518,0.5245381736653556,-0.43450595165303696,64.38723292493904,-0.5145753530113594,-1.0022715637611914,-145.3564795763296,-1.3754714952263978,2.5,-10.0,0.20274216203948486,76.89045599994996,-27.384247391355462,262.5591248986156,46.18757355875149,-1.3750987083139758
STABILIZE,4.254851341247559,29.56004256788662,76.89045599994998,-27.384247391355473,262.5591248986158,2.855317211279149,0.4613443251958458,-0.38215875435375324,63.78241616440995,-1.4395998251372337,-0.7057761468204056,-145.32948666872971,-1.3639403818222526,2.5,-8.878765761669682,0.20183493689869125,76.89045599994996,-27.384247391355462,262.5591248986156,46.18757355875149,0.9167324722093172
STABILIZE,4.281634330749512,37.354755394850514,76.89045599994998,-27.384247391355473,262.5591248986158,3.0773751608656648,0.4029867635717963,-0.33381773910900847,63.175218329438685,-1.6905348921062726,-0.3037007329066204,-145.28618326939184,-1.369399332224223,2.5,-10.0,0.20092414014623433,76.89045599994996,-27.384247391355462,262.5591248986156,46.18757355875149,2.5783100780887045
STABILIZE,4.3083107471466064,37.492996272425785,76.89045599994998,-27.384247391355473,262.5591248986158,3.3471619395255647,0.3493579026964184,-0.289393786000133,62.56574581113573,-1.6928683622031842,0.17170156422401178,-145.19702197996648,-1.3722536938918406,2.5,-10.0,0.20000993136877993,76.89045599994996,-27.384247391355462,262.5591248986156,46.18757355875149,3.8388172273765155
STABILIZE,4.339608669281006,31.96756221180595,76.89045599994998,-27.384247391355473,262.5591248986158,3.6447937408245794,0.30033915736290595,-0.2487886638959793,61.954105622974105,-1.4088567167961832,0.6843811128538695,-145.0837228020143,-1.374588619108575,2.5,-10.0,0.1990924710865375,76.89045599994996,-27.384247391355462,262.5591248986156,46.18757355875149,4.698253920072751
STABILIZE,4.367823600769043,35.454510105578144,76.89045599994998,-27.384247391355473,262.5591248986158,3.983760144476205,0.25580074143574194,-0.211894863274523,61.34040537043032,-0.9700186634484508,1.1413017718640934,-144.92690165867083,-1.3783204665891429,2.5,-10.0,0.19817192070772183,76.89045599994996,-27.384247391355462,262.5591248986156,46.18757355875149,5.958761069360562
STABILIZE,4.393980026245117,38.2437245265471,76.89045599994998,-27.384247391355473,262.5591248986158,4.3272913889382325,0.21560146603221853,-0.1785954290447478,60.724753220625075,-0.7095324840596481,1.291376395854906,-144.8148455751476,-1.381330274847809,2.5,-10.0,0.19724844248301393,76.89045599994996,-27.384247391355462,262.5591248986156,46.18757355875149,6.245239966925974
STABILIZE,4.420078754425049,38.32374547713899,76.89045599994998,-27.384247391355473,262.5591248986158,4.678055269486244,0.17958853770408467,-0.14876379336860168,60.107257871964265,-0.622004943867257,1.3979145403024114,-144.80141742323934,-1.3840152155636336,2.5,-10.0,0.19632219946002272,76.89045599994996,-27.384247391355462,262.5591248986156,46.18757355875149,6.474423084978302
STABILIZE,4.455752611160278,28.03885312422705,76.89045599994998,-27.384247391355473,262.5591248986158,5.049227886892887,0.14759735661873918,-0.12226360848241313,59.48802852377971,0.23390110878755604,2.0326184066623085,-144.39070448806814,-1.3855470719538472,2.5,-10.0,0.19539335543774589,76.89045599994996,-27.384247391355462,262.5591248986156,46.18757355875149,7.7349302342661135
STABILIZE,4.482095003128052,37.97640454524877,76.89045599994998,-27.384247391355473,262.5591248986158,5.48059091758703,0.11945131474075055,-0.09894857951894664,58.86717484597007,0.6621688574253121,2.439709207139293,-144.12591171432507,-1.3891492663368483,2.5,-10.0,0.1944620749210314,76.89045599994996,-27.384247391355462,262.5591248986156,46.18757355875149,8.13600069085769
STABILIZE,4.504582166671753,44.49340179063945,76.89045599994998,-27.384247391355473,262.5591248986158,5.868513158770049,0.09496159401361837,-0.07866229732918839,58.24480694864165,0.7054476574100103,2.5800986228870277,-144.0055364603928,-1.391898921352818,2.5,-10.0,0.19352852307503882,76.89045599994996,-27.384247391355462,262.5591248986156,46.18757355875149,8.193296470370772
STABILIZE,4.534866094589233,33.03121751456922,76.89045599994998,-27.384247391355473,262.5591248986158,6.244391865204053,0.07392696454069636,-0.06123807130398973,57.62103535174937,0.8914103898167443,2.9308134688415497,-143.62480805567793,-1.393133597602229,2.5,-10.0,0.19259286567970035,76.89045599994996,-27.384247391355462,262.5591248986156,46.18757355875149,9.396507840145501
STABILIZE,4.563412189483643,35.04042640289393,76.89045599994998,-27.384247391355473,262.5591248986158,6.69114048650793,0.056133582767294854,-0.046498762196023335,56.995970954737345,1.0207564035327732,3.0200204351569706,-143.33257158184975,-1.3954695006101718,2.5,-10.0,0.19165526908418234,76.89045599994996,-27.384247391355462,262.5591248986156,46.18757355875149,9.625690958197831
STABILIZE,4.5948121547698975,31.857328401400586,76.89045599994998,-27.384247391355473,262.5591248986158,7.154895315338517,0.04135478966156114,-0.03425661494136989,56.36972500618013,1.2135548212773675,3.0413067197053154,-143.0120034833444,-1.3974671713767985,2.5,-10.0,0.19071590016134654,76.89045599994996,-27.384247391355462,262.5591248986156,46.18757355875149,11.287268564077218
STABILIZE,4.621072053909302,38.096096205199004,76.89045599994998,-27.384247391355473,262.5591248986158,7.643983325075542,0.02935090889635461,-0.024313091481559468,55.74240907342316,1.4082740162826166,3.081870359412375,-142.74182852053536,-1.3997359629272772,2.5,-10.0,0.1897749262622111,76.89045599994996,-27.384247391355462,262.5591248986156,46.18757355875149,10.771606548459477
STABILIZE,4.65041971206665,34.084791353459835,76.89045599994998,-27.384247391355473,262.5591248986158,8.092256766161908,0.019869045030525,-0.016458703585101375,55.114135012223954,1.4415179343552438,3.112937474852178,-142.47916676581335,-1.4015343672798155,2.5,-10.0,0.18883251517041227,76.89045599994996,-27.384247391355462,262.5591248986156,46.18757355875149,11.229972784564136
STABILIZE,4.677510976791382,36.91616571463778,76.89045599994998,-27.384247391355473,262.5591248986158,8.593507761248794,0.012642881690446472,-0.010472845669482922,54.48501493639264,1.5535485113907912,2.928346916777529,-142.13078613700768,-1.4034827014240783,2.5,-10.0,0.18788883505666532,76.89045599994996,-27.384247391355462,262.5591248986156,46.18757355875149,12.3185925953127
STABILIZE,4.708939790725708,31.829284765699107,76.89045599994998,-27.384247391355473,262.5591248986158,9.100844128509143,0.007392479751409553,-0.006123627622798722,53.855161187433126,1.786772470955164,2.552673705822134,-141.73908844848577,-1.4053247680621201,2.5,-10.0,0.18694405443322598,76.89045599994996,-27.384247391355462,262.5591248986156,46.18757355875149,14.03746598070517
STABILIZE,4.734891653060913,38.545274089050224,76.89045599994998,-27.384247391355473,262.5591248986158,9.601611410876078,0.0038240755192120446,-0.003167707625635785,53.22468630418365,1.099573478181841,1.7012031139813037,-141.55326632192643,-1.4071962002261602,2.5,-10.0,0.1859983421083518,76.89045599994996,-27.384247391355462,262.5591248986156,46.18757355875149,11.287268564077218
STABILIZE,4.761633396148682,37.4023898698056,76.89045599994998,-27.384247391355473,262.5591248986158,10.028570591404455,0.001629878911352023,-0.0013501249728165021,52.59370299245792,0.0914636234645961,0.6296258341554045,-141.23409158201173,-1.4089519625254767,2.5,-10.0,0.18505186714076316,76.89045599994996,-27.384247391355462,262.5591248986156,46.18757355875149,9.625690958197831
STABILIZE,4.79157018661499,33.4516684744465,76.89045599994998,-27.384247391355473,262.5591248986158,10.52631493904224,0.00048787163890295915,-0.0004041328951700507,51.96232409468571,0.06668982031365905,0.29103500086447803,-140.88964514216798,-1.410797480837852,2.5,-10.0,0.18410479879410485,76.89045599994996,-27.384247391355462,262.5591248986156,46.18757355875149,14.495832216809829
STABILIZE,4.822552919387817,32.27182075587837,76.89045599994998,-27.384247391355473,262.5591248986158,11.141535067842536,6.16053877351419e-05,-5.103138147433128e-05,51.33066255955387,1.0792818399313795,0.21511808857002096,-140.25421898330336,-1.4127471218500072,2.5,-10.0,0.18315730649140716,76.89045599994996,-27.384247391355462,262.5591248986156,46.18757355875149,19.251381916395662
STABILIZE,4.85401177406311,31.835082845671,76.89045599994998,-27.384247391355473,262.5591248986158,11.75656556851545,-7.105427357601002e-15,0.0,50.69883141164705,1.915302437147935,0.14942981144448114,-139.77296385438424,-1.414727100026737,2.5,-10.0,0.18220955976954695,76.89045599994996,-27.384247391355462,262.5591248986156,46.18757355875149,16.443888720254627
STABILIZE,4.878533601760864,40.75740702951151,76.89045599994998,-27.384247391355473,262.5591248986158,12.380125746075963,0.0,0.0,50.066943721088776,2.167242929307141,0.14123571887458147,-139.3620323531596,-1.416550675956163,2.5,-10.0,0.18126172823370945,76.89045599994996,-27.384247391355462,262.5591248986156,46.18757355875149,16.100114043176134
STABILIZE,4.909241676330566,32.57433539658748,76.89045599994998,-27.384247391355473,262.5591248986158,12.875879105757539,0.0,0.0,49.43511257318198,2.385504398999249,0.06788973247239956,-139.03748908455728,-1.4185461734345308,2.5,-10.0,0.1803139815118493,76.89045599994996,-27.384247391355462,262.5591248986156,46.18757355875149,13.80828286265284
