Mode,Time,Freq,time2delay,actualDelay,North-Desired,East-Desired,Down-Desired,Roll-UAV,Pitch-UAV,Yaw-UAV,Roll-Control,Pitch-Control,Yaw-Control,Thrust-Control,North-Pos,East-Pos,Down-Pos,Yaw-Ang,North-Vel,East-Vel,Down-Vel,Yaw-Vel,North-Acc,East-Acc,Down-Acc,North-Avg,East-Avg,Down-Avg,Yaw-Avg,North-Dif,East-Dif,Down-Dif,Yaw-Dif,North-One,East-One,Down-One,Yaw-One,North-Two,East-Two,Down-Two,Yaw-Two,Landing-State,Q-Size,Kalman-Time,Kalman-Dt
STABILIZE,0.03437328338623047,29.101041428165047,0.03280618985493978,0.0329437255859375,0.0,0.0,0.0,0.23160371062719878,-0.9324750345715948,-13.973427254028342,-0.14814348648539155,0.1174823929514844,0.009380832352872431,0.4,0.09423742674613875,0.09567270275224668,0.12914955298629557,0.09319168105337046,-0.1557152601890266,0.03073464904446155,1.6546489670872688,-0.2655729094123167,-0.3197469748556614,0.5128849297761917,21.025599539279938,0.0,0.0,0.0,0.0,0.0,0.0,0.0,0.0,0.0,0.0,0.0,0.0,0.0,0.0,0.0,0.0,False,0,0.14455699920654297,0.029935791015625
STABILIZE,0.06761813163757324,30.07920138839087,0.03231099446614583,0.03241586685180664,0.0,0.0,0.0,0.23138941344198963,-0.9321065245215313,-13.973676555933048,-0.09330212505109406,0.07539442246919752,0.011357665069952075,0.4,0.11739367918302282,0.11796957256413527,0.17826290954935645,0.11221073880555074,0.07284920429810882,0.05642416654154658,1.6202252358198166,-0.12306034536933955,4.219221323728561,0.7819702848792076,25.750944018363953,0.0,0.0,0.0,0.0,0.0,0.0,0.0,0.0,0.0,0.0,0.0,0.0,0.0,0.0,0.0,0.0,False,0,0.201979398727417,0.0349248046875
STABILIZE,0.1012122631072998,29.767103843751773,0.032534392674764,0.03276872634887695,0.0,0.0,0.0,0.23187158210871023,-0.933429019899575,-13.975555711728449,-0.06949368538424494,0.05731170233723147,0.012607485222027833,0.4,0.12991038088063014,0.12899056593549862,0.2079166041195868,0.12387716281070496,0.13896289747208357,-0.08289910038001835,1.5381602570414543,0.12164793695417495,0.8615582250058651,0.5254784598946571,21.54580056667328,0.0,0.0,0.0,0.0,0.0,0.0,0.0,0.0,0.0,0.0,0.0,0.0,0.0,0.0,0.0,0.0,False,0,0.23090696334838867,0.02993603515625
STABILIZE,0.13551735877990723,29.151403947734224,0.032492907842000325,0.03346371650695801,0.0,0.0,0.0,0.2317922878813146,-0.9327632898989104,-13.977087381649824,-0.05597921211426157,0.04661334838987996,0.013359382570190002,0.4,0.13684523275041008,0.13569635344521494,0.23299853804452647,0.13050125009553507,0.04398308228701353,0.031565362587571144,1.737038604915142,0.06275418393859705,3.7519171833992004,0.8663926273584366,26.358625292778015,0.0,0.0,0.0,0.0,0.0,0.0,0.0,0.0,0.0,0.0,0.0,0.0,0.0,0.0,0.0,0.0,False,0,0.2592916488647461,0.03492626953125
STABILIZE,0.1690528392791748,29.818952217774903,0.03247693379720052,0.03263545036315918,0.0,0.0,0.0,0.23250284099840748,-0.9329637132623679,-13.979892881851406,-0.04860938169678956,0.040416185284372845,0.014285716968593803,0.4,0.14401042847890907,0.14415810609630889,0.2629824543308791,0.13883470728598293,-0.1323905773460865,0.041855493327602744,1.6438720747828484,0.06926314744431425,-4.859133809804916,-1.0984370484948158,21.938486397266388,0.0,0.0,0.0,0.0,0.0,0.0,0.0,0.0,0.0,0.0,0.0,0.0,0.0,0.0,0.0,0.0,False,0,0.2879981994628906,0.0349248046875
STABILIZE,0.20255541801452637,29.848236206687968,0.03241017659505208,0.032605648040771484,0.0,0.0,0.0,0.2327017702579841,-0.933347057629535,-13.98074153285578,-0.02218825894821599,0.01941301994852577,0.015120646896622836,0.4,0.15008234023210498,0.15171421714565866,0.2933791874909232,0.14620420958335245,-0.04818515735678375,0.1125743961893022,1.7347756773233414,0.12125886963553545,2.9031902551651,1.0982423089444637,24.95679408311844,0.0,0.0,0.0,0.0,0.0,0.0,0.0,0.0,0.0,0.0,0.0,0.0,0.0,0.0,0.0,0.0,False,0,0.31679654121398926,0.034925048828125
STABILIZE,0.23607158660888672,29.8371949094065,0.03241756757100423,0.032562971115112305,0.0,0.0,0.0,0.23315096191761822,-0.933167765163822,-13.982896457538919,-0.0176194259075894,0.015171409013941506,0.015838218445346653,0.4,0.15462207002167064,0.15798531602800586,0.3234428594966542,0.15235956773788026,-0.04818515735678375,0.1125743961893022,1.7347756773233414,0.12125886963553545,2.9031902551651,1.0982423089444637,24.95679408311844,0.0,0.0,0.0,0.0,0.0,0.0,0.0,0.0,0.0,0.0,0.0,0.0,0.0,0.0,0.0,0.0,False,0,0.34554576873779297,0.034925048828125
STABILIZE,0.2694425582885742,29.964236981789867,0.03236058553059896,0.032483577728271484,0.0,0.0,0.0,0.23336483221600426,-0.9321411023542046,-13.984650108608319,-0.016765603003609346,0.01403014401649447,0.01685677399779173,0.4,0.1610960089033939,0.1651693594991146,0.37244171038780804,0.16146641025493969,0.1327859703451395,0.10347837815061212,1.484895683825016,0.2475048979430909,3.6139559000730515,0.8680178783833981,22.770722210407257,0.0,0.0,0.0,0.0,0.0,0.0,0.0,0.0,0.0,0.0,0.0,0.0,0.0,0.0,0.0,0.0,False,0,0.4028465747833252,0.0349248046875
STABILIZE,0.3030250072479248,29.778938998068842,0.0324437936147054,0.03258252143859863,0.0,0.0,0.0,0.23320720425656505,-0.9324102544961853,-13.985632802075155,-0.01602793889096455,0.012906964674649309,0.016992283930498245,0.4,0.16274673694680988,0.1687466935256644,0.4018758767997244,0.16173778301998318,-0.02500491973478347,0.12526813661679626,1.7994843423366547,-0.16233661447977063,0.2078804187476635,0.9536020457744598,25.28272569179535,0.0,0.0,0.0,0.0,0.0,0.0,0.0,0.0,0.0,0.0,0.0,0.0,0.0,0.0,0.0,0.0,False,0,0.4316840171813965,0.034926025390625
STABILIZE,0.3363525867462158,30.00453540693474,0.032311232884724934,0.03244185447692871,0.0,0.0,0.0,0.2337608764661592,-0.932597444368126,-13.986716240832248,-0.01426869357063366,0.011525392722522667,0.017215131920197416,0.4,0.16379367688164725,0.17096793244021585,0.42928586467100927,0.16287793350905924,0.005628829239867628,0.08285371004603803,1.6773803159594536,0.004736202580874936,1.2965431436896324,2.662476524710655,19.886504113674164,0.0,0.0,0.0,0.0,0.0,0.0,0.0,0.0,0.0,0.0,0.0,0.0,0.0,0.0,0.0,0.0,False,0,0.46025943756103516,0.029936279296875
STABILIZE,0.3698742389678955,29.832738239185172,0.03243735631306966,0.03258037567138672,0.0,0.0,0.0,0.23467473443276576,-0.9334437474949729,-13.988611618326928,-0.01213636179818405,0.009196080009484952,0.017330882023552693,0.4,0.16050399287492575,0.1712694911418762,0.44964307752859856,0.162944716447302,-0.1332178246229887,0.14554912922903895,1.660650409758091,0.12772819269766145,-3.8353662937879562,1.0315194725990295,27.33190655708313,0.0,0.0,0.0,0.0,0.0,0.0,0.0,0.0,0.0,0.0,0.0,0.0,0.0,0.0,0.0,0.0,False,0,0.4889512062072754,0.0349248046875
STABILIZE,0.4032440185546875,29.964879191849914,0.03235677083333333,0.03246474266052246,0.0,0.0,0.0,0.23444592309557033,-0.9338320010606058,-13.99052407129453,-0.010580755585594076,0.007864126409325541,0.017507638287969675,0.4,0.15948895823760087,0.17214340446914222,0.4751711131428993,0.1636188739832876,-0.04512062296271324,0.07417440647259355,1.6241762787103653,0.06630220040815421,-5.818508565425873,0.7407356984913349,18.15274953842163,0.0,0.0,0.0,0.0,0.0,0.0,0.0,0.0,0.0,0.0,0.0,0.0,0.0,0.0,0.0,0.0,False,0,0.5180411338806152,0.034926025390625
STABILIZE,0.43668079376220703,29.908469886906545,0.032401116689046223,0.03252673149108887,0.0,0.0,0.0,0.23583447920949277,-0.9344684893138864,-13.993572896985295,-0.008524021971911436,0.005874745410709711,0.017622441094075632,0.4,0.15778272986465505,0.17235538614136908,0.4997977033659197,0.16367221951651678,-0.04512062296271324,0.07417440647259355,1.6241762787103653,0.06630220040815421,-5.818508565425873,0.7407356984913349,18.15274953842163,0.0,0.0,0.0,0.0,0.0,0.0,0.0,0.0,0.0,0.0,0.0,0.0,0.0,0.0,0.0,0.0,False,0,0.5468947887420654,0.034926025390625
STABILIZE,0.4701194763183594,29.90441831780232,0.03243687947591146,0.032558441162109375,0.0,0.0,0.0,0.23585187484753514,-0.9345632581886203,-13.994472774408445,-0.0063498504358547895,0.0037016105777896912,0.01789182556014409,0.4,0.1512829113014845,0.1689777032744442,0.5393977318760985,0.16526105455581536,0.04816330620087683,0.08838644716888666,1.5932919457554817,0.19535973868334924,0.6987603846937418,0.992090255022049,25.36337673664093,0.0,0.0,0.0,0.0,0.0,0.0,0.0,0.0,0.0,0.0,0.0,0.0,0.0,0.0,0.0,0.0,False,0,0.6041693687438965,0.03492578125
STABILIZE,0.5036594867706299,29.816620459230823,0.03240063985188802,0.03255939483642578,0.0,0.0,0.0,0.23473396497947446,-0.9344669952100054,-13.99729108121472,-0.0058067682557636545,0.002445137077834265,0.017824009678365546,0.4,0.14756199241119988,0.16926896543698766,0.5573026771149769,0.16348725193996935,-0.08943452266976237,0.17466687131673098,1.327313855290413,0.019037224650599868,3.074393793940544,0.7936797104775906,17.592895030975342,0.0,0.0,0.0,0.0,0.0,0.0,0.0,0.0,0.0,0.0,0.0,0.0,0.0,0.0,0.0,0.0,False,0,0.6327853202819824,0.034925048828125
STABILIZE,0.5371274948120117,29.880557672990474,0.032370599110921223,0.03251528739929199,0.0,0.0,0.0,0.23535316431641842,-0.9353516114292278,-13.99831390204293,-0.004961635884267705,0.00258563194000421,0.018043143078910407,0.4,0.14513657108385283,0.16692381859337116,0.5781845333396245,0.1645779009177651,0.026799645274877548,0.018850744527298957,1.60922110080719,0.24299206389241657,0.3844080027192831,0.8558851666748524,24.844777584075928,0.0,0.0,0.0,0.0,0.0,0.0,0.0,0.0,0.0,0.0,0.0,0.0,0.0,0.0,0.0,0.0,False,0,0.661442756652832,0.029910400390625
STABILIZE,0.5707426071166992,29.74725882636633,0.03236082394917806,0.032492876052856445,0.0,0.0,0.0,0.23603255469542314,-0.9345937805964738,-14.000043647450235,-0.0037253327080250206,0.0012876405302162934,0.017760675058383333,0.4,0.13950146029656782,0.1639337266725653,0.5963881241906155,0.16067805063206161,-0.11051425244659185,0.08017370128072798,1.88968013972044,0.006491774640979776,0.4331453237682581,0.8900805376470089,23.349592089653015,0.0,0.0,0.0,0.0,0.0,0.0,0.0,0.0,0.0,0.0,0.0,0.0,0.0,0.0,0.0,0.0,False,0,0.690089225769043,0.0349248046875
STABILIZE,0.604013204574585,30.056568754613142,0.03220346768697103,0.03233146667480469,0.0,0.0,0.0,0.23698621985828616,-0.9357676126383639,-14.001280765463655,-0.003033610989408127,0.0003495044423150258,0.01757609631310395,0.4,0.13457571355368192,0.16197953755653177,0.6201759621438783,0.15777701682924153,-0.11051425244659185,0.08017370128072798,1.88968013972044,0.006491774640979776,0.4331453237682581,0.8900805376470089,23.349592089653015,0.0,0.0,0.0,0.0,0.0,0.0,0.0,0.0,0.0,0.0,0.0,0.0,0.0,0.0,0.0,0.0,False,0,0.7190051078796387,0.0349248046875
STABILIZE,0.6374218463897705,29.932161539175176,0.032372268040974934,0.03249979019165039,0.0,0.0,0.0,0.23327860107773285,-0.9318433487950744,-14.003106987292988,-0.0030397540708914706,0.0008049474626916499,0.017356439646047942,0.4,0.13054274524712506,0.15889059371762795,0.6382532403343557,0.15454694722140408,-0.034910571412183344,0.02437050425214693,1.573057658970356,0.006232400875291186,-4.323678836226463,0.6493649911135435,15.658079087734222,0.0,0.0,0.0,0.0,0.0,0.0,0.0,0.0,0.0,0.0,0.0,0.0,0.0,0.0,0.0,0.0,False,0,0.7474348545074463,0.034926025390625
STABILIZE,0.671135425567627,29.662477634528752,0.03239563306172689,0.03268790245056152,0.0,0.0,0.0,0.23307892476621575,-0.9286017837036685,-14.008983511300137,-0.002154051282021119,0.0018490709776963618,0.01722733775183288,0.4,0.13099912170663613,0.15640095442539304,0.6512834852926099,0.15223251646485952,0.2624425571411848,0.07944321259856224,1.317025814205408,0.08203995010174868,11.31017804145813,0.804972555488348,20.06470113992691,0.0,0.0,0.0,0.0,0.0,0.0,0.0,0.0,0.0,0.0,0.0,0.0,0.0,0.0,0.0,0.0,False,0,0.7761454582214355,0.02993603515625
STABILIZE,0.7045516967773438,29.925754689384046,0.03231337865193685,0.03244733810424805,0.0,0.0,0.0,0.23552466609760922,-0.9367400608214446,-14.008893011293633,-0.0017040555327112693,0.0024066977034119972,0.01699335703844849,0.4,0.13081939826629146,0.15287305959138428,0.6575027916643267,0.14889664381198456,0.2624425571411848,0.07944321259856224,1.317025814205408,0.08203995010174868,11.31017804145813,0.804972555488348,20.06470113992691,0.0,0.0,0.0,0.0,0.0,0.0,0.0,0.0,0.0,0.0,0.0,0.0,0.0,0.0,0.0,0.0,False,1,0.8116073608398438,0.02993603515625
STABILIZE,0.7380096912384033,29.887584083912895,0.032349379857381184,0.032507896423339844,0.0,0.0,0.0,0.237633807168968,-0.9328700116046919,-14.006573308296769,-2.5838735386169608e-05,-8.693529878121364e-05,0.014198990425489446,0.4,0.11694615439726536,0.14510982037780124,0.6724732587251578,0.12014822055250701,-0.18907433841377497,0.030736933695152402,1.2639330700039864,-0.6382281372499182,-4.276707395911217,-0.24751354940235615,-12.637120485305786,0.0,0.0,0.0,0.0,0.0,0.0,0.0,0.0,0.0,0.0,0.0,0.0,0.0,0.0,0.0,0.0,False,0,0.868675947189331,0.034926025390625
STABILIZE,0.7789773941040039,24.41146103121344,0.032370599110921223,0.039249420166015625,0.0,0.0,0.0,0.23826399884160746,-0.937692552045544,-14.01359730408448,0.0007640765974274774,-0.0028816529807393076,0.01316382812845062,0.4,0.10022068674354662,0.1401877056849272,0.6894440505139472,0.10892120876658357,-0.8036546409130096,-0.048559377319179475,1.7623359337449074,-0.4308640209351542,-15.862409770488739,-0.7825898006558418,29.88205850124359,0.0,0.0,0.0,0.0,0.0,0.0,0.0,0.0,0.0,0.0,0.0,0.0,0.0,0.0,0.0,0.0,False,0,0.8973767757415771,0.029936279296875
STABILIZE,0.811859130859375,30.40805022692012,0.03157618840535482,0.03187394142150879,0.0,0.0,0.0,0.2385065772788487,-0.936717862706642,-14.012559115330639,-0.0010364202641606085,-0.0011548407171615871,0.014066865208072507,0.4,0.10290001137432372,0.1427433171958317,0.6940985391491613,0.11716373430182425,0.430226419121027,0.4618426784873009,1.3766163028776646,0.8007260215673379,-2.3443900048732758,12.232587486505508,9.007219225168228,0.0,0.0,0.0,0.0,0.0,0.0,0.0,0.0,0.0,0.0,0.0,0.0,0.0,0.0,0.0,0.0,False,0,0.926140546798706,0.0349248046875
STABILIZE,0.8454184532165527,29.80052008582837,0.03232744534810384,0.03247666358947754,0.0,0.0,0.0,0.23933559148935898,-0.9388416246516929,-14.009371124535535,-0.0013762507504254892,-0.0017899983541409261,0.01416145333539083,0.4,0.10094305464726734,0.1414755677756115,0.7226311244098441,0.11732437685433893,0.1174991368316114,0.17749449471011758,2.5497354567050934,0.26372902514067775,18.591928482055664,-2.628030441701412,33.670973777770996,0.0,0.0,0.0,0.0,0.0,0.0,0.0,0.0,0.0,0.0,0.0,0.0,0.0,0.0,0.0,0.0,False,0,0.954878568649292,0.034925048828125
STABILIZE,0.8792226314544678,29.581307435696704,0.032007487614949544,0.03252124786376953,0.0,0.0,0.0,0.23910347177928434,-0.9390812148811722,-14.016184238232622,-0.00036341400219354466,-0.0007283631235300399,0.01419128919062894,0.4,0.10454163052970238,0.13514871475579854,0.7352747628459607,0.11683265404889692,0.4540395922958851,-0.12996174627915025,1.6009846702218056,0.2180784419666926,5.282456800341606,4.633865877985954,21.25867009162903,0.0,0.0,0.0,0.0,0.0,0.0,0.0,0.0,0.0,0.0,0.0,0.0,0.0,0.0,0.0,0.0,False,0,0.9865024089813232,0.034926025390625
STABILIZE,0.914025068283081,28.732242308825242,0.03224829037984212,0.03389453887939453,0.0,0.0,0.0,0.23675474047844622,-0.9383622307493226,-14.014839544739775,-0.002273539113700364,0.004789771850795966,0.013979379366510133,0.4,0.1126645157046483,0.13377131806892115,0.7337875425673344,0.11391730062783482,0.7175521925091743,0.17977580428123474,0.7939689792692661,0.06703884698231066,15.128833055496216,4.331880435347557,8.389332890510559,0.0,0.0,0.0,0.0,0.0,0.0,0.0,0.0,0.0,0.0,0.0,0.0,0.0,0.0,0.0,0.0,False,1,1.016742467880249,0.029935791015625
STABILIZE,0.9475202560424805,29.856310016158538,0.03243068059285482,0.032573699951171875,0.0,0.0,0.0,0.23823678480663318,-0.941153750407448,-14.010819124639577,0.00026348786630746535,0.009224634306759613,0.013192132612189822,0.4,0.11652423062378509,0.12241436931240449,0.7353057320512113,0.10533951634051861,0.0011007919965777546,-0.29224290046840906,1.8211502581834793,-0.06834640799165159,5.4980166256427765,-11.338670551776886,15.869355201721191,0.0,0.0,0.0,0.0,0.0,0.0,0.0,0.0,0.0,0.0,0.0,0.0,0.0,0.0,0.0,0.0,False,0,1.073744297027588,0.06985009765625
STABILIZE,0.9809246063232422,29.934084129091193,0.03239491780598958,0.032523155212402344,0.0,0.0,0.0,0.2393505325281684,-0.9402100103632226,-14.017736398721508,0.0019261658545392704,0.01148978760364548,0.012771651332608948,0.4,0.12681690593080464,0.11964328552899967,0.7787348164992764,0.10046288216407298,0.5671199876815081,-0.043882831232622266,1.5411725267767906,-0.1455209688876769,6.6063255071640015,12.158279865980148,15.48759788274765,0.0,0.0,0.0,0.0,0.0,0.0,0.0,0.0,0.0,0.0,0.0,0.0,0.0,0.0,0.0,0.0,False,0,1.1026008129119873,0.02993701171875
STABILIZE,1.0144479274749756,29.831677323451803,0.032442839940389,0.0325777530670166,0.0,0.0,0.0,0.23942160918421884,-0.940078956108523,-14.019477243186214,0.0035122610205065878,0.013479490475592035,0.012124279858950628,0.4,0.1321662100572964,0.11369566243225258,0.7790429616191133,0.0933643969762275,0.5671199876815081,-0.043882831232622266,1.5411725267767906,-0.1455209688876769,6.6063255071640015,12.158279865980148,15.48759788274765,0.0,0.0,0.0,0.0,0.0,0.0,0.0,0.0,0.0,0.0,0.0,0.0,0.0,0.0,0.0,0.0,False,0,1.1312406063079834,0.02993701171875
STABILIZE,1.0479216575622559,29.874172892969323,0.03234461148579915,0.032489776611328125,0.0,0.0,0.0,0.23917081317563244,-0.9420345246452623,-14.007271695139401,0.001322036876764278,0.009484531397016839,0.012482146586638486,0.4,0.12082854528799851,0.11461193219007457,0.7844954613299246,0.0962986447969977,-0.384133611805737,0.3361166687682271,1.8262317404150963,0.41457970269550665,-17.43823140859604,0.492187961935997,17.943495512008667,0.0,0.0,0.0,0.0,0.0,0.0,0.0,0.0,0.0,0.0,0.0,0.0,0.0,0.0,0.0,0.0,False,0,1.1599597930908203,0.034925048828125
STABILIZE,1.0834832191467285,28.11968436366562,0.03235057195027669,0.03467369079589844,0.0,0.0,0.0,0.24008894001047024,-0.9392521830538341,-14.02717230505988,0.0008751170784552799,0.012056811601724398,0.010842585080321154,0.4,0.13747263167194335,0.11471206949146794,0.8241891906649091,0.07933773355244092,0.5685713607817888,0.2053617499768734,1.5600373037159443,-0.2516060263332869,13.540317118167877,14.297512173652649,20.5747589468956,0.0,0.0,0.0,0.0,0.0,0.0,0.0,0.0,0.0,0.0,0.0,0.0,0.0,0.0,0.0,0.0,False,0,1.2178332805633545,0.064878662109375
STABILIZE,1.1169967651367188,29.83804394994629,0.0324437936147054,0.0325925350189209,0.0,0.0,0.0,0.23950901426125384,-0.9400057450183569,-14.026514899352266,-0.003328661938385416,0.010912380284636074,0.010166987498492742,0.4,0.13659719740851312,0.11709443951112652,0.8532208160295723,0.07209887126431376,-0.015753638581372797,0.27271260041743517,1.521958690136671,-0.1291960963998324,-20.43679803609848,-7.218188792467117,18.510666489601135,0.0,0.0,0.0,0.0,0.0,0.0,0.0,0.0,0.0,0.0,0.0,0.0,0.0,0.0,0.0,0.0,False,0,1.2466750144958496,0.034926025390625
STABILIZE,1.1504695415496826,29.875449630679594,0.03239444096883138,0.03252434730529785,0.0,0.0,0.0,0.23963163750119673,-0.9420971702865559,-14.013620355972929,0.00047679108110069876,0.004223535942664261,0.01142025624595511,0.4,0.12133790926328641,0.10317358526156853,0.8464975686956313,0.08406846909884896,-0.468395184725523,-0.4161942284554243,1.3208423741161823,0.7877972205204441,-3.4662730991840363,-9.29606407880783,19.027860462665558,0.0,0.0,0.0,0.0,0.0,0.0,0.0,0.0,0.0,0.0,0.0,0.0,0.0,0.0,0.0,0.0,False,0,1.2752094268798828,0.034925048828125
STABILIZE,1.1838834285736084,29.9274629144696,0.03237465222676595,0.03249931335449219,0.0,0.0,0.0,0.2396676027160451,-0.939745877664779,-14.032881489432365,0.003243675105996578,-0.001215873686435957,0.012676724253477737,0.4,0.10636321115168054,0.08956590922601325,0.8399782591242179,0.09599204477310405,-0.468395184725523,-0.4161942284554243,1.3208423741161823,0.7877972205204441,-3.4662730991840363,-9.29606407880783,19.027860462665558,0.0,0.0,0.0,0.0,0.0,0.0,0.0,0.0,0.0,0.0,0.0,0.0,0.0,0.0,0.0,0.0,False,0,1.3038952350616455,0.034925048828125
STABILIZE,1.2175743579864502,29.681369461683804,0.032393725713094075,0.03283381462097168,0.0,0.0,0.0,0.23910507260487107,-0.9399302927723694,-14.03693008406289,0.004606515100306335,0.0014811361919475428,0.010859005495178391,0.4,0.10623303352682617,0.08622311758517906,0.8378339943246489,0.07729319359010717,0.25397518184036016,0.07748912321403623,1.5288837254047394,-0.7303391079013581,7.8865475952625275,14.15543258190155,21.717318892478943,0.0,0.0,0.0,0.0,0.0,0.0,0.0,0.0,0.0,0.0,0.0,0.0,0.0,0.0,0.0,0.0,False,0,1.3325600624084473,0.029935791015625
STABILIZE,1.2511088848114014,29.820012228589306,0.032470019658406575,0.03259110450744629,0.0,0.0,0.0,0.2355690623272143,-0.9412429697534812,-14.012361039844707,0.007868611620172158,-0.007383753301502608,0.011334578424643926,0.4,0.08778127812836635,0.07653614587172602,0.8300997513866335,0.08150353006686456,-0.6742439232766628,-0.25787423364818096,1.459339912980795,0.4144727408658872,-5.389027297496796,-7.530050724744797,16.707853972911835,0.0,0.0,0.0,0.0,0.0,0.0,0.0,0.0,0.0,0.0,0.0,0.0,0.0,0.0,0.0,0.0,False,0,1.3613810539245605,0.06985107421875
STABILIZE,1.2846758365631104,29.792476417774747,0.032381327946980794,0.03267359733581543,0.0,0.0,0.0,0.23592892791910935,-0.9399331742584255,-14.026676262571408,0.012984842971989473,-0.011868768164462843,0.009619201925463332,0.4,0.07084376249125474,0.06327394918619661,0.8850058966697868,0.06392037745723016,0.41527594439685345,0.16064539086073637,1.721431314945221,-0.9480163829760182,12.047037482261658,10.034874081611633,11.475048959255219,0.0,0.0,0.0,0.0,0.0,0.0,0.0,0.0,0.0,0.0,0.0,0.0,0.0,0.0,0.0,0.0,False,0,1.4189858436584473,0.03492529296875
STABILIZE,1.3181333541870117,29.888010033206495,0.03242472012837728,0.032546043395996094,0.0,0.0,0.0,0.23604312014429552,-0.9395577272974863,-14.032321413920425,0.007880730233215496,-0.007782207083798108,0.009232127839791784,0.4,0.07239554425095503,0.06606229924825008,0.8762792860293402,0.05965058123421709,0.27095796540379524,0.3092110622674227,1.5332218259572983,-0.008196920695102881,-4.343219101428986,2.2987250238656998,15.562543272972107,0.0,0.0,0.0,0.0,0.0,0.0,0.0,0.0,0.0,0.0,0.0,0.0,0.0,0.0,0.0,0.0,False,0,1.4473645687103271,0.029935791015625
STABILIZE,1.3515453338623047,29.928103549155882,0.032376797993977864,0.03249216079711914,0.0,0.0,0.0,0.23293869244481893,-0.941131232127528,-14.012408851168898,0.004475737429500305,-0.008856184801834288,0.009397468683830713,0.4,0.0556766358433351,0.06402891724381833,0.8656477143492823,0.06089677743706296,-0.5762137472629547,0.08789495332166553,1.6001151874661446,0.22816476374095024,-3.914353623986244,6.474728137254715,22.895339131355286,0.0,0.0,0.0,0.0,0.0,0.0,0.0,0.0,0.0,0.0,0.0,0.0,0.0,0.0,0.0,0.0,False,0,1.4762084484100342,0.034926025390625
STABILIZE,1.38502836227417,29.866302087783758,0.03243568738301595,0.03259873390197754,0.0,0.0,0.0,0.23098931376701498,-0.9417270594109058,-14.02567820117894,0.004114905094781615,-0.01330066261360928,0.0095571260262452,0.4,0.03960229277373853,0.062125061496746604,0.8604210293954667,0.06207757962684773,-0.5762137472629547,0.08789495332166553,1.6001151874661446,0.22816476374095024,-3.914353623986244,6.474728137254715,22.895339131355286,0.0,0.0,0.0,0.0,0.0,0.0,0.0,0.0,0.0,0.0,0.0,0.0,0.0,0.0,0.0,0.0,False,0,1.5046799182891846,0.034926025390625
STABILIZE,1.4186351299285889,29.76034512118976,0.03243521054585775,0.03255581855773926,0.0,0.0,0.0,0.22540499379029486,-0.939321552162592,-14.030867437400858,0.004924410865655404,-0.009423803724774131,0.009761491041036775,0.4,0.037655508010013564,0.0509970221543289,0.8570443770646656,0.06369523158830186,0.07324423640966415,-0.3632739186286926,1.66244488209486,0.2464503007269851,3.4147731959819794,-25.276342034339905,19.344812631607056,0.0,0.0,0.0,0.0,0.0,0.0,0.0,0.0,0.0,0.0,0.0,0.0,0.0,0.0,0.0,0.0,False,0,1.53346586227417,0.06486083984375
STABILIZE,1.4519703388214111,29.995094148019422,0.03223255475362142,0.032361507415771484,0.0,0.0,0.0,0.224756445984261,-0.940339250348924,-14.030991234579563,0.0009445366631042422,-0.010718202988817671,0.011113335868757807,0.4,0.018571094097561636,0.051076887121701976,0.8778960228910916,0.07670060573092571,-0.6078628823161125,0.19793515093624592,1.609795168042183,0.7290622894133889,-16.649730503559113,19.54563409090042,20.538736879825592,0.0,0.0,0.0,0.0,0.0,0.0,0.0,0.0,0.0,0.0,0.0,0.0,0.0,0.0,0.0,0.0,False,0,1.562044620513916,0.034925048828125
STABILIZE,1.4861350059509277,29.268575894601685,0.03237417538960775,0.03335404396057129,0.0,0.0,0.0,0.23279077616060584,-0.9490767698446627,-14.022063323560712,-0.0006948791809937837,-0.011835292680989493,0.008817540793481588,0.4,0.015838073350881894,0.05860350367693712,0.8553121917418635,0.053376802226164935,0.040788884507492185,0.3274197690188885,1.4785279519855976,-0.37900476912520104,24.420300126075745,-6.11150860786438,21.96272909641266,0.0,0.0,0.0,0.0,0.0,0.0,0.0,0.0,0.0,0.0,0.0,0.0,0.0,0.0,0.0,0.0,False,0,1.6194965839385986,0.02993701171875
STABILIZE,1.5196759700775146,29.814500995166334,0.03249076207478841,0.032608985900878906,0.0,0.0,0.0,0.22975603773500455,-0.9558601081858374,-13.99392038285932,0.005612684743244173,-0.002554874973386828,0.009419800900308771,0.4,0.03470936537028985,0.0378444703319282,0.8426666636649893,0.05900452926201868,1.0242896154522896,-0.8755185641348362,1.4245381578803062,0.43075247007218614,31.059330701828003,-22.118018567562103,20.818907022476196,0.0,0.0,0.0,0.0,0.0,0.0,0.0,0.0,0.0,0.0,0.0,0.0,0.0,0.0,0.0,0.0,False,0,1.6494338512420654,0.034925048828125
STABILIZE,1.5531556606292725,29.868854326895686,0.032412322362264,0.032540082931518555,0.0,0.0,0.0,0.2254089424934088,-0.9627045980644249,-13.967536215869206,0.005417454962561442,0.005616518207863794,0.0048784407396704225,0.4,0.050212092176999026,0.03669589428023638,0.8407353855899077,0.013500560283608208,0.897894985973835,0.07539128419011831,1.7003312706947327,-2.141068363747183,-1.3240313157439232,29.49867844581604,50.30417442321777,0.0,0.0,0.0,0.0,0.0,0.0,0.0,0.0,0.0,0.0,0.0,0.0,0.0,0.0,0.0,0.0,True,0,1.6807267665863037,0.034925048828125
STABILIZE,1.5865936279296875,29.906337345274085,0.03237274487813314,0.03250479698181152,0.0,0.0,0.0,0.22510233103269867,-0.9723969566617903,-13.920996160638387,-0.0030781032827674523,0.008942690472240411,0.004754529281831237,0.4,0.06041365645308665,0.052129421166345,0.8209157180654214,0.012180039917036404,0.6407236214727163,0.9153327904641628,0.7647704798728228,0.05851604488849752,-10.398231446743011,22.619684040546417,17.204134166240692,0.0,0.0,0.0,0.0,0.0,0.0,0.0,0.0,0.0,0.0,0.0,0.0,0.0,0.0,0.0,0.0,True,0,1.7067673206329346,0.029935791015625
STABILIZE,1.6200129985809326,29.922552292897297,0.03239038785298665,0.032520294189453125,0.0,0.0,0.0,0.23544921385162174,-0.9763429917330594,-13.906416268081347,-0.00877672759673993,0.013455172075951897,-0.00037596618339349455,0.4,0.06015945307871084,0.06926462553995757,0.8096220269598027,-0.038864887269501644,0.1255282899364829,1.0344360023736954,1.360685657709837,-2.5857971350889337,38.46428096294403,5.68389967083931,39.08190429210663,0.0,0.0,0.0,0.0,0.0,0.0,0.0,0.0,0.0,0.0,0.0,0.0,0.0,0.0,0.0,0.0,True,0,1.7353849411010742,0.03492626953125
STABILIZE,1.6534628868103027,29.895466111661523,0.03242162068684896,0.03254055976867676,0.0,0.0,0.0,0.22854837491238167,-0.9696400148363381,-13.909554740004967,-0.004284251839098554,0.023592199619779895,-0.0028762595352772096,0.4,0.09411045674486768,0.06241095292899139,0.7997333485150422,-0.06344356626177207,1.9181575626134872,-0.23297190200537443,1.182618085294962,-1.205684949249632,10.955825448036194,-30.00914752483368,36.47203743457794,0.0,0.0,0.0,0.0,0.0,0.0,0.0,0.0,0.0,0.0,0.0,0.0,0.0,0.0,0.0,0.0,True,0,1.7651777267456055,0.034925048828125
STABILIZE,1.6869759559631348,29.84207755247243,0.03240373929341634,0.03253364562988281,0.0,0.0,0.0,0.24125316709884007,-0.9727671742591462,-13.965463253456107,-0.015893522823075282,0.011733419026675856,-0.005470998775712561,0.4,0.06765798213909867,0.07854311069606953,0.7870015656103758,-0.0887965265807701,-1.2883851304650307,0.9915798902511597,1.0048526339232922,-1.2819758144011473,-62.90254592895508,27.241551876068115,3.7227507680654526,0.0,0.0,0.0,0.0,0.0,0.0,0.0,0.0,0.0,0.0,0.0,0.0,0.0,0.0,0.0,0.0,True,1,1.792722225189209,0.034925048828125
STABILIZE,1.7204463481903076,29.877790599934464,0.03232577641805013,0.03247785568237305,0.0,0.0,0.0,0.24156351381925253,-0.9738518936767088,-13.943268553748151,-0.013659054075976413,-0.0008660192755216472,-0.0035672857585419475,0.4,0.035804733715023185,0.07073204961244943,0.7721306191165522,-0.06929584181917395,-0.18486627377569675,-1.1576958931982517,1.5010824427008629,2.4287047051693444,-29.841476678848267,-73.91363382339478,20.950737595558167,0.0,0.0,0.0,0.0,0.0,0.0,0.0,0.0,0.0,0.0,0.0,0.0,0.0,0.0,0.0,0.0,True,0,1.8514931201934814,0.029935791015625
STABILIZE,1.7538700103759766,29.916789706060673,0.032325061162312825,0.032456398010253906,0.0,0.0,0.0,0.2578573569711411,-0.9884848269215206,-14.021692785798237,-0.00844718151447786,-0.004722805955831486,-0.005526654165879769,0.4,0.03072913675955998,0.06890213854853347,0.7675624679867669,-0.08829896776809952,-0.16816697316244245,0.05601553129963577,1.5644511207938194,-1.1108004949083436,-22.040393948554993,-7.58751854300499,25.820869207382202,0.0,0.0,0.0,0.0,0.0,0.0,0.0,0.0,0.0,0.0,0.0,0.0,0.0,0.0,0.0,0.0,True,0,1.879364013671875,0.0349248046875
STABILIZE,1.787268877029419,29.941135739015596,0.032320292790730794,0.032433509826660156,0.0,0.0,0.0,0.2667425793076814,-0.9923623466576781,-14.053406207888253,-0.002876555238000409,-0.006069064261227219,-0.007589073859029214,0.4,0.025701077936499846,0.06751409337630462,0.7671575794457556,-0.10819988771920852,-0.16816697316244245,0.05601553129963577,1.5644511207938194,-1.1108004949083436,-22.040393948554993,-7.58751854300499,25.820869207382202,0.0,0.0,0.0,0.0,0.0,0.0,0.0,0.0,0.0,0.0,0.0,0.0,0.0,0.0,0.0,0.0,True,0,1.9082913398742676,0.0349248046875
STABILIZE,1.8206865787506104,29.923192717362614,0.03239134152730306,0.03251242637634277,0.0,0.0,0.0,0.25088992368749335,-0.9297968533650093,-14.048775339630984,0.00800700881117694,-0.036652345560638004,-0.001482508183912025,0.4,-0.054654969308415284,0.02872458957745589,0.7561458694106543,-0.04682107271411333,-4.400939866900444,-2.042905054986477,0.9537528268992901,3.4262493511380643,-178.05699110031128,-60.50978899002075,-17.740178108215332,0.0,0.0,0.0,0.0,0.0,0.0,0.0,0.0,0.0,0.0,0.0,0.0,0.0,0.0,0.0,0.0,True,0,1.936960220336914,0.029936279296875
STABILIZE,1.854339361190796,29.717961980203633,0.03242376645406087,0.03260612487792969,0.0,0.0,0.0,0.25458057371682746,-0.9643902674072429,-14.055350250480767,0.01412297278365735,-0.0423278170349604,0.003871309704475229,0.4,-0.09764871389258051,0.024929595565472546,0.7444366564474632,0.006672398928328306,-2.4261733517050743,-0.09624120430089533,1.0848421603441238,2.986964240564813,-9.663286805152893,61.711275577545166,-166.1594033241272,0.0,0.0,0.0,0.0,0.0,0.0,0.0,0.0,0.0,0.0,0.0,0.0,0.0,0.0,0.0,0.0,True,0,1.9658207893371582,0.034926025390625
STABILIZE,1.8883237838745117,29.423181878766197,0.03225711186726888,0.03302359580993652,0.0,0.0,0.0,0.25695587872240516,-0.9564886990328901,-14.087368469762495,0.003472674797704391,-0.017743893396549942,-0.004258250554645068,0.4,-0.03583802157207508,0.050141312479526745,0.7708286103919662,-0.07411790252136988,3.6369003355503082,1.5717362985014915,3.0346982181072235,-4.6735705999595645,86.11094355583191,42.65822470188141,57.96300768852234,0.0,0.0,0.0,0.0,0.0,0.0,0.0,0.0,0.0,0.0,0.0,0.0,0.0,0.0,0.0,0.0,True,1,1.9946200847625732,0.039913818359375
STABILIZE,1.9216697216033936,29.988874747965852,0.032362969716389973,0.03247714042663574,0.0,0.0,0.0,0.2490639153015728,-0.9387589153297122,-14.020843281020218,0.02445027011683381,-0.006449665230383764,-0.01923287525777208,0.4,0.0005662338158719527,-0.014261327379253511,0.7713490651817603,-0.22237774109898323,1.0895581915974617,-1.7575019970536232,1.6396807506680489,-4.382865369165952,-56.834304332733154,-96.61627411842346,84.19586420059204,0.0,0.0,0.0,0.0,0.0,0.0,0.0,0.0,0.0,0.0,0.0,0.0,0.0,0.0,0.0,0.0,True,0,2.051853895187378,0.024947021484375
STABILIZE,1.9551889896392822,29.83252605000178,0.0324435551961263,0.03256726264953613,0.0,0.0,0.0,0.25434973466722216,-0.9554173198285502,-14.058148066719534,0.023300547320890465,-0.01726734498028669,-0.020965663508676242,0.4,-0.0424630760971917,-0.012195613075200803,0.7795882906452695,-0.2381124071372158,-2.569289319217205,0.15659274067729712,2.4253008887171745,-1.3156356269612046,-17.99238622188568,57.592761516571045,65.37758708000183,0.0,0.0,0.0,0.0,0.0,0.0,0.0,0.0,0.0,0.0,0.0,0.0,0.0,0.0,0.0,0.0,True,0,2.08127760887146,0.0399150390625
STABILIZE,1.9885931015014648,29.93579330526015,0.0323820432027181,0.03251338005065918,0.0,0.0,0.0,0.25523819286785276,-0.9384749288706278,-14.10733567402738,0.0059548208951999285,0.002523526882834316,-0.029173363324982497,0.4,-0.040628475109886035,0.005261583178772573,0.8015096037616618,-0.3180622131923283,0.19915839657187462,1.1907823383808136,2.4627769365906715,-4.544840317125042,108.71332883834839,-13.691245019435883,127.41098403930664,0.0,0.0,0.0,0.0,0.0,0.0,0.0,0.0,0.0,0.0,0.0,0.0,0.0,0.0,0.0,0.0,True,0,2.1098058223724365,0.029935791015625
STABILIZE,2.0220625400543213,29.879493353470014,0.032424004872639973,0.03255152702331543,0.0,0.0,0.0,0.25150442726938294,-0.9466905792250953,-14.026653210682959,-0.0013625196086256507,0.013824742450965002,-0.03654517906021301,0.4,-0.0370486247481911,0.024006994820471052,0.8144085173641457,-0.3891768787127525,0.19915839657187462,1.1907823383808136,2.4627769365906715,-4.544840317125042,108.71332883834839,-13.691245019435883,127.41098403930664,0.0,0.0,0.0,0.0,0.0,0.0,0.0,0.0,0.0,0.0,0.0,0.0,0.0,0.0,0.0,0.0,True,0,2.138594388961792,0.029935791015625
STABILIZE,2.055495023727417,29.91060273269247,0.03241566022237142,0.032540321350097656,0.0,0.0,0.0,0.25262681944908644,-0.9431413354559216,-14.04467893367627,0.016858539542074245,0.014597926351175992,-0.03361007120966774,0.4,0.018072332917346078,-0.008404956229676575,0.8192071205911506,-0.3574350280432562,3.3162005245685577,-1.886928454041481,1.9684882834553719,1.5757587924677916,68.48812103271484,-77.03460454940796,125.06346702575684,0.0,0.0,0.0,0.0,0.0,0.0,0.0,0.0,0.0,0.0,0.0,0.0,0.0,0.0,0.0,0.0,True,0,2.1673195362091064,0.029936279296875
STABILIZE,2.089664936065674,29.26469582690845,0.03242162068684896,0.03325486183166504,0.0,0.0,0.0,0.25772224729162174,-0.9475981406110607,-14.098199442238844,-0.008682516513145671,-0.005593759414061037,-0.038087714765145345,0.4,-0.024354430076180378,0.010316718211889632,0.8343181363481614,-0.3994834957661737,-2.591775916516781,1.2021047063171864,2.587500214576721,-2.9282848047447643,-23.127537965774536,5.989430472254753,82.10595846176147,0.0,0.0,0.0,0.0,0.0,0.0,0.0,0.0,0.0,0.0,0.0,0.0,0.0,0.0,0.0,0.0,True,1,2.1959822177886963,0.069850830078125
STABILIZE,2.1234169006347656,29.62874217657281,0.03240493138631185,0.0327911376953125,0.0,0.0,0.0,0.25403458547004953,-0.9508344763388832,-14.051744764372648,-0.014468496576364457,-0.008850308841456555,-0.04661401993184225,0.4,-0.07336293699163458,0.02950052737858766,0.8896648497780837,-0.48150056879570347,-2.591775916516781,1.2021047063171864,2.587500214576721,-2.9282848047447643,-23.127537965774536,5.989430472254753,82.10595846176147,0.0,0.0,0.0,0.0,0.0,0.0,0.0,0.0,0.0,0.0,0.0,0.0,0.0,0.0,0.0,0.0,True,1,2.2246878147125244,0.069850830078125
STABILIZE,2.1569807529449463,29.79586269606729,0.032337220509847005,0.032521724700927734,0.0,0.0,0.0,0.25251988429989347,-0.9409220575841964,-14.050972952996435,0.00043368086158975677,0.006447978893052061,-0.045460696182769066,0.4,-0.016439186693050167,0.0008417171170390795,0.9123392048586969,-0.46683822815853493,1.5900259837508202,0.24129145313054323,1.117530558258295,-1.002438796674151,-3.884805738925934,32.24644362926483,38.29583525657654,0.0,0.0,0.0,0.0,0.0,0.0,0.0,0.0,0.0,0.0,0.0,0.0,0.0,0.0,0.0,0.0,True,0,2.2861533164978027,0.034925048828125
STABILIZE,2.190373182296753,29.944769683296684,0.032279284795125325,0.03242969512939453,0.0,0.0,0.0,0.25594853254153405,-0.9485830752337178,-14.09542126279394,0.0013771024485862017,-0.007929913771222645,-0.04687502425668222,0.4,-0.0648120531637149,0.014439565229631341,0.9092449789879572,-0.4777841186111085,-2.582787908613682,0.756423594430089,1.6139989718794823,-1.2801694428090904,-73.40596914291382,8.36111381649971,31.599408388137817,0.0,0.0,0.0,0.0,0.0,0.0,0.0,0.0,0.0,0.0,0.0,0.0,0.0,0.0,0.0,0.0,True,0,2.3150250911712646,0.034926025390625
STABILIZE,2.2237937450408936,29.9212715262024,0.03237202962239583,0.032501935958862305,0.0,0.0,0.0,0.25498440865150446,-0.9519736238263944,-14.067818760810626,-0.002328299237374044,-0.03948643769340052,-0.04212658503930411,0.4,-0.13061557248683028,-0.004164763878476923,0.8851580995503532,-0.4274406877224943,-3.5001620650291443,-0.9260194376111031,0.5072131287306547,1.897090164612919,-60.88828444480896,-27.663636207580566,2.6315199211239815,0.0,0.0,0.0,0.0,0.0,0.0,0.0,0.0,0.0,0.0,0.0,0.0,0.0,0.0,0.0,0.0,True,0,2.347900152206421,0.02993603515625
STABILIZE,2.257249593734741,29.890352971358936,0.0323980172475179,0.032598257064819336,0.0,0.0,0.0,0.2553209021898334,-0.9419346331286508,-14.079660601284136,0.00041686562110126817,-0.023520960721293806,-0.04349313744281013,0.4,-0.10885212793544388,0.004388524772203269,0.8742185141869294,-0.43816989230361536,0.9930742904543877,0.48112478107213974,1.4084458351135254,-1.4627286599358953,-2.8535136952996254,32.27991759777069,31.547585129737854,0.0,0.0,0.0,0.0,0.0,0.0,0.0,0.0,0.0,0.0,0.0,0.0,0.0,0.0,0.0,0.0,True,0,2.375213146209717,0.034925048828125
STABILIZE,2.2908239364624023,29.785494649083564,0.03246668179829915,0.032605886459350586,0.0,0.0,0.0,0.2572623834614095,-0.9464165178846485,-14.083031299639536,0.009014294935501026,-0.018814777506042147,-0.04387033178769287,0.4,-0.13334321664579263,-0.004208967095804319,0.8657740017613644,-0.43900288573140717,-1.3918319717049599,-0.4210884217172861,1.2662001885473728,-0.7790005771997024,-69.63216066360474,-24.981611967086792,34.82801616191864,0.0,0.0,0.0,0.0,0.0,0.0,0.0,0.0,0.0,0.0,0.0,0.0,0.0,0.0,0.0,0.0,True,0,2.410813570022583,0.03492578125
STABILIZE,2.3242459297180176,29.919564007818185,0.03234818776448568,0.032479047775268555,0.0,0.0,0.0,0.2574922620156627,-0.9471494825599556,-14.08045717209609,0.0050254290952623515,-0.03772528717007339,-0.04058799298050098,0.4,-0.15241888827671635,-0.018226523257581145,0.8631079983565196,-0.40348012842262765,-1.1201324872672558,-0.7177163381129503,1.5654593706130981,1.1646763867511696,24.363933503627777,-5.158339440822601,28.93497943878174,0.0,0.0,0.0,0.0,0.0,0.0,0.0,0.0,0.0,0.0,0.0,0.0,0.0,0.0,0.0,0.0,True,0,2.4325737953186035,0.029936279296875
STABILIZE,2.3576788902282715,29.909322988718856,0.031064780553181966,0.031219005584716797,0.0,0.0,0.0,0.2593380139171529,-0.9488610852772784,-14.086464323471114,0.013575688001574585,-0.030890543485208102,-0.037111794303722155,0.4,-0.16906662821392374,-0.03144598517693169,0.8564499452624522,-0.36626665576335987,-1.1201324872672558,-0.7177163381129503,1.5654593706130981,1.1646763867511696,24.363933503627777,-5.158339440822601,28.93497943878174,0.0,0.0,0.0,0.0,0.0,0.0,0.0,0.0,0.0,0.0,0.0,0.0,0.0,0.0,0.0,0.0,True,0,2.463454246520996,0.029936279296875
STABILIZE,2.3912484645843506,29.791629968463223,0.032419474919637044,0.03253173828125,0.0,0.0,0.0,0.25892051860413584,-0.9478098764753311,-14.076706544468106,0.007576263262754326,-0.004326275092037179,-0.03647413191454263,0.4,-0.13036550524655877,-0.029614893036352907,0.8371535603083518,-0.3574998320220872,0.11686634970828891,-0.5339214112609625,1.2121695093810558,0.14206487982743723,-39.89329636096954,-28.764700889587402,28.157266974449158,0.0,0.0,0.0,0.0,0.0,0.0,0.0,0.0,0.0,0.0,0.0,0.0,0.0,0.0,0.0,0.0,True,0,2.5235676765441895,0.03492578125
STABILIZE,2.424924850463867,29.693977387770705,0.03226617177327474,0.03278398513793945,0.0,0.0,0.0,0.2610066077870459,-0.9491819974465633,-14.09826603658325,0.01117785331900914,-0.016932399737849133,-0.03516896523032805,0.4,-0.15697112842969702,-0.0329935105914003,0.8322689320043393,-0.34213421992384563,-1.6345012933015823,-0.17268569208681583,1.3591052033007145,0.13388967699946086,-43.624287843704224,8.711710572242737,31.55178129673004,0.0,0.0,0.0,0.0,0.0,0.0,0.0,0.0,0.0,0.0,0.0,0.0,0.0,0.0,0.0,0.0,True,0,2.552309989929199,0.02993603515625
STABILIZE,2.4584591388702393,29.819376213057296,0.03243735631306966,0.03257870674133301,0.0,0.0,0.0,0.2628271733659716,-0.9505517705402682,-14.101728942492446,0.006414153754068788,-0.009194396319442326,-0.03526012731449377,0.4,-0.15020982716770054,-0.026262956954671075,0.8244257788864223,-0.3407641538279477,0.14674568083137274,0.362224318087101,1.4038248918950558,-0.7212727788301067,46.24978303909302,10.860617458820343,29.301074147224426,0.0,0.0,0.0,0.0,0.0,0.0,0.0,0.0,0.0,0.0,0.0,0.0,0.0,0.0,0.0,0.0,True,0,2.5823123455047607,0.034925048828125
STABILIZE,2.4918458461761475,29.950970800991154,0.0323667844136556,0.032494544982910156,0.0,0.0,0.0,0.2615849327106755,-0.9482529849977357,-14.08334292702042,0.006025777847290772,0.001132183966594822,-0.0335744309253276,0.4,-0.12948861005696688,-0.03744367267941503,0.8263668229998762,-0.3217552680848271,1.0213179513812065,-0.6333835888653994,1.708739809691906,0.3759152557841074,23.871855437755585,-28.08069884777069,37.87526786327362,0.0,0.0,0.0,0.0,0.0,0.0,0.0,0.0,0.0,0.0,0.0,0.0,0.0,0.0,0.0,0.0,True,0,2.6096365451812744,0.0349248046875
STABILIZE,2.5252766609191895,29.913802571801472,0.03242948849995931,0.03254222869873047,0.0,0.0,0.0,0.26425809799708927,-0.9498292645921277,-14.09989247537936,0.0017733396747541049,0.0012496639151042435,-0.032840984345231736,0.4,-0.1432985433579081,-0.0365196045911766,0.825740141605718,-0.3123327922047557,-0.9650588035583496,0.05250201793387532,1.5570118092000484,-0.16647888408754535,-48.06027412414551,10.616595298051834,23.1647789478302,0.0,0.0,0.0,0.0,0.0,0.0,0.0,0.0,0.0,0.0,0.0,0.0,0.0,0.0,0.0,0.0,True,0,2.638427495956421,0.034926025390625
STABILIZE,2.55891489982605,29.7284937662577,0.032430203755696614,0.03255438804626465,0.0,0.0,0.0,0.26526651139501817,-0.9516551662563425,-14.111204976192193,0.0019004740579812304,-0.01187304576141557,-0.032118109057370905,0.4,-0.15701897724357972,-0.03545045208555249,0.8251813936172877,-0.30307571805497896,-0.9650588035583496,0.05250201793387532,1.5570118092000484,-0.16647888408754535,-48.06027412414551,10.616595298051834,23.1647789478302,0.0,0.0,0.0,0.0,0.0,0.0,0.0,0.0,0.0,0.0,0.0,0.0,0.0,0.0,0.0,0.0,True,0,2.66701602935791,0.034926025390625
STABILIZE,2.592418909072876,29.84611224569668,0.0322294553120931,0.032669782638549805,0.0,0.0,0.0,0.2628933408235561,-0.9504364043763184,-14.08472774787464,-0.002686207698423716,-0.008378232987085855,-0.03141632616993919,0.4,-0.1670808252919646,-0.024557305592327557,0.8156595668571556,-0.29407448163649746,-0.2185602905228734,0.2854852005839348,1.475943811237812,-0.41731700772709507,-41.29559397697449,20.679135620594025,23.79404306411743,0.0,0.0,0.0,0.0,0.0,0.0,0.0,0.0,0.0,0.0,0.0,0.0,0.0,0.0,0.0,0.0,True,0,2.7248096466064453,0.069850830078125
STABILIZE,2.6259512901306152,29.821920437982154,0.0324895699818929,0.03261423110961914,0.0,0.0,0.0,0.2643532937586463,-0.9502651160385391,-14.099889914058421,-0.0021585158627954685,-0.012689394489765317,-0.031809460933947646,0.4,-0.1766032969076206,-0.020173256887033284,0.840682976783468,-0.2960245844905811,-0.2185602905228734,0.2854852005839348,1.475943811237812,-0.41731700772709507,-41.29559397697449,20.679135620594025,23.79404306411743,0.0,0.0,0.0,0.0,0.0,0.0,0.0,0.0,0.0,0.0,0.0,0.0,0.0,0.0,0.0,0.0,True,0,2.753479242324829,0.069850830078125
STABILIZE,2.6594011783599854,29.896531569418507,0.03240516980489095,0.03251934051513672,0.0,0.0,0.0,0.2661019289078754,-0.9509526172671833,-14.112001547004146,-0.006905668641286715,-0.024669088065671505,-0.03185772157393093,0.4,-0.20168725640716276,-0.016147835109830824,0.8575554120289149,-0.29453796040524455,-1.073998585343361,0.18989368109032512,1.245768554508686,-0.29138638208076345,-39.41463530063629,8.720383048057556,20.33735066652298,0.0,0.0,0.0,0.0,0.0,0.0,0.0,0.0,0.0,0.0,0.0,0.0,0.0,0.0,0.0,0.0,True,0,2.782137155532837,0.02993603515625
STABILIZE,2.6928508281707764,29.895039949822166,0.03237894376118978,0.032501935958862305,0.0,0.0,0.0,0.2649114482798833,-0.9524966669064293,-14.096124772278452,-0.0036187418070749494,-0.017740274906386234,-0.028920443618451242,0.4,-0.18850739658171772,-0.025012160154851814,0.8486678727725794,-0.2634034821650195,0.23682743776589632,-0.48491167835891247,1.5914898365736008,0.8145744969138031,39.823538064956665,-10.285722464323044,30.91243803501129,0.0,0.0,0.0,0.0,0.0,0.0,0.0,0.0,0.0,0.0,0.0,0.0,0.0,0.0,0.0,0.0,True,0,2.811171770095825,0.0349248046875
STABILIZE,2.7262799739837646,29.914442621781614,0.03237775166829427,0.03249812126159668,0.0,0.0,0.0,0.26592818597086315,-0.9514243272067373,-14.100980183004685,-0.0003191636916508036,-0.011323991901856293,-0.02613119473189138,0.4,-0.17709769000256576,-0.033808170821911385,0.8445641295688836,-0.23394684236731436,0.23682743776589632,-0.48491167835891247,1.5914898365736008,0.8145744969138031,39.823538064956665,-10.285722464323044,30.91243803501129,0.0,0.0,0.0,0.0,0.0,0.0,0.0,0.0,0.0,0.0,0.0,0.0,0.0,0.0,0.0,0.0,True,0,2.839871644973755,0.0349248046875
STABILIZE,2.7599263191223145,29.72069952665741,0.03238681157430013,0.03271603584289551,0.0,0.0,0.0,0.2668680840336804,-0.9502901956393978,-14.109978103462531,0.0026712732034837555,-0.010844038074730417,-0.025717080718387773,0.4,-0.18378883858398923,-0.033060238572736086,0.8339368667570977,-0.22826899830330888,-0.6753395311534405,-0.006998699973337352,1.2341885827481747,-0.3532127742000428,-30.574291944503784,-8.786293864250183,20.27498632669449,0.0,0.0,0.0,0.0,0.0,0.0,0.0,0.0,0.0,0.0,0.0,0.0,0.0,0.0,0.0,0.0,True,0,2.868313789367676,0.064862060546875
STABILIZE,2.7933714389801025,29.899515255203877,0.03238728841145833,0.03251934051513672,0.0,0.0,0.0,0.26800168199249097,-0.9529645348645751,-14.105739117308891,0.00980137468598136,-0.012073412620676632,-0.022072723042662352,0.4,-0.19612402846009405,-0.050448028116101946,0.8427115043845725,-0.19055107524904075,-0.4925686400383711,-0.4284969065338373,1.4808154664933681,0.31980261039023455,2.493525668978691,-6.696031242609024,20.144332945346832,0.0,0.0,0.0,0.0,0.0,0.0,0.0,0.0,0.0,0.0,0.0,0.0,0.0,0.0,0.0,0.0,True,0,2.926147699356079,0.034925048828125
STABILIZE,2.8269007205963135,29.824040957087497,0.03239396413167318,0.032579898834228516,0.0,0.0,0.0,0.2678178004934295,-0.9518856851408305,-14.10816724955883,0.009182183447841824,0.0017201977830009012,-0.021395498372813262,0.4,-0.16806856804580833,-0.044820783013807375,0.8378350965505834,-0.18255553397609237,0.9885345585644245,0.20570559427142143,1.5857366845011711,-0.1679229755091138,25.589236617088318,7.494281232357025,28.82169485092163,0.0,0.0,0.0,0.0,0.0,0.0,0.0,0.0,0.0,0.0,0.0,0.0,0.0,0.0,0.0,0.0,True,0,2.954864263534546,0.034926025390625
STABILIZE,2.8602845668792725,29.95460713316479,0.032370837529500325,0.03250288963317871,0.0,0.0,0.0,0.26751716544824317,-0.9509627558292325,-14.11000542421921,0.006886391581823925,-0.001114733017316568,-0.02100781190099413,0.4,-0.1668377781034103,-0.04588734963796616,0.8248785446014723,-0.17749135760456022,-0.30412424821406603,-0.12101054890081286,1.1579879559576511,-0.2856272519499733,-21.594543755054474,-10.479088872671127,20.443789660930634,0.0,0.0,0.0,0.0,0.0,0.0,0.0,0.0,0.0,0.0,0.0,0.0,0.0,0.0,0.0,0.0,True,0,2.9834086894989014,0.029935791015625
STABILIZE,2.8937361240386963,29.89397459837783,0.0324433167775472,0.03257131576538086,0.0,0.0,0.0,0.2689753041143351,-0.9523271928376483,-14.11136036299581,0.004460690532227718,-0.003359064827555625,-0.020677848347780282,0.4,-0.1650061098895222,-0.04649944874305336,0.8091196836419849,-0.17303422597962523,-0.30412424821406603,-0.12101054890081286,1.1579879559576511,-0.2856272519499733,-21.594543755054474,-10.479088872671127,20.443789660930634,0.0,0.0,0.0,0.0,0.0,0.0,0.0,0.0,0.0,0.0,0.0,0.0,0.0,0.0,0.0,0.0,True,0,3.012242317199707,0.029935791015625
STABILIZE,2.92765212059021,29.48399024301089,0.03243759473164876,0.033084869384765625,0.0,0.0,0.0,0.2698331331854064,-0.9532673043438771,-14.11314645746377,0.004895750318402198,-0.0013502023616673543,-0.020382742106977565,0.4,-0.1633633339032517,-0.047102401996976254,0.7946074234695479,-0.16893604449732455,-0.30412424821406603,-0.12101054890081286,1.1579879559576511,-0.2856272519499733,-21.594543755054474,-10.479088872671127,20.443789660930634,0.0,0.0,0.0,0.0,0.0,0.0,0.0,0.0,0.0,0.0,0.0,0.0,0.0,0.0,0.0,0.0,True,0,3.041032075881958,0.029935791015625
STABILIZE,2.9611728191375732,29.834223647990214,0.032497437795003255,0.032636165618896484,0.0,0.0,0.0,0.27041732780285405,-0.9522710572204073,-14.110642339359314,-0.0006358166711435706,0.005235290823250708,-0.020255164448458464,0.4,-0.15028638038039177,-0.04602815189014785,0.7769521805387573,-0.1665452342777569,0.31564810778945684,-0.03196916077286005,0.9304565377533436,-0.35880779302776755,25.075188279151917,-4.479700326919556,15.793424844741821,0.0,0.0,0.0,0.0,0.0,0.0,0.0,0.0,0.0,0.0,0.0,0.0,0.0,0.0,0.0,0.0,True,0,3.0696702003479004,0.0848193359375
STABILIZE,2.9946746826171875,29.847598986649967,0.03242972691853841,0.03256654739379883,0.0,0.0,0.0,0.2711389799773482,-0.9526964499396522,-14.115354316112976,0.0027161620007268355,-0.000479493809215087,-0.0195401405144573,0.4,-0.14662164428970806,-0.05106092654740239,0.8146146788441831,-0.15833552993124445,-0.39113061502575874,-0.05056841764599085,1.3266541063785553,-0.10931302885974183,-23.765800893306732,3.397275134921074,18.415680527687073,0.0,0.0,0.0,0.0,0.0,0.0,0.0,0.0,0.0,0.0,0.0,0.0,0.0,0.0,0.0,0.0,True,0,3.1273813247680664,0.049892822265625
STABILIZE,3.028181552886963,29.845262745935177,0.03236392339070638,0.0325322151184082,0.0,0.0,0.0,0.2717528432290031,-0.9540168108835803,-14.118884670140227,0.003798838337628471,0.004667239056535727,-0.018802176549656154,0.4,-0.12700600238893078,-0.05519499666010096,0.8088958824044331,-0.14995123974329258,0.5130110774189234,-0.24443131405860186,1.28032136708498,-0.05367057595616891,23.075953125953674,-10.08337065577507,17.867401242256165,0.0,0.0,0.0,0.0,0.0,0.0,0.0,0.0,0.0,0.0,0.0,0.0,0.0,0.0,0.0,0.0,True,0,3.156031608581543,0.064862060546875
STABILIZE,3.061586618423462,29.93643429664471,0.0323214848836263,0.03245830535888672,0.0,0.0,0.0,0.2715588231678924,-0.9531817135358404,-14.113627985800255,0.005437213658117272,0.009962949896628898,-0.01808333331937858,0.4,-0.10640136501753392,-0.0605749727146782,0.8119658797326588,-0.14181533059570894,0.5130110774189234,-0.24443131405860186,1.28032136708498,-0.05367057595616891,23.075953125953674,-10.08337065577507,17.867401242256165,0.0,0.0,0.0,0.0,0.0,0.0,0.0,0.0,0.0,0.0,0.0,0.0,0.0,0.0,0.0,0.0,True,0,3.1847379207611084,0.064862060546875
STABILIZE,3.0951144695281982,29.825949682135594,0.032375605901082356,0.032521963119506836,0.0,0.0,0.0,0.27268377666853466,-0.952779052539927,-14.118325448401931,0.0053502580294156445,0.011332829659590395,-0.017331723922920126,0.4,-0.1000373323445089,-0.060810825452477194,0.8149710996684907,-0.13340642619504373,-0.0845401082187891,-0.04889106494374573,1.348595879971981,-0.04401168461872587,-3.567105159163475,3.6941252648830414,20.754343271255493,0.0,0.0,0.0,0.0,0.0,0.0,0.0,0.0,0.0,0.0,0.0,0.0,0.0,0.0,0.0,0.0,True,0,3.213642120361328,0.034917236328125
STABILIZE,3.130288600921631,28.43056233392983,0.03228596051534017,0.033917903900146484,0.0,0.0,0.0,0.2740412767660747,-0.9542902318937923,-14.125780599881,0.0031611591736540904,0.008205657438674881,-0.01651320602275823,0.4,-0.09998777748642584,-0.05299982107253593,0.7978982712886307,-0.12435294468341518,-0.27494197711348534,0.1677471911534667,1.316145434975624,-0.0009866688503759435,-10.621808469295502,-4.109770804643631,20.895011723041534,0.0,0.0,0.0,0.0,0.0,0.0,0.0,0.0,0.0,0.0,0.0,0.0,0.0,0.0,0.0,0.0,True,0,3.242173671722412,0.034926025390625
STABILIZE,3.163393259048462,30.20548902123737,0.03206017812093099,0.03220319747924805,0.0,0.0,0.0,0.2739662514069104,-0.9544902283704267,-14.12264212795738,-0.0007296535729975489,0.007323676547918098,-0.015759335984246843,0.4,-0.09996605020045353,-0.045835913413108484,0.7826652148621984,-0.11603751877669703,-0.27494197711348534,0.1677471911534667,1.316145434975624,-0.0009866688503759435,-10.621808469295502,-4.109770804643631,20.895011723041534,0.0,0.0,0.0,0.0,0.0,0.0,0.0,0.0,0.0,0.0,0.0,0.0,0.0,0.0,0.0,0.0,True,0,3.2709531784057617,0.034926025390625
STABILIZE,3.196901798248291,29.8437762377083,0.032428773244222005,0.0325627326965332,0.0,0.0,0.0,0.27655457293722785,-0.9526274009960115,-14.130220222841508,-0.0020483397869069937,0.005332610205336056,-0.013996511300126087,0.4,-0.09025904359342275,-0.04557687200173405,0.7578879339201693,-0.09775518935466385,-0.28698795940726995,0.15496945707127452,1.4435355551540852,-0.10399559318875468,-10.280251502990723,-2.075834199786186,18.780863285064697,0.0,0.0,0.0,0.0,0.0,0.0,0.0,0.0,0.0,0.0,0.0,0.0,0.0,0.0,0.0,0.0,True,0,3.328324556350708,0.064862060546875
STABILIZE,3.2307043075561523,29.585063235781647,0.032366069157918294,0.032501220703125,0.0,0.0,0.0,0.2770978931413612,-0.9540285502712161,-14.130228760577971,-0.0029795063615243303,0.0014442609750740182,-0.012082148957548212,0.4,-0.086450319142338,-0.04760932347425643,0.7701342425963892,-0.07808895151599919,-0.08059169631451368,-0.15516200801357627,1.531646028161049,0.49719177452173646,10.895613580942154,-3.853171691298485,20.67592442035675,0.0,0.0,0.0,0.0,0.0,0.0,0.0,0.0,0.0,0.0,0.0,0.0,0.0,0.0,0.0,0.0,True,0,3.3569183349609375,0.034925048828125
STABILIZE,3.275256395339966,22.444676330984144,0.032002957661946614,0.043596506118774414,0.0,0.0,0.0,0.2777659710195531,-0.9544820107990816,-14.130922024778728,-0.002808228615448892,0.0007045277703637608,-0.010406807646261469,0.4,-0.08275975879031057,-0.048509936733372054,0.7623504038675835,-0.060789610739432016,-0.08059169631451368,-0.15516200801357627,1.531646028161049,0.49719177452173646,10.895613580942154,-3.853171691298485,20.67592442035675,0.0,0.0,0.0,0.0,0.0,0.0,0.0,0.0,0.0,0.0,0.0,0.0,0.0,0.0,0.0,0.0,True,0,3.385688543319702,0.034925048828125
STABILIZE,3.3086977005004883,29.903139102970847,0.032375367482503255,0.03251981735229492,0.0,0.0,0.0,0.27844674878073294,-0.9537906675890293,-14.134920246764125,-0.0016869780561553944,0.005441671745516213,-0.011005856343989756,0.4,-0.06570038629431003,-0.04512908432848465,0.7513914748349217,-0.06633634699616384,0.5333862733095884,0.03672359453048557,1.3387317769229412,-0.48022120903348775,15.105651319026947,4.212254285812378,25.83673596382141,0.0,0.0,0.0,0.0,0.0,0.0,0.0,0.0,0.0,0.0,0.0,0.0,0.0,0.0,0.0,0.0,True,1,3.4144234657287598,0.029935791015625
STABILIZE,3.3421549797058105,29.889287953936492,0.03239253362019857,0.032518625259399414,0.0,0.0,0.0,0.2789246485792223,-0.9541946092454121,-14.13587561947428,-0.0005442011420667811,0.00645408794925898,-0.010319481349987659,0.4,-0.06200613990352621,-0.04211983575399522,0.7307172128787955,-0.05907743512749181,-0.06110008107498288,-0.06654171738773584,1.549772173166275,0.13636866214220528,-4.62789423763752,0.08964220760390162,19.191935658454895,0.0,0.0,0.0,0.0,0.0,0.0,0.0,0.0,0.0,0.0,0.0,0.0,0.0,0.0,0.0,0.0,True,0,3.4717979431152344,0.034925048828125
STABILIZE,3.3778183460235596,28.042602410927397,0.03234604199727376,0.034657955169677734,0.0,0.0,0.0,0.2799215360329268,-0.9538299411767569,-14.138239718700751,-0.0009328933769794578,0.004738726572031156,-0.010122009229802552,0.4,-0.059668901574514814,-0.040626397979590105,0.7200382517331869,-0.05669865243167791,-0.08296422893181443,-0.029041222296655178,1.1714184656739235,-0.09847150427473496,11.12467646598816,2.036050520837307,15.397116541862488,0.0,0.0,0.0,0.0,0.0,0.0,0.0,0.0,0.0,0.0,0.0,0.0,0.0,0.0,0.0,0.0,True,0,3.5006895065307617,0.029935791015625
STABILIZE,3.411400556564331,29.774499712498848,0.032327922185262044,0.032668113708496094,0.0,0.0,0.0,0.27945900416006997,-0.9533826705078269,-14.139901162216356,-0.0018215248414929933,0.006390533864690544,-0.009774083221336282,0.4,-0.050407985481028775,-0.03975580002488407,0.7081257483736108,-0.05286356341922072,0.2833857899531722,-0.0625898886937648,1.2209291569888592,0.0006155441185209538,-0.08491314947605133,-3.623124212026596,22.863391041755676,0.0,0.0,0.0,0.0,0.0,0.0,0.0,0.0,0.0,0.0,0.0,0.0,0.0,0.0,0.0,0.0,True,0,3.5294313430786133,0.034926025390625
STABILIZE,3.444931745529175,29.821708402656313,0.0324285348256429,0.03256964683532715,0.0,0.0,0.0,0.27928035202459184,-0.953976363357089,-14.139802978247037,-0.002688045212544143,0.0064604482676317325,-0.009624302032094183,0.4,-0.047768469736116696,-0.03774161846834332,0.7035653667573972,-0.05102410699629267,-0.04334918630775064,0.007749855285510421,1.371617242693901,-0.1033126943336724,-9.858787059783936,2.1060189232230186,16.858606040477753,0.0,0.0,0.0,0.0,0.0,0.0,0.0,0.0,0.0,0.0,0.0,0.0,0.0,0.0,0.0,0.0,True,0,3.558070659637451,0.034925048828125
STABILIZE,3.47839617729187,29.882686539516527,0.03236058553059896,0.03256487846374512,0.0,0.0,0.0,0.28000520585025945,-0.9554068611013836,-14.143808030421603,-0.002440648803140121,0.0033857576266530854,-0.009053559109143319,0.4,-0.04412940006230678,-0.035444984174781737,0.6976436626211028,-0.045015211473894305,0.019523169612511992,0.027074405807070434,1.267124805599451,0.12545587413816284,5.431629344820976,0.3618724178522825,17.83476024866104,0.0,0.0,0.0,0.0,0.0,0.0,0.0,0.0,0.0,0.0,0.0,0.0,0.0,0.0,0.0,0.0,True,0,3.58683705329895,0.029935791015625
STABILIZE,3.511807918548584,29.929171334584453,0.03241780598958333,0.03254079818725586,0.0,0.0,0.0,0.2785734274454955,-0.9556349253866385,-14.145092105985565,-0.0028051838529610223,0.008125644985025738,-0.008947991209451504,0.4,-0.02395867419796704,-0.031630707728710294,0.6853833221696373,-0.04366723101812508,0.39094644598662853,0.011914427886949852,1.2830082327127457,-0.13197550314435158,12.849242985248566,-3.591596707701683,12.585091590881348,0.0,0.0,0.0,0.0,0.0,0.0,0.0,0.0,0.0,0.0,0.0,0.0,0.0,0.0,0.0,0.0,True,0,3.644239664077759,0.03492626953125
STABILIZE,3.545259714126587,29.893548479060353,0.03245380719502767,0.032579898834228516,0.0,0.0,0.0,0.2792534581547349,-0.9556776140689511,-14.145511308845876,-0.0028856354999167656,0.008073850961306521,-0.008903810714471237,0.4,-0.022249936339294743,-0.030121347923967052,0.6819395698881662,-0.04293842896629721,-0.04874396254308522,-0.001149054332927335,1.2908721342682838,-0.12274775749310568,-12.303439527750015,4.423137009143829,19.707955420017242,0.0,0.0,0.0,0.0,0.0,0.0,0.0,0.0,0.0,0.0,0.0,0.0,0.0,0.0,0.0,0.0,True,0,3.673024892807007,0.034925048828125
STABILIZE,3.5787394046783447,29.869705170203673,0.03245094617207845,0.03256344795227051,0.0,0.0,0.0,0.281289708301045,-0.9554431464813493,-14.149976545015772,-0.004494713330691464,0.005625575932337648,-0.00856011209351433,0.4,-0.023120764008682047,-0.024525162922620386,0.6827325358171303,-0.039239057827248146,-0.18038563430309296,0.22788315545767546,1.5008923597633839,0.049784755272333704,-5.237364023923874,2.608296275138855,21.33851945400238,0.0,0.0,0.0,0.0,0.0,0.0,0.0,0.0,0.0,0.0,0.0,0.0,0.0,0.0,0.0,0.0,True,0,3.701639413833618,0.029936767578125
STABILIZE,3.6122970581054688,29.80073181995808,0.0322909673055013,0.03242826461791992,0.0,0.0,0.0,0.2813049695049717,-0.9555076063916413,-14.149809205381105,-0.003932823624381321,0.005781682999971934,-0.00835895662927941,0.4,-0.020284885885818064,-0.024394265917820377,0.67592644370284,-0.03698002652026109,0.05167042836546898,-0.06957374862395227,1.2394812889397144,-0.011472636732358684,6.856896728277206,-2.944761887192726,26.803329586982727,0.0,0.0,0.0,0.0,0.0,0.0,0.0,0.0,0.0,0.0,0.0,0.0,0.0,0.0,0.0,0.0,True,0,3.7304139137268066,0.034925048828125
STABILIZE,3.6463663578033447,29.353993015459768,0.032274516423543294,0.03281378746032715,0.0,0.0,0.0,0.28042152722451286,-0.9554021653463293,-14.151854847037525,-0.004348471265372289,0.006682605746955597,-0.008583398830578067,0.4,-0.01386927397825475,-0.021047094638667524,0.6782495417277746,-0.03896066290562947,0.24591311812400818,0.11472951155155897,1.5309587121009827,-0.25255734361862275,1.412966288626194,2.693609707057476,18.28562170267105,0.0,0.0,0.0,0.0,0.0,0.0,0.0,0.0,0.0,0.0,0.0,0.0,0.0,0.0,0.0,0.0,True,0,3.7610433101654053,0.034925048828125
