Mode,Time,Freq,time2delay,actualDelay,North-Desired,East-Desired,Down-Desired,Roll-UAV,Pitch-UAV,Yaw-UAV,Roll-Control,Pitch-Control,Yaw-Control,Thrust-Control,North-Pos,East-Pos,Down-Pos,Yaw-Ang,North-Vel,East-Vel,Down-Vel,Yaw-Vel,North-Acc,East-Acc,Down-Acc,North-Avg,East-Avg,Down-Avg,Yaw-Avg,North-Dif,East-Dif,Down-Dif,Yaw-Dif,North-One,East-One,Down-One,Yaw-One,North-Two,East-Two,Down-Two,Yaw-Two,Landing-State,Q-Size,Kalman-Time,Kalman-Dt
STABILIZE,0.035974979400634766,27.828450106157113,0.032258065541585286,0.03246760368347168,-10.0,40.0,10.0,3.2932423026660556,-1.2736311375043898,68.4708295990586,4.000471706574607,3.9995282377920587,-0.0013558521693118894,0.5190210315254856,-0.001640922243778583,0.009437546654164733,0.5019457594938669,-0.006757097433456573,-0.08388361893594265,0.00311787189275492,1.0879556648433208,0.0017294786030412756,-1.217254064977169,-0.2727570943534374,15.457038581371307,0.0,0.0,0.0,0.0,0.0,0.0,0.0,0.0,0.0,0.0,0.0,0.0,0.0,0.0,0.0,0.0,False,0,3.4861371517181396,0.0349189453125
STABILIZE,0.06892943382263184,30.341399191244022,0.030506404240926106,0.030674219131469727,-10.0,40.0,10.0,3.2944683216220727,-1.2744122336690042,68.4761844673679,4.0004275953515,3.999572358934167,-0.0012335491726374302,0.5190603962175335,-0.002377222567445951,0.008534928927846392,0.4949278568120653,-0.00612517966154786,-0.036628960515372455,-0.011690518294926733,1.233831699937582,0.0031677370163781158,0.050875754095613956,-0.33299075439572334,13.86232078075409,0.0,0.0,0.0,0.0,0.0,0.0,0.0,0.0,0.0,0.0,0.0,0.0,0.0,0.0,0.0,0.0,False,0,3.514916181564331,0.034919921875
STABILIZE,0.10230183601379395,29.963808857042842,0.031096728642781575,0.03130173683166504,-10.0,40.0,10.0,3.2954403429183303,-1.2755192579230752,68.47888239209006,4.000388565865662,3.9996113963848132,-0.001125456366068981,0.5190958293609922,-0.003049466757019602,0.0077452476151724245,0.4899567216743269,-0.005566066411128103,-0.036628960515372455,-0.011690518294926733,1.233831699937582,0.0031677370163781158,0.050875754095613956,-0.33299075439572334,13.86232078075409,0.0,0.0,0.0,0.0,0.0,0.0,0.0,0.0,0.0,0.0,0.0,0.0,0.0,0.0,0.0,0.0,False,0,3.5439860820770264,0.034919921875
STABILIZE,0.1358962059020996,29.76837144601059,0.0312381108601888,0.03147387504577637,-10.0,40.0,10.0,3.2953985080096637,-1.274314263143097,68.4829941659704,4.000146138115587,3.9998538565451303,-0.0004323092698032199,0.5191338095598992,0.00017815273751255927,0.008741028704372386,0.4837289362385312,-0.00209331255255,0.13944684760645032,0.06600199267268181,1.0980513878166676,0.13896393392361178,5.403844267129898,1.8321046605706215,18.193419277668,0.0,0.0,0.0,0.0,0.0,0.0,0.0,0.0,0.0,0.0,0.0,0.0,0.0,0.0,0.0,0.0,False,0,3.5723025798797607,0.06485107421875
STABILIZE,0.16995906829833984,29.356047509396195,0.031183989842732747,0.03196310997009277,-10.0,40.0,10.0,3.2975184279733067,-1.2747372012631089,68.48550767558497,4.000104970906534,3.727783017186437,-0.0003374203436388409,0.5191283798497937,0.0031798477198090383,0.010546600423780552,0.49939032179472964,-0.001613371547112272,0.1207986380904913,0.07991333259269595,1.1976998299360275,-0.006229826214139208,4.307238757610321,-0.025485889636911452,21.446068584918976,0.0,0.0,0.0,0.0,0.0,0.0,0.0,0.0,0.0,0.0,0.0,0.0,0.0,0.0,0.0,0.0,False,1,3.6011874675750732,0.034919189453125
STABILIZE,0.20368623733520508,29.650944463296007,0.03119829495747884,0.031511545181274414,-10.0,40.0,10.0,3.298124607262145,-1.274741576853046,68.48783677009193,4.000186987339728,1.7360898390104207,-0.0012529617694837186,0.5191816055002885,0.008718901805618755,0.01075691010839672,0.48557172838186885,-0.006170335259718282,0.2984447870403528,0.009641300130169839,1.1026166379451752,-0.0008320207610653594,4.070289433002472,1.608765684068203,13.22377473115921,0.0,0.0,0.0,0.0,0.0,0.0,0.0,0.0,0.0,0.0,0.0,0.0,0.0,0.0,0.0,0.0,False,0,3.6597142219543457,0.0349189453125
STABILIZE,0.2372739315032959,29.774076992425694,0.030962737401326497,0.031151771545410156,-10.0,40.0,10.0,3.2977562039337878,-1.275913487904232,68.49272718553766,4.000178795872632,1.7453310378636597,-0.001196594819747107,0.5192119580828687,0.014637118090932861,0.01048756563525394,0.4831561595108085,-0.005868827371947821,0.2984447870403528,0.009641300130169839,1.1026166379451752,-0.0008320207610653594,4.070289433002472,1.608765684068203,13.22377473115921,0.0,0.0,0.0,0.0,0.0,0.0,0.0,0.0,0.0,0.0,0.0,0.0,0.0,0.0,0.0,0.0,False,0,3.6894290447235107,0.0349189453125
STABILIZE,0.27071452140808105,29.902712722346987,0.03094962437947591,0.031193017959594727,-10.0,40.0,10.0,3.2977963312951615,-1.275793852872051,68.49503578947713,4.000171227428526,1.7543762583014424,-0.0011448698788899254,0.5192403652196393,0.020300581377072257,0.010243894494426906,0.481717511899989,-0.0055914559839145735,0.2984447870403528,0.009641300130169839,1.1026166379451752,-0.0008320207610653594,4.070289433002472,1.608765684068203,13.22377473115921,0.0,0.0,0.0,0.0,0.0,0.0,0.0,0.0,0.0,0.0,0.0,0.0,0.0,0.0,0.0,0.0,False,0,3.7178516387939453,0.0349189453125
STABILIZE,0.30437684059143066,29.706806431050357,0.03106859525044759,0.03131604194641113,-10.0,40.0,10.0,3.2976844869475026,-1.2762895751954058,68.49988522378784,4.0001640080542575,1.7614215416359777,-0.0010970170180675375,0.5192671170923233,0.02574929463963499,0.010020827847064852,0.48110223783361755,-0.005334314246858993,0.2984447870403528,0.009641300130169839,1.1026166379451752,-0.0008320207610653594,4.070289433002472,1.608765684068203,13.22377473115921,0.0,0.0,0.0,0.0,0.0,0.0,0.0,0.0,0.0,0.0,0.0,0.0,0.0,0.0,0.0,0.0,False,0,3.7464942932128906,0.0349189453125
STABILIZE,0.33779096603393555,29.92981204241533,0.030956300099690755,0.031159639358520508,-10.0,40.0,10.0,3.2971026402075823,-1.2769513564929564,68.50191378997134,4.000188936773972,1.7633255391534994,-0.0012619440658763617,0.5192844768060432,0.023173414076619887,0.011078807675301021,0.4851751332929583,-0.006138381252422738,-0.11110937921330333,0.07569963345304132,1.3112681917846203,-0.05538045445093276,-1.3405432924628258,0.05634839762933552,22.751593589782715,0.0,0.0,0.0,0.0,0.0,0.0,0.0,0.0,0.0,0.0,0.0,0.0,0.0,0.0,0.0,0.0,False,0,3.7755026817321777,0.06485107421875
STABILIZE,0.3712940216064453,29.84505037855069,0.031043084462483723,0.031320810317993164,-10.0,40.0,10.0,3.2968025387709248,-1.2763219118722575,68.50480295999024,4.000223100310334,1.7650876628130434,-0.0014873142813033953,0.5192619173167494,0.02229160029079004,0.01276872132692514,0.509196342673436,-0.007240929842760927,-0.11110937921330333,0.07569963345304132,1.3112681917846203,-0.05538045445093276,-1.3405432924628258,0.05634839762933552,22.751593589782715,0.0,0.0,0.0,0.0,0.0,0.0,0.0,0.0,0.0,0.0,0.0,0.0,0.0,0.0,0.0,0.0,False,1,3.8044700622558594,0.06485107421875
STABILIZE,0.4054698944091797,29.262245787839678,0.030781062444051106,0.03163337707519531,-10.0,40.0,10.0,3.2971308147379084,-1.2775132462738958,68.51090914910824,4.000159968872674,1.7677196471155643,-0.001079553798236082,0.519210814095048,0.022571483947180643,0.016190381864290046,0.5476609770947221,-0.0051844210820768295,0.08447037544101477,0.06899325526319444,1.0511933825910091,0.14173976549098727,1.5128467231988907,-0.3554547671228647,10.936416685581207,0.0,0.0,0.0,0.0,0.0,0.0,0.0,0.0,0.0,0.0,0.0,0.0,0.0,0.0,0.0,0.0,False,0,3.8627471923828125,0.104760009765625
STABILIZE,0.4389317035675049,29.882260741943988,0.031079562505086263,0.03128194808959961,-10.0,40.0,10.0,3.297338708620771,-1.277594248048584,68.51384613045134,4.000160179870634,1.7700514971750403,-0.0010830261444713025,0.5192361374962923,0.022571483947180643,0.016190381864290046,0.5476609770947221,-0.0051844210820768295,0.08447037544101477,0.06899325526319444,1.0511933825910091,0.14173976549098727,1.5128467231988907,-0.3554547671228647,10.936416685581207,0.0,0.0,0.0,0.0,0.0,0.0,0.0,0.0,0.0,0.0,0.0,0.0,0.0,0.0,0.0,0.0,False,1,3.8627471923828125,0.104760009765625
STABILIZE,0.4726884365081787,29.622046131898244,0.031127007802327473,0.031670570373535156,-10.0,40.0,10.0,3.296706489235721,-1.2777061991179488,68.5162708476067,3.999862655635386,1.7776181684714898,0.0008423007283006234,0.5191242866454907,0.029426738037766742,0.021729313252072252,0.6162837042325984,0.004427236816184114,0.08447037544101477,0.06899325526319444,1.0511933825910091,0.14173976549098727,1.5128467231988907,-0.3554547671228647,10.936416685581207,0.0,0.0,0.0,0.0,0.0,0.0,0.0,0.0,0.0,0.0,0.0,0.0,0.0,0.0,0.0,0.0,False,0,3.923189401626587,0.104760009765625
STABILIZE,0.5063610076904297,29.697761854524085,0.031241925557454427,0.03148698806762695,-10.0,40.0,10.0,3.295633295762383,-1.2781828182559687,68.52209016877956,3.9996593351393597,1.7863635853384345,0.0021499563619712786,0.5191039137785981,0.032532126976324016,0.02434367805585296,0.6390459379810149,0.010928809717202153,0.08447037544101477,0.06899325526319444,1.0511933825910091,0.14173976549098727,1.5128467231988907,-0.3554547671228647,10.936416685581207,0.0,0.0,0.0,0.0,0.0,0.0,0.0,0.0,0.0,0.0,0.0,0.0,0.0,0.0,0.0,0.0,False,0,3.952211618423462,0.104760009765625
STABILIZE,0.5398833751678467,29.83316262660749,0.03111890157063802,0.03131103515625,-10.0,40.0,10.0,3.295640552838376,-1.2785722457603652,68.52479492369088,3.9995808776201787,1.794817591630561,0.00264976739324671,0.5190949014864946,0.036890054281481906,0.023200007525993504,0.6560582463088849,0.013383084247862099,0.12679639039561152,-0.024368301092181355,1.1004325933754444,0.021210352054681237,1.2450504116714,-0.40957597084343433,11.087661981582642,0.0,0.0,0.0,0.0,0.0,0.0,0.0,0.0,0.0,0.0,0.0,0.0,0.0,0.0,0.0,0.0,False,0,3.981487274169922,0.129700927734375
STABILIZE,0.5849332809448242,22.19748721911153,0.03106072743733724,0.04253053665161133,-10.0,40.0,10.0,3.294822210798444,-1.2777796236515264,68.5274313767105,3.999453602910391,1.807143905662266,0.0034545411402780862,0.519062118249503,0.04719792080817483,0.018614914605750522,0.6891160714156079,0.017329405177315325,0.12679639039561152,-0.024368301092181355,1.1004325933754444,0.021210352054681237,1.2450504116714,-0.40957597084343433,11.087661981582642,0.0,0.0,0.0,0.0,0.0,0.0,0.0,0.0,0.0,0.0,0.0,0.0,0.0,0.0,0.0,0.0,False,0,4.043499946594238,0.129700927734375
STABILIZE,0.6183898448944092,29.88779705704208,0.030737908681233723,0.031267404556274414,-10.0,40.0,10.0,3.294822210798444,-1.2777796236515264,68.5274313767105,3.999452061132636,1.812241446789828,0.003466264124848091,0.5190873127319473,0.04719792080817483,0.018614914605750522,0.6891160714156079,0.017329405177315325,0.12679639039561152,-0.024368301092181355,1.1004325933754444,0.021210352054681237,1.2450504116714,-0.40957597084343433,11.087661981582642,0.0,0.0,0.0,0.0,0.0,0.0,0.0,0.0,0.0,0.0,0.0,0.0,0.0,0.0,0.0,0.0,False,1,4.043499946594238,0.129700927734375
STABILIZE,0.6566953659057617,26.104435067279088,0.03114941914876302,0.03625798225402832,-10.0,40.0,10.0,3.296396996288955,-1.2785197386811207,68.52928918816474,3.9991578642583177,1.8011420339076967,0.005381551597788169,0.5191885998377206,0.022842292486915744,0.008875620567282725,0.6528272555109755,0.026802937330397153,-0.19462512573227286,-0.060641480376943946,1.035377848893404,0.13251366068596776,-1.5632890164852142,1.6183726489543915,14.48722630739212,0.0,0.0,0.0,0.0,0.0,0.0,0.0,0.0,0.0,0.0,0.0,0.0,0.0,0.0,0.0,0.0,False,0,4.1103270053863525,0.06485107421875
STABILIZE,0.6909029483795166,29.234711089426362,0.03130462964375814,0.031484127044677734,-10.0,40.0,10.0,3.295707574069607,-1.2779509119893055,68.53145435813164,3.9990469479934396,1.807973981027512,0.0060853061707827555,0.5192654660055336,0.027524903065628523,0.008914020402423133,0.6269605533592136,0.03022041932590344,0.1952446880750358,0.036115606781095266,1.079701166599989,0.1407635420275647,3.918664902448654,-0.2491678111255169,16.458868980407715,0.0,0.0,0.0,0.0,0.0,0.0,0.0,0.0,0.0,0.0,0.0,0.0,0.0,0.0,0.0,0.0,False,0,4.138711452484131,0.104759033203125
STABILIZE,0.7239968776702881,30.22094129175433,0.030559571584065755,0.03079986572265625,-10.0,40.0,10.0,3.2950817579869045,-1.2779020334480578,68.53478066025744,3.998870529329479,1.8144140187145912,0.007203364511572195,0.5192977606506445,0.032309942969997986,0.008619082938003238,0.6233869075513877,0.03569106018972847,0.1952446880750358,0.036115606781095266,1.079701166599989,0.1407635420275647,3.918664902448654,-0.2491678111255169,16.458868980407715,0.0,0.0,0.0,0.0,0.0,0.0,0.0,0.0,0.0,0.0,0.0,0.0,0.0,0.0,0.0,0.0,False,0,4.16766881942749,0.104759033203125
STABILIZE,0.7583355903625488,29.123672899727115,0.030988725026448567,0.03207588195800781,-10.0,40.0,10.0,3.295497972639452,-1.2778039562004446,68.53734198119619,3.9987062966945377,1.8197983609953685,0.008245922543576532,0.5193332515267782,0.037880420097785916,0.008719143448873045,0.6185424766507548,0.04076370877321535,0.1952446880750358,0.036115606781095266,1.079701166599989,0.1407635420275647,3.918664902448654,-0.2491678111255169,16.458868980407715,0.0,0.0,0.0,0.0,0.0,0.0,0.0,0.0,0.0,0.0,0.0,0.0,0.0,0.0,0.0,0.0,False,0,4.1964921951293945,0.104759033203125
STABILIZE,0.7921054363250732,29.608872134804493,0.031002314885457356,0.0314946174621582,-10.0,40.0,10.0,3.294960522129137,-1.2767579767620805,68.54800390649058,3.9985525266606343,1.829043545250861,0.009200273423433008,0.5193697747944106,0.0438369712012061,0.009102230903423101,0.6129629431749934,0.04538218227412071,0.1952446880750358,0.036115606781095266,1.079701166599989,0.1407635420275647,3.918664902448654,-0.2491678111255169,16.458868980407715,0.0,0.0,0.0,0.0,0.0,0.0,0.0,0.0,0.0,0.0,0.0,0.0,0.0,0.0,0.0,0.0,False,0,4.225616931915283,0.104759033203125
STABILIZE,0.8328619003295898,24.533688969999005,0.03107932408650716,0.03859972953796387,-10.0,40.0,10.0,3.294971194299715,-1.2748360255626625,68.55397349182518,3.998663311407947,1.8415162935665041,0.00848216665419334,0.5194189736671314,0.03749801868321812,0.013137089417446552,0.6037085056327601,0.041621718296854376,-0.09227030095644295,0.11661056196317077,1.002395711839199,-0.04281986996941154,1.0140684433281422,1.624024286866188,12.675316631793976,0.0,0.0,0.0,0.0,0.0,0.0,0.0,0.0,0.0,0.0,0.0,0.0,0.0,0.0,0.0,0.0,False,1,4.256033658981323,0.09977099609375
STABILIZE,0.8665943145751953,29.649267658202795,0.0311615784962972,0.03158283233642578,-10.0,40.0,10.0,3.295001503264157,-1.2755736859930238,68.55940349221532,3.9989892198291104,1.8341573551205228,0.006497914899706865,0.5194883576726371,0.022772596758364946,0.021628774477519264,0.5817169252478545,0.031593949532063695,-0.09227030095644295,0.11661056196317077,1.002395711839199,-0.04281986996941154,1.0140684433281422,1.624024286866188,12.675316631793976,0.0,0.0,0.0,0.0,0.0,0.0,0.0,0.0,0.0,0.0,0.0,0.0,0.0,0.0,0.0,0.0,False,0,4.313498020172119,0.09977099609375
STABILIZE,0.9019691944122314,28.269790452054703,0.031124623616536458,0.033097028732299805,-10.0,40.0,10.0,3.296192517500678,-1.275458853437603,68.5618691905057,3.999334530525792,1.8271946816347806,0.004368974020629368,0.5195095740166247,0.007977720688601976,0.018782675540613303,0.5843936284701549,0.020875609447262578,-0.2665604930371046,-0.04758998693432659,1.2902514077723026,-0.17101574386223375,-4.8813313245773315,-0.16609715530648828,19.079594314098358,0.0,0.0,0.0,0.0,0.0,0.0,0.0,0.0,0.0,0.0,0.0,0.0,0.0,0.0,0.0,0.0,False,0,4.347740411758423,0.09977001953125
STABILIZE,0.9353876113891602,29.919350581722984,0.031020434697469075,0.031232357025146484,-10.0,40.0,10.0,3.2951521943127204,-1.2751485067171906,68.56750409657097,3.999680285136258,1.8193101641705773,0.0022147552571030295,0.5195266608107587,-0.00678852687956259,0.015507687182124932,0.5884652616531029,0.010070768993448569,-0.2665604930371046,-0.04758998693432659,1.2902514077723026,-0.17101574386223375,-4.8813313245773315,-0.16609715530648828,19.079594314098358,0.0,0.0,0.0,0.0,0.0,0.0,0.0,0.0,0.0,0.0,0.0,0.0,0.0,0.0,0.0,0.0,False,0,4.376203536987305,0.09977001953125
STABILIZE,0.9688858985900879,29.852697508896796,0.031093629201253255,0.03127694129943848,-10.0,40.0,10.0,3.294907161276246,-1.2745711422889128,68.57076892699423,4.000015480221682,1.8114736284482151,0.00010234876109126694,0.5195418666257038,-0.02111559270867993,0.012016716860704177,0.5934526681390165,-0.0004896251240378464,-0.2665604930371046,-0.04758998693432659,1.2902514077723026,-0.17101574386223375,-4.8813313245773315,-0.16609715530648828,19.079594314098358,0.0,0.0,0.0,0.0,0.0,0.0,0.0,0.0,0.0,0.0,0.0,0.0,0.0,0.0,0.0,0.0,False,0,4.405690670013428,0.09977001953125
STABILIZE,1.0025660991668701,29.689143083653043,0.031115086873372395,0.031565189361572266,-10.0,40.0,10.0,3.294377394728747,-1.2749957879562173,68.57432062536263,4.0000970701771505,1.8147932828883966,-0.00041468936169839984,0.5195723750754666,-0.02737903452614758,0.010449527068887255,0.5909018241166056,-0.0030644722498553243,-0.09285078849643469,-0.0007276683390955441,1.0990677401423454,0.006664183556669707,-2.0931219682097435,1.525056827813387,12.795290350914001,0.0,0.0,0.0,0.0,0.0,0.0,0.0,0.0,0.0,0.0,0.0,0.0,0.0,0.0,0.0,0.0,False,1,4.433956146240234,0.09977099609375
STABILIZE,1.036165714263916,29.76372409877945,0.031199010213216145,0.03140139579772949,-10.0,40.0,10.0,3.294340255575135,-1.2752331370298753,68.57654726703207,4.000181794583756,1.8206433745856716,-0.0009497201885800294,0.5196078306094947,-0.03658300075368574,0.0077107031859065854,0.5857900694797181,-0.005720461363540018,-0.09285078849643469,-0.0007276683390955441,1.0990677401423454,0.006664183556669707,-2.0931219682097435,1.525056827813387,12.795290350914001,0.0,0.0,0.0,0.0,0.0,0.0,0.0,0.0,0.0,0.0,0.0,0.0,0.0,0.0,0.0,0.0,False,0,4.491741418838501,0.09977099609375
STABILIZE,1.0741784572601318,26.30779266395705,0.031108887990315755,0.035773515701293945,-10.0,40.0,10.0,3.2952034207314953,-1.2747085998459593,68.57866462567476,4.000167878334304,1.8336329834147178,-0.0008586485549631592,0.5196416065266258,-0.0356158880865252,0.011977810142789489,0.5831998815407575,-0.005245193414164604,0.008014900959096849,0.12831949861720204,1.0945174843072891,0.02860531249168942,0.323696481063962,1.711411401629448,15.768882632255554,0.0,0.0,0.0,0.0,0.0,0.0,0.0,0.0,0.0,0.0,0.0,0.0,0.0,0.0,0.0,0.0,False,0,4.520735502243042,0.069839111328125
STABILIZE,1.1076443195343018,29.882686539516527,0.031061681111653645,0.03126835823059082,-10.0,40.0,10.0,3.295005345245565,-1.2769246760665112,68.58407413549742,4.0001268253744,1.8478882351440518,-0.0005986580175037174,0.5196998002342207,-0.032367392733093275,0.01592059221573494,0.566745551326981,-0.0039320662596961705,0.008014900959096849,0.12831949861720204,1.0945174843072891,0.02860531249168942,0.323696481063962,1.711411401629448,15.768882632255554,0.0,0.0,0.0,0.0,0.0,0.0,0.0,0.0,0.0,0.0,0.0,0.0,0.0,0.0,0.0,0.0,False,0,4.549234390258789,0.069839111328125
STABILIZE,1.1470837593078613,25.353797051338624,0.031087907155354817,0.037242889404296875,-10.0,40.0,10.0,3.2956140858553424,-1.2755308905890055,68.58892356980813,4.000088240733151,1.8623791914155268,-0.0003573004840468255,0.5197538570086169,-0.029488897394208253,0.019595628578452227,0.5546171777035345,-0.0027145730508608603,0.008014900959096849,0.12831949861720204,1.0945174843072891,0.02860531249168942,0.323696481063962,1.711411401629448,15.768882632255554,0.0,0.0,0.0,0.0,0.0,0.0,0.0,0.0,0.0,0.0,0.0,0.0,0.0,0.0,0.0,0.0,False,1,4.596886157989502,0.069839111328125
STABILIZE,1.1890537738800049,23.82924182598074,0.03107765515645345,0.039633989334106445,-10.0,40.0,10.0,3.296294970338228,-1.2752262001189993,68.59190153228626,3.9999083422871444,1.871159152212703,0.0007493141318303079,0.5198072394742174,-0.031000864074277684,0.021710273331357555,0.5437614038142025,0.0028067495405873694,-0.10651943739503622,0.09062786120921373,1.0372488759458065,0.14968524984726905,-3.943031281232834,-0.2855051541700959,15.67898839712143,0.0,0.0,0.0,0.0,0.0,0.0,0.0,0.0,0.0,0.0,0.0,0.0,0.0,0.0,0.0,0.0,False,1,4.608407020568848,0.094781982421875
STABILIZE,1.228773832321167,25.172419173823542,0.030987294514973958,0.03752756118774414,-10.0,40.0,10.0,3.2953050197953995,-1.2760427278899333,68.59696270246123,3.9996795852773457,1.8854065163017515,0.002143494330789291,0.5197958396731166,-0.02503832977573664,0.0263914575477202,0.5644917848897123,0.009738866233592807,0.1856369897723198,0.05935939261689782,1.4128632843494415,0.017355870866759413,5.910851433873177,0.009180833876598626,25.57719349861145,0.0,0.0,0.0,0.0,0.0,0.0,0.0,0.0,0.0,0.0,0.0,0.0,0.0,0.0,0.0,0.0,False,0,4.667357444763184,0.034919921875
STABILIZE,1.262420654296875,29.721752563439367,0.03113582928975423,0.031577110290527344,-10.0,40.0,10.0,3.240964888532424,-1.1790341914384768,68.58174504099044,3.9994495991948775,1.886191758757932,0.003551881845414177,0.5198667775607624,-0.03177152898709595,0.025027831371499557,0.5417845081848636,0.016724389599142478,-0.28792014345526695,0.04875187878496945,1.2174730189144611,0.24577083030670105,2.3850565776228905,-0.1318954979069531,22.285306453704834,0.0,0.0,0.0,0.0,0.0,0.0,0.0,0.0,0.0,0.0,0.0,0.0,0.0,0.0,0.0,0.0,False,0,4.695695161819458,0.029930908203125
STABILIZE,1.2983179092407227,27.85654322299559,0.03124097188313802,0.03378701210021973,-10.0,40.0,10.0,3.22132297202676,-1.1709854538318516,68.6326845918204,3.999461213295512,1.8987266825817986,0.0034713122901755015,0.5199700123337783,-0.017573315824374824,0.023887085496601297,0.5037857074224826,0.016263233786452336,0.08480405667796731,0.05528389592655003,1.1772632598876953,-0.21943065933979644,2.8954261913895607,-0.23028089199215174,19.9739933013916,0.0,0.0,0.0,0.0,0.0,0.0,0.0,0.0,0.0,0.0,0.0,0.0,0.0,0.0,0.0,0.0,False,0,4.75414252281189,0.034920166015625
STABILIZE,1.332582712173462,29.18670062488692,0.031168254216512044,0.032016754150390625,-10.0,40.0,10.0,3.298853303069221,-1.2297699038103893,68.61069821288213,3.999460093738855,1.902670908588368,0.003482416939538309,0.5199959486589588,-0.017573315824374824,0.023887085496601297,0.5037857074224826,0.016263233786452336,0.08480405667796731,0.05528389592655003,1.1772632598876953,-0.21943065933979644,2.8954261913895607,-0.23028089199215174,19.9739933013916,0.0,0.0,0.0,0.0,0.0,0.0,0.0,0.0,0.0,0.0,0.0,0.0,0.0,0.0,0.0,0.0,False,1,4.75414252281189,0.034920166015625
STABILIZE,1.3723244667053223,25.162301277821104,0.031067403157552083,0.03751945495605469,-10.0,40.0,10.0,3.205006503873246,-1.2714280813319434,68.6231633081174,4.002330761884771,1.8831388587870115,-0.013990948804729893,0.5203977244267564,-0.05244617423142635,-0.004119501461436328,0.3182957419768897,-0.07082200415921719,-1.4058840461075306,-1.1762704700231552,-5.091248452663422,-5.427037795607644,81.55335187911987,-177.1238923072815,-431.5713882446289,0.0,0.0,0.0,0.0,0.0,0.0,0.0,0.0,0.0,0.0,0.0,0.0,0.0,0.0,0.0,0.0,False,0,4.820858955383301,0.039908203125
STABILIZE,1.4108235836029053,25.971565859216327,0.031081231435139973,0.036362648010253906,-10.0,40.0,10.0,3.2605133168238236,-1.2706246803308208,68.64488330967804,3.9876006188011637,1.864077737852051,0.07724374319959847,0.5201966797068923,-0.14489649115415687,-0.011454412986467644,0.4335761492166449,0.38387096900313034,-4.196176305413246,-0.30298896599560976,6.180816516280174,20.08970712274479,7.821753621101379,142.22179651260376,-12.581183016300201,0.0,0.0,0.0,0.0,0.0,0.0,0.0,0.0,0.0,0.0,0.0,0.0,0.0,0.0,0.0,0.0,False,0,4.849859714508057,0.029930908203125
STABILIZE,1.4462275505065918,28.248085613647536,0.031162532170613606,0.03332185745239258,-10.0,40.0,10.0,3.3081286999620985,-1.252498745655782,68.66635059423939,4.0056365221590156,1.892251950668058,-0.033677971622144774,0.5198876518850699,-0.051027325923274955,0.008802806031552849,0.6014139319083022,-0.1701346282440349,4.032538831233978,0.9336026385426521,9.253299981355667,-25.067798291754787,-16.834792494773865,-90.17293453216553,153.91640663146973,0.0,0.0,0.0,0.0,0.0,0.0,0.0,0.0,0.0,0.0,0.0,0.0,0.0,0.0,0.0,0.0,False,1,4.878697872161865,0.034919921875
STABILIZE,1.498185157775879,19.245841611871537,0.031232388814290364,0.04974842071533203,-10.0,40.0,10.0,3.310085549159307,-1.254717596640684,68.6969635020994,4.002599221934251,1.9087342772771827,-0.015314122614655144,0.519967215717128,-0.03301045822175264,0.013983260442827522,0.5811595353229551,-0.07791155974669611,-8.40098187327385,-1.4118979685008526,-0.29268439393490553,-7.21215469274102,-82.22057819366455,-170.73791027069092,49.30867552757263,0.0,0.0,0.0,0.0,0.0,0.0,0.0,0.0,0.0,0.0,0.0,0.0,0.0,0.0,0.0,0.0,False,0,4.937144041061401,0.034920166015625
STABILIZE,1.5407986640930176,23.46831391770459,0.031104358037312825,0.04036688804626465,-10.0,40.0,10.0,3.260710965422931,-1.2646550949962294,68.63631142226967,3.995632111825909,1.9470643444642546,0.02614383592136632,0.5200213663944987,-0.0009285298087162996,-0.008423877386983324,0.5701327842826366,0.12883009661041914,0.7838813588023186,-0.5571426823735237,0.9461471810936928,5.409103426394483,162.87459135055542,-2.5213193148374557,-1.5599429607391357,0.0,0.0,0.0,0.0,0.0,0.0,0.0,0.0,0.0,0.0,0.0,0.0,0.0,0.0,0.0,0.0,False,0,4.9950644969940186,0.034919921875
STABILIZE,1.5802628993988037,25.340623621742782,0.031031163533528645,0.03717803955078125,-10.0,40.0,10.0,3.2467684148928195,-1.2863046602310544,68.69373965281115,3.995587252537122,1.9670149899697311,0.026245491902368617,0.520051129700675,-0.0009285298087162996,-0.008423877386983324,0.5701327842826366,0.12883009661041914,0.7838813588023186,-0.5571426823735237,0.9461471810936928,5.409103426394483,162.87459135055542,-2.5213193148374557,-1.5599429607391357,0.0,0.0,0.0,0.0,0.0,0.0,0.0,0.0,0.0,0.0,0.0,0.0,0.0,0.0,0.0,0.0,False,1,4.9950644969940186,0.034919921875
STABILIZE,1.6148593425750732,28.90311199316409,0.03101518948872884,0.03241753578186035,-10.0,40.0,10.0,3.2467684148928195,-1.2863046602310544,68.69373965281115,3.9839134433702155,1.9759746280546855,0.09487518096384812,0.5200880877666887,-0.09334066021631332,-0.10771760041196782,0.5647467919690613,0.47034682362529256,-2.5586945936083794,-2.6944998651742935,1.0100675746798515,9.414953025546309,-121.15979194641113,-114.42283391952515,-2.277650684118271,0.0,0.0,0.0,0.0,0.0,0.0,0.0,0.0,0.0,0.0,0.0,0.0,0.0,0.0,0.0,0.0,False,0,5.052444934844971,0.034919921875
STABILIZE,1.6494908332824707,28.875453512787857,0.031148703893025716,0.03232073783874512,-10.0,40.0,10.0,3.2467684148928195,-1.2863046602310544,68.69373965281115,3.989157580564615,1.9637008347024392,0.06465517900999346,0.5201076917534642,-0.037296067009951125,-0.05011821997034069,0.567949650336463,0.3181501552686048,3.0253371223807335,3.1511839479207993,1.2912717647850513,-8.147516656175709,122.27091789245605,154.24530506134033,-15.457876026630402,0.0,0.0,0.0,0.0,0.0,0.0,0.0,0.0,0.0,0.0,0.0,0.0,0.0,0.0,0.0,0.0,False,1,5.081098794937134,0.0349189453125
STABILIZE,1.683882236480713,29.083082555575587,0.03098920186360677,0.03179597854614258,-10.0,40.0,10.0,3.241809270668567,-1.2772921188995168,68.70847920104003,3.9850984778131324,1.9856705357959477,0.08797461818460785,0.5201328435539221,-0.014746174664687646,-0.06187930292952919,0.5682405798820883,0.43326968218331613,1.1926104314625263,-0.6932293530553579,1.1099998839199543,6.724848869990937,-21.257437765598297,-115.33112525939941,-19.09949779510498,0.0,0.0,0.0,0.0,0.0,0.0,0.0,0.0,0.0,0.0,0.0,0.0,0.0,0.0,0.0,0.0,False,1,5.109823703765869,0.02993115234375
STABILIZE,1.7184388637542725,28.92942669535949,0.030689271291097005,0.03236865997314453,-10.0,40.0,10.0,3.2379220392571835,-1.3927570004271113,68.67113855684757,3.987790564286418,1.8650660393422094,0.07713401404416362,0.520195933621093,-0.18979920111690576,0.01439935246005851,0.5499183930276059,0.377745279259564,-7.752408087253571,6.779351085424423,-3.083151951432228,-4.5438939090381725,-56.20309114456177,169.83270645141602,-246.51107788085938,0.0,0.0,0.0,0.0,0.0,0.0,0.0,0.0,0.0,0.0,0.0,0.0,0.0,0.0,0.0,0.0,False,0,5.16755485534668,0.034919921875
STABILIZE,1.752065896987915,29.73882216140331,0.031147511800130208,0.031497955322265625,-10.0,40.0,10.0,3.2377696406613277,-1.2310428803169504,68.62549240262437,3.9909711727470323,1.7782494421310182,0.06029974434596479,0.5203641178975673,-0.32264338396134534,0.13260564981075038,0.4786373480490248,0.2925897244151781,-7.752408087253571,6.779351085424423,-3.083151951432228,-4.5438939090381725,-56.20309114456177,169.83270645141602,-246.51107788085938,0.0,0.0,0.0,0.0,0.0,0.0,0.0,0.0,0.0,0.0,0.0,0.0,0.0,0.0,0.0,0.0,False,0,5.19697904586792,0.034919921875
STABILIZE,1.7926435470581055,24.645411490956953,0.031174453099568684,0.03835916519165039,-10.0,40.0,10.0,3.246265115328354,-1.2777555045460198,68.82186034126224,3.9907235119047515,1.8267466943624484,0.060536663457560494,0.5203949568859862,-0.32264338396134534,0.13260564981075038,0.4786373480490248,0.2925897244151781,-7.752408087253571,6.779351085424423,-3.083151951432228,-4.5438939090381725,-56.20309114456177,169.83270645141602,-246.51107788085938,0.0,0.0,0.0,0.0,0.0,0.0,0.0,0.0,0.0,0.0,0.0,0.0,0.0,0.0,0.0,0.0,False,1,5.19697904586792,0.034919921875
STABILIZE,1.8269054889678955,29.185888247164428,0.031078131993611653,0.0320279598236084,-10.0,40.0,10.0,3.2461105822983827,-1.2901562465927068,68.62489817616658,3.988717290391652,1.7577284142115417,0.07637204395735667,0.5198691535409969,-0.406390995589712,0.133604616328861,0.7542061186195755,0.3704976363987503,-2.5453655049204826,-0.014136562822386622,9.029825776815414,2.6888503889558515,-158.5444450378418,47.32476770877838,25.584852695465088,0.0,0.0,0.0,0.0,0.0,0.0,0.0,0.0,0.0,0.0,0.0,0.0,0.0,0.0,0.0,0.0,False,1,5.256301164627075,0.034919921875
STABILIZE,1.860443353652954,29.822344517679515,0.031058820088704427,0.031249284744262695,-10.0,40.0,10.0,3.234564147506476,-1.2987209836467855,68.75318278915776,3.9886972360343873,1.837284604965991,0.07348328869425645,0.5199344228385435,-0.27307659869590234,0.11840841670283998,0.7339876450395859,0.35486508897387414,0.09587801760062575,-4.233284667134285,0.5001265089958906,5.572240360286122,-57.504576444625854,-142.54871606826782,-4.529869928956032,0.0,0.0,0.0,0.0,0.0,0.0,0.0,0.0,0.0,0.0,0.0,0.0,0.0,0.0,0.0,0.0,False,0,5.313685655593872,0.029931884765625
STABILIZE,1.894643783569336,29.23919469075902,0.031026871999104817,0.03199505805969238,-10.0,40.0,10.0,3.221846335271912,-1.3064244765352078,68.73200237254156,3.989393122384282,1.918897907163561,0.06643845611161822,0.5199589799782762,-0.2745210840756608,0.10986716131932982,0.7344001271383644,0.31855013421710976,-0.5442222114652395,-0.3497029887512326,1.4388357289135456,-1.5091516414554735,-49.94100034236908,160.6596827507019,-18.447718024253845,0.0,0.0,0.0,0.0,0.0,0.0,0.0,0.0,0.0,0.0,0.0,0.0,0.0,0.0,0.0,0.0,False,0,5.342753648757935,0.034920166015625
STABILIZE,1.928251028060913,29.750845858661805,0.031075032552083333,0.031259775161743164,-10.0,40.0,10.0,3.225106469940124,-1.2927018794407117,68.6069894201628,3.99127736068213,1.9919740813512126,0.05329802926249256,0.519984988593532,-0.2596503270487176,0.13121074602294683,0.7338202605888814,0.25200326142732976,0.5775171797722578,1.3485956937074661,1.0156270116567612,-3.475414120000874,5.4576970636844635,-28.826531767845154,-2.5358691811561584,0.0,0.0,0.0,0.0,0.0,0.0,0.0,0.0,0.0,0.0,0.0,0.0,0.0,0.0,0.0,0.0,False,0,5.3716535568237305,0.0349189453125
STABILIZE,1.9624886512756348,29.208448526800325,0.030972035725911458,0.03201746940612793,-10.0,40.0,10.0,3.2113748015006363,-1.317786496219524,68.90279125273773,3.9868747399704594,2.0072085955532475,0.07858184565821531,0.5200256637082254,-0.2572780625537395,0.04541484566192605,0.7262081474703133,0.3771286090957993,-0.19215134670957923,-4.995439574122429,0.6320373620837927,7.922695857002862,-80.67359924316406,-137.24645376205444,15.3461754322052,0.0,0.0,0.0,0.0,0.0,0.0,0.0,0.0,0.0,0.0,0.0,0.0,0.0,0.0,0.0,0.0,False,0,5.400298357009888,0.034919921875
STABILIZE,1.9986741542816162,27.63464820097907,0.03108981450398763,0.0340723991394043,-10.0,40.0,10.0,3.230875418467846,-1.3260628712245812,68.79786588670798,3.9820415160366025,2.0620343302996447,0.10417517150717233,0.5200689223371124,-0.25460849142835745,-0.041307849140559884,0.7180439082235233,0.5032700387680887,-0.19215134670957923,-4.995439574122429,0.6320373620837927,7.922695857002862,-80.67359924316406,-137.24645376205444,15.3461754322052,0.0,0.0,0.0,0.0,0.0,0.0,0.0,0.0,0.0,0.0,0.0,0.0,0.0,0.0,0.0,0.0,False,1,5.428838491439819,0.034919921875
STABILIZE,2.0373404026031494,25.862986668639856,0.031191619237263997,0.03650379180908203,-10.0,40.0,10.0,3.2605086210687695,-1.3030529244061602,68.69825440785252,3.9872784952012132,1.9772316565240728,0.07802112741308298,0.5200769456083135,-0.2846731238662074,-0.017108073061334418,0.7283565203999456,0.3710666176507784,-2.142571471631527,1.5937820076942444,1.7524771392345428,-7.377844836721775,-18.513134121894836,158.6017608642578,48.087793588638306,0.0,0.0,0.0,0.0,0.0,0.0,0.0,0.0,0.0,0.0,0.0,0.0,0.0,0.0,0.0,0.0,False,1,5.459169149398804,0.02993115234375
STABILIZE,2.0707712173461914,29.910176139199887,0.031147034962972005,0.03132009506225586,-10.0,40.0,10.0,3.211542141135302,-1.3202437634951418,68.92319985797772,3.9918488182594984,1.9960611344727437,0.05095285194824582,0.5200954251360115,-0.24958517077065756,-0.008427385673409483,0.7315253590320766,0.2349389018100521,-3.289872407913208,-1.7361041158437729,2.282172068953514,-3.617864972217483,-79.77204322814941,14.499905705451965,24.023137986660004,0.0,0.0,0.0,0.0,0.0,0.0,0.0,0.0,0.0,0.0,0.0,0.0,0.0,0.0,0.0,0.0,False,0,5.527042627334595,0.034920166015625
STABILIZE,2.1088814735412598,26.240476473495537,0.03118732770284017,0.03590869903564453,-10.0,40.0,10.0,3.213251609418509,-1.3129842329027703,68.88803121394132,3.994400458915905,1.960671734124375,0.036912196100848185,0.5200859057204137,-0.2984717032112565,-0.03929498400066813,0.7503495149333216,0.1641117769548711,-3.289872407913208,-1.7361041158437729,2.282172068953514,-3.617864972217483,-79.77204322814941,14.499905705451965,24.023137986660004,0.0,0.0,0.0,0.0,0.0,0.0,0.0,0.0,0.0,0.0,0.0,0.0,0.0,0.0,0.0,0.0,False,0,5.556488752365112,0.034920166015625
STABILIZE,2.1423990726470947,29.83337482484654,0.03106096585591634,0.03136587142944336,-10.0,40.0,10.0,3.2593824936293636,-1.3108937681299233,68.57190273839646,3.9986175932298513,2.0067540346663684,0.012015756383568868,0.520132015432052,-0.21962514602368904,0.07708449896546246,0.7397397764062836,0.03949687603531574,4.317926615476608,7.01514407992363,0.5444493144750595,-6.7913053299546915,202.24015712738037,179.19166088104248,50.92248320579529,0.0,0.0,0.0,0.0,0.0,0.0,0.0,0.0,0.0,0.0,0.0,0.0,0.0,0.0,0.0,0.0,False,0,5.585226058959961,0.034919921875
STABILIZE,2.181340217590332,25.681980442942255,0.03120425542195638,0.036820173263549805,-10.0,40.0,10.0,3.1981682038535935,-1.33438044080807,68.97949427711697,3.9891540023188643,2.0109901627763254,0.06649602581074855,0.5201179848544885,-0.2526229123581467,-0.08999299905869283,0.7611339632637647,0.310689370597945,-2.3787371814250946,-9.870948642492294,2.472233586013317,16.696289850616743,-161.01597547531128,-378.9288520812988,86.56150698661804,0.0,0.0,0.0,0.0,0.0,0.0,0.0,0.0,0.0,0.0,0.0,0.0,0.0,0.0,0.0,0.0,False,1,5.614100456237793,0.0349189453125
STABILIZE,2.2149224281311035,29.777459089134215,0.031128676732381184,0.031333208084106445,-10.0,40.0,10.0,3.2969139562317604,-1.2497355072496887,68.62411270441203,3.999190978200636,2.0243272531336767,0.00895496596079776,0.5201929677485602,-0.22785821802478984,0.008042185153353781,0.7360631548195681,0.022907288884884885,4.761579632759094,9.33459997177124,1.0623924434185028,-8.04440726669155,-15.271659195423126,-192.74563789367676,55.066102743148804,0.0,0.0,0.0,0.0,0.0,0.0,0.0,0.0,0.0,0.0,0.0,0.0,0.0,0.0,0.0,0.0,False,0,5.671662330627441,0.0349189453125
STABILIZE,2.2483160495758057,29.943059481995487,0.031094821294148763,0.03126358985900879,-10.0,40.0,10.0,3.265218463388316,-1.2741204565253978,68.61842315683342,3.994359487799742,1.9891009925404899,0.037070438195322804,0.5202478461059341,-0.27890787603830525,-0.13730236008194946,0.7210384772368905,0.162939649828293,-3.477194905281067,-8.65841656923294,0.3379277652129531,8.912156333758636,-131.8479061126709,-28.659486770629883,-112.45279312133789,0.0,0.0,0.0,0.0,0.0,0.0,0.0,0.0,0.0,0.0,0.0,0.0,0.0,0.0,0.0,0.0,False,0,5.700618028640747,0.034920166015625
STABILIZE,2.284700393676758,27.490833775750307,0.031188281377156575,0.03403925895690918,-10.0,40.0,10.0,3.2480234621528092,-1.350446966726644,68.85001438102103,3.9894233272645163,1.9932186642543122,0.06583621474478202,0.5203056505657891,-0.3305665564087177,-0.2843232871713927,0.7055760650158629,0.3056635521997677,-3.477194905281067,-8.65841656923294,0.3379277652129531,8.912156333758636,-131.8479061126709,-28.659486770629883,-112.45279312133789,0.0,0.0,0.0,0.0,0.0,0.0,0.0,0.0,0.0,0.0,0.0,0.0,0.0,0.0,0.0,0.0,False,0,5.729181289672852,0.034920166015625
STABILIZE,2.318455219268799,29.622046131898244,0.0309174378712972,0.03142857551574707,-10.0,40.0,10.0,3.2205594849435997,-1.3380983048723782,68.96651008750477,3.981398778871788,2.128466970840214,0.10602294786413105,0.5200282950592329,-0.0912831159912289,-0.21793780068656696,0.8566192028163367,0.5048902010986912,13.773420453071594,4.035499319434166,10.218687355518341,12.148188971936666,261.64441108703613,-103.65192890167236,-76.1854887008667,0.0,0.0,0.0,0.0,0.0,0.0,0.0,0.0,0.0,0.0,0.0,0.0,0.0,0.0,0.0,0.0,False,0,5.758101224899292,0.029930908203125
STABILIZE,2.3521432876586914,29.67947919615058,0.030994208653767903,0.03122401237487793,-10.0,40.0,10.0,3.2725707351430118,-1.2986371003860413,68.78370007436938,3.9721178148712983,2.314404681740506,0.14502471423314112,0.5197634867691453,0.14646750816405302,-0.14760402522388621,1.0010889958998233,0.6975608268488012,13.773420453071594,4.035499319434166,10.218687355518341,12.148188971936666,261.64441108703613,-103.65192890167236,-76.1854887008667,0.0,0.0,0.0,0.0,0.0,0.0,0.0,0.0,0.0,0.0,0.0,0.0,0.0,0.0,0.0,0.0,False,0,5.787075757980347,0.029930908203125
STABILIZE,2.3896901607513428,26.636589950718893,0.03086570103963216,0.035347938537597656,-10.0,40.0,10.0,3.271040345882106,-1.273083121545202,68.82065822796832,3.9729518122124907,2.2367484471597794,0.14613797565912204,0.5198030796386045,0.02559442820236696,-0.2995470163816857,0.994904427627375,0.7004800657067228,-7.659059762954712,-9.358866512775421,1.2495600618422031,0.8878609859650118,-343.40245723724365,-232.20252990722656,-0.7557407021522522,0.0,0.0,0.0,0.0,0.0,0.0,0.0,0.0,0.0,0.0,0.0,0.0,0.0,0.0,0.0,0.0,False,1,5.815784215927124,0.034919921875
STABILIZE,2.4283618927001953,25.85692797080364,0.031074317296346028,0.03642106056213379,-10.0,40.0,10.0,3.274702607937702,-1.2889141126591166,68.77535358320362,3.975074034016683,2.3014669766473346,0.1318197637111512,0.5200471897751938,0.09337613030833256,-0.17801128374232456,0.8869365172781883,0.6264679887310791,2.7167391031980515,1.5936551615595818,-1.3204955495893955,1.1735335412790895,149.25062656402588,-147.24903106689453,16.770529747009277,0.0,0.0,0.0,0.0,0.0,0.0,0.0,0.0,0.0,0.0,0.0,0.0,0.0,0.0,0.0,0.0,False,0,5.872771501541138,0.02993115234375
STABILIZE,2.467123508453369,25.79808342866984,0.031075032552083333,0.03663921356201172,-10.0,40.0,10.0,3.277759117591283,-1.2688600369257244,68.85127113582831,3.971077044767951,2.356125896101306,0.14923669766512107,0.5201407134160532,0.12783285714534043,-0.302039545605595,0.8543858726093317,0.7107914491190224,1.8699338659644127,-7.772187143564224,-0.27280692011117935,5.993692487266705,-77.7817964553833,-127.92931795120239,9.1221421957016,0.0,0.0,0.0,0.0,0.0,0.0,0.0,0.0,0.0,0.0,0.0,0.0,0.0,0.0,0.0,0.0,False,0,5.902235269546509,0.034920166015625
STABILIZE,2.503716230392456,27.33104396499482,0.031131776173909505,0.03424358367919922,-10.0,40.0,10.0,3.293423729565884,-1.2758380356582444,68.62668085553996,3.9912302202593226,2.1395760748375774,0.05440041817423123,0.5202582786545574,0.0034993462125565145,-0.09872416908870431,0.8089894260699073,0.23575165520520164,-4.019045829772949,5.949452146887779,0.16161204548552632,-13.659731179601643,-116.21466875076294,284.3270778656006,24.843652546405792,0.0,0.0,0.0,0.0,0.0,0.0,0.0,0.0,0.0,0.0,0.0,0.0,0.0,0.0,0.0,0.0,False,0,5.960337400436401,0.029930908203125
STABILIZE,2.5391156673431396,28.246563718524605,0.030984195073445638,0.03328084945678711,-10.0,40.0,10.0,3.257490104342447,-1.2904806805782825,68.99643997644776,4.00002294055141,1.9757160502168372,0.007116559932325357,0.5203337458961254,-0.05976071565440101,0.0029084451149253565,0.7843750565163018,-0.0006652683346170807,-4.019045829772949,5.949452146887779,0.16161204548552632,-13.659731179601643,-116.21466875076294,284.3270778656006,24.843652546405792,0.0,0.0,0.0,0.0,0.0,0.0,0.0,0.0,0.0,0.0,0.0,0.0,0.0,0.0,0.0,0.0,False,0,5.989819526672363,0.029930908203125
STABILIZE,2.5783374309539795,25.495428904882317,0.031158955891927083,0.036997318267822266,-10.0,40.0,10.0,3.257490104342447,-1.2904806805782825,68.99643997644776,4.001829850716081,2.063954871276459,-0.002940815761465157,0.5204294799121386,0.00018255433472007948,-0.05590825252541429,0.7509935801192933,-0.05075342536419769,3.566044569015503,-3.8898684084415436,-0.414482643827796,-2.347498024806124,29.547840356826782,45.69908380508423,-22.92655110359192,0.0,0.0,0.0,0.0,0.0,0.0,0.0,0.0,0.0,0.0,0.0,0.0,0.0,0.0,0.0,0.0,False,0,6.018968105316162,0.0698388671875
STABILIZE,2.6183931827545166,24.9672841563884,0.03112366994222005,0.03784990310668945,-10.0,40.0,10.0,3.285083214815652,-1.2709424975706378,68.7413733920828,4.008638030579873,2.1179295315749678,-0.03953394256198936,0.5205178596119591,0.1557432866830083,-0.194890818079188,0.7216491658712334,-0.2327879030923685,3.566044569015503,-3.8898684084415436,-0.414482643827796,-2.347498024806124,29.547840356826782,45.69908380508423,-22.92655110359192,0.0,0.0,0.0,0.0,0.0,0.0,0.0,0.0,0.0,0.0,0.0,0.0,0.0,0.0,0.0,0.0,False,0,6.076481819152832,0.0698388671875
STABILIZE,2.6524510383605957,29.362212717102913,0.031080993016560872,0.031789302825927734,-10.0,40.0,10.0,3.285083214815652,-1.2709424975706378,68.7413733920828,4.012317333038322,2.164454626249339,-0.05806791993753993,0.5206011131600582,0.2523802261091931,-0.28815791707347344,0.6926823555087787,-0.3243548083559845,3.566044569015503,-3.8898684084415436,-0.414482643827796,-2.347498024806124,29.547840356826782,45.69908380508423,-22.92655110359192,0.0,0.0,0.0,0.0,0.0,0.0,0.0,0.0,0.0,0.0,0.0,0.0,0.0,0.0,0.0,0.0,False,0,6.105936527252197,0.0698388671875
STABILIZE,2.6869137287139893,29.016485759154335,0.03103211720784505,0.03225231170654297,-10.0,40.0,10.0,3.274580945193111,-1.2871729480292922,68.82840366248712,4.012656684599579,2.224398872565404,-0.05829189722469924,0.5206268211527013,0.2523802261091931,-0.28815791707347344,0.6926823555087787,-0.3243548083559845,3.566044569015503,-3.8898684084415436,-0.414482643827796,-2.347498024806124,29.547840356826782,45.69908380508423,-22.92655110359192,0.0,0.0,0.0,0.0,0.0,0.0,0.0,0.0,0.0,0.0,0.0,0.0,0.0,0.0,0.0,0.0,False,0,6.105936527252197,0.0698388671875
STABILIZE,2.7224326133728027,28.15554914109647,0.031098635991414388,0.0332491397857666,-10.0,40.0,10.0,3.2899672269590345,-1.2677775586639832,68.71983780562977,4.021063196124469,2.3114811454729294,-0.09739542018822434,0.5206680299327244,0.35973186662242207,-0.26646182788232453,0.6852822310281245,-0.5180365403794296,3.61628495156765,1.516591664403677,0.8439106866717339,-6.73025880670041,-8.763710409402847,163.08714151382446,30.219009518623352,0.0,0.0,0.0,0.0,0.0,0.0,0.0,0.0,0.0,0.0,0.0,0.0,0.0,0.0,0.0,0.0,False,1,6.160485744476318,0.099771240234375
STABILIZE,2.7559869289398193,29.798826321099224,0.031052382787068684,0.031225919723510742,-10.0,40.0,10.0,3.2651373548919223,-1.2879974799281597,68.91883536709808,4.032780480816149,2.3694654068813725,-0.1510264430575254,0.5206947873398362,0.5077665878748864,-0.24045746713329613,0.6843869656352711,-0.7835665979700641,3.61628495156765,1.516591664403677,0.8439106866717339,-6.73025880670041,-8.763710409402847,163.08714151382446,30.219009518623352,0.0,0.0,0.0,0.0,0.0,0.0,0.0,0.0,0.0,0.0,0.0,0.0,0.0,0.0,0.0,0.0,False,1,6.18288516998291,0.099771240234375
STABILIZE,2.789341926574707,29.979871912168345,0.030986817677815755,0.0312042236328125,-10.0,40.0,10.0,3.27524859618448,-1.2753712349171564,68.82328785079878,4.045666239876995,2.3991494070626365,-0.20976979665131626,0.5207164600490417,0.672987882888083,-0.1393473600570851,0.6860305143750818,-1.0736867504234406,3.860091045498848,3.14839631319046,1.0546193458139896,-6.733154806908495,62.85215616226196,43.96171271800995,32.68960416316986,0.0,0.0,0.0,0.0,0.0,0.0,0.0,0.0,0.0,0.0,0.0,0.0,0.0,0.0,0.0,0.0,False,0,6.2139527797698975,0.099770751953125
STABILIZE,2.824134349822998,28.743859649122808,0.031158240636189778,0.031957387924194336,-10.0,40.0,10.0,3.2675753055387937,-1.283856357578722,68.86875642010355,4.07546640301691,2.5314961064835555,-0.3299986508311976,0.5207485513377125,1.0083585189021886,0.1472305775699932,0.6826885499197842,-1.6691415474849751,3.860091045498848,3.14839631319046,1.0546193458139896,-6.733154806908495,62.85215616226196,43.96171271800995,32.68960416316986,0.0,0.0,0.0,0.0,0.0,0.0,0.0,0.0,0.0,0.0,0.0,0.0,0.0,0.0,0.0,0.0,False,0,6.281988143920898,0.099770751953125
STABILIZE,2.8572914600372314,30.15792576827392,0.030449660619099934,0.03064560890197754,-10.0,40.0,10.0,3.271241409575798,-1.2786028748899245,68.84909913567225,4.085029907775247,2.6205033235784594,-0.3603146035062086,0.5207712957582586,1.1532417707445939,0.22572829888074225,0.6838035803482327,-1.8146405424274692,3.602765128016472,1.062165666371584,1.2224862352013588,-3.391084335639665,87.69401907920837,-67.95770525932312,16.24137908220291,0.0,0.0,0.0,0.0,0.0,0.0,0.0,0.0,0.0,0.0,0.0,0.0,0.0,0.0,0.0,0.0,False,0,6.310583591461182,0.09977001953125
STABILIZE,2.8906056880950928,30.01870844456532,0.030785353978474934,0.03096795082092285,-10.0,40.0,10.0,3.275842395755448,-1.2691766802267779,68.849249399834,4.091143811633514,2.6535894738473083,-0.38242847191130463,0.5207971764303296,1.2818504229354426,0.29315620645722795,0.6833368944508599,-1.9187874446258983,3.602765128016472,1.062165666371584,1.2224862352013588,-3.391084335639665,87.69401907920837,-67.95770525932312,16.24137908220291,0.0,0.0,0.0,0.0,0.0,0.0,0.0,0.0,0.0,0.0,0.0,0.0,0.0,0.0,0.0,0.0,False,0,6.339297533035278,0.09977001953125
STABILIZE,2.9295334815979004,25.685125874939526,0.030952008565266927,0.036873817443847656,-10.0,40.0,10.0,3.2732349710397957,-1.2791137516955002,68.83730339897564,4.094371187650688,2.6488273657938977,-0.3979055721770992,0.5208306094825433,1.392890340753871,0.34991827391105074,0.68122796227206,-1.988380755488969,3.602765128016472,1.062165666371584,1.2224862352013588,-3.391084335639665,87.69401907920837,-67.95770525932312,16.24137908220291,0.0,0.0,0.0,0.0,0.0,0.0,0.0,0.0,0.0,0.0,0.0,0.0,0.0,0.0,0.0,0.0,False,0,6.368489027023315,0.09977001953125
STABILIZE,2.9630370140075684,29.848448619413606,0.03128507932027181,0.031450510025024414,-10.0,40.0,10.0,3.2699295863683324,-1.2809155342542085,68.88277196828041,4.084583991889346,2.493497377464633,-0.38003968230234164,0.520893801216738,1.2555733369339852,0.4890443906718209,0.6621339548442093,-1.8927162204361654,-1.8104653805494308,3.222706913948059,0.8577167987823486,-0.17149367034114954,-19.24353390932083,137.30069398880005,18.960624933242798,0.0,0.0,0.0,0.0,0.0,0.0,0.0,0.0,0.0,0.0,0.0,0.0,0.0,0.0,0.0,0.0,False,1,6.3978235721588135,0.064850830078125
STABILIZE,3.0004665851593018,26.718715759969424,0.031231435139973958,0.03518795967102051,-10.0,40.0,10.0,3.2846302878963156,-1.2674017915379268,68.82158713369545,4.069184633660534,2.24063357917002,-0.3472570772319481,0.5209862803751101,1.0655560425082353,0.5841476981452668,0.6298630442968518,-1.7223840221873292,-1.8104653805494308,3.222706913948059,0.8577167987823486,-0.17149367034114954,-19.24353390932083,137.30069398880005,18.960624933242798,0.0,0.0,0.0,0.0,0.0,0.0,0.0,0.0,0.0,0.0,0.0,0.0,0.0,0.0,0.0,0.0,False,1,6.426202774047852,0.064850830078125
STABILIZE,3.0339574813842773,29.859923397832926,0.031055482228597005,0.03126883506774902,-10.0,40.0,10.0,3.280657679120307,-1.2755455114626975,68.83282279488012,4.051193293707677,1.9826552429078903,-0.29223947534813693,0.521101627488987,0.734841035841149,0.7568365585706929,0.5848088798068388,-1.4424626000923022,-1.9995860755443573,3.387967497110367,1.0326281189918518,-0.3292539380150926,-66.93533658981323,76.52093768119812,16.382908821105957,0.0,0.0,0.0,0.0,0.0,0.0,0.0,0.0,0.0,0.0,0.0,0.0,0.0,0.0,0.0,0.0,False,0,6.484802007675171,0.099769775390625
STABILIZE,3.067317008972168,29.97387302404025,0.0310700257619222,0.031256914138793945,-10.0,40.0,10.0,3.280617551758933,-1.2753710214737448,68.89781887502195,4.044068155559369,1.8306386083692676,-0.27355314088350396,0.5211321522898902,0.5761892094772858,0.8903767780052954,0.5821548788984832,-1.3445308584741251,-1.9995860755443573,3.387967497110367,1.0326281189918518,-0.3292539380150926,-66.93533658981323,76.52093768119812,16.382908821105957,0.0,0.0,0.0,0.0,0.0,0.0,0.0,0.0,0.0,0.0,0.0,0.0,0.0,0.0,0.0,0.0,False,0,6.5140159130096436,0.099769775390625
STABILIZE,3.1063523292541504,25.62158067708397,0.031134398778279622,0.036695241928100586,-10.0,40.0,10.0,3.293470687116428,-1.2678568528913787,68.80806335913881,4.037796501623289,1.7042209547985903,-0.2534236234813827,0.5211680547054774,0.41356742789470696,1.0133315688402267,0.5788436350328793,-1.2390696545506428,-1.9995860755443573,3.387967497110367,1.0326281189918518,-0.3292539380150926,-66.93533658981323,76.52093768119812,16.382908821105957,0.0,0.0,0.0,0.0,0.0,0.0,0.0,0.0,0.0,0.0,0.0,0.0,0.0,0.0,0.0,0.0,False,0,6.542832612991333,0.099769775390625
STABILIZE,3.146235466003418,25.070555887627016,0.031039985020955403,0.03761935234069824,-10.0,40.0,10.0,3.2889555051882264,-1.2738680596912246,68.85901657034711,4.031049007840246,1.7006346593186166,-0.2113095979887664,0.5212066424479176,0.25517262525874324,1.0383975289186713,0.5745841226327416,-1.0244144515203648,-1.9325068220496178,1.1920926161110401,1.01702231913805,2.3770499054672425,-78.23982238769531,-1.8194008618593216,14.59416151046753,0.0,0.0,0.0,0.0,0.0,0.0,0.0,0.0,0.0,0.0,0.0,0.0,0.0,0.0,0.0,0.0,False,1,6.571521520614624,0.099771240234375
STABILIZE,3.1859874725341797,25.15520850201215,0.031040223439534505,0.037609100341796875,-10.0,40.0,10.0,3.2908769227791153,-1.2777307451102784,68.88771019505033,4.016942657696197,1.6509543087079368,-0.12305696693122944,0.5212548773658092,-0.03954034782233316,1.0355321416497125,0.5655123436840407,-0.5808355726672788,-1.9325068220496178,1.1920926161110401,1.01702231913805,2.3770499054672425,-78.23982238769531,-1.8194008618593216,14.59416151046753,0.0,0.0,0.0,0.0,0.0,0.0,0.0,0.0,0.0,0.0,0.0,0.0,0.0,0.0,0.0,0.0,False,0,6.629466772079468,0.099771240234375
STABILIZE,3.2197065353393555,29.6576535807218,0.031159432729085286,0.03135037422180176,-10.0,40.0,10.0,3.3007619140554163,-1.2724230477949439,68.88043604358427,4.020224715212704,1.819223479906392,-0.13318040519224292,0.5213011207504104,-0.026023636116366128,1.0291190853118635,0.5550460624193331,-0.6293445973747142,1.561976969242096,1.4896958135068417,0.8749020285904408,-3.937017087130553,2.631007134914398,28.00464630126953,8.713370561599731,0.0,0.0,0.0,0.0,0.0,0.0,0.0,0.0,0.0,0.0,0.0,0.0,0.0,0.0,0.0,0.0,False,0,6.658372402191162,0.06983984375
STABILIZE,3.2531630992889404,29.889500951349348,0.030936511357625325,0.031145811080932617,-10.0,40.0,10.0,3.296878951512264,-1.2781672368869246,68.94359480283937,4.023951649405236,1.9256654415708445,-0.1485111241961573,0.5213689912384107,0.021517315959854427,0.9908459949832376,0.5337970484679048,-0.7036407138958052,1.561976969242096,1.4896958135068417,0.8749020285904408,-3.937017087130553,2.631007134914398,28.00464630126953,8.713370561599731,0.0,0.0,0.0,0.0,0.0,0.0,0.0,0.0,0.0,0.0,0.0,0.0,0.0,0.0,0.0,0.0,False,0,6.698619365692139,0.06983984375
STABILIZE,3.2877252101898193,28.937210666114733,0.030988486607869466,0.032285213470458984,-10.0,40.0,10.0,3.307142164513855,-1.2768557338445763,68.8812488360955,4.02410751855735,1.995426931682451,-0.14505519826859054,0.521437022325883,0.015531253625965153,0.9263002226911247,0.5129081187159478,-0.6839950958963023,0.171247951220721,0.6183009129017591,0.7799816783517599,-1.438788633451589,53.725844621658325,71.50278091430664,12.650607526302338,0.0,0.0,0.0,0.0,0.0,0.0,0.0,0.0,0.0,0.0,0.0,0.0,0.0,0.0,0.0,0.0,False,0,6.727560997009277,0.064851318359375
STABILIZE,3.3292083740234375,24.103533089671977,0.031021865208943684,0.039171695709228516,-10.0,40.0,10.0,3.3176286393239396,-1.2710322505252,68.90066023371668,4.023900465198964,2.0646926449103766,-0.139988162210773,0.5215392123093195,0.01107623867577909,0.8117019078507623,0.4776004571342731,-0.655941178620167,0.171247951220721,0.6183009129017591,0.7799816783517599,-1.438788633451589,53.725844621658325,71.50278091430664,12.650607526302338,0.0,0.0,0.0,0.0,0.0,0.0,0.0,0.0,0.0,0.0,0.0,0.0,0.0,0.0,0.0,0.0,False,0,6.786463737487793,0.064851318359375
STABILIZE,3.3627090454101562,29.85206009836089,0.030996116002400716,0.03135848045349121,-10.0,40.0,10.0,3.3183949011714504,-1.2754431653468532,68.93477019843172,4.024992752220219,2.188174183131324,-0.13877428543345952,0.5215915244713134,0.010451491704932125,0.7639177773101878,0.464250455192608,-0.6476972247574337,0.171247951220721,0.6183009129017591,0.7799816783517599,-1.438788633451589,53.725844621658325,71.50278091430664,12.650607526302338,0.0,0.0,0.0,0.0,0.0,0.0,0.0,0.0,0.0,0.0,0.0,0.0,0.0,0.0,0.0,0.0,False,0,6.816888332366943,0.064851318359375
STABILIZE,3.396334648132324,29.740087356061036,0.03117087682088216,0.03136754035949707,-10.0,40.0,10.0,3.337006312886089,-1.273043100905534,68.86746551435041,4.025629169381024,2.1666098682928405,-0.143781433674472,0.5216313006455293,-0.018150776121495883,0.7544556394493264,0.45714904355912706,-0.6704869654548228,-0.7218098733574152,1.6516119241714478,0.9049570187926292,-2.305047545340849,15.975809097290039,61.80559992790222,14.067508280277252,0.0,0.0,0.0,0.0,0.0,0.0,0.0,0.0,0.0,0.0,0.0,0.0,0.0,0.0,0.0,0.0,False,0,6.845576047897339,0.0997958984375
STABILIZE,3.4388766288757324,23.503426634165475,0.031022103627522786,0.040480852127075195,-10.0,40.0,10.0,3.3403637777499733,-1.2718480312441933,68.91736004623736,4.0254384107117565,2.150309524953672,-0.14435479755521965,0.5216639427479993,-0.018150776121495883,0.7544556394493264,0.45714904355912706,-0.6704869654548228,-0.7218098733574152,1.6516119241714478,0.9049570187926292,-2.305047545340849,15.975809097290039,61.80559992790222,14.067508280277252,0.0,0.0,0.0,0.0,0.0,0.0,0.0,0.0,0.0,0.0,0.0,0.0,0.0,0.0,0.0,0.0,False,1,6.845576047897339,0.0997958984375
STABILIZE,3.474479913711548,28.093504266634515,0.03127268155415853,0.03320026397705078,-10.0,40.0,10.0,3.3517761700794186,-1.2769219013021609,68.8933451011156,4.029437808793983,2.0797318285569606,-0.17086103226923494,0.5216295133514766,-0.12939912891352642,0.79737761803578,0.48776517815159315,-0.8001997094813638,-0.8944221772253513,1.8232373520731926,1.2580820359289646,-1.9093384013420445,-19.12681609392166,22.94730693101883,20.013070106506348,0.0,0.0,0.0,0.0,0.0,0.0,0.0,0.0,0.0,0.0,0.0,0.0,0.0,0.0,0.0,0.0,False,0,6.932151794433594,0.099771240234375
STABILIZE,3.507963180541992,29.862049325055533,0.030837329228719075,0.031039953231811523,-10.0,40.0,10.0,3.3517761700794186,-1.2769219013021609,68.8933451011156,4.0285289962975215,2.095466751146846,-0.1653640042236423,0.5216663540673073,-0.11868758636535595,0.7753230133162494,0.48210459264275707,-0.770133450442531,0.40570725686848164,0.7807016838341951,0.6411452777683735,-0.3323320321336676,-6.479122489690781,60.087430477142334,16.363972425460815,0.0,0.0,0.0,0.0,0.0,0.0,0.0,0.0,0.0,0.0,0.0,0.0,0.0,0.0,0.0,0.0,False,0,6.960559129714966,0.064850830078125
STABILIZE,3.541706085205078,29.63586004182918,0.030890258153279622,0.03125739097595215,-10.0,40.0,10.0,3.364171255875699,-1.2750512832432237,68.91693657450882,4.026660753033685,2.1196761083395415,-0.15426872932642707,0.5217332271653701,-0.09568769411621696,0.7315119178978553,0.4615070979735262,-0.7122602747841196,0.40570725686848164,0.7807016838341951,0.6411452777683735,-0.3323320321336676,-6.479122489690781,60.087430477142334,16.363972425460815,0.0,0.0,0.0,0.0,0.0,0.0,0.0,0.0,0.0,0.0,0.0,0.0,0.0,0.0,0.0,0.0,False,0,6.9897119998931885,0.064850830078125
STABILIZE,3.5750327110290527,30.006467305766204,0.030816348393758138,0.031123638153076172,-10.0,40.0,10.0,3.3793573277215763,-1.2786992445902452,68.91684095186044,4.025136510238712,2.1557778658273037,-0.14445473275915396,0.5217938100674435,-0.07427384710331636,0.6936376151522138,0.44406250736846953,-0.6609688003530348,0.40570725686848164,0.7807016838341951,0.6411452777683735,-0.3323320321336676,-6.479122489690781,60.087430477142334,16.363972425460815,0.0,0.0,0.0,0.0,0.0,0.0,0.0,0.0,0.0,0.0,0.0,0.0,0.0,0.0,0.0,0.0,False,0,7.02519965171814,0.064850830078125
STABILIZE,3.6094729900360107,29.033960487879167,0.03110841115315755,0.03225994110107422,-10.0,40.0,10.0,3.3793573277215763,-1.2786992445902452,68.91684095186044,4.023598308946521,2.1769247228709996,-0.13568637065953765,0.5218499954400119,-0.05413222977065235,0.6605755225417584,0.42915335711223856,-0.6150091012953046,0.40570725686848164,0.7807016838341951,0.6411452777683735,-0.3323320321336676,-6.479122489690781,60.087430477142334,16.363972425460815,0.0,0.0,0.0,0.0,0.0,0.0,0.0,0.0,0.0,0.0,0.0,0.0,0.0,0.0,0.0,0.0,False,0,7.055107831954956,0.064850830078125
STABILIZE,3.645270347595215,27.93539492350626,0.03111890157063802,0.03351235389709473,-10.0,40.0,10.0,3.3867454579694143,-1.2798354038699944,68.92285834851921,4.023438688910746,2.2482459149075016,-0.13148139846612955,0.5218986285716442,-0.03175134806574248,0.6317561770760592,0.41854819371988017,-0.5918667836484344,0.50541115924716,0.7881880737841129,0.70778070949018,-0.8831103225930036,-29.307842254638672,3.1022248789668083,13.763688504695892,0.0,0.0,0.0,0.0,0.0,0.0,0.0,0.0,0.0,0.0,0.0,0.0,0.0,0.0,0.0,0.0,False,0,7.0822954177856445,0.09977099609375
STABILIZE,3.6826865673065186,26.726206861395728,0.031035216649373372,0.035241127014160156,-10.0,40.0,10.0,3.4068006009198646,-1.2819223468265506,68.94503597275425,4.023251550754238,2.2639970885135443,-0.13017877497231795,0.521923554228301,-0.007242054983554395,0.6188154894590295,0.4204245439087116,-0.583171367396525,0.50541115924716,0.7881880737841129,0.70778070949018,-0.8831103225930036,-29.307842254638672,3.1022248789668083,13.763688504695892,0.0,0.0,0.0,0.0,0.0,0.0,0.0,0.0,0.0,0.0,0.0,0.0,0.0,0.0,0.0,0.0,False,1,7.111040353775024,0.09977099609375
STABILIZE,3.716686964035034,29.41204025104309,0.031124146779378255,0.03142356872558594,-10.0,40.0,10.0,3.415255094451871,-1.2834116482307307,68.93622502872493,4.02011658984244,2.3094927145518596,-0.11294675917673763,0.5219295710885299,0.06268125676394795,0.5555336799915569,0.4302717490642135,-0.49534770684034607,0.9746653959155083,-0.044121607788838446,0.9913765825331211,0.9058105096603938,-9.377939254045486,-36.03670299053192,14.96797502040863,0.0,0.0,0.0,0.0,0.0,0.0,0.0,0.0,0.0,0.0,0.0,0.0,0.0,0.0,0.0,0.0,False,0,7.168802976608276,0.104759033203125
STABILIZE,3.74969220161438,30.29384488711052,0.030724080403645833,0.03091573715209961,-10.0,40.0,10.0,3.4351779024871516,-1.284528384160028,68.96600465350619,4.016828813510457,2.340749346791177,-0.09603573613968186,0.521932345791221,0.10953552887498007,0.5039853140691092,0.4416913295477262,-0.4094211594646456,0.9746653959155083,-0.044121607788838446,0.9913765825331211,0.9058105096603938,-9.377939254045486,-36.03670299053192,14.96797502040863,0.0,0.0,0.0,0.0,0.0,0.0,0.0,0.0,0.0,0.0,0.0,0.0,0.0,0.0,0.0,0.0,False,0,7.19846248626709,0.104759033203125
STABILIZE,3.784531831741333,28.704320392003886,0.03122094472249349,0.03140139579772949,-10.0,40.0,10.0,3.446108339593288,-1.28522175508249,68.9383287269893,4.013277092796629,2.3723832727936975,-0.07820408501457168,0.5219374691822728,0.15610163970847712,0.4499426136752879,0.45238724301018474,-0.31915497456735065,0.9746653959155083,-0.044121607788838446,0.9913765825331211,0.9058105096603938,-9.377939254045486,-36.03670299053192,14.96797502040863,0.0,0.0,0.0,0.0,0.0,0.0,0.0,0.0,0.0,0.0,0.0,0.0,0.0,0.0,0.0,0.0,False,0,7.232941150665283,0.104759033203125
