Mode,Time,Freq,North-Vision,East-Vision,Down-Vision,Yaw-Vision,North-Desired,East-Desired,Down-Desired,Roll-UAV,Pitch-UAV,Yaw-UAV,Roll-Control,Pitch-Control,Yaw-Control,Thrust-Control,northVraw,eastVraw,downVraw,N-Velocity,E-Velocity,D-Velocity,yawVraw,yawRate,Q-Size
GUIDED_NOGPS,0.00594329833984375,168.73733757090557,-39.797594226563625,-0.8852831053563421,72.97230696779901,-7.348024495864234,-49.685601383543386,-5.3344201334556125,76.77202909443268,-1.0630561919494852,0.6265579052793052,44.73916315802547,-3.4555665398725264,4.478734183730199,-3.674012247932117,0.5060795554026138,-50.31034390898239,-7.174440648338094,76.82822990182595,19.665785133838654,25.517743825912476,4.056081175804138,-7.879979442431741,-11.783199030616816,1
GUIDED_NOGPS,0.010218381881713867,234.1616793211255,-42.29070289650522,-0.17752836126203864,80.44597965245578,-8.787710395493786,-49.684908417367666,-5.3337181181905144,76.77200051798998,-1.0630561919494852,0.6265579052793052,44.73916315802547,-2.6125398561699624,-3.6436443013744126,-4.393855197746893,0.4941216333848547,-50.31034390898239,-7.174440648338094,76.82822990182595,21.53105139732361,26.70428156852722,5.809164047241211,-7.879979442431741,-10.952299687895595,0
GUIDED_NOGPS,0.03724527359008789,37.006061354673065,-43.25957115581559,-1.0541101548728287,79.91734346373565,-8.773827376131713,-49.680151400900364,-5.328898982288373,76.77180163092044,-1.0063611395267364,0.6817955127270494,45.09150871164433,0.01855906501214022,0.21594645931449302,-4.386913688065857,0.4949671330674957,-50.54822269314388,-7.8396760541587875,76.83621287481894,21.828046441078186,28.711512684822083,9.440692514181137,-8.074252454774967,-12.329863466122541,0
GUIDED_NOGPS,0.06400251388549805,37.3820554184009,-43.82300573967393,-1.390026370208784,79.70814556599449,-8.924452953273278,-49.667521204574264,-5.316103854715322,76.77126526926956,-0.8968774759996634,0.6242055988013233,45.43021779258526,-0.13355904529973311,0.33598650609181674,-4.462226476636639,0.4953009915252401,-50.54822269314388,-7.8396760541587875,76.83621287481894,22.68633246421814,29.82092797756195,6.176825985312462,-8.074252454774967,-12.821252034449,0
GUIDED_NOGPS,0.0836172103881836,50.9976776703751,-44.20688198204555,-1.587626336178499,79.54328624668972,-9.027481367289376,-49.643480970171716,-5.291749691238794,76.77022768078879,-0.8507002212076468,0.3055329845123292,45.61847488158374,-0.13700275799591224,0.3071941199530585,-4.513740683644688,0.4955631062945585,-50.54822269314388,-7.8396760541587875,76.83621287481894,23.03982675075531,31.714782118797302,6.908722966909409,-8.074252454774967,-10.32659886463542,0
GUIDED_NOGPS,0.1267094612121582,23.209110326586174,-44.531658148279696,-1.9327866247462095,79.39697205044762,-9.238992838753484,-49.604759704439985,-5.252522784385139,76.7685285018053,-0.8033136494065677,0.27356335028715895,45.89794573185315,-0.11443901422111721,0.39603003675873644,-4.619496419376742,0.4957944903221723,-50.590122210429804,-9.769694180084798,77.45653195232117,22.66295701265335,33.12411308288574,2.1060220897197723,-8.72621166782449,-15.9471188439566,0
GUIDED_NOGPS,0.15180397033691406,39.85617089209016,-44.44407444608565,-1.7658933899581715,79.46010678405983,-9.708383064135864,-49.54834587270652,-5.19537227339724,76.76601073409185,-0.622688069505964,0.004858462300007502,46.322305384986045,-0.2340584173904483,0.5191066288478509,-4.854191532067932,0.49568944632005124,-50.835088928307584,-10.87921932213797,77.6938948449638,22.66295701265335,33.12411308288574,2.1060220897197723,-9.086829920595246,-15.9471188439566,0
GUIDED_NOGPS,0.18518400192260742,29.96316669286051,-44.54524633740883,-1.9039568003576863,79.42586450525626,-9.930356258350637,-49.47148099249424,-5.1175036541921255,76.76252072173651,-0.4845771088158105,-0.15718084885282912,46.68669939230081,-0.12239428931579864,0.4178076754981019,-4.965178129175318,0.4957386499463684,-50.835088928307584,-10.87921932213797,77.6938948449638,26.033708453178406,35.279580950737,4.703347757458687,-9.086829920595246,-13.092900610571455,0
GUIDED_NOGPS,0.2180957794189453,30.38756185384019,-44.59024732703524,-1.737336811193806,79.48322311049917,-10.16186137584135,-49.37165322713691,-5.016372289318593,76.75790812801243,-0.30862599298928717,-0.1277006851779963,47.02864939800291,-0.2098346725003457,0.43082607419425606,-5.080930687920675,0.4956394960280212,-50.835088928307584,-10.87921932213797,77.6938948449638,16.600899398326874,38.653963804244995,6.93122074007988,-9.086829920595246,-8.988332579798142,0
GUIDED_NOGPS,0.25180816650390625,29.667722951561792,-44.49700838625917,-1.533277469526774,79.54478799545834,-10.37996175528472,-49.24659097939436,-4.88967691791482,76.75202591224775,0.04660990458725459,-0.0899968603506557,47.361146421893714,-0.21171019386594514,0.46443590360304576,-5.18998087764236,0.49553158066686304,-50.835088928307584,-10.87921932213797,77.6938948449638,24.199196696281433,37.72140443325043,7.061882317066193,-9.086829920595246,-9.560782686967958,0
GUIDED_NOGPS,0.29619622230529785,22.531245467486773,-44.37326103740757,-1.2438255354939596,79.53412895931507,-10.518186030688941,-49.094256485067845,-4.735353165665983,76.74473030669526,0.2116740057016817,0.1754961078339241,47.65885387724706,-0.22862797778200417,0.4688246916706825,-5.259093015344471,0.4955369621558083,-50.835088928307584,-10.87921932213797,77.6938948449638,23.62467348575592,39.56708312034607,1.7901524901390076,-9.086829920595246,-4.784316140935798,0
GUIDED_NOGPS,0.32057857513427734,41.018483384513075,-44.054637171735095,-0.6562453466940469,79.57650509728865,-10.734346465712342,-48.91283940661532,-4.551567054761873,76.73588079340225,0.3438593103793864,-0.026168035525585737,47.79244896231793,-0.3768612750460134,0.5744047703649438,-5.367173232856171,0.49545500111378177,-50.835088928307584,-10.87921932213797,77.6938948449638,23.62467348575592,39.56708312034607,1.7901524901390076,-9.086829920595246,-4.784316140935798,0
GUIDED_NOGPS,0.3525993824005127,31.23574051042978,-44.07385410358609,-0.6051570369645166,79.5299331967051,-10.75071488567514,-48.700750426766774,-4.3367085138545125,76.72534008108029,0.4274877196901994,0.2272382058913557,47.91817908455952,-0.17926719090237347,0.38526230332342937,-5.37535744283757,0.4955126510150003,-50.835088928307584,-10.87921932213797,77.6938948449638,25.21551251411438,40.927162766456604,3.5602614283561707,-9.086829920595246,-4.90374455989441,0
GUIDED_NOGPS,0.38541603088378906,30.47588045950286,-43.96223018512182,-0.27491149597256426,79.47979487618856,-10.750143991151015,-48.456614842139494,-4.089384888015772,76.71297408197506,0.46022908525030176,0.018852782862583076,48.07946375652562,-0.25715652712987,0.4205139593982006,-5.3750719955755075,0.49557308672925837,-50.835088928307584,-10.87921932213797,77.6938948449638,21.71795815229416,41.12994372844696,-0.013985240366309881,-9.086829920595246,0.4624932395993081,0
GUIDED_NOGPS,0.41989588737487793,29.007655972280816,-43.81804600934904,0.1147515877803128,79.41759101406797,-10.794782194865451,-48.1792661568534,-3.808414448694986,76.69865188873604,0.28218659751643227,-0.21566335644528484,48.16732389491408,-0.2736359756476688,0.4134138157307394,-5.397391097432726,0.4956496973994689,-50.835088928307584,-10.87921932213797,77.6938948449638,21.918489038944244,42.655396461486816,-1.0546430945396423,-9.086829920595246,-2.313877699277206,0
GUIDED_NOGPS,0.4532489776611328,29.985658828828186,-43.5942394008918,0.5411286998065137,79.37047200249623,-10.776332919176898,-47.86773967614635,-3.49281990367657,76.68224575128642,0.3937281223352362,-0.45146814034014393,48.230960767411084,-0.28325345159658727,0.4198181805477748,-5.388166459588449,0.4956988379980643,-50.835088928307584,-10.87921932213797,77.6938948449638,26.098942756652832,43.039125204086304,-0.34840148873627186,-9.086829920595246,1.6759510508461204,0
GUIDED_NOGPS,0.4870765209197998,29.567335889916535,-43.40579896670506,0.9447079921596409,79.31558803474694,-10.821159418156236,-47.521266099989404,-3.1418219070376368,76.66363105369277,0.2574065378054938,-0.48436617336433346,48.2295674088204,-0.27621937006981523,0.38364900323228385,-5.410579709078118,0.49575686883031334,-50.835088928307584,-10.87921932213797,77.6938948449638,24.436260759830475,43.21323037147522,-0.5933808162808418,-9.086829920595246,-3.0340592486656974,0
GUIDED_NOGPS,0.5201742649078369,30.217893113932075,-43.16667896103814,1.368536587073892,79.36327750711546,-10.84380301417686,-47.13926511670219,-2.7548325691056132,76.64268629103496,0.14946615018529974,-0.7448121720309093,48.17265144246669,-0.27650638257568866,0.3742766578486477,-5.42190150708843,0.49564705405427123,-50.835088928307584,-10.87921932213797,77.6938948449638,27.32173204421997,43.97367835044861,5.8411817997694016,-9.086829920595246,-1.9188438902325866,0
GUIDED_NOGPS,0.5628280639648438,23.447716053868817,-42.93301033659714,1.7831702989365081,79.41117584128297,-10.85825870061286,-46.72133899656815,-2.3314489664158544,76.61929304627584,0.33808998832569415,-0.7243738447958511,48.096682663423216,-0.2676827653467217,0.3433448989208955,-5.42912935030643,0.4955329875279886,-50.835088928307584,-10.87921932213797,77.6938948449638,27.32173204421997,43.97367835044861,5.8411817997694016,-9.086829920595246,-1.9188438902325866,0
GUIDED_NOGPS,0.5890393257141113,38.157093211550006,-42.81378968716014,2.2467148051588737,79.31050963457645,-10.81653224092883,-46.26726618544988,-1.871446651669265,76.5933359671311,0.581698396749425,-0.8076398271938303,48.04793560331684,-0.28471010891299664,0.2765814242876341,-5.408266120464415,0.49565252213208744,-50.835088928307584,-10.87921932213797,77.6938948449638,19.209323823451996,46.82435095310211,-3.533259779214859,-9.086829920595246,1.3720556575481546,0
GUIDED_NOGPS,0.6300537586212158,24.38520482319973,-42.61498413390889,2.7196298280234146,79.37735671415827,-10.80046756950894,-45.77699489840442,-1.3747731636899103,76.56470274293899,0.5935299919391795,-0.6073697161057708,47.91834642419418,-0.2769488317795644,0.2716771954822095,-5.40023378475447,0.49549975364604915,-50.835088928307584,-10.87921932213797,77.6938948449638,24.074774980545044,46.561115980148315,6.879577040672302,-9.086829920595246,-0.11496291598445142,0
GUIDED_NOGPS,0.6632928848266602,30.09107018588534,-42.267902002000724,3.414097948310241,79.52343248767772,-10.73543374151188,-45.250636713298555,-0.84154153738264,76.53328408153018,0.6873687336463683,-0.6129400555390335,47.831316153789885,-0.34310287636582765,0.28496515218654406,-5.36771687075594,0.4952157625501639,-50.835088928307584,-10.87921932213797,77.6938948449638,25.66535770893097,47.095486521720886,10.270626842975616,-9.086829920595246,4.170834952987599,0
GUIDED_NOGPS,0.6892166137695312,38.582149000561124,-42.14886038707325,3.8253393343458324,79.50446889601015,-10.673059104818424,-44.688460164424136,-0.27202381369069073,76.49897368609756,0.8850822729115803,-0.3698599195589209,47.640330404217984,-0.2521856375383777,0.1060749260275797,-5.336529552409212,0.4951912076641398,-50.835088928307584,-10.87921932213797,77.6938948449638,28.34293246269226,46.616196632385254,1.758861355483532,-9.086829920595246,1.7223066909693505,0
GUIDED_NOGPS,0.722078800201416,30.434748536059733,-42.1541795445637,4.03324265050964,79.56006695728134,-10.488057103195992,-44.09088433611336,0.3333554504466756,76.46166823206592,1.116838809021458,-0.3514837224838247,47.4696371466702,-0.17540866197550048,0.025975018970823088,-5.244028551597996,0.49504256203965535,-50.835088928307584,-10.87921932213797,77.6938948449638,21.523578464984894,49.47388768196106,8.057836443185806,-9.086829920595246,7.731854395177182,0
GUIDED_NOGPS,0.758875846862793,27.189306573838184,-41.98406847485941,4.454398850192556,79.5649647555889,-10.372081727216585,-43.4584724563541,0.9740256721365803,76.42126734396186,0.9327451472089275,-0.12291306941536113,47.30894328606731,-0.2147689486016553,0.04708736556864797,-5.186040863608293,0.4949700841413967,-50.835088928307584,-10.87921932213797,77.6938948449638,23.84408414363861,47.78403639793396,3.2081540673971176,-9.086829920595246,4.991795516692806,0
GUIDED_NOGPS,0.7892594337463379,32.909924047454645,-41.69526170471099,4.954170551426213,79.63889590732632,-10.33400537739056,-42.79192549040519,1.6492767325748918,76.37767357228353,0.8189576107311001,0.0710886622423456,47.15813612428801,-0.2094340220511234,0.015154653477303364,-5.16700268869528,0.4947820442639315,-50.835088928307584,-10.87921932213797,77.6938948449638,28.56537401676178,47.19960391521454,6.981086730957031,-9.086829920595246,0.5497747328990201,0
GUIDED_NOGPS,0.822545051574707,30.047955755192103,-41.541926365661936,5.306680924931441,79.59131470949968,-10.235850814277512,-42.09207573441172,2.358265467088616,76.33079237037039,0.6975651922209924,0.0987690177100272,46.93345022135127,-0.1483323813336775,-0.08809606272736396,-5.117925407138756,0.4947831642573931,-50.835088928307584,-10.87921932213797,77.6938948449638,25.272825360298157,48.17507863044739,0.3849041648209095,-9.086829920595246,3.5988104519804396,0
GUIDED_NOGPS,0.8558707237243652,30.010976037321388,-41.42479850463725,5.710725360322884,79.59116082366144,-10.165390341646676,-41.35988040902036,3.100022155178287,76.28053207127309,0.8858859407169675,0.08117374337677355,46.890095595594616,-0.14077102985049683,-0.16638020954134625,-5.082695170823338,0.4947029939961786,-50.835088928307584,-10.87921932213797,77.6938948449638,20.661404728889465,47.9283481836319,2.9887499287724495,-9.086829920595246,2.1621271176188013,0
GUIDED_NOGPS,0.8998210430145264,22.755925931954188,-41.302691988231615,6.116499307488948,79.55653406423096,-10.036115084985083,-40.596415252994674,3.873457010560335,76.22680386462316,0.5058930619983625,0.12252553622124225,46.6888645622677,-0.13207230669888162,-0.18797220612488982,-5.018057542492541,0.4946724316806275,-50.835088928307584,-10.87921932213797,77.6938948449638,21.019430458545685,48.21364879608154,0.7921997457742691,-9.086829920595246,5.798310230303435,0
GUIDED_NOGPS,0.9316530227661133,31.42083183507132,-41.05587045356704,6.6433970994653295,79.6093050304459,-9.944169662102329,-39.802868116830396,4.677366671209484,76.16952177350286,0.512645717849125,0.10539075937832895,46.554893816792486,-0.11955806670603505,-0.2667432554659277,-4.9720848310511645,0.49449634678889115,-50.835088928307584,-10.87921932213797,77.6938948449638,25.45381188392639,48.8570898771286,5.679700151085854,-9.086829920595246,3.60869672391721,0
GUIDED_NOGPS,0.9560830593109131,40.939610155098535,-41.05209660992973,6.716140589307441,79.62124238833104,-9.849382766105423,-38.98053255637074,5.510440689401134,76.10860263131495,0.5497009882003251,0.07994234831482752,46.45890575329171,0.11960458921383463,-0.5465681983507905,-4.9246913830527115,0.4943797763887743,-50.835088928307584,-10.87921932213797,77.6938948449638,25.45381188392639,48.8570898771286,5.679700151085854,-9.086829920595246,3.60869672391721,0
GUIDED_NOGPS,0.9905438423156738,29.025722649356762,-40.978515385540824,6.864851802912648,79.57612012066033,-9.810371181716755,-38.130801426421726,6.371268021753721,76.04396605865247,0.6904417851643452,-0.0681551426845714,46.37626729452373,0.08151030737437756,-0.5015676487368899,-4.905185590858378,0.49434855350078744,-50.835088928307584,-10.87921932213797,77.6938948449638,27.806606888771057,49.65636432170868,1.5488972887396812,-9.086829920595246,0.21734067481462543,0
GUIDED_NOGPS,1.026444435119629,27.858948557005746,-40.75120522950544,7.320122409110449,79.55627304906346,-9.793301420133803,-37.255160474367436,7.258343519271154,75.97553444016859,0.5725490915519285,-0.437127731290879,46.21172120722895,0.02832263674904592,-0.5066473932353447,-4.8966507100669014,0.4942708182257682,-50.835088928307584,-10.87921932213797,77.6938948449638,27.111291885375977,49.692362546920776,1.327497698366642,-9.086829920595246,-0.9554196677060773,0
GUIDED_NOGPS,1.0588605403900146,30.852267043281255,-40.506938352305916,7.727868286097934,79.50357325454199,-9.753301399304009,-36.35518193378539,8.17007441738513,75.90323290144629,0.6897148502654148,-0.4837659171301657,46.19160630012326,0.08867325603939245,-0.597485580357521,-4.8766506996520045,0.4942394554350469,-50.835088928307584,-10.87921932213797,77.6938948449638,30.177214741706848,50.29905438423157,-0.48768026754260063,-9.086829920595246,0.5415177812444152,0
GUIDED_NOGPS,1.0908267498016357,31.287000499779946,-40.34690938433167,8.10159159361879,79.45548104100807,-9.721632222605743,-35.43251811806178,9.104786825997571,75.82698928586825,0.505579300183365,-0.7574677655110025,46.12025472895873,0.1385610479604877,-0.7184546738524203,-4.860816111302872,0.49419441319177626,-50.835088928307584,-10.87921932213797,77.6938948449638,26.12152099609375,51.42999887466431,0.03699971130117774,-9.086829920595246,0.08024319680342543,0
GUIDED_NOGPS,1.1265480518341064,28.00197615264444,-40.205675116543915,8.470740435878028,79.39543632746107,-9.669611017914422,-34.48889501400681,10.060732219522993,75.74673413148662,0.3817097107995112,-1.0459525444941271,46.03657125124773,0.15956228667384204,-0.7717110389774245,-4.834805508957211,0.4941620764864409,-50.835088928307584,-10.87921932213797,77.6938948449638,24.920354783535004,51.75548791885376,-0.6794897839426994,-9.086829920595246,1.4332892639526709,0
GUIDED_NOGPS,1.1585054397583008,31.297973315822464,-39.986336890050694,8.901861288603065,79.35673042371766,-9.57965834052926,-33.526105875469995,11.036093926930864,75.66240064789277,0.11070665425468888,-1.1395325394256486,45.96649009526881,0.2004221436296127,-0.8601262800174436,-4.78982917026463,0.49408907235868016,-50.835088928307584,-10.87921932213797,77.6938948449638,27.97197997570038,51.22154355049133,0.4131831228733063,-9.086829920595246,3.829862091223631,0
GUIDED_NOGPS,1.1918940544128418,29.951612442514783,-39.88180318804002,9.2520052994501,79.18148291404744,-9.556261180468455,-32.54600481695546,12.028993621788025,75.57392469308708,0.16529131162603583,-1.2652070596585312,45.93814481021326,0.2528886592600797,-0.9742823396764851,-4.778130590234228,0.49422790684646345,-50.835088928307584,-10.87921932213797,77.6938948449638,23.67302030324936,52.71478295326233,-8.155999332666397,-9.086829920595246,-0.23679412078787956,0
GUIDED_NOGPS,1.2258613109588623,29.446937571962145,-39.853379296628155,9.687572032523427,79.09202968082974,-9.472467503118443,-31.550500407237266,13.037497812301051,75.48124475034882,-0.029052289675928572,-1.5467257927401832,45.914430393414975,0.25974718836032945,-1.0892350633842853,-4.736233751559221,0.4942227441112305,-50.835088928307584,-10.87921932213797,77.6938948449638,16.687019169330597,55.04010319709778,-2.680089697241783,-9.086829920595246,3.577268675668454,0
GUIDED_NOGPS,1.258826732635498,30.33876556069122,-39.717058593886996,10.102129247806602,78.98775967731451,-9.407267366940093,-30.54154926297466,14.059624331358656,75.38430190510583,-0.04721050766696614,-1.6643812440006476,45.97233332210376,0.31451161651632975,-1.156577367242035,-4.703633683470047,0.4942344675644661,-50.835088928307584,-10.87921932213797,77.6938948449638,24.639028310775757,54.5151948928833,-3.621874377131462,-9.086829920595246,2.4589729019196676,0
GUIDED_NOGPS,1.2932143211364746,29.085906077501317,-39.58086585473552,10.49978691298085,78.9117774026129,-9.404669563859374,-29.52114964232744,15.09334882657404,75.28303982180435,-0.03963905620902189,-1.8318648462470593,45.99822656924728,0.35514501929610065,-1.239116000729676,-4.702334781929687,0.4941940198707063,-50.835088928307584,-10.87921932213797,77.6938948449638,25.7265567779541,56.0342013835907,-1.7526015639305115,-9.086829920595246,-1.3244289619090672,0
GUIDED_NOGPS,1.3266181945800781,29.9439145582272,-39.435623437558846,10.915433765846895,78.83704286669492,-9.403038072577122,-28.49133503857122,16.136611250327295,75.17740472077884,0.038263493462778346,-2.00950568684122,46.11801784200554,0.3908338461859573,-1.328899616565606,-4.701519036288561,0.4941445789665343,-50.835088928307584,-10.87921932213797,77.6938948449638,25.7265567779541,56.0342013835907,-1.7526015639305115,-9.086829920595246,-1.3244289619090672,0
STABILIZE,1.3602423667907715,29.7415635525616,-39.34520393604632,11.323484987009747,78.81421353730408,-9.44129081493336,-27.454167773712776,17.187322349807783,75.06734535512172,-0.0649885829420102,-2.1879682845698984,46.16603407187073,0.42819422585950717,-1.4409403838706394,-4.72064540746668,0.49400501090850824,-50.835088928307584,-10.87921932213797,77.6938948449638,23.011428117752075,57.31889605522156,1.5504959039390087,-9.086829920595246,-3.6836012741106243,0
STABILIZE,1.3934459686279297,30.121756616036482,-39.27859390286717,11.750514079251873,78.79955926160636,-9.37693047799919,-26.411732592105245,18.24337015705657,74.95281298755322,0.12433606995982453,-2.335713173723502,46.280019683834496,0.461889516733351,-1.5481682364018265,-4.688465238999595,0.493845205961515,-50.835088928307584,-10.87921932213797,77.6938948449638,21.653705835342407,58.80587100982666,1.9832924008369446,-9.086829920595246,2.75462041490802,0
STABILIZE,1.4273767471313477,29.478188143514778,-39.2873886820427,12.174317670895107,78.78127957107189,-9.376911065185467,-25.36613025406359,19.302626479008712,74.83376136729109,0.07149187018700114,-2.2717157953043636,46.3180091959981,0.49200476851040326,-1.6671860087965222,-4.688455532592734,0.4936839708739507,-50.835088928307584,-10.87921932213797,77.6938948449638,17.54187047481537,61.274975538253784,1.6789048910140991,-9.086829920595246,-1.1651393455108494,0
STABILIZE,1.4607460498809814,29.9715169747683,-39.29276522291476,12.628180887550998,78.77058366079261,-9.438203416052138,-24.31947112947978,20.36295338753568,74.71014670692045,0.24751279534931875,-2.2228558236332656,46.43569677049201,0.5159141293101199,-1.7715370910009889,-4.719101708026069,0.49350330087380456,-50.835088928307584,-10.87921932213797,77.6938948449638,17.657281458377838,62.543147802352905,2.067892625927925,-9.086829920595246,-4.887728193177553,0
STABILIZE,1.5021090507507324,24.179819327464646,-39.342142217894185,13.064391648985271,78.73290084108518,-9.429550594492438,-23.27386879143814,21.422209709487813,74.58192765926361,0.41067424855286094,-1.662238378870262,46.54123343845246,0.5270872223658487,-1.822710537570473,-4.714775297246219,0.4933584429090855,-50.835088928307584,-10.87921932213797,77.6938948449638,15.23967832326889,63.016319274902344,0.2800067886710167,-9.086829920595246,-0.48831327565266036,0
STABILIZE,1.530301809310913,35.47550134905397,-39.33313179654491,13.769462674721474,78.70241262022705,-9.460844439946188,-22.23143360983061,22.4782575167366,74.44906529424975,1.1170853361618132,-1.313279852027785,46.5764601390968,0.4961100887099114,-2.0160024890365884,-4.730422219973094,0.4931946442784363,-50.835088928307584,-10.87921932213797,77.6938948449638,12.642598152160645,64.94158506393433,0.5464761517941952,-9.086829920595246,-2.8644788850657976,0
STABILIZE,1.5653817653656006,28.51076383460333,-39.446564766428054,14.036641401675752,78.74398960096978,-9.537739700255043,-21.19426634497215,23.52896861621711,74.3115230757848,2.267651832748206,-0.48533958204276606,46.72424152707378,0.6447966616665133,-2.1136922295873,-4.768869850127522,0.492908053559704,-50.835088928307584,-10.87921932213797,77.6938948449638,16.359029710292816,65.37144184112549,5.303240567445755,-9.086829920595246,-5.694772673335681,0
STABILIZE,1.5984554290771484,30.240769447068068,-39.42767565469475,14.526474971931941,78.85603078535475,-9.586439200104074,-20.16445174121594,24.57223103997035,74.16926683862124,3.7475788022924874,-0.14062148209695635,46.75291124611491,0.6154064633100966,-2.168748899146363,-4.793219600052037,0.4925011776852264,-50.835088928307584,-10.87921932213797,77.6938948449638,19.94289755821228,66.79104566574097,9.495262801647186,-9.086829920595246,-3.836353332256082,0
STABILIZE,1.6333732604980469,28.641987448698774,-39.42483018822187,14.968533958085555,78.96921428718835,-9.635134944376832,-19.144052120568702,25.605955535185746,74.0222647652278,5.9986721220584664,0.6844225208757128,46.956693355096824,0.6513823472647101,-2.259649235844752,-4.817567472188416,0.4920848807648631,-50.835088928307584,-10.87921932213797,77.6938948449638,19.94289755821228,66.79104566574097,9.495262801647186,-9.086829920595246,-3.836353332256082,0
STABILIZE,1.665783405303955,30.85816865555245,-39.47351221451644,15.434890777157346,78.98089003518683,-9.600300892368617,-18.135100976306106,26.628082054243333,73.87048736265933,9.644571178837444,1.2813252388827034,47.10826549806316,0.6769928780384085,-2.395546991147379,-4.8001504461843085,0.491823355723956,-50.835088928307584,-10.87921932213797,77.6938948449638,16.04188233613968,67.70634651184082,3.0013319104909897,-9.086829920595246,1.2905505832955693,0
STABILIZE,1.6994924545288086,29.66961171984975,-39.58343956870906,15.792003750424826,78.90449082576927,-9.523802460604568,-17.139596566587926,27.636586244756355,73.71390743942656,13.341641585991333,1.658223401577058,47.26534618859512,0.736481410800042,-2.507077997761132,-4.761901230302284,0.4916950665818517,-50.835088928307584,-10.87921932213797,77.6938948449638,13.673725724220276,65.88809490203857,-2.362387999892235,-9.086829920595246,3.736168117510335,0
STABILIZE,1.7377161979675293,26.165503215865353,-39.62956551693136,16.07360150484,78.95152630888498,-9.564849423022883,-16.159495508073377,28.62948593961354,73.55250008236594,16.841158162912713,1.7594150020083241,47.3846115367873,0.7784776509328171,-2.548894630578026,-4.7824247115114416,0.49136155803756953,-50.835088928307584,-10.87921932213797,77.6938948449638,16.907992959022522,58.5177481174469,5.304928123950958,-9.086829920595246,-3.419875717425384,0
STABILIZE,1.768568754196167,32.41698483607191,-39.596019172166386,16.198335828766044,78.93816887682888,-9.588243402029798,-15.196706369536585,29.604847647021383,73.3862426335093,19.82188857519942,1.4250804437873734,47.36123179925834,0.9175131358303212,-2.696541450786738,-4.794121701014899,0.4911169180106887,-50.835088928307584,-10.87921932213797,77.6938948449638,21.982969343662262,48.12348783016205,1.434255763888359,-9.086829920595246,-2.303870618369491,0
STABILIZE,1.8009605407714844,30.88066086008997,-39.67582878939303,16.016969111705823,78.74283176203996,-9.58200097831732,-14.253083265481607,30.560793040546823,73.21511466695381,22.025464695796444,1.3795494422847163,47.39901299065227,1.0572676676229271,-2.820070313770496,-4.79100048915866,0.49115565264786215,-50.835088928307584,-10.87921932213797,77.6938948449638,18.221761286258698,40.190520882606506,-9.732591360807419,-9.086829920595246,-0.6219433654430211,0
STABILIZE,1.8344929218292236,29.824889249169814,-39.738845539957424,15.818447587979838,78.58057042997669,-9.518235230765132,-13.330419449757983,31.495505449159264,73.03909796573163,25.440660026093077,1.108114096130413,47.32056485294009,1.1282487771295528,-2.900848246260582,-4.759117615382566,0.4911336440572079,-50.835088928307584,-10.87921932213797,77.6938948449638,16.514092683792114,31.320175528526306,-7.898585498332977,-9.086829920595246,3.0223791982981525,0
STABILIZE,1.8696725368499756,28.428442649062283,-39.705080154302486,15.33779382620165,78.54730042897843,-9.463120521779906,-12.430440909175942,32.407236347273226,72.85817649867978,28.13466080456994,0.6692857544579066,47.18290580531306,1.2935200391173676,-2.9584943585353636,-4.731560260889953,0.4908974017115222,-50.835088928307584,-10.87921932213797,77.6938948449638,22.43528962135315,11.360271275043488,0.27159713208675385,-9.086829920595246,2.491331990329661,0
STABILIZE,1.9023289680480957,30.633245690914404,-39.700011536142405,14.582947939123454,78.43959747050629,-9.271796804254699,-11.55479995712166,33.294311844790656,72.6723363973099,30.77472187162392,-0.12065625218362729,46.77059460587608,1.5254106427491192,-3.092418192202215,-4.635898402127349,0.4907723822828858,-50.835088928307584,-10.87921932213797,77.6938948449638,19.818007946014404,-6.987234950065613,-4.491591081023216,-9.086829920595246,10.8254878344442,0
STABILIZE,1.941856861114502,25.30072747891759,-39.72557521427826,13.477302569824017,78.27881961127785,-9.243730008115174,-10.705068827172639,34.155139177143255,72.48156593267808,30.99644005736629,-0.6748102035576834,46.51579781398333,1.7203040343222629,-3.181409083406164,-4.621865004057587,0.49072439411424035,-50.835088928307584,-10.87921932213797,77.6938948449638,19.65586096048355,-24.763672053813934,-7.906585931777954,-9.086829920595246,0.8071729730918894,0
STABILIZE,1.968867301940918,37.028276817953085,-39.70926768568311,12.166939870707793,77.95846713119255,-9.071582193862241,-9.882733266712947,34.988213195334936,72.28585549225454,29.384949130255578,-1.6080268472627535,46.00979007951211,2.0225280780371646,-3.310959597877863,-4.535791096931121,0.4909238213776992,-50.835088928307584,-10.87921932213797,77.6938948449638,19.60805654525757,-42.73303151130676,-17.804527282714844,-9.086829920595246,9.557902908459152,0
STABILIZE,2.0038504600524902,28.588495906974842,-39.90890306557685,10.421248370632956,77.61151247213425,-8.992896951521747,-9.089186130548697,35.79212285598409,72.08519755679357,26.014484708833358,-2.602238040751389,45.52271221432557,2.247271743231378,-3.457904300113534,-4.496448475760873,0.4911578961354549,-50.835088928307584,-10.87921932213797,77.6938948449638,8.958594501018524,-64.0454649925232,-19.93466168642044,-9.086829920595246,4.109690672650822,0
STABILIZE,2.035480260848999,31.621712907117008,-40.19224483513379,8.451383898513384,77.25316705364776,-8.827787880608733,-8.325720974523037,36.5655577113661,71.87958667720322,22.466910067138123,-3.4031797468861114,45.19872902123519,2.591478769200765,-3.6475697136809653,-4.413893940304367,0.4914022713976887,-50.835088928307584,-10.87921932213797,77.6938948449638,1.2264112010598183,-81.85463547706604,-20.267412066459656,-9.086829920595246,9.189397981037684,0
STABILIZE,2.073251247406006,26.47835611249645,-40.4954027190271,6.464635127858776,76.90647331409978,-8.668907362043672,-7.593525649131649,37.30731439945575,71.6690194514151,15.843617572368812,-4.629712247751621,44.765548178789224,2.669789602685591,-3.6884396112931936,-4.334453681021836,0.4916200738197045,-50.835088928307584,-10.87921932213797,77.6938948449638,1.2264112010598183,-81.85463547706604,-20.267412066459656,-9.086829920595246,9.189397981037684,0
STABILIZE,2.103294610977173,33.2918260759132,-40.7739895088188,4.231157810284612,76.45417554282938,-8.154133598810356,-6.8936758931381945,38.0163031339695,71.45349450125421,12.273089226194104,-5.037021614282045,44.66211520909314,3.171568851440057,-3.873205620763738,-4.077066799405178,0.49199891033347976,-50.835088928307584,-10.87921932213797,77.6938948449638,-0.6814160384237766,-98.49728345870972,-25.252389907836914,-9.086829920595246,30.099892351437493,0
STABILIZE,2.1367759704589844,29.87183249056335,-41.19953949652666,1.842200142304641,76.09102991216494,-7.790579131878587,-6.227128927189298,38.691554194407814,71.23301244930872,6.008481127480251,-5.902013419358562,44.486616913464246,3.36013674464082,-3.974911549216155,-3.8952895659392937,0.49222717205943006,-50.835088928307584,-10.87921932213797,77.6938948449638,-5.71390874683857,-110.00689268112183,-22.586923837661743,-9.086829920595246,22.4338656119336,0
STABILIZE,2.1753029823303223,25.958385423758184,-41.75779125796781,-0.6418227211017693,75.84687596565604,-7.495971976534639,-5.594717047430024,39.33222441609769,71.00757589579969,1.4385353828437697,-6.073123745332545,44.41839698403416,3.4995409061431295,-4.065463074014875,-3.7479859882673194,0.49225711988822984,-50.835088928307584,-10.87921932213797,77.6938948449638,-16.777755320072174,-116.46240949630737,-14.031414687633514,-9.086829920595246,17.539994090484445,0
STABILIZE,2.2057669162750244,32.83289627153671,-42.321471363390195,-3.132692734013691,75.65947771827291,-7.238964343858402,-4.9971412191192,39.93760368023513,70.77718939545099,-1.2894107954778233,-6.106989530784761,44.3316057702508,3.4932254520705017,-4.24273576013013,-3.619482171929201,0.49218833868348494,-50.835088928307584,-10.87921932213797,77.6938948449638,-17.197242379188538,-117.82944202423096,-10.70801317691803,-9.086829920595246,13.861213222380556,0
STABILIZE,2.2374448776245117,31.573153473246816,-43.009665172838204,-5.244999315077839,75.46691583902727,-7.065430040966691,-4.434964670244838,40.507121403927016,70.54185943435895,-2.3563040596369746,-5.869432990130778,44.20036368534901,3.494895080238387,-4.322213218816247,-3.5327150204833453,0.4921199097525307,-50.835088928307584,-10.87921932213797,77.6938948449638,-24.920451641082764,-102.51568555831909,-13.573053479194641,-9.086829920595246,12.244070313731658,0
STABILIZE,2.2700302600860596,30.691751000665892,-43.6532261294719,-7.311282474361489,75.16420204086835,-6.990112179048055,-3.908606485138975,41.040353030234314,70.30159440686228,-2.9875529174939035,-5.408554876826766,43.963660064567634,3.4899360931343058,-4.4043762500694115,-3.4950560895240277,0.4922198277855903,-50.835088928307584,-10.87921932213797,77.6938948449638,-23.39860200881958,-95.21992802619934,-19.0144345164299,-9.086829920595246,5.030021097269605,0
STABILIZE,2.3056020736694336,28.117610779647382,-44.31475609141166,-9.183043916407161,75.00311032987298,-6.850128677528825,-3.4183351980935157,41.53702651821365,70.05640459241174,-2.613629088739678,-4.714066364661748,43.75017567186971,3.4943554256229614,-4.44853685602574,-3.4250643387644124,0.49208527082006204,-50.835088928307584,-10.87921932213797,77.6938948449638,-24.882987141609192,-84.83887314796448,-10.464555770158768,-9.086829920595246,9.424993403626228,0
STABILIZE,2.339601516723633,29.416372103461818,-44.93552104497038,-10.9337528855048,74.88891147001556,-6.749969943325137,-2.96426238697525,41.99702883296024,69.80630213244002,-2.0148859549164864,-3.8230186685621015,43.583092169298276,3.5021265684296154,-4.442421580478309,-3.3749849716625686,0.49186782505987914,-50.835088928307584,-10.87921932213797,77.6938948449638,-22.33889400959015,-76.3652503490448,-7.1584999561309814,-9.086829920595246,6.560725400651054,0
STABILIZE,2.3734588623046875,29.542137106714467,-45.66147464819321,-12.497504948392871,74.5419565103081,-6.759773062954938,-2.546336266841209,42.420412435650036,69.55130100723152,-1.474474771039319,-3.2234181325546616,43.38293347567105,3.501366433435673,-4.443020717801117,-3.379886531477469,0.4920149511950775,-50.835088928307584,-10.87921932213797,77.6938948449638,-30.097472667694092,-69.30710077285767,-22.80341386795044,-9.086829920595246,0.6885658843809717,0
STABILIZE,2.4083735942840576,28.645508499463876,-46.333768795228956,-13.995991846756958,74.21339440608119,-6.7594252243399335,-2.1643352835539673,42.80740177358203,69.29141701279204,-1.1716877893775992,-2.3130668277566784,43.1131307581718,3.5013934066349055,-4.44299946117188,-3.3797126121699668,0.4921248361707374,-50.835088928307584,-10.87921932213797,77.6938948449638,-26.745474338531494,-67.14248657226562,-21.775811910629272,-9.086829920595246,1.5699492896918728,0
STABILIZE,2.4407644271850586,30.878160107189657,-46.98596303140372,-15.388125183210962,73.9054186950044,-6.772119808635181,-1.8178617073970287,43.158399770220996,69.02666773771874,-0.9985832616093845,-2.0778466386856635,42.946112142397475,3.5004089195525556,-4.443775128864749,-3.3860599043175905,0.49219399846834294,-50.835088928307584,-10.87921932213797,77.6938948449638,-26.745474338531494,-67.14248657226562,-21.775811910629272,-9.086829920595246,1.5699492896918728,0
STABILIZE,2.4772047996520996,27.445681904437844,-47.54631362518694,-16.694987969384083,73.56411794959782,-6.7336510505551725,-1.506335226690041,43.47399431523942,68.75707254006976,-1.1915811422220846,-1.74133271651095,42.71146782365086,3.503391709810757,-4.441423930186046,-3.3668255252775863,0.4923087273447551,-50.835088928307584,-10.87921932213797,77.6938948449638,-21.853384375572205,-67.23514199256897,-25.00707507133484,-9.086829920595246,5.173328711340228,0
STABILIZE,2.5105323791503906,30.009902406914513,-48.128244223182,-18.179576939651543,73.12471635748473,-6.659478643801855,-1.22898654140387,43.75496475456012,68.48265252423415,-1.4256216295573911,-1.3236129677466622,42.54617383064196,3.509138429990278,-4.436884884597004,-3.3297393219009277,0.4925726978667991,-50.835088928307584,-10.87921932213797,77.6938948449638,-20.999400317668915,-65.63761234283447,-27.90316343307495,-9.086829920595246,5.9886501001119425,0
STABILIZE,2.5452146530151367,28.837930749979375,-48.67732363125843,-19.448553205164018,72.82562453693579,-6.5365828933443,-0.9848509567766115,44.002288380398824,68.20343051780156,-1.9202359681627998,-1.1685513451663883,42.193257956227406,3.518647182184133,-4.429347808346919,-3.26829144667215,0.49260448956938524,-50.835088928307584,-10.87921932213797,77.6938948449638,-21.255865693092346,-64.0073835849762,-21.798966825008392,-9.086829920595246,10.167747447561142,0
STABILIZE,2.5774333477020264,31.0427046790118,-49.21392268355759,-20.67889728440577,72.5300454797809,-6.414335194094525,-0.7727619769280096,44.217146921306295,67.91943104843209,-2.0703426086653467,-1.0497732882828086,41.98089712964795,3.5280897325260696,-4.421830258981469,-3.2071675970472624,0.4926230169098419,-50.835088928307584,-10.87921932213797,77.6938948449638,-21.255865693092346,-64.0073835849762,-21.798966825008392,-9.086829920595246,10.167747447561142,0
STABILIZE,2.612553596496582,28.477468852904234,-49.71671622257743,-21.769029391467893,72.23315810249996,-6.36557413222926,-0.5913448984755547,44.40093303221036,67.63068032072603,-2.1934335031229666,-1.0783217714661695,41.68194657986567,3.5318516136083993,-4.418826108759174,-3.18278706611463,0.4926360355491617,-50.835088928307584,-10.87921932213797,77.6938948449638,-20.408165454864502,-60.65223217010498,-23.307712376117706,-9.086829920595246,6.309591297700733,0
STABILIZE,2.645550489425659,30.310920968954154,-50.34221808372734,-22.774745554527524,72.00837281469242,-6.331523669351781,-0.43901040414898773,44.55525678445926,67.3372061930937,-2.128019287337873,-1.1143975500017074,41.403486597593414,3.5344770658080242,-4.41672637496111,-3.1657618346758905,0.49252613340544205,-50.835088928307584,-10.87921932213797,77.6938948449638,-28.500232100486755,-53.87384295463562,-17.962266504764557,-9.086829920595246,4.998040444028313,0
STABILIZE,2.680070400238037,28.972390497965726,-50.858542443620685,-23.656269540388205,71.5272487315988,-6.256708703667292,-0.3139481564064255,44.681952155862945,67.03903815462523,-2.03904689533176,-1.1560143195014183,41.13155969126228,3.5402412686498566,-4.412107405735774,-3.128354351833646,0.4928188630768423,-50.835088928307584,-10.87921932213797,77.6938948449638,-23.22952300310135,-53.14944386482239,-35.85091829299927,-9.086829920595246,8.228448421424837,0
STABILIZE,2.7125866413116455,30.759951890639208,-51.362170362081265,-24.469531008250215,71.00384601892611,-6.20283921695758,-0.21412039104906455,44.78308352073654,66.73620730196032,-1.8243226098560725,-1.1116779607732787,40.87840897495951,3.544387966278213,-4.408776921607873,-3.10141960847879,0.4931717780528547,-50.835088928307584,-10.87921932213797,77.6938948449638,-22.762207686901093,-47.26633429527283,-37.8048449754715,-9.086829920595246,6.715763864621174,0
STABILIZE,2.74627685546875,29.686621462848407,-51.84132424232442,-25.17504029907357,70.51120786584568,-6.159808602595127,-0.1372555108369653,44.860952139941645,66.42874631615803,-1.440603222614991,-1.0772817684433293,40.65719280812114,3.547698072033356,-4.406113751333573,-3.0799043012975633,0.49346806152049977,-50.835088928307584,-10.87921932213797,77.6938948449638,-22.762207686901093,-47.26633429527283,-37.8048449754715,-9.086829920595246,6.715763864621174,0
STABILIZE,2.781729221343994,28.210466844678805,-52.2931731291741,-25.86926581706901,69.83786279556118,-6.111637211285759,-0.08084167910347162,44.918102650929455,66.11668943956663,-0.8546526595812628,-0.9882084177035467,40.36136023969496,3.5514012551554934,-4.4031294694660055,-3.0558186056428793,0.4940461226304087,-50.835088928307584,-10.87921932213797,77.6938948449638,-20.817255973815918,-45.66180109977722,-48.52875769138336,-9.086829920595246,6.8196817777483325,0
STABILIZE,2.816877603530884,28.457953944065245,-52.73969939065186,-26.404850657682044,69.36715808359627,-6.138550556034532,-0.0421204133716202,44.9573295577832,65.80007245269331,-0.6209597114808335,-0.7531854503448161,40.09310114494813,3.549332596935238,-4.404797170850545,-3.069275278017266,0.4942926629905553,-50.835088928307584,-10.87921932213797,77.6938948449638,-21.953073143959045,-39.41258788108826,-36.885908246040344,-9.086829920595246,2.4627677123338443,0
STABILIZE,2.8489491939544678,31.185807545318006,-53.12093377360487,-26.83775423412242,69.00580079107289,-6.1022849807173,-0.018080178969128724,44.981683721259714,65.47893265107406,-0.3564287794429139,-0.7274027668884874,39.96401398472947,3.5521199184063095,-4.40254972547286,-3.05114249035865,0.4943570109760019,-50.835088928307584,-10.87921932213797,77.6938948449638,-19.86401379108429,-38.730618357658386,-32.43795335292816,-9.086829920595246,6.999104017055398,0
STABILIZE,2.8834288120269775,29.009260988345957,-53.58019767610716,-27.151984274360796,68.47901447257647,-6.142908973126443,-0.005449982642929285,44.99447884883287,65.15330882214336,-0.4075877500999557,-0.5454501559373442,39.78611487760732,3.548997519346766,-4.405067151323632,-3.0714544865632214,0.494678870959307,-50.835088928307584,-10.87921932213797,77.6938948449638,-26.819488406181335,-35.23242473602295,-44.643986225128174,-9.086829920595246,2.5834545936470312,0
STABILIZE,2.914658784866333,32.02785625925869,-54.095303076962765,-27.62947651639864,67.86779555179315,-6.164249708090045,-0.0006929661757482108,44.999297984734966,64.82324122210403,-0.09657244488120696,-0.16611174807944393,39.47440894955003,3.547356535069093,-4.406388726962544,-3.0821248540450226,0.4951287130724974,-50.835088928307584,-10.87921932213797,77.6938948449638,-26.819488406181335,-35.23242473602295,-44.643986225128174,-9.086829920595246,2.5834545936470312,0
STABILIZE,2.9480419158935547,29.9597422820326,-54.33030384369192,-27.909907517833894,67.50758291797102,-6.175946590601216,-7.105427357601002e-14,45.000000000000085,64.48877155279702,0.5931573731034436,-0.04203383125579811,39.21892913874029,3.546456900808094,-4.407112824822011,-3.087973295300608,0.49516990181572157,-50.835088928307584,-10.87921932213797,77.6938948449638,-13.703267276287079,-36.462798714637756,-35.57077944278717,-9.086829920595246,4.486938242209905,0
STABILIZE,2.981282949447632,30.08761647884192,-54.66935848044332,-28.204187911889264,66.99838447852295,-6.176591049893053,0.0,45.0,64.14994293857119,1.3150481239708778,0.06158072542267712,38.94985042129306,3.5464073296583853,-4.407152714865379,-3.0882955249465267,0.49544249353607717,-50.835088928307584,-10.87921932213797,77.6938948449638,-19.124877452850342,-32.7505886554718,-42.52149164676666,-9.086829920595246,4.6452133620729645,0
STABILIZE,3.0182552337646484,27.052695398666167,-54.86807459400665,-28.471689544110102,66.51011728572296,-6.160231061863003,0.0,45.0,63.806799903153085,2.4733090421007016,0.14600775326817253,38.80966761876771,3.5476655843155736,-4.406139909474373,-3.0801155309315016,0.49567469218788823,-50.835088928307584,-10.87921932213797,77.6938948449638,-10.585053265094757,-32.84682035446167,-42.095765471458435,-9.086829920595246,5.827889645164645,0
STABILIZE,3.057420015335083,25.53640835809264,-55.11660865187432,-28.80778853650844,65.91709342179078,-6.2097052436980436,0.0,45.0,63.459388346516754,3.5818626182155224,-0.06345187042003665,38.60041111316603,3.5438596160478366,-4.409201630878915,-3.1048526218490218,0.4960676718795616,-50.835088928307584,-10.87921932213797,77.6938948449638,-11.91597655415535,-31.85010552406311,-44.96494233608246,-9.086829920595246,1.1301231000703098,0
STABILIZE,3.086602210998535,34.27278967151496,-55.39077545704462,-29.21514834701047,65.33867276651557,-6.238986622850796,0.0,45.0,63.10775552175353,4.567483247997281,-0.27705411056156437,38.50998282364965,3.5416058023092676,-4.4110121674111635,-3.119493311425398,0.49643053240838075,-50.835088928307584,-10.87921932213797,77.6938948449638,-12.475378811359406,-33.89004468917847,-41.78606867790222,-9.086829920595246,2.166201325458714,0
STABILIZE,3.120227813720703,29.743883586026918,-55.44901481949201,-29.311910476049434,64.83092103533326,-6.27772781312466,0.0,45.0,62.751950011941794,4.877630612263335,-0.3687492667668533,38.47921965162791,3.538622437097884,-4.413405855761221,-3.13886390656233,0.49667364636257366,-50.835088928307584,-10.87921932213797,77.6938948449638,-8.386868983507156,-37.33687102794647,-52.083927392959595,-9.086829920595246,3.5969056829756525,0
STABILIZE,3.153257131576538,30.280722526242833,-55.63821291355121,-29.564047328713926,64.3859042385541,-6.431055599721174,0.0,45.0,62.3920217070168,5.758120543453434,-1.024896885551976,38.33329949019976,3.5267991766999294,-4.422859659454356,-3.215527799860587,0.49680978794954034,-50.835088928307584,-10.87921932213797,77.6938948449638,-13.809940218925476,-39.23480212688446,-43.07877719402313,-9.086829920595246,-4.178998309706234,0
STABILIZE,3.1963002681732178,23.234695516815403,-55.919140212032296,-29.812129303416114,63.86820288692304,-6.507194445609175,0.0,45.0,62.02802178064045,5.275652629069835,-1.2850043629678132,38.29637890264125,3.520918643220004,-4.427542423040779,-3.2535972228045873,0.4970557102299479,-50.835088928307584,-10.87921932213797,77.6938948449638,-20.570409297943115,-39.75313603878021,-48.38094413280487,-9.086829920595246,0.5803278766037796,0
STABILIZE,3.2214088439941406,39.83497321733845,-56.131998866353,-30.17163058282386,63.458711319193135,-6.575690683830388,0.0,45.0,61.66000266707109,4.42395877542051,-1.2933100864419602,38.333979094022176,3.5156230684286163,-4.431748463161302,-3.287845341915194,0.4971220661566047,-50.835088928307584,-10.87921932213797,77.6938948449638,-16.12372249364853,-46.87574505805969,-41.46725833415985,-9.086829920595246,0.9291003875130794,0
STABILIZE,3.2544946670532227,30.231396857431164,-56.23621717892624,-30.255250668421557,63.39238277569232,-6.657375910975607,0.0,45.0,61.28801803803329,3.2687135992526586,-1.5477643016591425,38.37037717210917,3.5093012595768744,-4.436756097593394,-3.3286879554878035,0.49663301641974555,-50.835088928307584,-10.87921932213797,77.6938948449638,-17.720624804496765,-49.19491112232208,-35.47767400741577,-9.086829920595246,1.2283890316592831,0
STABILIZE,3.2872347831726074,30.5486857151181,-56.44994349731973,-30.615011631259307,63.10690718962518,-6.718506527998948,0.0,45.0,60.91212277958765,2.208049894503382,-1.6345827294774686,38.44205317725928,3.504565552502046,-4.440497752303905,-3.359253263999474,0.49648834494393995,-50.835088928307584,-10.87921932213797,77.6938948449638,-17.720624804496765,-49.19491112232208,-35.47767400741577,-9.086829920595246,1.2283890316592831,0
STABILIZE,3.320974111557007,29.64067700787958,-56.618769439105705,-30.98906669321191,62.80879265139272,-6.800196438265432,0.0,45.0,60.532372969000576,1.1545909721114112,-1.5849865914798904,38.531163240265855,3.498230917882996,-4.445489899343771,-3.400098219132716,0.49635772850817256,-50.835088928307584,-10.87921932213797,77.6938948449638,-15.246032178401947,-51.42068862915039,-37.78680860996246,-9.086829920595246,-0.015190340714108358,0
STABILIZE,3.3603246212005615,25.417097425144984,-56.83037008487899,-31.317566179454328,62.4109801648885,-6.904778984876792,0.0,45.0,60.14882585161405,0.9102653938248289,-1.7441281848721892,38.595742678868326,3.4901106985814794,-4.45186784525856,-3.452389492438396,0.4963805530987609,-50.835088928307584,-10.87921932213797,77.6938948449638,-18.15471202135086,-47.91320562362671,-43.638813495635986,-9.086829920595246,-1.5588045554005276,0
STABILIZE,3.3915066719055176,32.07463656732968,-57.01248258004282,-31.608068241039522,62.10199384764605,-7.083923530798034,0.0,45.0,59.76153981771549,0.12469586885065347,-1.5312878576686617,38.7838187678538,3.476174174837525,-4.4627584637971,-3.541961765399017,0.4962552735521111,-50.835088928307584,-10.87921932213797,77.6938948449638,-15.82295149564743,-43.98658871650696,-36.024606227874756,-9.086829920595246,-6.279725441781205,0
STABILIZE,3.4215776920318604,33.26040997581381,-57.24517927493827,-31.810268738061506,61.73893769607764,-7.245525067768147,0.0,45.0,59.37057437940745,-0.42639937173464015,-1.4621258957416416,38.85521815034253,3.463573248809708,-4.47254517586237,-3.6227625338840737,0.4962106186933277,-50.835088928307584,-10.87921932213797,77.6938948449638,-20.347169041633606,-40.80541729927063,-42.34931170940399,-9.086829920595246,-5.057524561509954,0
STABILIZE,3.4559736251831055,29.077840326114085,-57.39883798583033,-31.872022900079674,61.57794548622825,-7.369892265367444,0.0,45.0,58.97599014747749,-0.8583353054826632,-1.6394397410292882,38.92680877812801,3.453856914039804,-4.480052724839234,-3.684946132683722,0.49583687145799876,-50.835088928307584,-10.87921932213797,77.6938948449638,-18.958456814289093,-40.15980660915375,-36.68588995933533,-9.086829920595246,-2.7638010429261635,0
STABILIZE,3.489226818084717,30.076181734740707,-57.552497250227674,-32.00748291421099,61.2730288824944,-7.56499589389368,0.0,45.0,58.577848808267916,-0.9037953904118285,-1.365202416489693,39.15356764347786,3.438581440452938,-4.49178780413463,-3.78249794694684,0.4956877118812376,-50.835088928307584,-10.87921932213797,77.6938948449638,-16.56251847743988,-39.43389356136322,-41.42143726348877,-9.086829920595246,-7.301156326494517,0
STABILIZE,3.5227129459381104,29.876088040458722,-57.7206593254481,-32.04683943946293,61.03882074142968,-7.734358785380545,0.0,45.0,58.17621310054557,-0.8907428455470813,-1.114629242824959,39.30588769215831,3.4252889817228547,-4.501932406388173,-3.8671793926902724,0.49541982777458543,-50.835088928307584,-10.87921932213797,77.6938948449638,-18.66106539964676,-34.81609225273132,-38.214147090911865,-9.086829920595246,-5.804745549162057,0
STABILIZE,3.55865740776062,27.822542984504352,-57.87557355923177,-32.06315491320485,60.67608263878057,-7.855723511089085,0.0,45.0,57.77114679237166,-1.009520742348102,-0.7623283522399658,39.489343158170264,3.4157452479931325,-4.509177796540333,-3.9278617555445425,0.49535210264574575,-50.835088928307584,-10.87921932213797,77.6938948449638,-18.022802472114563,-33.65055322647095,-46.767857670784,-9.086829920595246,-2.973078892869,0
STABILIZE,3.589078187942505,32.87664704452997,-58.05390404341693,-32.0567258191407,60.43216983695128,-7.983420204890704,0.0,45.0,57.36271465797151,-1.1246587352908881,-0.5916015840765617,39.68203303994008,3.4056870432366413,-4.516779357410551,-3.991710102445352,0.49508887171363236,-50.835088928307584,-10.87921932213797,77.6938948449638,-19.971248507499695,-32.185789942741394,-39.28954005241394,-9.086829920595246,-3.511739413884529,0
STABILIZE,3.6232454776763916,29.271231270631095,-58.19501241022085,-31.9348845550274,60.23366975422813,-8.130500044759552,0.0,45.0,56.95098245460437,-1.1757325420267162,-0.4266544899723107,39.80738750177733,3.394081138186161,-4.525506958055521,-4.065250022379776,0.494747700320602,-50.835088928307584,-10.87921932213797,77.6938948449638,-19.959120452404022,-30.474719405174255,-42.01841056346893,-9.086829920595246,-5.134076894840634,0
STABILIZE,3.6601402759552,27.109172112022442,-58.36351319483793,-31.841587692509147,59.85230266292754,-8.266930577438185,0.0,45.0,56.53601689943322,-1.033880825466364,-0.42690507253748555,40.154825564477534,3.383295561089625,-4.533575977780812,-4.133465288719092,0.4946939427784091,-50.835088928307584,-10.87921932213797,77.6938948449638,-19.507071375846863,-27.164146304130554,-48.34713339805603,-9.086829920595246,-4.365166214592333,0
STABILIZE,3.690920114517212,32.491567833045416,-58.54637099009826,-31.666462423714847,59.460645572349534,-8.39216358452123,0.0,45.0,56.11788564639448,-0.9617909535412299,-0.31971160345562943,40.34178833262829,3.373378321949833,-4.540960107400078,-4.196081792260615,0.49465158411847193,-50.835088928307584,-10.87921932213797,77.6938948449638,-21.340662240982056,-22.601361572742462,-49.88731145858765,-9.086829920595246,-3.8280418458098224,0
STABILIZE,3.7241861820220947,30.065186693140845,-58.65433219802535,-31.389148967977164,59.29148657633473,-8.560363108675167,0.0,45.0,55.69665726306795,-0.8651085052617887,-0.539521605098626,40.46443120936504,3.3600332016140504,-4.550843535439472,-4.280181554337584,0.49424827309877317,-50.835088928307584,-10.87921932213797,77.6938948449638,-19.502687454223633,-22.323589026927948,-42.86109507083893,-9.086829920595246,-7.137140432634062,0
STABILIZE,3.757539987564087,29.98544445874262,-58.72946645785773,-31.14756599469067,59.1792993831951,-8.764476682132443,0.0,45.0,55.27240120754642,-0.5062294488149855,-0.8493937340854703,40.6119223143023,3.3437997443836585,-4.5627845959961535,-4.382238341066222,0.49374896291896214,-50.835088928307584,-10.87921932213797,77.6938948449638,-15.201705694198608,-20.291128754615784,-35.0612074136734,-9.086829920595246,-9.235560668316863,0
STABILIZE,3.7935009002685547,27.813871444770854,-58.79118803478262,-30.884456317160854,59.006787762096025,-8.91096609805867,0.0,45.0,54.84518780530563,0.025487864744107504,-0.972597806912071,40.773128439092936,3.3321230535531194,-4.571318842082647,-4.455483049029335,0.4933414400691354,-50.835088928307584,-10.87921932213797,77.6938948449638,-14.319008588790894,-18.609456717967987,-38.91089856624603,-9.086829920595246,-5.844415287861491,0
STABILIZE,3.8262674808502197,30.523786305317625,-58.82225388019759,-30.66330714708586,58.83991730652476,-8.981512839304417,0.0,45.0,54.415088226073934,0.06281528878526353,-1.2258341140228752,40.85606059599523,3.32649198811226,-4.5754181287642925,-4.490756419652208,0.4929202734712787,-50.835088928307584,-10.87921932213797,77.6938948449638,-11.087572574615479,-19.003485143184662,-35.919421911239624,-9.086829920595246,-1.040684547653343,0
STABILIZE,3.8588955402374268,30.65473893468982,-58.82274187346578,-30.326571636332368,58.88815510703196,-9.025055406528569,0.0,45.0,53.98217446070216,-0.11633276911943566,-1.1289064726244014,40.86184576622223,3.3230138877727216,-4.5779448119947475,-4.5125277032642845,0.4921504309658723,-50.835088928307584,-10.87921932213797,77.6938948449638,-12.907782196998596,-17.223863303661346,-29.284292459487915,-9.086829920595246,-0.191993415917885,0
STABILIZE,3.8930654525756836,29.27061844878362,-58.854235266108496,-30.0060583185347,58.85647792002689,-9.072311435039035,0.0,45.0,53.54651929803335,-0.5610154633647156,-1.1820925153610558,40.835918368132866,3.3192369913600386,-4.580683987701745,-4.5361557175195175,0.49150406620481035,-50.835088928307584,-10.87921932213797,77.6938948449638,-14.603404700756073,-17.14661717414856,-33.31718444824219,-9.086829920595246,-0.5930427006305815,0
STABILIZE,3.9266419410705566,29.786340749788728,-58.86101963236067,-29.67418662360386,58.99242525674772,-9.007041537069881,0.0,45.0,53.10819630177261,-0.6844386892141386,-0.9172838400838401,40.7694469671303,3.324453035463694,-4.576899825755009,-4.5035207685349405,0.4905852336720398,-50.835088928307584,-10.87921932213797,77.6938948449638,-12.510555982589722,-14.987863600254059,-21.711885929107666,-9.086829920595246,6.239673212488251,0
STABILIZE,3.9633851051330566,27.21859607909304,-58.84265254873331,-29.28597455664136,59.145731992597135,-8.986700723552731,0.0,45.0,52.667279787356854,-0.7105079204504906,-0.7943718645659632,40.600461256875015,3.326077690216275,-4.575719309425084,-4.493350361776366,0.48963447647161557,-50.835088928307584,-10.87921932213797,77.6938948449638,-11.034275591373444,-11.625853180885315,-21.28027379512787,-9.086829920595246,3.2372680486441547,0
STABILIZE,3.9961588382720947,30.516457611827363,-58.8215195599912,-28.906729223498026,59.348665041399606,-8.950805897580267,0.0,45.0,52.223844798824615,-0.48229331767294037,-0.34759694463969076,40.35587901288603,3.328943647209731,-4.573634680831207,-4.4754029487901335,0.48860028761188,-50.835088928307584,-10.87921932213797,77.6938948449638,-8.924465626478195,-9.171265363693237,-14.658117294311523,-9.086829920595246,4.1941527919272,0
STABILIZE,4.03021764755249,29.366118688212396,-58.69463792948754,-28.46292955138223,59.658233297938835,-8.891875570321746,0.0,45.0,51.77796708568582,0.11225716055713467,-0.31735772283248737,40.135714695179836,3.3336459980135205,-4.570208349728537,-4.445937785160873,0.4873915740603952,-50.835088928307584,-10.87921932213797,77.6938948449638,-4.974436014890671,-8.899594843387604,-13.850469887256622,-9.086829920595246,5.054156424475492,0
STABILIZE,4.075209856033325,22.228779784617995,-58.57006877001805,-28.020455230939405,59.976146737778734,-8.808070481826945,0.0,45.0,51.32972307979158,0.29088519026998727,-0.2599049996595433,39.93429241655616,3.3403271578378355,-4.56532742293595,-4.404035240913473,0.48616572214722054,-50.835088928307584,-10.87921932213797,77.6938948449638,-4.710835218429565,-8.139804005622864,-12.742912769317627,-9.086829920595246,6.469183790299958,0
STABILIZE,4.104896545410156,33.69000056226255,-58.430838114772996,-27.591429601502817,60.23339807699062,-8.663793618860701,0.0,45.0,50.879189872204016,0.9956733875795475,-0.11960186841093301,39.80604195451083,3.3518125351363595,-4.556901658945777,-4.331896809430351,0.48503326687234144,-50.835088928307584,-10.87921932213797,77.6938948449638,-2.78952494263649,-6.889563798904419,-13.341322541236877,-9.086829920595246,10.013375780808746,0
STABILIZE,4.141856908798218,27.06142252503355,-58.243104952298204,-27.09892335690174,60.60000995614841,-8.514112131172448,0.0,45.0,50.426445190065984,1.5320120711640948,-0.07333190580712538,39.60578763823523,3.363705692276525,-4.548129727233658,-4.257056065586224,0.4837222963742681,-50.835088928307584,-10.87921932213797,77.6938948449638,-2.78952494263649,-6.889563798904419,-13.341322541236877,-9.086829920595246,10.013375780808746,0
STABILIZE,4.1808388233184814,25.654961495880457,-58.05993893492384,-26.601870458124072,61.05353074625688,-8.422088069250602,0.0,45.0,49.97156737347095,1.9066184919484985,0.17670510467786926,39.500090460829284,3.371006205755514,-4.542721338664503,-4.211044034625301,0.4822688586035425,-50.835088928307584,-10.87921932213797,77.6938948449638,-4.079383239150047,-7.084077596664429,-9.538941830396652,-9.086829920595246,6.793630582480258,0
STABILIZE,4.20295262336731,45.24209345471804,-57.99878381092629,-26.20620077460988,61.38519636769846,-8.343870706102354,0.0,45.0,49.51463535233267,2.191699702290841,0.2871679398554872,39.4019850386858,3.3772045610595196,-4.538115176233276,-4.171935353051177,0.4810071023754147,-50.835088928307584,-10.87921932213797,77.6938948449638,-8.122828602790833,-8.021965622901917,-7.45449885725975,-9.086829920595246,5.404572876540649,0
STABILIZE,4.23623251914978,30.053122962389747,-57.81226628603931,-25.7209182070587,62.07324500153367,-8.285411478379842,0.0,45.0,49.05572862325512,2.513777912933027,0.524978104643259,39.32662073138388,3.3818330685319964,-4.5346670326037675,-4.142705739189921,0.4791719737947543,-50.835088928307584,-10.87921932213797,77.6938948449638,-6.579350680112839,-9.859341382980347,0.5242029670625925,-9.086829920595246,5.455572618412665,0
STABILIZE,4.269465446472168,30.09430875642166,-57.71410887066727,-25.35792292186673,62.53576250879732,-8.198614978471724,0.0,45.0,48.59492722640212,2.5252784573914475,0.993378550740129,39.21875496891646,3.388698683181189,-4.529538744133454,-4.099307489235862,0.4776946635481677,-50.835088928307584,-10.87921932213797,77.6938948449638,-6.7140281200408936,-10.049209743738174,-2.8090614825487137,-9.086829920595246,6.306023377633047,0
STABILIZE,4.303678274154663,29.23267354335099,-57.614151904293706,-25.000384256274273,63.0003330812545,-8.113590432021955,0.0,45.0,48.1323117223673,2.657967261736816,1.274837199501426,39.125092584828074,3.3954165960601648,-4.5245050711872565,-4.056795216010977,0.4762111658257805,-50.835088928307584,-10.87921932213797,77.6938948449638,-6.7140281200408936,-10.049209743738174,-2.8090614825487137,-9.086829920595246,6.306023377633047,0
