Mode,Time,Freq,time2delay,actualDelay,North-Desired,East-Desired,Down-Desired,Roll-UAV,Pitch-UAV,Yaw-UAV,Roll-Control,Pitch-Control,Yaw-Control,Thrust-Control,North-Pos,East-Pos,Down-Pos,Yaw-Ang,North-Vel,East-Vel,Down-Vel,Yaw-Vel,North-Acc,East-Acc,Down-Acc,North-Avg,East-Avg,Down-Avg,Yaw-Avg,North-Dif,East-Dif,Down-Dif,Yaw-Dif,North-One,East-One,Down-One,Yaw-One,North-Two,East-Two,Down-Two,Yaw-Two,Landing-State,Q-Size,Kalman-Time,Kalman-Dt
STABILIZE,0.034362077713012695,29.110332239056653,0.0323217233022054,0.03247785568237305,0.0,0.0,0.0,0.9576338229359251,-1.5270748048895275,0.22108708693523033,-0.07127886843059636,-0.03997023312354908,-0.0004308793036527868,0.4,-0.01523317200255338,0.020168108470777494,0.6103842711994146,-0.0021473948493954216,-0.3040224779397249,0.0026010397050413303,0.9325357154011726,-0.06817582001506656,-6.254644691944122,-0.28417904395610094,13.506203889846802,0.0,0.0,0.0,0.0,0.0,0.0,0.0,0.0,0.0,0.0,0.0,0.0,0.0,0.0,0.0,0.0,False,0,3.474386692047119,0.029930908203125
STABILIZE,0.06804895401000977,29.686411347116152,0.032331021626790364,0.03275609016418457,0.0,0.0,0.0,0.9577738418139103,-1.5263076892683705,0.21963222996159115,-0.02872735819752507,-0.022427109604434798,-0.00018657303990898586,0.4,-0.016069745225729588,0.015400582579096034,0.6059236484183169,-0.0009227515489304381,-0.07580838864669204,-0.23208549246191978,1.0858172550797462,0.0637045073780478,-4.3271806091070175,-0.384017126634717,13.0988210439682,0.0,0.0,0.0,0.0,0.0,0.0,0.0,0.0,0.0,0.0,0.0,0.0,0.0,0.0,0.0,0.0,False,0,3.5031464099884033,0.0349189453125
STABILIZE,0.10146903991699219,29.919777436958306,0.032425673802693684,0.03253626823425293,0.0,0.0,0.0,0.9581731944369446,-1.5269024493346905,0.21957964284106735,-0.022591815630600327,-0.016876450565996938,-0.0006233425771513594,0.4,-0.0171048860638378,0.01747240572464197,0.6081678044009237,-0.003096246900723609,-0.0807559525128454,0.15665136743336916,1.2907745316624641,-0.1323051798337237,0.5752908997237682,-0.1335661392658949,17.146047949790955,0.0,0.0,0.0,0.0,0.0,0.0,0.0,0.0,0.0,0.0,0.0,0.0,0.0,0.0,0.0,0.0,False,0,3.5319173336029053,0.034919921875
STABILIZE,0.13492536544799805,29.889713951797955,0.03244474728902181,0.03256702423095703,0.0,0.0,0.0,0.9579411814485757,-1.5263283932792922,0.21865192439292244,-0.01720098133304765,-0.013628244391299983,-0.0013029860946091576,0.4,-0.017404595126358394,0.017006432615264605,0.6083975890205998,-0.006472819922301995,-0.0391758163459599,0.008949998300522566,1.1722131632268429,-0.20026412133232252,-0.9478463791310787,-0.17872368916869164,15.545350313186646,0.0,0.0,0.0,0.0,0.0,0.0,0.0,0.0,0.0,0.0,0.0,0.0,0.0,0.0,0.0,0.0,False,0,3.5604429244995117,0.034919189453125
STABILIZE,0.16883444786071777,29.492075545992773,0.032428773244222005,0.033026695251464844,0.0,0.0,0.0,0.9583776732252218,-1.5270455631421433,0.2172076195279424,-0.01195799411306432,-0.011157830172716012,-0.002179396237497982,0.4,-0.016857973952415378,0.014087075876817087,0.6032084514926289,-0.010818203865298675,0.023452070308849216,-0.10602266993373632,0.8439202792942524,-0.059442229212121826,0.8945001289248466,-0.16735512763261795,14.419947564601898,0.0,0.0,0.0,0.0,0.0,0.0,0.0,0.0,0.0,0.0,0.0,0.0,0.0,0.0,0.0,0.0,False,0,3.6179707050323486,0.02993115234375
STABILIZE,0.20236563682556152,29.82425302558414,0.03240636189778646,0.032527923583984375,0.0,0.0,0.0,0.958142245142268,-1.5273937960681083,0.2167530250819531,0.0020950284155605973,-0.005454994684490203,-0.0023644830081256526,0.4,-0.01957323939971119,0.013535700088011067,0.5990106819568002,-0.011704469376759319,-0.190249877050519,0.004856902523897588,1.0748564265668392,-0.06470851850561322,-2.9940128326416016,1.650465838611126,11.337767541408539,0.0,0.0,0.0,0.0,0.0,0.0,0.0,0.0,0.0,0.0,0.0,0.0,0.0,0.0,0.0,0.0,False,0,3.646763801574707,0.034918701171875
STABILIZE,0.23604774475097656,29.691244761581153,0.03233221371968587,0.03246021270751953,0.0,0.0,0.0,0.9582822640202532,-1.5276707388946111,0.21617900904719436,-0.004715260346141536,-0.004790500392778616,-0.002397849169721232,0.4,-0.01914783087019997,0.01804991142412499,0.594822090441828,-0.011831724046317058,0.00033472460927441716,0.2976602874696255,0.8952975273132324,-0.013924341139062693,1.0474012233316898,-0.32897558994591236,7.237213850021362,0.0,0.0,0.0,0.0,0.0,0.0,0.0,0.0,0.0,0.0,0.0,0.0,0.0,0.0,0.0,0.0,False,0,3.6754140853881836,0.03486962890625
STABILIZE,0.26926422119140625,30.101868132656797,0.032086881001790364,0.03223061561584473,0.0,0.0,0.0,0.9589975128924004,-1.5265122747783535,0.21514671666759685,-0.003924053388456209,-0.003685105719826756,-0.0024272919254587836,0.4,-0.018192362538483896,0.018738403189612292,0.5959676205555938,-0.011938990648818624,0.02944568987004459,0.07211188785731792,1.2080288492143154,-0.014623394992357631,-2.8845317661762238,0.1514630508609116,19.072331488132477,0.0,0.0,0.0,0.0,0.0,0.0,0.0,0.0,0.0,0.0,0.0,0.0,0.0,0.0,0.0,0.0,False,0,3.7041656970977783,0.029929931640625
STABILIZE,0.30271363258361816,29.89631847179158,0.03233841260274251,0.032464027404785156,0.0,0.0,0.0,0.9580408595217755,-1.5268481279864476,0.21409113227571253,-0.002722355970691911,-0.0021785829730916377,-0.0017978154494088423,0.4,-0.016076989079605954,0.016884244911759834,0.5894461489110977,-0.00876230222593214,0.09021686273626983,-0.07119445945136249,0.9141812101006508,0.17057671744507533,-1.057387888431549,0.06880403379909694,17.58418381214142,0.0,0.0,0.0,0.0,0.0,0.0,0.0,0.0,0.0,0.0,0.0,0.0,0.0,0.0,0.0,0.0,False,0,3.732724666595459,0.039908203125
STABILIZE,0.33625173568725586,29.816196542311193,0.03234914143880208,0.03258395195007324,0.0,0.0,0.0,0.9570760953015113,-1.5264664911665733,0.213336449733279,-0.004694490736812932,-0.0050446646162793035,-0.0014143756484139586,0.4,-0.020094808055728053,0.016968129063796144,0.5917411740933315,-0.006822202029742645,-0.25679522659629583,0.0329328264342621,1.098302286118269,0.10432795126098456,1.5972213819622993,-0.051935791270807385,13.740068674087524,0.0,0.0,0.0,0.0,0.0,0.0,0.0,0.0,0.0,0.0,0.0,0.0,0.0,0.0,0.0,0.0,False,0,3.761566162109375,0.029930908203125
STABILIZE,0.369828462600708,29.782322199500115,0.0323674996693929,0.0326991081237793,0.0,0.0,0.0,0.9563377945409152,-1.5257627682386503,0.21130430837264155,-0.004800184364013611,0.0025208929218620544,-0.0009001633013139274,0.4,-0.010385035241445753,0.01664353628439502,0.5816965694372285,-0.0042368994244780505,0.2520324429497123,0.02742936194408685,0.9885724633932114,0.06157114047947662,0.5734913982450962,0.010680701961973682,16.20985120534897,0.0,0.0,0.0,0.0,0.0,0.0,0.0,0.0,0.0,0.0,0.0,0.0,0.0,0.0,0.0,0.0,False,0,3.8188860416412354,0.02993115234375
STABILIZE,0.4033658504486084,29.818104263381272,0.032445700963338216,0.03258037567138672,0.0,0.0,0.0,0.9552287425744344,-1.5263521922196814,0.21088501213083946,0.00016569508635808504,0.0019225391984351368,-0.001111528678093415,0.4,-0.010985363569055981,0.014191229904711082,0.5788097625420487,-0.005276063719802392,-0.06737383082509041,-0.11112173087894917,1.0865519754588604,-0.07601044052936126,0.212502246722579,-0.19157655769959092,12.264252454042435,0.0,0.0,0.0,0.0,0.0,0.0,0.0,0.0,0.0,0.0,0.0,0.0,0.0,0.0,0.0,0.0,False,0,3.84789776802063,0.039907958984375
STABILIZE,0.4367940425872803,29.913589227894505,0.03236225446065267,0.03248476982116699,0.0,0.0,0.0,0.9545852106885723,-1.5263051279474318,0.20997424909370058,0.0011102052633675838,0.004088984241609441,-0.0006735149844322522,0.4,-0.006934695249638973,0.013581664387703082,0.5842211749034139,-0.003075710773201254,0.2098197117447853,-0.0057886645663529634,1.2483039870858192,0.11783798539799044,7.65080451965332,1.8624147400259972,13.650171458721161,0.0,0.0,0.0,0.0,0.0,0.0,0.0,0.0,0.0,0.0,0.0,0.0,0.0,0.0,0.0,0.0,False,0,3.8763670921325684,0.02993115234375
STABILIZE,0.47020483016967773,29.93152073075002,0.03237799008687337,0.03249621391296387,0.0,0.0,0.0,0.9551531836067411,-1.5259478236764754,0.20989243356600587,-0.003806343184414757,0.0013417804959469106,-0.0008524641953898632,0.4,-0.009603690511631142,0.018090511994209642,0.5838421550509046,-0.00395722363870297,-0.18732387106865644,0.3035222180187702,1.2378238141536713,-0.06496486404290026,-0.8290877565741539,0.07063894881866872,16.659586131572723,0.0,0.0,0.0,0.0,0.0,0.0,0.0,0.0,0.0,0.0,0.0,0.0,0.0,0.0,0.0,0.0,False,0,3.906341075897217,0.029930908203125
STABILIZE,0.5037295818328857,29.830828645192494,0.03240779240926107,0.03254532814025879,0.0,0.0,0.0,0.9541324972126474,-1.5247040889172985,0.2091141922070211,-0.0038437720021873285,0.004680117227558515,-0.0012285521908276928,0.4,-0.007403383716683788,0.018192796852549147,0.5813002079624614,-0.00581820857038287,0.10495379101485014,0.0414594222093001,1.0930242016911507,-0.12442698351293711,6.0479626059532166,-0.058216380421072245,13.988520205020905,0.0,0.0,0.0,0.0,0.0,0.0,0.0,0.0,0.0,0.0,0.0,0.0,0.0,0.0,0.0,0.0,False,0,3.933650493621826,0.0349189453125
STABILIZE,0.5371618270874023,29.908683157797157,0.032335551579793294,0.032469987869262695,0.0,0.0,0.0,0.9531668792187368,-1.5247147610878766,0.20784126906131287,-0.005025129324077356,0.0025974555821827103,-0.0008944217019676501,0.4,-0.0034819841058518807,0.019366026842628812,0.5796708076008431,-0.004133720598215832,0.20767762325704098,0.09925115155056119,0.9684588760137558,0.09038954953718516,5.914385616779327,-0.035590879269875586,14.135447144508362,0.0,0.0,0.0,0.0,0.0,0.0,0.0,0.0,0.0,0.0,0.0,0.0,0.0,0.0,0.0,0.0,False,0,3.9622719287872314,0.0349189453125
STABILIZE,0.5705356597900391,29.964236981789867,0.032373698552449544,0.03248476982116699,0.0,0.0,0.0,0.9527406327258456,-1.5250727056890676,0.2073767094760462,-0.002973455826796918,0.0019109506893681175,-6.368216508060312e-05,0.4,-0.00497839453833193,0.014878753561889314,0.5762237367826692,1.991052324329997e-05,-0.11776789324358106,-0.239561777561903,0.8640737272799015,0.2366814493470008,-2.0030710846185684,-0.23008764255791903,11.4548921585083,0.0,0.0,0.0,0.0,0.0,0.0,0.0,0.0,0.0,0.0,0.0,0.0,0.0,0.0,0.0,0.0,False,1,3.9909842014312744,0.029931884765625
STABILIZE,0.6047065258026123,29.265512597771405,0.03242638905843099,0.0331423282623291,0.0,0.0,0.0,0.9533700773465447,-1.5255678944038935,0.20582162748046504,-0.013184602011917878,0.0021015588591722476,-5.710101926715579e-05,0.4,-0.0016504074575140054,0.027030422554969392,0.5634936503498119,5.263703956959897e-05,0.07707414915785193,0.3975409548729658,0.7640641182661057,-0.010136791135932367,5.685395002365112,1.8355799838900566,11.711925268173218,0.0,0.0,0.0,0.0,0.0,0.0,0.0,0.0,0.0,0.0,0.0,0.0,0.0,0.0,0.0,0.0,False,0,4.049237966537476,0.0349189453125
STABILIZE,0.638136625289917,29.913802571801472,0.03228500684102376,0.03240656852722168,0.0,0.0,0.0,0.9524104357681579,-1.5253968195095258,0.2045851764777076,-0.010647980952009653,0.003815487887377054,-1.5466814117684214e-05,0.4,-0.0009758406803254333,0.027538843128569957,0.5657508880981907,0.0002599388578244515,0.0173719075974077,0.05621417658403516,1.2001307681202888,0.0015882228371612737,1.2084608897566795,-0.10268667247146368,13.42167854309082,0.0,0.0,0.0,0.0,0.0,0.0,0.0,0.0,0.0,0.0,0.0,0.0,0.0,0.0,0.0,0.0,False,0,4.077858209609985,0.034919189453125
STABILIZE,0.6714282035827637,30.034400286430362,0.032271655400594075,0.03238677978515625,0.0,0.0,0.0,0.951657407412164,-1.5253228613674192,0.20379592944281413,-0.009608624688728824,0.0066642278564695645,-0.000421332566340894,0.4,0.005033121874220656,0.026335186882501277,0.5666106578338024,-0.0017634970378522488,0.3371375147253275,-0.04308738571126014,1.1140710674226284,-0.1301223340843096,6.46996796131134,-0.06378843681886792,14.084003865718842,0.0,0.0,0.0,0.0,0.0,0.0,0.0,0.0,0.0,0.0,0.0,0.0,0.0,0.0,0.0,0.0,False,0,4.1065192222595215,0.029930908203125
STABILIZE,0.7071495056152344,27.99842461867094,0.03245428403218587,0.03462624549865723,0.0,0.0,0.0,0.9511731043113277,-1.525669706911209,0.20314203221127797,-0.005868089296654123,0.0035929834912795723,-0.00042490207746622463,0.4,0.0031030182718842507,0.022512031365682552,0.5630014939139325,-0.0017750444043312294,-0.12821939308196306,-0.18618404865264893,0.9992917068302631,-0.007375643808261738,2.007833868265152,-0.2654440701007843,12.051674723625183,0.0,0.0,0.0,0.0,0.0,0.0,0.0,0.0,0.0,0.0,0.0,0.0,0.0,0.0,0.0,0.0,False,0,4.135551929473877,0.0349189453125
STABILIZE,0.7404863834381104,29.99337819380582,0.03220942815144857,0.032334327697753906,0.0,0.0,0.0,0.9507908271612185,-1.524587015206056,0.20304152704485828,-0.011144011081509189,0.005196851337589809,-0.000248950608443488,0.4,0.0044693309718248034,0.025338568555256263,0.56501311801713,-0.0008923006640892281,0.0636704673524946,0.20424779504537582,1.16780586540699,0.04601218299359914,-0.7902949117124081,-0.18945891642943025,10.798780620098114,0.0,0.0,0.0,0.0,0.0,0.0,0.0,0.0,0.0,0.0,0.0,0.0,0.0,0.0,0.0,0.0,False,0,4.16421914100647,0.034912841796875
STABILIZE,0.7739357948303223,29.8978102189781,0.03229502042134603,0.03241300582885742,0.0,0.0,0.0,0.9494595806033008,-1.524301001034562,0.20210767209863092,-0.0030086300915399262,0.007205718946328409,0.0001902469919322902,0.4,0.009968629391199087,0.024976721994001132,0.5589530625309045,0.001299345533430883,0.27425026055425406,0.02549383498262614,1.0063167661428452,0.17441973938983885,1.2702498584985733,-0.13686465099453926,13.397908210754395,0.0,0.0,0.0,0.0,0.0,0.0,0.0,0.0,0.0,0.0,0.0,0.0,0.0,0.0,0.0,0.0,False,0,4.221416473388672,0.034920166015625
STABILIZE,0.8081955909729004,29.187513047835104,0.032316001256306966,0.03336453437805176,0.0,0.0,0.0,0.9485680274732026,-1.5244624709754093,0.20121174337859568,-0.002542431978425018,0.00995038701774619,0.0007996038864493315,0.4,0.014782784851125903,0.02479543440859154,0.5584582635113732,0.004331246427059198,0.27425026055425406,0.02549383498262614,1.0063167661428452,0.17441973938983885,1.2702498584985733,-0.13686465099453926,13.397908210754395,0.0,0.0,0.0,0.0,0.0,0.0,0.0,0.0,0.0,0.0,0.0,0.0,0.0,0.0,0.0,0.0,False,0,4.250081539154053,0.034920166015625
STABILIZE,0.8417930603027344,29.76837144601059,0.03243425687154134,0.03256511688232422,0.0,0.0,0.0,0.9489283199519207,-1.5247070771250604,0.19992720090717048,-0.000724705222877138,0.006273623391678977,0.0004108869867899874,0.4,0.013537790033089128,0.021587976782437675,0.5594845496359521,0.0023796935402300504,-0.08712334092706442,-0.15358859673142433,1.099203247576952,-0.12420739026307856,2.029961720108986,1.8127627670764923,14.581795036792755,0.0,0.0,0.0,0.0,0.0,0.0,0.0,0.0,0.0,0.0,0.0,0.0,0.0,0.0,0.0,0.0,False,0,4.278818607330322,0.0349189453125
STABILIZE,0.8751389980316162,29.983515265893185,0.03227046330769857,0.03239154815673828,0.0,0.0,0.0,0.9490604414236782,-1.5242049514993585,0.1992267063108475,-0.005733062768876529,0.007076654326733001,0.00060901310333847,0.4,0.013424558351560032,0.02479685201605339,0.5592407886690525,0.003359099345584389,-0.013823446352034807,0.23126776795834303,1.0243759490549564,0.05346217181015088,0.544050894677639,-0.06796166999265552,14.047804474830627,0.0,0.0,0.0,0.0,0.0,0.0,0.0,0.0,0.0,0.0,0.0,0.0,0.0,0.0,0.0,0.0,False,0,4.307543992996216,0.034919921875
STABILIZE,0.9087316989898682,29.772386232156673,0.032384427388509114,0.03249192237854004,0.0,0.0,0.0,0.948194288059556,-1.524005488631253,0.19891417179546653,-0.003869687856580387,0.005958404001463572,0.0003877774669153078,0.4,0.01269758254521924,0.02477530345013976,0.559587108742682,0.0022454167472698767,-0.04601370892487466,0.03766264708247036,1.0610565543174744,-0.07000436304149947,-3.8646046072244644,0.08827000856399536,17.911626398563385,0.0,0.0,0.0,0.0,0.0,0.0,0.0,0.0,0.0,0.0,0.0,0.0,0.0,0.0,0.0,0.0,False,0,4.336721181869507,0.02993115234375
STABILIZE,0.9420368671417236,30.022361244327374,0.03219273885091146,0.03234291076660156,0.0,0.0,0.0,0.9484263010479248,-1.5246675900939213,0.19681913132948411,-0.0008303327076045319,0.005732215147311678,0.000784902328582955,0.4,0.016400010701333755,0.02075089305859846,0.5591580282337597,0.00421692182589516,0.23179207928478718,-0.19231237238273025,1.1689551174640656,0.11796550449618605,1.919148862361908,-0.06240509683266282,15.430653095245361,0.0,0.0,0.0,0.0,0.0,0.0,0.0,0.0,0.0,0.0,0.0,0.0,0.0,0.0,0.0,0.0,False,0,4.365260601043701,0.034919189453125
STABILIZE,0.9754571914672852,29.920631183969295,0.03238657315572103,0.032547712326049805,0.0,0.0,0.0,0.9494177456946344,-1.5243905405457125,0.19666058289533256,-0.004269132918276173,0.005745710731305596,0.0009669842879628897,0.4,0.019864553454953377,0.024800602973314337,0.5596397561560705,0.00511022991956446,0.14290292747318745,0.0754477281589061,1.260429061949253,0.17633860900000253,-2.60879248380661,-0.054429733427241445,16.198760271072388,0.0,0.0,0.0,0.0,0.0,0.0,0.0,0.0,0.0,0.0,0.0,0.0,0.0,0.0,0.0,0.0,False,0,4.423499584197998,0.0349189453125
STABILIZE,1.0090699195861816,29.75211207660933,0.032457621892293294,0.032694101333618164,0.0,0.0,0.0,0.9494915971150352,-1.5238300381469483,0.19314162141017438,-0.006884051157418527,0.00785021704803565,0.0015676322193979638,0.4,0.022182340732712507,0.02540657828461877,0.5637533534570267,0.008086331624599454,0.14290292747318745,0.0754477281589061,1.260429061949253,0.17633860900000253,-2.60879248380661,-0.054429733427241445,16.198760271072388,0.0,0.0,0.0,0.0,0.0,0.0,0.0,0.0,0.0,0.0,0.0,0.0,0.0,0.0,0.0,0.0,False,0,4.452010631561279,0.0349189453125
STABILIZE,1.0424857139587402,29.924900649966823,0.032384665807088216,0.032503366470336914,0.0,0.0,0.0,0.9487853128661736,-1.523711577053531,0.1933354947289396,-0.0064247581836840975,0.006480133394433027,0.0020165956650507375,0.4,0.019970600391352403,0.027411300580931518,0.5623581871331621,0.010296713090965855,-0.12478427961468697,0.15924660256132483,0.9335645474493504,0.1297095078459205,0.7703780196607113,-0.3223998937755823,9.50712263584137,0.0,0.0,0.0,0.0,0.0,0.0,0.0,0.0,0.0,0.0,0.0,0.0,0.0,0.0,0.0,0.0,False,0,4.480888843536377,0.03990771484375
STABILIZE,1.078157663345337,28.036229220002273,0.032424004872639973,0.03471183776855469,0.0,0.0,0.0,0.949642074720187,-1.5240679208291352,0.19346881681988706,-0.004318160476767534,0.005822366275286306,0.0026921545479435794,0.4,0.01833025956481595,0.02466696653544701,0.5667009645408206,0.01362597474245616,-0.09515566052868962,-0.13116138288751245,1.1226820759475231,0.18598295616997954,0.4585913382470608,-0.23047616705298424,14.538916945457458,0.0,0.0,0.0,0.0,0.0,0.0,0.0,0.0,0.0,0.0,0.0,0.0,0.0,0.0,0.0,0.0,False,0,4.509342432022095,0.02993115234375
STABILIZE,1.1115801334381104,29.917856684308887,0.03234461148579915,0.03247976303100586,0.0,0.0,0.0,0.9491556371852352,-1.52481561309984,0.19165943033964195,-0.006880275861778931,0.0072828394258688724,0.0026112776800105,0.4,0.023293633519637553,0.024551081254102367,0.5599484579098721,0.013177524924624349,0.3211920615285635,0.04418581956997514,0.8011008612811565,-0.0152335363245234,-0.10885875672101974,-0.39214310236275196,8.288422971963882,0.0,0.0,0.0,0.0,0.0,0.0,0.0,0.0,0.0,0.0,0.0,0.0,0.0,0.0,0.0,0.0,False,0,4.538082122802734,0.029930908203125
STABILIZE,1.1450436115264893,29.884176926584587,0.03239134152730306,0.03251290321350098,0.0,0.0,0.0,0.9486312067230251,-1.5241733618744473,0.19110434406744617,-0.00659711275413351,0.005259092640629829,0.0019360069562637703,0.4,0.022708980653300157,0.02744351730646126,0.5551774562683336,0.00976851204524596,-0.00514791754540056,0.2236150437965989,0.9015782736241817,-0.19168656433333686,-1.0849608108401299,1.7493575811386108,12.086329609155655,0.0,0.0,0.0,0.0,0.0,0.0,0.0,0.0,0.0,0.0,0.0,0.0,0.0,0.0,0.0,0.0,False,1,4.566716194152832,0.034919189453125
STABILIZE,1.1784493923187256,29.932802375039252,0.03236440022786458,0.03248429298400879,0.0,0.0,0.0,0.9496461301450068,-1.5239812628040408,0.19053238242552373,-0.007746424596371264,0.0036324825272519077,0.001818431284095356,0.4,0.021887685655047482,0.029317267920729865,0.5508059846053834,0.009150026729111797,-0.00411203654948622,-0.029679175349883735,0.8813842199742794,0.16975730818808535,-2.3805081844329834,-0.22354274988174438,14.023779332637787,0.0,0.0,0.0,0.0,0.0,0.0,0.0,0.0,0.0,0.0,0.0,0.0,0.0,0.0,0.0,0.0,False,0,4.624222278594971,0.034919921875
STABILIZE,1.211954116821289,29.847811390306212,0.03240779240926107,0.032546281814575195,0.0,0.0,0.0,0.9492318364831631,-1.52427752225929,0.18999681288527273,-0.006548234326692169,0.005563633242005969,0.0021464894174343927,0.4,0.02321651124569912,0.02944610375672575,0.5514777735185872,0.01075433503479766,0.1027083839289844,0.05113799124956131,1.0665846057236195,0.10318077296511331,0.5833928473293781,1.8326902762055397,17.367269098758698,0.0,0.0,0.0,0.0,0.0,0.0,0.0,0.0,0.0,0.0,0.0,0.0,0.0,0.0,0.0,0.0,False,0,4.652818918228149,0.02993115234375
STABILIZE,1.24615478515625,29.236952718198232,0.03235772450764974,0.03339385986328125,0.0,0.0,0.0,0.9492258600676394,-1.5239846778986257,0.19062916567245428,-0.007477400791010026,0.0056572102055689605,0.0028476195947166787,0.4,0.022188394997949973,0.02847117369553759,0.5459046708492796,0.014211212536052346,-0.024752787430770695,-0.0026552337658358738,0.8448104374110699,0.2210571514967586,-0.5011486820876598,-0.3841936122626066,10.778700560331345,0.0,0.0,0.0,0.0,0.0,0.0,0.0,0.0,0.0,0.0,0.0,0.0,0.0,0.0,0.0,0.0,False,0,4.681552171707153,0.034898681640625
STABILIZE,1.2798030376434326,29.720278332837324,0.03253200848897298,0.03266167640686035,0.0,0.0,0.0,0.9498333200169474,-1.5240703754283682,0.19041450830148812,-0.008290696720089634,0.0019170660460859964,0.003000783232726022,0.4,0.020066002856504388,0.029356269029340503,0.5506574404870452,0.014927054697110786,-0.09922061581164598,0.0980929471552372,1.2986516579985619,0.05005653543631938,3.7996724247932434,1.8686171621084213,16.974647343158722,0.0,0.0,0.0,0.0,0.0,0.0,0.0,0.0,0.0,0.0,0.0,0.0,0.0,0.0,0.0,0.0,False,0,4.7103495597839355,0.0349189453125
STABILIZE,1.3133022785186768,29.853122464376717,0.0323214848836263,0.0324552059173584,0.0,0.0,0.0,0.949949219789426,-1.5245390971601602,0.18979344133469297,-0.0070664508321716495,0.0014155304310143402,0.0029414387105732255,0.4,0.018846024784181098,0.030168161302022198,0.5479982946523048,0.014581573573010898,-0.04237896064296365,0.0940666941460222,0.8568868972361088,-0.011004101763551676,4.5587290078401566,-0.1574830967001617,13.655081391334534,0.0,0.0,0.0,0.0,0.0,0.0,0.0,0.0,0.0,0.0,0.0,0.0,0.0,0.0,0.0,0.0,False,0,4.738943099975586,0.02993115234375
STABILIZE,1.34660005569458,30.031819678939154,0.03225591977437337,0.03236651420593262,0.0,0.0,0.0,0.9500392929091056,-1.524492886661557,0.18811398853123676,-0.006350449725234958,0.0009505372961899775,0.0028473992543306525,0.4,0.017510374049009843,0.030780227561325764,0.5428001286351206,0.014064398101622994,-0.04237896064296365,0.0940666941460222,0.8568868972361088,-0.011004101763551676,4.5587290078401566,-0.1574830967001617,13.655081391334534,0.0,0.0,0.0,0.0,0.0,0.0,0.0,0.0,0.0,0.0,0.0,0.0,0.0,0.0,0.0,0.0,False,1,4.769585609436035,0.02993115234375
STABILIZE,1.383941411972046,26.783550446998724,0.0324127991994222,0.036261558532714844,0.0,0.0,0.0,0.9503361926945896,-1.524708251063824,0.18716708685647762,-0.0056989801182355535,0.0005419293601068555,0.0014641743224543438,0.4,0.01787025263483374,0.030004138180790632,0.5422258396335167,0.0071217904183652125,-0.032739213202148676,-0.1271074404940009,1.152820698916912,-0.07256372296891052,-0.6745947990566492,-0.33110061194747686,14.181859791278839,0.0,0.0,0.0,0.0,0.0,0.0,0.0,0.0,0.0,0.0,0.0,0.0,0.0,0.0,0.0,0.0,False,0,4.82489013671875,0.0349189453125
STABILIZE,1.4173359870910645,29.941135739015596,0.03221634229024251,0.03235769271850586,0.0,0.0,0.0,0.9502000157980125,-1.5231281294880237,0.18477869510172845,-0.0030997735114748435,-0.0006011403753796302,0.0013637956646379804,0.4,0.015352464794018441,0.026040286725343278,0.5484800427922388,0.006597792508376992,-0.11878361692652106,-0.18841454293578863,1.3689719140529633,-0.013649476050769266,1.8782047554850578,-0.11974300723522902,20.123425126075745,0.0,0.0,0.0,0.0,0.0,0.0,0.0,0.0,0.0,0.0,0.0,0.0,0.0,0.0,0.0,0.0,False,0,4.853891849517822,0.029930908203125
STABILIZE,1.4507100582122803,29.962310516765964,0.03229573567708333,0.032427072525024414,0.0,0.0,0.0,0.9499528483274227,-1.5225770185993683,0.1838336610568205,-0.00011706057849646812,0.0003675068445850228,0.0010984310678560055,0.4,0.015269842713413894,0.023093348854478432,0.5497694585668774,0.005253424683430776,0.031400483567267656,-0.11993806110695004,1.2280494906008244,-0.06334346784738915,4.2905692011117935,-0.2829545410349965,15.532362461090088,0.0,0.0,0.0,0.0,0.0,0.0,0.0,0.0,0.0,0.0,0.0,0.0,0.0,0.0,0.0,0.0,False,0,4.88228178024292,0.034919921875
STABILIZE,1.484163522720337,29.891418064681652,0.03238728841145833,0.032536983489990234,0.0,0.0,0.0,0.9502787764168792,-1.522058564552682,0.18304530781621292,-0.001852870420297138,-0.0002054053975626882,0.0014222569240595496,0.4,0.013474985716797155,0.025854733490277018,0.5494538225796339,0.006849630269585843,-0.07517379708588123,0.21876073442399502,0.961396936327219,0.11362585309356853,1.2852877378463745,-0.3127628471702337,14.68704491853714,0.0,0.0,0.0,0.0,0.0,0.0,0.0,0.0,0.0,0.0,0.0,0.0,0.0,0.0,0.0,0.0,False,0,4.911055564880371,0.034919189453125
STABILIZE,1.5185697078704834,29.063937413815804,0.03240922292073568,0.03354191780090332,0.0,0.0,0.0,0.9513551715413909,-1.5229813871425744,0.18114109910038098,-0.004815434753697733,0.002319011131235168,0.0017161926428376707,0.4,0.0164325851043892,0.030048841685518808,0.5488655823963785,0.008290751134247255,0.21025685127824545,0.3009472507983446,0.9520687162876129,0.10199462790641861,-2.8844624757766724,1.5439770184457302,11.242621392011642,0.0,0.0,0.0,0.0,0.0,0.0,0.0,0.0,0.0,0.0,0.0,0.0,0.0,0.0,0.0,0.0,False,1,4.939742088317871,0.02993115234375
STABILIZE,1.552107810974121,29.818104263381272,0.0324585755666097,0.03259444236755371,0.0,0.0,0.0,0.9520405383359194,-1.5229140457462262,0.18051873813290323,-0.006049796396480072,-0.003036374349177197,0.0003911121374147494,0.4,0.008400891434962175,0.030978746181550644,0.5441544394955274,0.0016597938846328458,-0.2767774276435375,0.04747331840917468,0.9293440729379654,-0.12715308276541845,-1.7669476568698883,-0.559919560328126,8.520744740962982,0.0,0.0,0.0,0.0,0.0,0.0,0.0,0.0,0.0,0.0,0.0,0.0,0.0,0.0,0.0,0.0,False,0,4.997818231582642,0.034920166015625
STABILIZE,1.5855510234832764,29.901007321437483,0.032361777623494466,0.032500505447387695,0.0,0.0,0.0,0.954265472458051,-1.5225572750837988,0.17935608518969368,-0.006126879497151076,0.000887280831472313,0.0007172909235487042,0.4,0.012589268262881634,0.027872129537556425,0.5443936161071449,0.003279715327521481,0.28459157329052687,-0.13761456357315183,1.0026958771049976,0.11408055426126362,3.9042584598064423,1.4083846472203732,10.828252136707306,0.0,0.0,0.0,0.0,0.0,0.0,0.0,0.0,0.0,0.0,0.0,0.0,0.0,0.0,0.0,0.0,False,0,5.0258495807647705,0.029930908203125
STABILIZE,1.6189219951629639,29.96573551475316,0.03238561948140462,0.03248000144958496,0.0,0.0,0.0,0.9538624912970203,-1.5219634755128308,0.1790918289059656,-0.005416671243236261,0.0036576446685407035,0.0010548043831138426,0.4,0.01678506701494821,0.02461702263195194,0.5420308924115373,0.004950740865923604,0.28459157329052687,-0.13761456357315183,1.0026958771049976,0.11408055426126362,3.9042584598064423,1.4083846472203732,10.828252136707306,0.0,0.0,0.0,0.0,0.0,0.0,0.0,0.0,0.0,0.0,0.0,0.0,0.0,0.0,0.0,0.0,False,0,5.055534601211548,0.029930908203125
STABILIZE,1.6524817943572998,29.79946146030934,0.032436641057332356,0.03258848190307617,0.0,0.0,0.0,0.9531192813379582,-1.5216232467147996,0.17839867142691507,-0.001075563935215746,0.0024981013087215674,0.000645189304926332,0.4,0.013660001564817531,0.021513106631365048,0.540577677680263,0.002892980967813259,-0.1583774108439684,-0.13169634621590376,1.0458780452609062,-0.11218380272462314,4.583752900362015,-0.5140580236911774,11.992820352315903,0.0,0.0,0.0,0.0,0.0,0.0,0.0,0.0,0.0,0.0,0.0,0.0,0.0,0.0,0.0,0.0,False,0,5.093305826187134,0.0349189453125
STABILIZE,1.685959815979004,29.87013061003575,0.03202179272969564,0.032164573669433594,0.0,0.0,0.0,0.9538720962505406,-1.5211926246319714,0.17632186703240807,0.004089462317399897,-0.0008654609667686836,0.00023032342157371322,0.4,0.010581948391274633,0.01846067613230616,0.5418521693044628,0.0008159215245467602,-0.1583774108439684,-0.13169634621590376,1.0458780452609062,-0.11218380272462314,4.583752900362015,-0.5140580236911774,11.992820352315903,0.0,0.0,0.0,0.0,0.0,0.0,0.0,0.0,0.0,0.0,0.0,0.0,0.0,0.0,0.0,0.0,False,0,5.121913909912109,0.0349189453125
STABILIZE,1.719343900680542,29.95268190614935,0.03231242497762044,0.03244352340698242,0.0,0.0,0.0,0.9534183155575578,-1.5216070250155207,0.17662738459563393,0.0027297274413072103,0.002939159341977301,0.0003863856404983587,0.4,0.010519364296376173,0.020858685043308758,0.5408314637810565,0.0015909097541955957,0.02587903873063624,0.19790425430983305,0.9123257361352444,0.060550267322397724,1.5309295617043972,1.4703047461807728,12.763825058937073,0.0,0.0,0.0,0.0,0.0,0.0,0.0,0.0,0.0,0.0,0.0,0.0,0.0,0.0,0.0,0.0,False,0,5.150869846343994,0.034919921875
STABILIZE,1.7528619766235352,29.83698265682132,0.03239920934041341,0.03251171112060547,0.0,0.0,0.0,0.9533525749867965,-1.5220823634930714,0.1760958437997762,0.00221410780384569,0.0007255858949354678,0.0007522198252494144,0.4,0.010186995417773492,0.018981047630377515,0.5437812010518744,0.003408691402625415,0.00853532983455807,-0.06288231816142797,1.156750600785017,0.12079305607022588,4.734617471694946,-0.4344035405665636,16.81068390607834,0.0,0.0,0.0,0.0,0.0,0.0,0.0,0.0,0.0,0.0,0.0,0.0,0.0,0.0,0.0,0.0,False,0,5.179476976394653,0.029930908203125
STABILIZE,1.7868704795837402,29.403792632058607,0.0322749932607015,0.033043861389160156,0.0,0.0,0.0,0.9533715714504256,-1.5216551565048282,0.17869333005657767,0.0034140314837220404,0.00016676802935985786,0.0005315356686002765,0.4,0.012445460673225231,0.014820687200366889,0.5400014993882105,0.002297439187267024,0.16463760985061526,-0.20079805981367826,0.9085771627724171,-0.05748483306617105,-1.9185416400432587,-0.48913778737187386,18.176080286502838,0.0,0.0,0.0,0.0,0.0,0.0,0.0,0.0,0.0,0.0,0.0,0.0,0.0,0.0,0.0,0.0,False,1,5.207968711853027,0.034919189453125
STABILIZE,1.8203802108764648,29.840166762711743,0.03238633473714193,0.03262162208557129,0.0,0.0,0.0,0.9526138473393773,-1.5200812247879634,0.1827856805864731,-0.0005982379524676289,-0.0028165945801933746,-0.00020990721635328466,0.4,0.005520970129368396,0.01722780448153184,0.543210728944262,-0.0014050615541035382,-0.27027144096791744,0.1707445946522057,0.9734905324876308,-0.1936296864511394,-7.6731473207473755,9.204339236021042,12.592080235481262,0.0,0.0,0.0,0.0,0.0,0.0,0.0,0.0,0.0,0.0,0.0,0.0,0.0,0.0,0.0,0.0,False,0,5.265244960784912,0.029930908203125
STABILIZE,1.8539433479309082,29.796921065905103,0.03244212468465169,0.032555580139160156,0.0,0.0,0.0,0.9535192742912271,-1.5203444005144204,0.16759259178844088,-0.0058703856541185,-0.003611908218115023,-0.0005744890808544156,0.4,0.002022161366189341,0.02120738124796802,0.5453498296106116,-0.003217210417581178,-0.18646838143467903,0.28571109287440777,1.2648766860365868,-0.10268084847459333,0.7842177525162697,-0.5178572610020638,11.132080852985382,0.0,0.0,0.0,0.0,0.0,0.0,0.0,0.0,0.0,0.0,0.0,0.0,0.0,0.0,0.0,0.0,False,0,5.294970750808716,0.034919921875
STABILIZE,1.8872942924499512,29.982014954179594,0.03229645093282064,0.03241682052612305,0.0,0.0,0.0,0.9538942943653431,-1.518098762381367,0.1771024295884936,0.0027986151462052735,-0.0033443883393022202,-0.0005662457109233032,0.4,0.0023874067622711337,0.012529540162377367,0.5430117454600398,-0.003165410136431797,0.050568871665745974,-0.48170951195061207,0.8270665071904659,0.013828331624499058,0.24126810021698475,-16.503329575061798,3.5982541739940643,0.0,0.0,0.0,0.0,0.0,0.0,0.0,0.0,0.0,0.0,0.0,0.0,0.0,0.0,0.0,0.0,False,0,5.322628736495972,0.0349189453125
STABILIZE,1.9207842350006104,29.860773732397373,0.0323970635732015,0.03252530097961426,0.0,0.0,0.0,0.9477202302424748,-1.5275150319258761,0.17240003110792493,-0.008191293794658359,-0.011299038192178205,-7.083898851762392e-05,0.4,-0.010119414671344428,0.02444194351875361,0.5358544709749589,-0.0006860817684882911,-0.7226922083646059,0.7573622278869152,0.5482038483023643,0.15685153234921403,-30.145269632339478,39.926162362098694,-6.374464929103851,0.0,0.0,0.0,0.0,0.0,0.0,0.0,0.0,0.0,0.0,0.0,0.0,0.0,0.0,0.0,0.0,False,0,5.351672887802124,0.02993115234375
STABILIZE,1.9542205333709717,29.90719032543282,0.03235629399617513,0.0324859619140625,0.0,0.0,0.0,0.9563617002030103,-1.531496712046876,0.15170669235690193,-0.020547457303960046,-0.02028588042100026,0.0004387727723187127,0.4,-0.022327445719768094,0.03624785058506535,0.5261639545833773,0.001855769507433081,-0.7226922083646059,0.7573622278869152,0.5482038483023643,0.15685153234921403,-30.145269632339478,39.926162362098694,-6.374464929103851,0.0,0.0,0.0,0.0,0.0,0.0,0.0,0.0,0.0,0.0,0.0,0.0,0.0,0.0,0.0,0.0,False,0,5.380197763442993,0.02993115234375
STABILIZE,1.9882385730743408,29.39678579188248,0.032363208134969075,0.03304743766784668,0.0,0.0,0.0,0.9506789828135597,-1.524026512807292,0.15395394465575513,-0.019506276965336054,-0.019128115907847288,0.0032631405581080605,0.4,-0.02564763298893158,0.03689612019269873,0.5098380505656527,0.015923469526839512,-0.19437893060967326,0.08792327716946602,0.12565606739372015,0.8603701148859453,-5.903554707765579,-3.876139223575592,-33.20099115371704,0.0,0.0,0.0,0.0,0.0,0.0,0.0,0.0,0.0,0.0,0.0,0.0,0.0,0.0,0.0,0.0,False,1,5.408808469772339,0.034920166015625
STABILIZE,2.0216784477233887,29.903139102970847,0.03235009511311849,0.032479286193847656,0.0,0.0,0.0,0.9445879481777892,-1.5106499074829394,0.161682810629727,-0.0013711999106962316,-0.014294783577559537,-0.009876925358478115,0.4,-0.020768917914566393,0.017889184688317183,0.504703260545342,-0.04961094040255722,0.1714048907160759,-0.5379903595894575,0.8186410181224346,-1.9717603539404371,-26.930436491966248,-11.11791506409645,-11.359678953886032,0.0,0.0,0.0,0.0,0.0,0.0,0.0,0.0,0.0,0.0,0.0,0.0,0.0,0.0,0.0,0.0,False,0,5.467621564865112,0.0349189453125
STABILIZE,2.055079221725464,29.938998536707235,0.03236869176228841,0.03249192237854004,0.0,0.0,0.0,0.9513197399350715,-1.5165769108569238,0.1537518937862844,-0.010585469873022287,-0.0245462462617221,0.0017186863017278396,0.4,-0.0362755541038231,0.02217946973768261,0.5172800795373658,0.00833923220697387,-0.9198336862027645,0.30528060160577297,1.7258958891034126,3.5040163909239483,37.98657953739166,51.150888204574585,30.997076630592346,0.0,0.0,0.0,0.0,0.0,0.0,0.0,0.0,0.0,0.0,0.0,0.0,0.0,0.0,0.0,0.0,False,0,5.496419668197632,0.0349189453125
STABILIZE,2.0886783599853516,29.764357742500906,0.03241709073384603,0.03254890441894531,0.0,0.0,0.0,0.9379714158627509,-1.5122144476896955,0.1699820774406743,-0.01308404110680744,-0.0037096315998049025,-0.0063659913949631695,0.4,-0.013358156267421498,0.03479491218554741,0.5258901929991329,-0.03197713137550848,1.378343440592289,0.7960905320942402,1.475589070469141,-2.4204717658985406,20.68091332912445,-37.53523826599121,75.922030210495,0.0,0.0,0.0,0.0,0.0,0.0,0.0,0.0,0.0,0.0,0.0,0.0,0.0,0.0,0.0,0.0,False,0,5.5248634815216064,0.029930908203125
STABILIZE,2.122049570083618,29.967662420245638,0.032256158192952473,0.03236794471740723,0.0,0.0,0.0,0.9375586163047882,-1.5082415187485694,0.14849822433450166,-0.002998444923401912,-0.021761946534071472,-0.007383342647921667,0.4,-0.05013517530408468,0.03192477729929433,0.5235696628141975,-0.03694044644260754,-2.231592684984207,-0.11928614694625139,0.9657870046794415,-0.315994513123688,-71.05144262313843,-16.059759259223938,15.438973903656006,0.0,0.0,0.0,0.0,0.0,0.0,0.0,0.0,0.0,0.0,0.0,0.0,0.0,0.0,0.0,0.0,False,0,5.553763389587402,0.069839111328125
STABILIZE,2.155437469482422,29.94968760041415,0.03230098088582357,0.03241729736328125,0.0,0.0,0.0,0.9497383376988019,-1.5279155584876738,0.142165091509166,-0.0015388344346089302,-0.04970687811037804,-0.009279990310205453,0.4,-0.09556299109402802,0.03060237560106092,0.5406895599523245,-0.04626896302479546,-2.231592684984207,-0.11928614694625139,0.9657870046794415,-0.315994513123688,-71.05144262313843,-16.059759259223938,15.438973903656006,0.0,0.0,0.0,0.0,0.0,0.0,0.0,0.0,0.0,0.0,0.0,0.0,0.0,0.0,0.0,0.0,False,0,5.582244396209717,0.069839111328125
STABILIZE,2.189929962158203,28.991014404600627,0.032370837529500325,0.033541202545166016,0.0,0.0,0.0,0.9510149427433596,-1.5409203453890838,0.18888608005192586,-0.008355563768204132,-0.05587738576617578,-0.003147573684327893,0.4,-0.10153320712773665,0.02349255378428281,0.5652708306039895,-0.015553245852183269,0.12509510852396488,-0.35765545908361673,1.4424026012420654,1.6947510398148746,67.99843907356262,-0.06018447456881404,25.50390064716339,0.0,0.0,0.0,0.0,0.0,0.0,0.0,0.0,0.0,0.0,0.0,0.0,0.0,0.0,0.0,0.0,False,1,5.611027479171753,0.029930908203125
STABILIZE,2.223378896713257,29.896105377202485,0.032373936971028645,0.032499074935913086,0.0,0.0,0.0,0.9583482180344262,-1.5312778258283184,0.19757552141921014,-0.01921092905256104,0.0016711945443811597,-0.011975161543636913,0.4,-0.024228225178317464,0.040214302072763206,0.5463456715274866,-0.05949220848916157,1.0658226907253265,0.8100446313619614,0.7227187044918537,-1.9634770420245042,-5.204031988978386,27.544602751731873,-17.759735882282257,0.0,0.0,0.0,0.0,0.0,0.0,0.0,0.0,0.0,0.0,0.0,0.0,0.0,0.0,0.0,0.0,False,0,5.668260812759399,0.034920166015625
STABILIZE,2.256805896759033,29.916149555641148,0.032369168599446614,0.03248190879821777,0.0,0.0,0.0,0.9431877593979365,-1.5476142509408137,0.19891744014770607,-0.021763369116556085,-0.013893242879273394,-0.023811508604035827,0.4,-0.03134756866338384,0.05339973192235927,0.5668862366160153,-0.11827857119071461,-0.472133606672287,0.7382430601865053,2.170906402170658,-3.085832082574394,-3.5548731684684753,-1.1373553425073624,53.976839780807495,0.0,0.0,0.0,0.0,0.0,0.0,0.0,0.0,0.0,0.0,0.0,0.0,0.0,0.0,0.0,0.0,False,0,5.696994066238403,0.029930908203125
STABILIZE,2.2901952266693115,29.94883219444623,0.03237799008687337,0.0324859619140625,0.0,0.0,0.0,0.9319841147250001,-1.5474639867790734,0.17113208386174875,-0.020966049026215208,0.028142325174494474,-0.022361272004666078,0.4,0.00630989585704635,0.05018647949515688,0.5375682720240731,-0.11065751179664139,1.886478066444397,-0.08035560604184866,-0.29020803049206734,0.2524879211490119,-10.675862431526184,-4.02652733027935,-26.07010304927826,0.0,0.0,0.0,0.0,0.0,0.0,0.0,0.0,0.0,0.0,0.0,0.0,0.0,0.0,0.0,0.0,False,0,5.725872755050659,0.034919189453125
STABILIZE,2.32369065284729,29.85545993579477,0.0324275811513265,0.0325627326965332,0.0,0.0,0.0,0.9273792865639421,-1.5499500689152523,0.18829240054287688,0.0251901545785566,0.034670405169763795,-0.01656343089360843,0.4,-0.017024301775421767,-0.007346600057663931,0.5474734291831587,-0.08139591361975468,-1.3295886106789112,-2.9811201617121696,1.6078267246484756,1.4753837198074595,-48.71341288089752,-85.01195311546326,29.414856433868408,0.0,0.0,0.0,0.0,0.0,0.0,0.0,0.0,0.0,0.0,0.0,0.0,0.0,0.0,0.0,0.0,False,0,5.754415988922119,0.034919921875
STABILIZE,2.3571693897247314,29.869705170203673,0.03238395055135091,0.032518625259399414,0.0,0.0,0.0,0.9405220646309276,-1.542970255913734,0.19167166331516713,0.06748524949560819,0.02220975066121734,-0.010722469999430814,0.4,-0.0404481981425348,-0.06461999700862119,0.5574625720354848,-0.05201709024009843,-1.3295886106789112,-2.9811201617121696,1.6078267246484756,1.4753837198074595,-48.71341288089752,-85.01195311546326,29.414856433868408,0.0,0.0,0.0,0.0,0.0,0.0,0.0,0.0,0.0,0.0,0.0,0.0,0.0,0.0,0.0,0.0,False,0,5.7833027839660645,0.034919921875
STABILIZE,2.3912737369537354,29.323825104520605,0.03235963185628255,0.033036231994628906,0.0,0.0,0.0,0.9475744483923773,-1.536161197641466,0.19025267817488375,0.06351872695267524,-0.015401401655000918,-0.009411597685003294,0.4,-0.04141505709363093,-0.04609149014113742,0.5507921488746407,-0.04530872150731788,-0.13067035470157862,1.045052520930767,0.7160786539316177,0.2652142177591853,3.409876674413681,86.94286942481995,26.206740736961365,0.0,0.0,0.0,0.0,0.0,0.0,0.0,0.0,0.0,0.0,0.0,0.0,0.0,0.0,0.0,0.0,False,1,5.812032222747803,0.029930908203125
STABILIZE,2.429591417312622,26.09826273084773,0.032248528798421223,0.03722190856933594,0.0,0.0,0.0,0.9326235911860424,-1.559694080818216,0.21904231239267097,0.044653184408668306,0.004405831012895925,-0.017281391943994237,0.4,-0.013469037034164345,-0.00854864372509474,0.5610127564010526,-0.08433461851310688,0.514464033767581,0.0046193410526029766,0.5421568639576435,-1.4936012217060586,-22.45321273803711,-28.666123747825623,7.509993761777878,0.0,0.0,0.0,0.0,0.0,0.0,0.0,0.0,0.0,0.0,0.0,0.0,0.0,0.0,0.0,0.0,False,0,5.8696393966674805,0.029930908203125
STABILIZE,2.4630470275878906,29.890778999579535,0.03221133550008138,0.032354116439819336,0.0,0.0,0.0,0.9144555014372201,-1.5409742398505035,0.21926057162120727,0.0628251741777179,-0.0380557561820516,-0.002568166818952016,0.4,-0.05120525647569771,-0.033356146877488245,0.5803455143377121,-0.010732589680639212,-2.1676382049918175,-1.373064611107111,2.2916430607438087,3.966417636412873,-73.92852306365967,-16.307465732097626,86.99330687522888,0.0,0.0,0.0,0.0,0.0,0.0,0.0,0.0,0.0,0.0,0.0,0.0,0.0,0.0,0.0,0.0,False,0,5.898112773895264,0.034919189453125
STABILIZE,2.4968371391296387,29.595709850409257,0.032198222478230794,0.03265714645385742,0.0,0.0,0.0,0.9272702169806334,-1.537130977781902,0.17874743796140885,0.005502405608544284,-0.03130696527970604,-0.015343690027672111,0.4,-0.058009700971974436,-0.009372842564558066,0.5518523213785086,-0.07435925698931638,-0.44734575785696507,1.364106498658657,-0.5552161484956741,-3.658567350142058,-13.864639401435852,81.24715089797974,-48.926955461502075,0.0,0.0,0.0,0.0,0.0,0.0,0.0,0.0,0.0,0.0,0.0,0.0,0.0,0.0,0.0,0.0,False,0,5.92677116394043,0.034919921875
STABILIZE,2.530088424682617,30.069066377993963,0.032172234853108723,0.03228902816772461,0.0,0.0,0.0,0.9245334455575739,-1.5696765090118954,0.19630782763708518,-0.05193685703474127,-0.02437620019037686,-0.02819044340348498,0.4,-0.064752224131409,0.014776525864088307,0.5232371898756395,-0.13813105606895387,-0.44734575785696507,1.364106498658657,-0.5552161484956741,-3.658567350142058,-13.864639401435852,81.24715089797974,-48.926955461502075,0.0,0.0,0.0,0.0,0.0,0.0,0.0,0.0,0.0,0.0,0.0,0.0,0.0,0.0,0.0,0.0,False,0,5.955491542816162,0.034919921875
STABILIZE,2.5638060569763184,29.65723417193444,0.03240707715352376,0.032816410064697266,0.0,0.0,0.0,0.9099891980502665,-1.563529765645707,0.2552415812820113,-0.0006230351597484023,-0.007271149845768791,-0.01787110441224791,0.4,-0.03869019307176547,-0.03355315780153588,0.5380130753248682,-0.08624347395310632,-0.37810797803103924,-2.87921279668808,0.9165619499981403,-0.08556466121880583,-54.16438579559326,-26.018181443214417,-19.06287670135498,0.0,0.0,0.0,0.0,0.0,0.0,0.0,0.0,0.0,0.0,0.0,0.0,0.0,0.0,0.0,0.0,False,0,6.012837648391724,0.02993115234375
STABILIZE,2.597395896911621,29.77090697443323,0.032428773244222005,0.03257179260253906,0.0,0.0,0.0,0.9299397537290506,-1.5478887391680836,0.1935064095407486,-0.011530343913829448,-0.012426830694295841,-0.02210091077481509,0.4,-0.028622924332402225,0.006245521717635372,0.531029697141473,-0.10703322784644707,0.48660808242857456,2.261684276163578,0.7861029356718063,-1.342921058756642,-38.57383728027344,144.0293788909912,31.39304518699646,0.0,0.0,0.0,0.0,0.0,0.0,0.0,0.0,0.0,0.0,0.0,0.0,0.0,0.0,0.0,0.0,False,0,6.041440963745117,0.039907958984375
STABILIZE,2.6309921741485596,29.764991413202377,0.03229811986287435,0.032679080963134766,0.0,0.0,0.0,0.9382935019707993,-1.5488743141209753,0.18231240984197206,-0.043502852477542875,0.0021120657022375517,-0.01708679179259513,0.4,-0.0340890149423256,0.025472806952792446,0.5226890331474578,-0.08168828225480278,-0.3891000058501959,1.08655272051692,0.41526351124048233,1.3721899134540276,2.420257590711117,-46.82227373123169,-5.283285677433014,0.0,0.0,0.0,0.0,0.0,0.0,0.0,0.0,0.0,0.0,0.0,0.0,0.0,0.0,0.0,0.0,False,0,6.070170164108276,0.02993115234375
STABILIZE,2.6647589206695557,29.615771338191266,0.03240493138631185,0.03278756141662598,0.0,0.0,0.0,0.9143319177019252,-1.5375210456165331,0.23652875726645398,0.014739892980798428,0.02132679360573675,-0.012142576345961394,0.4,-0.009155319485749398,-0.0269323079105268,0.5253241511234046,-0.05677576247157502,1.3475746847689152,-2.9842590913176537,1.3232098892331123,1.2660574182101978,63.95381689071655,-94.80094909667969,13.615018129348755,0.0,0.0,0.0,0.0,0.0,0.0,0.0,0.0,0.0,0.0,0.0,0.0,0.0,0.0,0.0,0.0,False,0,6.0989344120025635,0.029930908203125
STABILIZE,2.698143243789673,29.95268190614935,0.03233936627705892,0.032471418380737305,0.0,0.0,0.0,0.9284422347535253,-1.517597810694429,0.16122059892198756,0.012351955495149548,0.027420716693358455,-0.019992104313827728,0.4,-0.0047182664501635154,-0.004551145054619895,0.5325034187237935,-0.09570326682608013,0.19213487394154072,1.2936278246343136,1.5768621116876602,-2.4118956096219435,-12.764954566955566,131.21883869171143,-11.735478043556213,0.0,0.0,0.0,0.0,0.0,0.0,0.0,0.0,0.0,0.0,0.0,0.0,0.0,0.0,0.0,0.0,False,0,6.127562999725342,0.0349189453125
STABILIZE,2.731638193130493,29.85737268469084,0.03241613705952962,0.03254055976867676,0.0,0.0,0.0,0.9361795584226804,-1.5044078616334882,0.11040739992157109,-0.037712067677099274,-0.011823824507092125,-0.017016170195658566,0.4,-0.04625601803035604,0.018033466499628115,0.5288482668037994,-0.08055416649539812,-2.4930547922849655,1.3197841122746468,0.7860466837882996,0.7577430007902128,-32.26832449436188,-12.165138870477676,34.792447090148926,0.0,0.0,0.0,0.0,0.0,0.0,0.0,0.0,0.0,0.0,0.0,0.0,0.0,0.0,0.0,0.0,False,0,6.1591081619262695,0.034919921875
STABILIZE,2.765127182006836,29.860348559061396,0.03235629399617513,0.0324857234954834,0.0,0.0,0.0,0.932559344719162,-1.4997998318212569,0.226116400681034,0.011404891457198562,0.02666893965446443,-0.02207113889572421,0.4,0.02061084049214275,-0.010045104424102981,0.524471553713068,-0.10547623090350823,3.8298707455396652,-1.6344115138053894,0.7462537847459316,-1.5831787257839527,161.6605281829834,-101.14823579788208,53.870606422424316,0.0,0.0,0.0,0.0,0.0,0.0,0.0,0.0,0.0,0.0,0.0,0.0,0.0,0.0,0.0,0.0,False,0,6.1878342628479,0.034832275390625
STABILIZE,2.80346417427063,26.085277874521122,0.032316001256306966,0.03740072250366211,0.0,0.0,0.0,0.9434078195552579,-1.5166825653456473,0.1562041851623702,0.0674033467332927,0.00912137955392725,-0.05015839891489535,0.4,-0.013272002615078854,-0.06922763837453474,0.48635742426287176,-0.24497176509182833,-5.963534116744995,-1.7753604799509048,-0.9507453069090843,-6.77484585471543,-177.60311365127563,93.25131177902222,-81.87147378921509,0.0,0.0,0.0,0.0,0.0,0.0,0.0,0.0,0.0,0.0,0.0,0.0,0.0,0.0,0.0,0.0,False,0,6.245824337005615,0.029929931640625
STABILIZE,2.8370003700256348,29.817680304269008,0.03238848050435384,0.032534122467041016,0.0,0.0,0.0,0.9399041459544529,-1.5242416637661473,0.13272544991109103,-0.04035402766789562,0.002075012832352375,-0.02605659974933522,0.4,-0.00646269496536455,0.02072742879330211,0.49072792499338747,-0.12404757715779749,0.370840635150671,5.247364938259125,1.3777068816125393,6.841428246292007,75.56290626525879,82.5590193271637,-28.996843099594116,0.0,0.0,0.0,0.0,0.0,0.0,0.0,0.0,0.0,0.0,0.0,0.0,0.0,0.0,0.0,0.0,False,0,6.274782657623291,0.034920166015625
STABILIZE,2.8704910278320312,29.860773732397373,0.032316001256306966,0.03243446350097656,0.0,0.0,0.0,0.9275671167661174,-1.5125271422876352,0.26116927834708326,0.03286211140763911,0.04391510397721947,-0.03572756646837559,0.4,0.061572189986541986,-0.05060871704570785,0.48088455408456465,-0.17182779617630017,3.965495526790619,-4.215433448553085,0.4082924220710993,-2.976162296392438,-74.71518516540527,-51.20576620101929,93.09290647506714,0.0,0.0,0.0,0.0,0.0,0.0,0.0,0.0,0.0,0.0,0.0,0.0,0.0,0.0,0.0,0.0,False,0,6.303462028503418,0.034918701171875
STABILIZE,2.909444808959961,25.66956351440672,0.03225901921590169,0.038002729415893555,0.0,0.0,0.0,0.962409619269645,-1.5265011757209523,0.020931326487388987,0.024630357184795938,0.009979277637341988,-0.052732374588698436,0.4,-0.031202057242186054,-0.018793420843421386,0.4983149480576314,-0.2558525287375265,-5.4895080626010895,1.872471161186695,2.0040689036250114,-5.083831888871905,-169.20223236083984,145.9805727005005,7.579592615365982,0.0,0.0,0.0,0.0,0.0,0.0,0.0,0.0,0.0,0.0,0.0,0.0,0.0,0.0,0.0,0.0,False,0,6.331965446472168,0.02993115234375
STABILIZE,2.9430088996887207,29.796074364019976,0.03237465222676595,0.03250288963317871,0.0,0.0,0.0,0.9487784826770036,-1.5116016516550983,0.12070079515557781,-0.0285104215654539,-0.0830332306263738,-0.05816253646057874,0.4,-0.12560443165839674,0.02303308172472273,0.5186529118507234,-0.2820600052033204,-0.19934261217713356,0.5748216062784195,1.394642610102892,2.9006453770512497,62.401437759399414,-190.9263014793396,65.00042080879211,0.0,0.0,0.0,0.0,0.0,0.0,0.0,0.0,0.0,0.0,0.0,0.0,0.0,0.0,0.0,0.0,False,0,6.390444755554199,0.034920166015625
STABILIZE,2.9763312339782715,30.008614151820847,0.0322449525197347,0.032370567321777344,0.0,0.0,0.0,0.9473531075745866,-1.519723920517007,0.1513624881753303,-0.009508460850338686,-0.04482526063840964,-0.05369525245196528,0.4,-0.08824308021837651,-0.041361112591732946,0.4803842099882967,-0.2588581888014786,2.2565986961126328,-3.8810431957244873,-1.3614373281598091,1.2005857861473943,67.38460659980774,-61.96876764297485,-65.17594456672668,0.0,0.0,0.0,0.0,0.0,0.0,0.0,0.0,0.0,0.0,0.0,0.0,0.0,0.0,0.0,0.0,False,0,6.419159412384033,0.029930908203125
STABILIZE,3.009920358657837,29.772174900624645,0.03238037427266439,0.03260374069213867,0.0,0.0,0.0,0.9576771519484724,-1.521566897654147,0.048267085904735545,0.016803650650954398,-0.055913151065224216,-0.07334449264927849,0.4,-0.10004322134908904,-0.0013154605610182987,0.49363496540861257,-0.3559105212730303,-0.8003676310181618,2.3926008492708206,1.8712762743234634,-6.237127259475129,1.134045049548149,-0.9078420698642731,73.26375842094421,0.0,0.0,0.0,0.0,0.0,0.0,0.0,0.0,0.0,0.0,0.0,0.0,0.0,0.0,0.0,0.0,False,0,6.450002193450928,0.0349189453125
STABILIZE,3.0432987213134766,29.95888630162426,0.03231671651204427,0.032433509826660156,0.0,0.0,0.0,0.9492975770539246,-1.5202290343504707,0.1384090210741879,0.0007246561228687347,-0.10020417302276356,-0.05924229425068831,0.4,-0.11820562770338512,-0.03918360298004877,0.5132854097046491,-0.28444869584140287,-1.1208683252334595,-2.29612085968256,2.106279693543911,4.098646256762912,40.6328409910202,-98.44629764556885,78.70625257492065,0.0,0.0,0.0,0.0,0.0,0.0,0.0,0.0,0.0,0.0,0.0,0.0,0.0,0.0,0.0,0.0,False,0,6.476619720458984,0.034919921875
STABILIZE,3.0768399238586426,29.817680304269008,0.03238538106282552,0.032503604888916016,0.0,0.0,0.0,0.949679213873799,-1.518013918625271,0.1324093402185664,0.05031681846789403,-0.07416870204360164,-0.04470938229456815,0.4,-0.1362781574841944,-0.07758347941196211,0.5331906556834155,-0.211078322989608,-1.1208683252334595,-2.29612085968256,2.106279693543911,4.098646256762912,40.6328409910202,-98.44629764556885,78.70625257492065,0.0,0.0,0.0,0.0,0.0,0.0,0.0,0.0,0.0,0.0,0.0,0.0,0.0,0.0,0.0,0.0,False,0,6.505408763885498,0.034919921875
STABILIZE,3.110419750213623,29.777881905248734,0.03227237065633138,0.032412052154541016,0.0,0.0,0.0,0.9548076187234208,-1.52184181276824,0.09128395747291303,0.051643135149306,-0.017160400266904463,-0.04555835364225484,0.4,-0.11787900288764447,-0.04522672758324282,0.5483544133974028,-0.21460401673517712,1.0457566939294338,1.9442791119217873,1.8142836168408394,-0.5738381830360626,49.51453506946564,103.12508344650269,66.63954257965088,0.0,0.0,0.0,0.0,0.0,0.0,0.0,0.0,0.0,0.0,0.0,0.0,0.0,0.0,0.0,0.0,False,0,6.534076929092407,0.0349189453125
STABILIZE,3.145808219909668,28.254555497921817,0.03216055234273275,0.03456854820251465,0.0,0.0,0.0,0.9462989105648774,-1.5196392902043223,0.1542126647509958,0.0038600806666721247,-0.03896236377808982,-0.055876206149773996,0.4,-0.12439121737214015,-0.038391756497228584,0.5555034139851698,-0.26524767093128543,-0.4734792746603489,0.38391510024666786,1.3380809687078,-3.3752188734147834,-40.703168511390686,-72.65544533729553,39.59992527961731,0.0,0.0,0.0,0.0,0.0,0.0,0.0,0.0,0.0,0.0,0.0,0.0,0.0,0.0,0.0,0.0,False,1,6.56266450881958,0.02993115234375
STABILIZE,3.1794114112854004,29.76013396056394,0.032518895467122395,0.03268003463745117,0.0,0.0,0.0,0.9479003764818338,-1.5211564459737115,0.1411313183659008,0.01831116761438546,-0.01952488535743546,-0.059141874773020416,0.4,-0.1028769470481774,-0.023808456840271382,0.5799696694971991,-0.28063583171535594,0.2820463152602315,-1.6082193702459335,0.9498853236436844,-0.24152354654043737,-22.27928340435028,-102.17673778533936,27.139076590538025,0.0,0.0,0.0,0.0,0.0,0.0,0.0,0.0,0.0,0.0,0.0,0.0,0.0,0.0,0.0,0.0,False,0,6.625123739242554,0.029930908203125
STABILIZE,3.212893486022949,29.866302087783758,0.032395156224568684,0.03252863883972168,0.0,0.0,0.0,0.951043117273686,-1.5228378464482983,0.1307563810785704,-0.012895090454129867,-0.020630147463754172,-0.05357896215503442,0.4,-0.11812564275121246,-0.016108423827195822,0.5804237922655602,-0.25197837374346926,-1.0548913851380348,0.39220000617206097,1.267169788479805,1.0367261328642035,-12.927533686161041,62.49186396598816,31.4115047454834,0.0,0.0,0.0,0.0,0.0,0.0,0.0,0.0,0.0,0.0,0.0,0.0,0.0,0.0,0.0,0.0,False,0,6.65383768081665,0.0349189453125
STABILIZE,3.246319055557251,29.917643282570705,0.03236821492513021,0.03249502182006836,0.0,0.0,0.0,0.9510919958149339,-1.5202815414297153,0.11789249350921831,-0.0638432118585188,-0.005201334624293379,-0.050105636205344736,0.4,-0.1078967208442341,0.015377964551407022,0.58515926900977,-0.23382954219047547,0.4057701677083969,1.7220597714185715,1.3156337663531303,0.5427547925361279,41.20147526264191,5.483420193195343,20.120766758918762,0.0,0.0,0.0,0.0,0.0,0.0,0.0,0.0,0.0,0.0,0.0,0.0,0.0,0.0,0.0,0.0,False,0,6.682635307312012,0.034838134765625
STABILIZE,3.279777765274048,29.887158146759965,0.0323670228322347,0.03249835968017578,0.0,0.0,0.0,0.9485799803042501,-1.5233907716059518,0.15664202430055182,-0.06854247153419858,-0.0072722173201020136,-0.04659251864656031,0.4,-0.09746103664071773,0.047067913362747266,0.5898203408756911,-0.2155429246113151,0.4057701677083969,1.7220597714185715,1.3156337663531303,0.5427547925361279,41.20147526264191,5.483420193195343,20.120766758918762,0.0,0.0,0.0,0.0,0.0,0.0,0.0,0.0,0.0,0.0,0.0,0.0,0.0,0.0,0.0,0.0,False,0,6.711312770843506,0.034838134765625
STABILIZE,3.313316583633423,29.817256357212425,0.0323827584584554,0.03254818916320801,0.0,0.0,0.0,0.9552652413978117,-1.5222066942803067,0.09738008140002792,-0.026181848849036463,-0.0021323569567366627,-0.04324813718320641,0.4,-0.09370454870720633,0.00036421059848337767,0.5811291860467425,-0.1981567348329519,0.028762940200977027,-2.6311054825782776,0.577201321721077,0.49245359758930457,-10.327886790037155,-75.3800630569458,11.898921430110931,0.0,0.0,0.0,0.0,0.0,0.0,0.0,0.0,0.0,0.0,0.0,0.0,0.0,0.0,0.0,0.0,False,0,6.740051984786987,0.02993115234375
STABILIZE,3.346670627593994,29.981372009406922,0.03232553799947103,0.03244161605834961,0.0,0.0,0.0,0.9527118178652847,-1.522334546883833,0.1037768737228622,-0.04285509400992042,-0.023960371400277618,-0.045439919756941394,0.4,-0.11151257884987784,0.032297332889664035,0.5774880668477858,-0.20841987689571811,-1.2090500444173813,1.7916640266776085,1.0286505334079266,-1.0744948378185526,-33.066949248313904,89.30090665817261,16.873906552791595,0.0,0.0,0.0,0.0,0.0,0.0,0.0,0.0,0.0,0.0,0.0,0.0,0.0,0.0,0.0,0.0,False,1,6.768683910369873,0.0349189453125
STABILIZE,3.3801212310791016,29.893761537200568,0.03241136868794759,0.032521724700927734,0.0,0.0,0.0,0.9466790532808709,-1.525112085998501,0.1686457616017319,-0.02169157063970877,-0.006738890497613144,-0.04170879619372525,0.4,-0.09600264103465658,0.012690415666112264,0.5645319920820642,-0.1891320114300959,0.2852854784578085,-0.5885931197553873,1.080450415611267,-2.183133791297999,0.35729724913835526,61.89994215965271,12.572112679481506,0.0,0.0,0.0,0.0,0.0,0.0,0.0,0.0,0.0,0.0,0.0,0.0,0.0,0.0,0.0,0.0,False,0,6.826042890548706,0.0349189453125
STABILIZE,3.4135828018188477,29.885667462324985,0.032389195760091145,0.03250718116760254,0.0,0.0,0.0,0.954786487825676,-1.5197675696946717,0.07959134062451234,-0.02904265500289726,-0.01691705596965049,-0.0421344375130565,0.4,-0.10411225774547517,0.04692877212277878,0.5673983297442513,-0.1906227053726684,-0.6398833356797695,1.9304296001791954,1.2195486575365067,-0.5155744816208853,-22.182856500148773,-8.356836438179016,17.134767770767212,0.0,0.0,0.0,0.0,0.0,0.0,0.0,0.0,0.0,0.0,0.0,0.0,0.0,0.0,0.0,0.0,False,0,6.854872465133667,0.034920166015625
STABILIZE,3.447035789489746,29.894400729843767,0.032367976506551106,0.03250312805175781,0.0,0.0,0.0,0.9515882517468176,-1.5195100502186212,0.1011457834689528,-0.036337876243103966,-0.027218826492558218,-0.04259337472091278,0.4,-0.11225586764026059,0.0812482679107091,0.5702595862571542,-0.19227416770742814,-0.6398833356797695,1.9304296001791954,1.2195486575365067,-0.5155744816208853,-22.182856500148773,-8.356836438179016,17.134767770767212,0.0,0.0,0.0,0.0,0.0,0.0,0.0,0.0,0.0,0.0,0.0,0.0,0.0,0.0,0.0,0.0,False,0,6.883530378341675,0.034920166015625
STABILIZE,3.4804983139038086,29.882686539516527,0.03236249287923177,0.03250241279602051,0.0,0.0,0.0,0.9478845816693782,-1.5243945959705323,0.14549404833739352,-0.049586783358607375,-0.036252131834064255,-0.031092823756880033,0.4,-0.12332177918709238,0.05993408031790494,0.5720776400759015,-0.13432198246032073,-0.8051000535488129,-1.2048257514834404,1.1618337593972683,2.855511273572394,12.002717703580856,-37.591758370399475,19.549745321273804,0.0,0.0,0.0,0.0,0.0,0.0,0.0,0.0,0.0,0.0,0.0,0.0,0.0,0.0,0.0,0.0,False,0,6.912209749221802,0.029930908203125
STABILIZE,3.513883590698242,29.952254111530852,0.032332690556844075,0.032449960708618164,0.0,0.0,0.0,0.9538170278503574,-1.5211941187358524,0.08005890175775408,-0.02813144072961512,-0.017284064992901613,-0.03951146295975068,0.4,-0.10710966410898855,0.05943448102853476,0.5648689742733608,-0.1758274776926695,0.6985573098063469,0.034558988409116864,0.8107264526188374,-2.78901255181315,6.975992023944855,58.26767683029175,20.486286282539368,0.0,0.0,0.0,0.0,0.0,0.0,0.0,0.0,0.0,0.0,0.0,0.0,0.0,0.0,0.0,0.0,False,0,6.941056966781616,0.029930908203125
STABILIZE,3.5483834743499756,28.98620594333103,0.03242066701253255,0.03357267379760742,0.0,0.0,0.0,0.9510742800117741,-1.5209990314576838,0.10698019909306512,-0.04198709811795558,-0.02894615118462903,-0.03673492159563606,0.4,-0.11375247074060545,0.060552541764289675,0.5607616072017805,-0.16138828330056257,-0.6058692000806332,0.1309096347540617,0.9690850041806698,0.41325958187541656,-32.86976516246796,-45.64320147037506,17.059314250946045,0.0,0.0,0.0,0.0,0.0,0.0,0.0,0.0,0.0,0.0,0.0,0.0,0.0,0.0,0.0,0.0,False,1,6.969552516937256,0.0349189453125
STABILIZE,3.581803321838379,29.922552292897297,0.03240016301472982,0.03253030776977539,0.0,0.0,0.0,0.948619040448566,-1.5252630972121817,0.13298601095575646,-0.027599799300508966,-0.016732355607701904,-0.040040982519054684,0.4,-0.1007702504358653,0.07049404365348184,0.5587815895710121,-0.1773254995202791,0.5073346197605133,1.261481735855341,0.9971652179956436,-3.0908898376547884,12.45269626379013,23.304778337478638,22.593221068382263,0.0,0.0,0.0,0.0,0.0,0.0,0.0,0.0,0.0,0.0,0.0,0.0,0.0,0.0,0.0,0.0,False,0,7.026820182800293,0.02993017578125
STABILIZE,3.615323066711426,29.832738239185172,0.03243616422017415,0.03257036209106445,0.0,0.0,0.0,0.9533525749867965,-1.5221919666849089,0.09159840630889146,0.008197852055818368,-0.019453154590139275,-0.033829321709558435,0.4,-0.11072754615298162,0.05428175210267113,0.5588423644929029,-0.14577938779179575,-0.8046694099903107,-0.8649011142551899,1.2003978714346886,1.4519246880511103,-24.02765154838562,-47.568294405937195,18.779440224170685,0.0,0.0,0.0,0.0,0.0,0.0,0.0,0.0,0.0,0.0,0.0,0.0,0.0,0.0,0.0,0.0,False,0,7.055586576461792,0.034920166015625
