Mode,Time,Freq,time2delay,actualDelay,North-Desired,East-Desired,Down-Desired,Roll-UAV,Pitch-UAV,Yaw-UAV,Roll-Control,Pitch-Control,Yaw-Control,Thrust-Control,North-Pos,East-Pos,Down-Pos,Yaw-Ang,North-Vel,East-Vel,Down-Vel,Yaw-Vel,North-Acc,East-Acc,Down-Acc,North-Avg,East-Avg,Down-Avg,Yaw-Avg,North-Dif,East-Dif,Down-Dif,Yaw-Dif,North-One,East-One,Down-One,Yaw-One,North-Two,East-Two,Down-Two,Yaw-Two,Landing-State,Q-Size,Kalman-Time,Kalman-Dt
STABILIZE,0.03436279296875,29.108918037337776,0.03273037274678548,0.03287196159362793,0.0,0.0,0.0,0.33302081402278105,-1.3868720454052048,0.33971085091267633,-0.023419037466666758,-0.003936379021877082,0.0070761624312218755,0.4,-0.001032699426047839,0.0061671453623585925,0.5576116415971935,0.03526446886273297,0.028328067855909467,0.25069580879062414,0.6872429978102446,-0.12802914790796516,3.93926240503788,9.560701996088028,10.691683739423752,0.0,0.0,0.0,0.0,0.0,0.0,0.0,0.0,0.0,0.0,0.0,0.0,0.0,0.0,0.0,0.0,False,0,3.534132719039917,0.0349169921875
STABILIZE,0.0677182674407959,29.980943394877734,0.032306941350301106,0.03242063522338867,0.0,0.0,0.0,0.33302092074448686,-1.3870778048539514,0.33220348583905385,-0.012344620094017105,-0.008935056747809159,0.006857686129388436,0.4,-0.004551639609417987,0.006239336758953241,0.5579896986778506,0.03405828052771145,-0.1741220708936453,0.03395580279175192,1.1760657653212547,-0.006484130698803179,-9.074370563030243,-3.89803908765316,19.483064115047455,0.0,0.0,0.0,0.0,0.0,0.0,0.0,0.0,0.0,0.0,0.0,0.0,0.0,0.0,0.0,0.0,False,1,3.5624403953552246,0.039905029296875
STABILIZE,0.10120701789855957,29.859923397832926,0.03242209752400716,0.03261733055114746,0.0,0.0,0.0,0.33266286942159007,-1.3873707559363215,0.33854254171906034,-0.00254804012603517,-0.014436948590534278,0.008362134486147785,0.4,-0.010642271517218915,0.0017935227889898679,0.5556093849216358,0.04144145156048622,-0.1106390031054616,-0.2076219068840146,0.7337333168834448,0.4911013802162007,-6.367102265357971,-8.069423586130142,10.562190413475037,0.0,0.0,0.0,0.0,0.0,0.0,0.0,0.0,0.0,0.0,0.0,0.0,0.0,0.0,0.0,0.0,False,0,3.6199886798858643,0.02493994140625
STABILIZE,0.13501763343811035,29.577344014442062,0.032459529240926106,0.03290438652038574,0.0,0.0,0.0,0.33331792725167664,-1.3864471862944887,0.340761366023536,-0.00042487230964298234,-0.00686379504649838,0.008692411322884985,0.4,-0.006455173567062119,0.00030453564174288494,0.5456970451654152,0.04294796598205814,0.21019342821091413,-0.06884095491841435,0.8771216496825218,0.17865149514791132,6.0929641127586365,3.6992907524108887,9.702068567276001,0.0,0.0,0.0,0.0,0.0,0.0,0.0,0.0,0.0,0.0,0.0,0.0,0.0,0.0,0.0,0.0,False,0,3.6485040187835693,0.029928955078125
STABILIZE,0.1684556007385254,29.906124107836774,0.03241017659505208,0.03257131576538086,0.0,0.0,0.0,0.3336926271606753,-1.3868692706408543,0.3343608918018523,-0.005187430891162192,-0.004113116175058007,0.006597591521600288,0.4,-0.0046399637999666515,0.005814377042771544,0.5460584785221035,0.032365516715411234,0.09802316781133413,0.32143464777618647,1.2671580538153648,-0.5067978486199776,-1.5957215800881386,1.9149048253893852,15.746982395648956,0.0,0.0,0.0,0.0,0.0,0.0,0.0,0.0,0.0,0.0,0.0,0.0,0.0,0.0,0.0,0.0,False,0,3.6772305965423584,0.034916259765625
STABILIZE,0.20193243026733398,29.870556061987237,0.03245595296223958,0.03257918357849121,0.0,0.0,0.0,0.3332080038947217,-1.3855299132332972,0.3356788515074003,0.0024857343502821512,-0.004642142332882879,0.008128319288663172,0.4,-0.006100739146200437,0.002182558702002516,0.5404417618995868,0.039885744836704186,-0.077886413782835,-0.18056201515719295,0.7803873624652624,0.47879556712680627,-1.1925963684916496,-4.0910884737968445,11.62184402346611,0.0,0.0,0.0,0.0,0.0,0.0,0.0,0.0,0.0,0.0,0.0,0.0,0.0,0.0,0.0,0.0,False,0,3.7060577869415283,0.034918212890625
STABILIZE,0.2354576587677002,29.829131433529383,0.032415183385213216,0.03253293037414551,0.0,0.0,0.0,0.3323864602036161,-1.385908028236881,0.3407903409666557,0.001974795401623819,-0.0005119313101995854,0.00897078861811234,0.4,-0.004272185860511684,0.0028188329475886506,0.5376718522158833,0.0439511435121463,0.10384006891399622,0.05572437075898051,0.9318806231021881,0.2869389684357331,6.293181329965591,1.8103865906596184,12.200578302145004,0.0,0.0,0.0,0.0,0.0,0.0,0.0,0.0,0.0,0.0,0.0,0.0,0.0,0.0,0.0,0.0,False,0,3.734781503677368,0.029927978515625
STABILIZE,0.2689695358276367,29.839742175994765,0.03232839902242025,0.03262591361999512,0.0,0.0,0.0,0.33404139369516905,-1.3847512716679158,0.3315115289791934,-0.0020868142904747066,0.008181487074581818,0.007586842190773486,0.4,0.0006931463442164882,0.0038193173402825313,0.5336637320779035,0.036907366208140335,0.2778831636533141,0.07216815138235688,0.9879707358777523,-0.3184934285449871,2.0184848457574844,1.75654087215662,9.812318533658981,0.0,0.0,0.0,0.0,0.0,0.0,0.0,0.0,0.0,0.0,0.0,0.0,0.0,0.0,0.0,0.0,False,0,3.7641761302948,0.034917236328125
STABILIZE,0.3024744987487793,29.84611224569668,0.03242042859395345,0.03256058692932129,0.0,0.0,0.0,0.33457713665819194,-1.3830699779150348,0.3350342257240539,-0.0027831920715724995,0.0008087623006789112,0.008438069041942949,0.4,-0.0043135289791989126,0.0034087514149193305,0.5320693734103886,0.041026171542853804,-0.2854976337403059,0.03480837040115148,1.042354479432106,0.1806986976092772,6.587903946638107,4.000972956418991,18.005259335041046,0.0,0.0,0.0,0.0,0.0,0.0,0.0,0.0,0.0,0.0,0.0,0.0,0.0,0.0,0.0,0.0,False,0,3.8223588466644287,0.02493994140625
STABILIZE,0.3415348529815674,25.601562595373252,0.03239420255025228,0.038149356842041016,0.0,0.0,0.0,0.3353179987397268,-1.3834988924505704,0.34236915520156,0.000862240703660781,-0.00422608361936462,0.008763385657231799,0.4,-0.00913250362578288,0.003804139862989703,0.5269572109423182,0.04248673307933567,-0.2854976337403059,0.03480837040115148,1.042354479432106,0.1806986976092772,6.587903946638107,4.000972956418991,18.005259335041046,0.0,0.0,0.0,0.0,0.0,0.0,0.0,0.0,0.0,0.0,0.0,0.0,0.0,0.0,0.0,0.0,False,0,3.850999116897583,0.02493994140625
STABILIZE,0.3749806880950928,29.899515255203877,0.032407553990681966,0.032543182373046875,0.0,0.0,0.0,0.3361620607107523,-1.3848646101194557,0.33357883514188585,-0.005705433435710092,-0.001986793050941585,0.007965528815588629,0.4,-0.007765569635429941,0.00831208142439534,0.520846958807699,0.03836910829190067,0.06723204860463738,0.2803882583975792,0.9504212997853756,-0.1476190509222741,-2.31403149664402,-0.04054038436152041,13.248275220394135,0.0,0.0,0.0,0.0,0.0,0.0,0.0,0.0,0.0,0.0,0.0,0.0,0.0,0.0,0.0,0.0,False,0,3.879789352416992,0.0349169921875
STABILIZE,0.4084289073944092,29.896744670083326,0.032413514455159505,0.03253364562988281,0.0,0.0,0.0,0.3368948119426477,-1.3862128254285928,0.3332032814592409,-0.0026552060165558862,-0.0037215790713199066,0.008380553858126513,0.4,-0.008244100627614402,0.005355736482471873,0.5296739449771081,0.04030944499213149,-0.027136734570376575,-0.16349439974874258,1.518462784588337,0.17766134450188426,2.3373261094093323,-5.765333771705627,18.608564138412476,0.0,0.0,0.0,0.0,0.0,0.0,0.0,0.0,0.0,0.0,0.0,0.0,0.0,0.0,0.0,0.0,False,0,3.9086551666259766,0.034916015625
STABILIZE,0.4419219493865967,29.860135976933755,0.03241113026936849,0.03253340721130371,0.0,0.0,0.0,0.33917662873396087,-1.3784397499880008,0.363139653745863,-6.26304573219193e-05,-0.004563394231859961,0.009137817212307131,0.4,-0.005162214912578041,0.003214736622958473,0.5248407778451606,0.04394877038244889,0.18182566855102777,-0.11312587885186076,0.7034387439489365,0.27819179062562105,7.343585044145584,-0.11280887993052602,16.077882051467896,0.0,0.0,0.0,0.0,0.0,0.0,0.0,0.0,0.0,0.0,0.0,0.0,0.0,0.0,0.0,0.0,False,0,3.937584638595581,0.029928955078125
STABILIZE,0.4762420654296875,29.135204223395387,0.032338889439900716,0.033319711685180664,0.0,0.0,0.0,0.3416201289095329,-1.3740260604019974,0.37145564918419155,-0.002918392325965852,0.0016282345961629798,0.007794635633546041,0.4,-0.002132778701536597,0.006184629234738526,0.5237168812765074,0.03710561555283103,0.17457135254517198,0.19048999529331923,1.0717632248997688,-0.3288435663759365,0.6083156913518906,9.662943333387375,16.277003288269043,0.0,0.0,0.0,0.0,0.0,0.0,0.0,0.0,0.0,0.0,0.0,0.0,0.0,0.0,0.0,0.0,False,1,3.968170404434204,0.0349169921875
STABILIZE,0.5098376274108887,29.764357742500906,0.03233912785847982,0.03270888328552246,0.0,0.0,0.0,0.33920352260381775,-1.3861926550262,0.34474718161063517,-0.00973742814872314,-0.0008451283182800225,0.005853851454969087,0.4,-0.008350994975201443,0.014270765671766009,0.5294364105671222,0.02730971953458538,-0.27360289823263884,-0.373386568389833,1.0634546168148518,0.2314977359733578,-10.47203540802002,-23.77341091632843,4.152800142765045,0.0,0.0,0.0,0.0,0.0,0.0,0.0,0.0,0.0,0.0,0.0,0.0,0.0,0.0,0.0,0.0,False,0,4.025751829147339,0.0349169921875
STABILIZE,0.5433480739593506,29.84122828236834,0.03243735631306966,0.03255891799926758,0.0,0.0,0.0,0.3374263927591451,-1.3892496982883096,0.33069977700459324,0.005035018650457542,-0.0012073292600178365,0.007991015487595392,0.4,-0.007650432291072885,0.0011158912434856283,0.520120000873746,0.03786879946634865,0.03892360255122185,-0.7675980217754841,0.42326017282903194,0.6940313163774513,4.6391550451517105,-17.98694282770157,5.920480936765671,0.0,0.0,0.0,0.0,0.0,0.0,0.0,0.0,0.0,0.0,0.0,0.0,0.0,0.0,0.0,0.0,False,0,4.054551839828491,0.029927978515625
STABILIZE,0.5767929553985596,29.900154693927014,0.03236988385518392,0.03253626823425293,0.0,0.0,0.0,0.3312686570572612,-1.3894591929967586,0.3307758162199625,0.014381092976564256,-0.00015295923838509846,0.010091442921299414,0.4,-0.006845890729840642,-0.01195450853385202,0.5083911095057513,0.04820956354191712,0.03892360255122185,-0.7675980217754841,0.42326017282903194,0.6940313163774513,4.6391550451517105,-17.98694282770157,5.920480936765671,0.0,0.0,0.0,0.0,0.0,0.0,0.0,0.0,0.0,0.0,0.0,0.0,0.0,0.0,0.0,0.0,False,0,4.083001613616943,0.029927978515625
STABILIZE,0.6103932857513428,29.762245701675337,0.032410415013631184,0.03267645835876465,0.0,0.0,0.0,0.3405505639741912,-1.3739874271445045,0.33256652640169587,0.01889332523683084,-0.0005531487322525719,0.011500602961456401,0.4,-0.004778974274006065,-0.018859311841997073,0.5106270253370446,0.055070397601428046,0.1157570630311966,-0.40853945538401604,1.2437869794666767,0.4933875725974509,0.5873429123312235,5.460171774029732,17.766837775707245,0.0,0.0,0.0,0.0,0.0,0.0,0.0,0.0,0.0,0.0,0.0,0.0,0.0,0.0,0.0,0.0,False,0,4.111670970916748,0.034917236328125
STABILIZE,0.6439940929412842,29.762245701675337,0.032395394643147786,0.03254222869873047,0.0,0.0,0.0,0.33977907276309716,-1.3869401338534932,0.29525362985273934,0.016332721480097477,-0.0028612478455073815,0.00915042356304488,0.4,-0.004983759892402115,-0.013560086466361322,0.5085192312995512,0.04317498503541367,-0.019388187502045184,0.34489412792026997,0.8255519904196262,-0.6637203775839627,-1.899716630578041,13.089892268180847,16.957183182239532,0.0,0.0,0.0,0.0,0.0,0.0,0.0,0.0,0.0,0.0,0.0,0.0,0.0,0.0,0.0,0.0,False,0,4.140383005142212,0.034915771484375
STABILIZE,0.6781783103942871,29.251225686768162,0.03217056592305501,0.03327322006225586,0.0,0.0,0.0,0.3607901220322315,-1.3560257371746636,0.32432758403494155,0.024455786965115568,-0.012668177821132892,0.007600078581081654,0.4,-0.0215720764783746,-0.016295702704549914,0.5124640433568515,0.03530184707000508,-1.0022450238466263,-0.14902481343597174,1.1909065768122673,-0.4064317939437839,-55.02279996871948,-29.96208369731903,9.978090226650238,0.0,0.0,0.0,0.0,0.0,0.0,0.0,0.0,0.0,0.0,0.0,0.0,0.0,0.0,0.0,0.0,False,1,4.169667482376099,0.029928955078125
STABILIZE,0.7117776870727539,29.762245701675337,0.032508166631062825,0.03264617919921875,0.0,0.0,0.0,0.3561084542430109,-1.3630500531274927,0.37986854793136965,0.03450404774696196,-0.05833782962911085,0.016923782858804602,0.4,-0.07307674557171152,-0.03840411791938569,0.48802713106436213,0.08164703617423202,-1.5568132512271404,-0.6624438334256411,0.2818913897499442,1.4686813832409729,21.510697901248932,8.461681753396988,-11.311996728181839,0.0,0.0,0.0,0.0,0.0,0.0,0.0,0.0,0.0,0.0,0.0,0.0,0.0,0.0,0.0,0.0,False,0,4.2279040813446045,0.0349169921875
STABILIZE,0.7451903820037842,29.92959847009041,0.03236368497212728,0.032483577728271484,0.0,0.0,0.0,0.35150629412459744,-1.3749533653035324,0.35069158062266187,-0.00272128042513612,-0.020472243458668524,0.0019384161620807808,0.4,-0.029204982421684324,-0.006757311494267032,0.5121414811183055,0.006697805313601868,2.648051455616951,1.9117947667837143,2.3964641615748405,-4.44656499402596,57.065290212631226,54.828280210494995,23.137664794921875,0.0,0.0,0.0,0.0,0.0,0.0,0.0,0.0,0.0,0.0,0.0,0.0,0.0,0.0,0.0,0.0,False,0,4.2560875415802,0.034916015625
STABILIZE,0.7911267280578613,21.76880238743999,0.03238657315572103,0.035547494888305664,0.0,0.0,0.0,0.34982990957018245,-1.3805352306810197,0.3116845303552777,-0.007147334325327288,-0.00846230937461439,-0.005982431103785657,0.4,-0.012693862833497393,-0.007382799008003273,0.5173901534369607,-0.03278666050467851,0.9585530497133732,-0.05251461989246309,1.2453817762434483,-2.2536813211311797,-55.86729645729065,-75.81769824028015,-36.314815282821655,0.0,0.0,0.0,0.0,0.0,0.0,0.0,0.0,0.0,0.0,0.0,0.0,0.0,0.0,0.0,0.0,False,1,4.284776926040649,0.02992919921875
STABILIZE,0.8157637119293213,40.595276809910956,0.022934707005818684,0.02357339859008789,0.0,0.0,0.0,0.3538446734199748,-1.3567170803847157,0.38620277465418956,0.026550927402197267,-0.01963924220444032,0.004047235013866347,0.4,-0.025729968000028105,-0.04179354102943099,0.526156194681747,0.017303011186571897,-0.8254153653979301,-2.091805078089237,1.6127657145261765,3.0801980302827796,1.5859287232160568,-12.26240023970604,12.549212574958801,0.0,0.0,0.0,0.0,0.0,0.0,0.0,0.0,0.0,0.0,0.0,0.0,0.0,0.0,0.0,0.0,False,0,4.313316345214844,0.034916748046875
STABILIZE,0.8491275310516357,29.970446165718695,0.03223589261372884,0.03236865997314453,0.0,0.0,0.0,0.351576837172119,-1.3597238577234023,0.30635073958287956,-0.02072305786727935,0.005846315506702993,-0.012999880343538444,0.4,-0.009886850228049252,0.009914588665886745,0.5415053806246495,-0.0677060138716591,-0.5437799263745546,0.5427214782685041,1.9954187795519829,-2.991082844634331,-55.368465185165405,-40.89270532131195,28.656187653541565,0.0,0.0,0.0,0.0,0.0,0.0,0.0,0.0,0.0,0.0,0.0,0.0,0.0,0.0,0.0,0.0,False,0,4.371279716491699,0.029928955078125
STABILIZE,0.8825440406799316,29.92426015239291,0.03234556516011556,0.03248023986816406,0.0,0.0,0.0,0.3389324494711329,-1.393418781724662,0.2312408835079683,-0.0051839755952700775,0.020907913678143267,0.0026412034846761737,0.4,-0.03475237574053979,-0.02585356739774817,0.5364173712948797,0.010464402210472026,-1.5345976687967777,-2.172482945024967,0.7872904650866985,4.737296264915784,-0.1141140703111887,-76.32938623428345,33.92727077007294,0.0,0.0,0.0,0.0,0.0,0.0,0.0,0.0,0.0,0.0,0.0,0.0,0.0,0.0,0.0,0.0,False,0,4.400074481964111,0.034916015625
STABILIZE,0.9160549640655518,29.841015972395148,0.03238395055135091,0.0325620174407959,0.0,0.0,0.0,0.3327982992662267,-1.388817795545012,0.26002714265181015,0.022884229892551188,0.002938637531459482,0.007854622172826009,0.4,-0.019322464375624567,-0.03194820195727295,0.5079966486611394,0.03640940191696586,0.906292162835598,-0.37120592314749956,-0.7893845438957214,1.5942035048779997,23.518091440200806,55.212247371673584,-76.3391375541687,0.0,0.0,0.0,0.0,0.0,0.0,0.0,0.0,0.0,0.0,0.0,0.0,0.0,0.0,0.0,0.0,False,0,4.4288952350616455,0.034916748046875
STABILIZE,0.9496183395385742,29.796709385922536,0.032378228505452473,0.03252053260803223,0.0,0.0,0.0,0.23836917308265507,-1.4688036863157985,0.3381518602346209,0.027832867835092714,0.00592195711805183,0.013166257803756352,0.4,-0.003579139980120081,-0.03803858852390114,0.4789856427018626,0.06275769667670307,0.906292162835598,-0.37120592314749956,-0.7893845438957214,1.5942035048779997,23.518091440200806,55.212247371673584,-76.3391375541687,0.0,0.0,0.0,0.0,0.0,0.0,0.0,0.0,0.0,0.0,0.0,0.0,0.0,0.0,0.0,0.0,False,0,4.457475185394287,0.034916748046875
STABILIZE,0.9830334186553955,29.92660877755025,0.03226641019185384,0.032402992248535156,0.0,0.0,0.0,0.2007567620664229,-1.5438030053839467,0.3325007591505081,-0.00017342397288497386,0.05432908710048895,0.0071587645930155175,0.4,0.04106209819850186,-0.0338944251154342,0.5111733704610838,0.03261120094614484,2.6127835735678673,0.2360834740102291,2.8765877708792686,-1.7824821516610438,60.326457023620605,2.572806738317013,102.85487174987793,0.0,0.0,0.0,0.0,0.0,0.0,0.0,0.0,0.0,0.0,0.0,0.0,0.0,0.0,0.0,0.0,False,0,4.486013650894165,0.029927978515625
STABILIZE,1.0164155960083008,29.95460713316479,0.03230288823445638,0.03247261047363281,0.0,0.0,0.0,0.22665139659211642,-1.4944670549050636,0.33239248997999277,0.052038426519425224,0.05276572754462756,0.004682316670840021,0.4,0.05218519054205313,-0.05109539187088031,0.4845943153827003,0.020161480070682754,0.6539852358400822,-1.0745499283075333,-0.5165770184248686,-0.6933196960433006,-35.58894991874695,-40.59377610683441,-44.60945725440979,0.0,0.0,0.0,0.0,0.0,0.0,0.0,0.0,0.0,0.0,0.0,0.0,0.0,0.0,0.0,0.0,False,0,4.514785289764404,0.034917236328125
STABILIZE,1.0498056411743164,29.94840450978572,0.03238490422566732,0.03250432014465332,0.0,0.0,0.0,0.23055810471480503,-1.466944807644497,0.28151771922544705,0.027769192948157106,0.06604607651836486,-0.006264682883894544,0.4,0.047002347175818145,-0.0525874415916074,0.5108968877284095,-0.0344582937085155,-0.2027359325438738,-0.06250714650377631,1.7179489135742188,-1.5746667092525302,24.225932359695435,129.76974248886108,17.712754011154175,0.0,0.0,0.0,0.0,0.0,0.0,0.0,0.0,0.0,0.0,0.0,0.0,0.0,0.0,0.0,0.0,False,0,4.572246551513672,0.034916748046875
STABILIZE,1.0833275318145752,29.831465149359886,0.032483609517415364,0.032598257064819336,0.0,0.0,0.0,0.28533798276645267,-1.4440382741589786,0.2758119766279741,-0.013202012701907113,0.03385050012866869,-0.021238602639221376,0.4,0.02283677574437362,-0.010834012587278438,0.5207188310480964,-0.10896342403908234,-1.453042309731245,2.4444637820124626,1.504113432019949,-4.351474246627396,-111.64449453353882,-12.337493896484375,14.959006011486053,0.0,0.0,0.0,0.0,0.0,0.0,0.0,0.0,0.0,0.0,0.0,0.0,0.0,0.0,0.0,0.0,False,0,4.600973606109619,0.039904052734375
STABILIZE,1.1167190074920654,29.947335351573656,0.032392056783040364,0.032517194747924805,0.0,0.0,0.0,0.2383063139979498,-1.4839124916466897,0.34356550552337006,-0.009545447221266832,0.012121958476687497,-0.028721853255944015,0.4,0.010949107465974169,-0.020005150149366803,0.5471863800929018,-0.14589189991815285,-0.7024369202554226,-0.6041213404387236,2.3141877725720406,-1.9592015570474879,-19.829750061035156,-66.42371416091919,23.684681951999664,0.0,0.0,0.0,0.0,0.0,0.0,0.0,0.0,0.0,0.0,0.0,0.0,0.0,0.0,0.0,0.0,False,0,4.629563331604004,0.024941162109375
STABILIZE,1.1502740383148193,29.80348463746696,0.03244450887044271,0.032578468322753906,0.0,0.0,0.0,0.24452557476321665,-1.4736989042382878,0.34437997890146765,0.001998914548631257,0.007257733775722872,-0.023233306988571494,0.4,0.04195497459533316,-0.029778744316928157,0.5700217517954835,-0.11805395012642972,1.8800720572471619,-0.6392570212483406,2.650873549282551,1.459509826567821,7.476850599050522,52.53678560256958,-11.441580951213837,0.0,0.0,0.0,0.0,0.0,0.0,0.0,0.0,0.0,0.0,0.0,0.0,0.0,0.0,0.0,0.0,False,0,4.659223318099976,0.0349169921875
STABILIZE,1.1837100982666016,29.907830092483653,0.03234365781148275,0.0324862003326416,0.0,0.0,0.0,0.340266470793401,-1.3674277774986479,0.26985074226686034,-0.03118608327846673,-0.004641562967559442,-0.03657734269313728,0.4,0.03734353835201396,-0.00604757594640036,0.5774610019818446,-0.1841581261662514,-0.2745445817708969,1.3691989704966545,1.3348395004868507,-3.9009878392587356,-22.512981295585632,2.4867860600352287,77.55520939826965,0.0,0.0,0.0,0.0,0.0,0.0,0.0,0.0,0.0,0.0,0.0,0.0,0.0,0.0,0.0,0.0,False,0,4.689028024673462,0.029927978515625
STABILIZE,1.2170970439910889,29.9507569265924,0.032377036412556966,0.03248906135559082,0.0,0.0,0.0,0.29988094961329076,-1.3904750769140921,0.28553274987950383,-0.0429712128954365,-0.016422324806354506,-0.025652303577231295,0.4,0.019681351349750742,0.006127078830253924,0.5470500506263224,-0.1291013833918665,-1.024319138377905,0.6846188101917505,-0.7172367069870234,3.198086455026965,0.1109439879655838,-0.13746079057455063,2.7088750153779984,0.0,0.0,0.0,0.0,0.0,0.0,0.0,0.0,0.0,0.0,0.0,0.0,0.0,0.0,0.0,0.0,False,0,4.717737913131714,0.0349169921875
STABILIZE,1.2523891925811768,28.335871261510192,0.03242376645406087,0.03368330001831055,0.0,0.0,0.0,0.33059673719766125,-1.418439578923417,0.322231996620217,-0.010371484317671474,-0.045857138321499645,-0.02346801642386621,0.4,-0.035508692516701496,0.00293525365953253,0.5683324657201575,-0.1177678126183333,-3.276417776942253,-0.2522372640669346,2.198604494333267,0.6587704647872604,-40.78674018383026,3.4696392714977264,57.2124719619751,0.0,0.0,0.0,0.0,0.0,0.0,0.0,0.0,0.0,0.0,0.0,0.0,0.0,0.0,0.0,0.0,False,1,4.74631929397583,0.034916015625
STABILIZE,1.2851214408874512,30.549798243186157,0.031708510716756184,0.031836748123168945,0.0,0.0,0.0,0.22786781059461336,-1.5355040053772637,0.2991625257703965,-0.04021857965299924,-0.04200748422108085,-0.04038584611974538,0.4,-0.040904572235759995,0.029100343953237632,0.5890819888201784,-0.20169067994044565,3.0739862471818924,1.7118196934461594,0.8959200233221054,-5.769540192858872,116.53571128845215,43.10402870178223,148.7367033958435,0.0,0.0,0.0,0.0,0.0,0.0,0.0,0.0,0.0,0.0,0.0,0.0,0.0,0.0,0.0,0.0,False,0,4.80414891242981,0.0349169921875
STABILIZE,1.3186311721801758,29.84313920808282,0.032436641057332356,0.032568931579589844,0.0,0.0,0.0,0.20837151585648797,-1.525934376741547,0.3450790060743361,-0.03490935290534916,-0.07072121107811695,-0.02119193526563332,0.4,-0.04818155720891371,0.01507457191409508,0.5706142332796198,-0.10536859604053146,-0.4136873409152031,-0.8806743659079075,-0.1368812983855605,5.646299247682924,-76.8949806690216,-34.54442620277405,-27.631789445877075,0.0,0.0,0.0,0.0,0.0,0.0,0.0,0.0,0.0,0.0,0.0,0.0,0.0,0.0,0.0,0.0,False,0,4.832564115524292,0.0349169921875
STABILIZE,1.3520853519439697,29.890778999579535,0.03235033353169759,0.032526254653930664,0.0,0.0,0.0,0.2305790221691382,-1.5032350968086559,0.280611198376113,0.022567169292648518,-0.00048736290706675133,-0.023573233704825076,0.4,0.02828060519211168,-0.030907863992114693,0.5724038376652991,-0.11688358725310863,4.511123523116112,-2.739415131509304,1.0882049798965454,-0.8134618697701786,67.873215675354,-36.522653698921204,50.98522901535034,0.0,0.0,0.0,0.0,0.0,0.0,0.0,0.0,0.0,0.0,0.0,0.0,0.0,0.0,0.0,0.0,False,0,4.862664699554443,0.029927978515625
STABILIZE,1.3855493068695068,29.882899442853276,0.032418282826741536,0.03254199028015137,0.0,0.0,0.0,0.1869313919692593,-1.5429295949438313,0.2013438515101399,-0.006941271556969965,0.0016953752852527759,-0.036277235808792885,0.4,0.016232162854519054,0.012673624154046312,0.6306134479359081,-0.1798022982731527,-0.7248830515891314,2.5685053318738937,4.633067920804024,-3.9357522214736314,-114.5181655883789,145.46542167663574,45.09255886077881,0.0,0.0,0.0,0.0,0.0,0.0,0.0,0.0,0.0,0.0,0.0,0.0,0.0,0.0,0.0,0.0,False,0,4.890098333358765,0.0349169921875
STABILIZE,1.4191186428070068,29.788667774605475,0.032401355107625325,0.032601356506347656,0.0,0.0,0.0,0.16652470771996525,-1.5550881854401002,0.3219996634667308,0.004425203635836595,0.02306691032293506,-0.03478871278915367,0.4,-0.00254291953100938,-0.0027311055065586953,0.6386628334538005,-0.17178364352425995,-1.1404876597225666,-0.9418818168342113,1.430086139589548,0.36737495800065273,-18.615058064460754,-126.37132406234741,11.80860921740532,0.0,0.0,0.0,0.0,0.0,0.0,0.0,0.0,0.0,0.0,0.0,0.0,0.0,0.0,0.0,0.0,False,0,4.918560743331909,0.039905029296875
STABILIZE,1.4530658721923828,29.457071221389594,0.03234580357869466,0.03306984901428223,0.0,0.0,0.0,0.17214349880765278,-1.5412418978886033,0.37485076012979035,0.037152533262981555,0.010119447277850292,-0.03347236732354713,0.4,-0.021911028486564836,-0.01861655160478072,0.6502486776607628,-0.16464182129340021,-1.1404876597225666,-0.9418818168342113,1.430086139589548,0.36737495800065273,-18.615058064460754,-126.37132406234741,11.80860921740532,0.0,0.0,0.0,0.0,0.0,0.0,0.0,0.0,0.0,0.0,0.0,0.0,0.0,0.0,0.0,0.0,False,1,4.94758415222168,0.039905029296875
STABILIZE,1.486541509628296,29.87268350355398,0.032450230916341145,0.032578468322753906,0.0,0.0,0.0,0.21874214425494742,-1.5020686285644647,0.22666969936465792,0.04334770693055851,0.06084778632560264,-0.05466827058787397,0.4,0.030045538969501313,-0.03682853372773052,0.6671785286009561,-0.26971909168439184,0.1708286232315004,2.8905509039759636,1.494226511567831,-6.222061569713373,-55.87257742881775,121.8470811843872,6.2163397669792175,0.0,0.0,0.0,0.0,0.0,0.0,0.0,0.0,0.0,0.0,0.0,0.0,0.0,0.0,0.0,0.0,False,0,5.0047221183776855,0.0349169921875
STABILIZE,1.5202085971832275,29.703019658942836,0.03242352803548177,0.0328216552734375,0.0,0.0,0.0,0.1488887323961692,-1.5516203703324378,0.4106095218383045,-0.03292648209964083,0.009429369083909844,-0.07560278051230045,0.4,0.03340950516758337,0.012584056641865071,0.6749271947534181,-0.3731341085894448,0.1708286232315004,2.8905509039759636,1.494226511567831,-6.222061569713373,-55.87257742881775,121.8470811843872,6.2163397669792175,0.0,0.0,0.0,0.0,0.0,0.0,0.0,0.0,0.0,0.0,0.0,0.0,0.0,0.0,0.0,0.0,False,0,5.033407688140869,0.0349169921875
STABILIZE,1.5537457466125488,29.818104263381272,0.03248122533162435,0.03260636329650879,0.0,0.0,0.0,0.13732682295692433,-1.577002847392086,0.42100104101067065,0.02148136258243824,0.017368993741704766,-0.04843742354814871,0.4,0.03293027869866989,-0.013765202169281817,0.655522996030115,-0.236515848200351,-0.04610404139384627,-1.584475301206112,-0.07392572006210685,7.854962578551138,94.11042928695679,37.72350549697876,-15.248382091522217,0.0,0.0,0.0,0.0,0.0,0.0,0.0,0.0,0.0,0.0,0.0,0.0,0.0,0.0,0.0,0.0,False,0,5.062173128128052,0.064844970703125
STABILIZE,1.5892205238342285,28.189042421635573,0.03238395055135091,0.03459572792053223,0.0,0.0,0.0,0.13947875943230148,-1.5679390796417734,0.49187148404511966,-0.030219533436378482,0.09196488183128193,-0.07624968172324105,0.4,0.10571495904887333,0.03552631798507508,0.6705198830463663,-0.37424753236299435,3.7849202752113342,2.6752030476927757,0.7544069085270166,-7.140520522499573,44.436249136924744,24.91362690925598,13.332417607307434,0.0,0.0,0.0,0.0,0.0,0.0,0.0,0.0,0.0,0.0,0.0,0.0,0.0,0.0,0.0,0.0,False,0,5.0912652015686035,0.034917236328125
STABILIZE,1.622741460800171,29.83316262660749,0.03244808514912923,0.03256869316101074,0.0,0.0,0.0,0.17894946215045313,-1.5239672822605832,0.4759709637398886,-0.08451043449332868,0.1674294339858052,-0.10166115415300833,0.4,0.17542792593360187,0.0855559162016314,0.6613117544671943,-0.49963349502132076,3.7849202752113342,2.6752030476927757,0.7544069085270166,-7.140520522499573,44.436249136924744,24.91362690925598,13.332417607307434,0.0,0.0,0.0,0.0,0.0,0.0,0.0,0.0,0.0,0.0,0.0,0.0,0.0,0.0,0.0,0.0,False,0,5.120143890380859,0.034917236328125
STABILIZE,1.6561176776885986,29.960384299439266,0.03236392339070638,0.03246331214904785,0.0,0.0,0.0,0.18356741708132224,-1.5202446157195149,0.2963178853832184,-0.19088090384830306,0.1188954035382574,-0.12212936377515289,0.4,0.16108116192264713,0.19143297699397194,0.6497434117507974,-0.5999697537574865,1.0564915835857391,5.107156187295914,-0.031301690614782274,-4.533926101718185,22.344084084033966,23.077939450740814,6.120214983820915,0.0,0.0,0.0,0.0,0.0,0.0,0.0,0.0,0.0,0.0,0.0,0.0,0.0,0.0,0.0,0.0,False,0,5.177401304244995,0.034917236328125
STABILIZE,1.6895387172698975,29.92041774264884,0.0324132760365804,0.03256416320800781,0.0,0.0,0.0,0.1234566831041854,-1.5764006168063613,0.5702863245850973,-0.15581515692238826,0.11621335755017374,-0.12253088810405162,0.4,0.16108116192264713,0.19143297699397194,0.6497434117507974,-0.5999697537574865,1.0564915835857391,5.107156187295914,-0.031301690614782274,-4.533926101718185,22.344084084033966,23.077939450740814,6.120214983820915,0.0,0.0,0.0,0.0,0.0,0.0,0.0,0.0,0.0,0.0,0.0,0.0,0.0,0.0,0.0,0.0,False,1,5.177401304244995,0.034917236328125
STABILIZE,1.7231261730194092,29.77492244457538,0.03247025807698568,0.03258514404296875,0.0,0.0,0.0,0.11898669781838228,-1.5722044260567405,0.6563238163213678,0.03806877324489478,0.0955826177106532,-0.050118062975145795,0.4,0.13914513086929367,-0.05194018091779862,0.6372696330156135,-0.23711253456070047,-0.3610533196479082,-6.138000264763832,1.1048455722630024,8.514350748571461,-30.965131521224976,-201.96259021759033,26.58340632915497,0.0,0.0,0.0,0.0,0.0,0.0,0.0,0.0,0.0,0.0,0.0,0.0,0.0,0.0,0.0,0.0,False,0,5.234784841537476,0.029934814453125
STABILIZE,1.756481647491455,29.980300496061528,0.03225687344868978,0.03237414360046387,0.0,0.0,0.0,0.15952146930402789,-1.543435562550941,0.3693762301078929,-0.015606100946750145,0.036234648752909965,-0.06321862835046776,0.4,0.12720470008809076,0.04686723188409863,0.6191048867539952,-0.3016070787814632,-0.3946971148252487,5.243559926748276,0.5007182713598013,-4.10554133273004,-33.69648456573486,-8.677969872951508,0.7547840476036072,0.0,0.0,0.0,0.0,0.0,0.0,0.0,0.0,0.0,0.0,0.0,0.0,0.0,0.0,0.0,0.0,False,0,5.263454437255859,0.069833984375
STABILIZE,1.7899281978607178,29.89802333787165,0.032364877065022786,0.032489776611328125,0.0,0.0,0.0,0.1347110205873681,-1.569476405813555,0.44236835401413,0.1985985304416941,-0.050048859407879724,-0.005062649917492007,0.4,0.08596963467671301,-0.15642881839907088,0.6359253783264625,-0.010791101052651964,-2.1963147446513176,-9.946899116039276,1.2426326982676983,13.818121558906947,-19.494253396987915,-269.3046569824219,21.393661201000214,0.0,0.0,0.0,0.0,0.0,0.0,0.0,0.0,0.0,0.0,0.0,0.0,0.0,0.0,0.0,0.0,False,0,5.292170524597168,0.034916015625
STABILIZE,1.823410987854004,29.865664096155626,0.03238728841145833,0.03252291679382324,0.0,0.0,0.0,0.1345149194529947,-1.5689315915055408,0.6303041573173513,0.4527178350582414,-0.08031587738598146,0.053661430729247256,0.4,0.037119476518181524,-0.358746838244115,0.633224810043371,0.281886080520033,-2.1963147446513176,-9.946899116039276,1.2426326982676983,13.818121558906947,-19.494253396987915,-269.3046569824219,21.393661201000214,0.0,0.0,0.0,0.0,0.0,0.0,0.0,0.0,0.0,0.0,0.0,0.0,0.0,0.0,0.0,0.0,False,0,5.320905685424805,0.034916015625
STABILIZE,1.8568103313446045,29.939639665362762,0.032367738087972005,0.0324859619140625,0.0,0.0,0.0,0.17834755172984576,-1.5478747586246262,0.27947661324152395,0.28429672066146433,-0.07436206022984886,0.006769839289283434,0.4,0.04614344778316487,-0.1672001767554229,0.625080028452774,0.047270103402290875,-0.46106516383588314,4.663269966840744,1.058246660977602,-5.9495126892809465,-37.10832893848419,-31.868505477905273,12.890128791332245,0.0,0.0,0.0,0.0,0.0,0.0,0.0,0.0,0.0,0.0,0.0,0.0,0.0,0.0,0.0,0.0,False,0,5.378099203109741,0.034917236328125
STABILIZE,1.89024019241333,29.912522554004806,0.03240969975789388,0.032541751861572266,0.0,0.0,0.0,0.20417996750106868,-1.5221356176242562,0.3390311403685543,0.02879948571296471,-0.06971018960668579,-0.014798409769456027,0.4,0.033787040055153,-0.07512884942268948,0.6202201634468463,-0.06036914731724942,-0.46106516383588314,4.663269966840744,1.058246660977602,-5.9495126892809465,-37.10832893848419,-31.868505477905273,12.890128791332245,0.0,0.0,0.0,0.0,0.0,0.0,0.0,0.0,0.0,0.0,0.0,0.0,0.0,0.0,0.0,0.0,False,0,5.4074482917785645,0.034917236328125
STABILIZE,1.9239203929901123,29.693977387770705,0.032439502080281575,0.032572031021118164,0.0,0.0,0.0,0.17042298482789714,-1.5453929453566786,0.40334097326179447,0.20246971868478544,-0.09847891802924265,0.02834968105210172,0.4,-0.009428861222541832,-0.19173494915236544,0.6105581992669001,0.15485318800392492,-2.086026780307293,-6.166835129261017,0.7917992770671844,10.84370224141333,3.7370000034570694,3.5213053226470947,17.491857707500458,0.0,0.0,0.0,0.0,0.0,0.0,0.0,0.0,0.0,0.0,0.0,0.0,0.0,0.0,0.0,0.0,False,0,5.435854911804199,0.034915771484375
STABILIZE,1.9571495056152344,30.092149631946736,0.0321989377339681,0.03232407569885254,0.0,0.0,0.0,0.11708139520506608,-1.586849739019423,0.36422562714346857,0.15813154169596888,-0.10574012229450717,0.07100976568274489,0.4,-0.05191635186829527,-0.30680249979883356,0.6012476789727317,0.3669266829146458,-2.086026780307293,-6.166835129261017,0.7917992770671844,10.84370224141333,3.7370000034570694,3.5213053226470947,17.491857707500458,0.0,0.0,0.0,0.0,0.0,0.0,0.0,0.0,0.0,0.0,0.0,0.0,0.0,0.0,0.0,0.0,False,0,5.464545965194702,0.034915771484375
STABILIZE,1.9907126426696777,29.795439369183775,0.03242495854695638,0.0325627326965332,0.0,0.0,0.0,0.09096307198405466,-1.603756698371026,0.4984548792705128,0.04910740009752797,-0.05049674657668112,0.07582707241135599,0.4,-0.02809303127369662,-0.34812780173736985,0.594395021551333,0.38970907727532295,1.3844872824847698,-2.3548664525151253,0.9038267657160759,1.0047252024988127,-42.510828375816345,-248.64258766174316,28.712886571884155,0.0,0.0,0.0,0.0,0.0,0.0,0.0,0.0,0.0,0.0,0.0,0.0,0.0,0.0,0.0,0.0,False,0,5.495896816253662,0.069833984375
STABILIZE,2.024160861968994,29.896105377202485,0.03231170972188314,0.03249621391296387,0.0,0.0,0.0,0.1897152276645684,-1.524394809413944,0.21898809776613398,0.29514066192873206,-0.06410637557928946,0.09239202229961342,0.4,-0.03859222042893137,-0.4714429336982273,0.6062563573535097,0.47095630481708484,-0.058918033028021455,-4.764767363667488,0.9836030192673206,1.5387391671663226,-6.957891583442688,71.477872133255,18.93250048160553,0.0,0.0,0.0,0.0,0.0,0.0,0.0,0.0,0.0,0.0,0.0,0.0,0.0,0.0,0.0,0.0,False,0,5.524252414703369,0.029927978515625
STABILIZE,2.057527780532837,29.969803717015242,0.03237155278523763,0.03247809410095215,0.0,0.0,0.0,0.14113604080138162,-1.5567517633898214,0.1916848834664708,0.24077991359737108,-0.05237766035787568,0.06642850545899234,0.4,-0.034175864801739765,-0.33441617346162167,0.5830580045231751,0.34000265579371686,0.20866603590548038,6.1203233897686005,0.29588816687464714,-5.932387270597609,-32.12685585021973,166.1664366722107,29.067566990852356,0.0,0.0,0.0,0.0,0.0,0.0,0.0,0.0,0.0,0.0,0.0,0.0,0.0,0.0,0.0,0.0,False,1,5.55291485786438,0.02992919921875
STABILIZE,2.091024875640869,29.854184906009554,0.03243401845296224,0.03256940841674805,0.0,0.0,0.0,0.10370254872489204,-1.5678936161951105,0.45346714461113624,0.05365059057909671,-0.051690836899698424,0.06415254261972676,0.4,-0.06741360261029214,-0.21633882138960422,0.5673212283398674,0.3275268229311377,-1.9876446574926376,-1.1393164284527302,1.6871936619281769,6.322549874103539,-31.281304359436035,-176.52978897094727,45.114824175834656,0.0,0.0,0.0,0.0,0.0,0.0,0.0,0.0,0.0,0.0,0.0,0.0,0.0,0.0,0.0,0.0,False,0,5.6103174686431885,0.034916748046875
STABILIZE,2.124472141265869,29.89567919713752,0.03238824208577474,0.03253316879272461,0.0,0.0,0.0,0.09084338359102076,-1.6225227498373418,0.532040146719082,-0.11476851164913779,0.04511836003064492,0.014834516483900412,0.4,0.008693343421394592,-0.11885939508395282,0.5481358684381162,0.08066683182920126,4.0742602199316025,4.765374585986137,0.20904825069010258,-12.856313956779614,148.55289459228516,124.5025634765625,10.212715715169907,0.0,0.0,0.0,0.0,0.0,0.0,0.0,0.0,0.0,0.0,0.0,0.0,0.0,0.0,0.0,0.0,False,0,5.638855218887329,0.06484521484375
STABILIZE,2.1579270362854004,29.892483233912753,0.032404454549153645,0.03252983093261719,0.0,0.0,0.0,0.23257306388081167,-1.484564774712426,0.39175745267712886,-0.12038752175856571,-0.015882239531021636,0.01675844768869147,0.4,-0.041307045488797524,-0.14605210526293327,0.5567566400399454,0.0899854189790181,-2.4894295260310173,-1.879611425101757,1.0266670025885105,0.8700427299677411,-161.5088701248169,-95.60739398002625,4.204463958740234,0.0,0.0,0.0,0.0,0.0,0.0,0.0,0.0,0.0,0.0,0.0,0.0,0.0,0.0,0.0,0.0,False,0,5.667682886123657,0.034916015625
STABILIZE,2.1914680004119873,29.81471292801342,0.03240969975789388,0.032530784606933594,0.0,0.0,0.0,0.37893089102437383,-1.248952063207547,0.45861081066468473,-0.1823800596462276,-0.05200927878319112,0.0192310535585627,0.4,-0.09084883783245531,-0.17592073899255037,0.5521892102719714,0.10200719648362004,-2.4894295260310173,-1.879611425101757,1.0266670025885105,0.8700427299677411,-161.5088701248169,-95.60739398002625,4.204463958740234,0.0,0.0,0.0,0.0,0.0,0.0,0.0,0.0,0.0,0.0,0.0,0.0,0.0,0.0,0.0,0.0,False,0,5.696311950683594,0.034916015625
STABILIZE,2.2248268127441406,29.97751491977272,0.03230288823445638,0.03242206573486328,0.0,0.0,0.0,0.37125173068486966,-1.267606697213027,0.6003689856499194,-0.0987431594959738,-0.13626448976015162,0.04445335160122844,0.4,-0.18301132654172597,-0.15848092122865187,0.5137099392627813,0.22735876502059343,-4.705554246902466,0.5083056632429361,-0.7221882231533527,6.628288778147174,-82.48851895332336,35.8173668384552,-72.8330671787262,0.0,0.0,0.0,0.0,0.0,0.0,0.0,0.0,0.0,0.0,0.0,0.0,0.0,0.0,0.0,0.0,False,0,5.724963188171387,0.034916748046875
STABILIZE,2.2589378356933594,29.31562687839859,0.0323825200398763,0.03319597244262695,0.0,0.0,0.0,0.3456356398112657,-1.3598603547850967,0.5455896412068005,-0.08015179267372108,-0.2061718059292268,0.023827454168000504,0.4,-0.29169615277938493,-0.08197253275596245,0.47134475640317564,0.12380672136870324,-5.645652115345001,3.560873866081238,-0.9740882553160191,-5.026757120619985,2.9916275292634964,143.340265750885,-64.78803157806396,0.0,0.0,0.0,0.0,0.0,0.0,0.0,0.0,0.0,0.0,0.0,0.0,0.0,0.0,0.0,0.0,False,1,5.75360107421875,0.029928955078125
STABILIZE,2.292428731918335,29.85928567869067,0.032418282826741536,0.03254222869873047,0.0,0.0,0.0,0.18758693004702184,-1.572014247977038,0.3309447299997881,0.027026162537237493,-0.2879513558785385,0.01625927445459037,0.4,-0.3227274200692517,-0.12436041718094505,0.37940638709932306,0.08567925117713782,3.298558294773102,-6.463465094566345,-1.5336280688643456,3.590846451408205,-6.840382516384125,-255.90219497680664,29.242974519729614,0.0,0.0,0.0,0.0,0.0,0.0,0.0,0.0,0.0,0.0,0.0,0.0,0.0,0.0,0.0,0.0,False,0,5.811070680618286,0.0698330078125
STABILIZE,2.325866460800171,29.90505796626121,0.032357247670491536,0.032489776611328125,0.0,0.0,0.0,0.14333632220947776,-1.5851627890161357,0.4283252716371722,0.15121360476471424,-0.28335669180744016,0.05129628723334242,0.4,-0.3588954161819239,-0.2869853391539059,0.38604212903451485,0.259994567960756,-0.5106645170599222,-8.286730200052261,1.395223755389452,8.894107558876877,-8.081522583961487,-79.5775294303894,109.9691390991211,0.0,0.0,0.0,0.0,0.0,0.0,0.0,0.0,0.0,0.0,0.0,0.0,0.0,0.0,0.0,0.0,False,0,5.839977025985718,0.02992919921875
STABILIZE,2.35927414894104,29.93472504728259,0.032387765248616536,0.032509803771972656,0.0,0.0,0.0,0.19163098900505118,-1.503728684697895,0.5003694133113791,0.2643724463799635,-0.24486942768062905,0.08473989788319847,0.4,-0.3567884109069113,-0.4394205767897662,0.3926511410404068,0.42578922390168306,-0.5106645170599222,-8.286730200052261,1.395223755389452,8.894107558876877,-8.081522583961487,-79.5775294303894,109.9691390991211,0.0,0.0,0.0,0.0,0.0,0.0,0.0,0.0,0.0,0.0,0.0,0.0,0.0,0.0,0.0,0.0,False,0,5.868548154830933,0.02992919921875
STABILIZE,2.392784595489502,29.840379060601318,0.03241685231526693,0.03255033493041992,0.0,0.0,0.0,0.28993544712981173,-1.4955897672498843,0.44009931714708417,0.18440886970120224,-0.12636299154194075,0.036249834941633294,0.4,-0.2953925567097228,-0.3354010843416988,0.38111712198859465,0.18272732239186718,2.5987882167100906,4.768196493387222,0.44277338311076164,-12.093229854780157,18.87211948633194,200.34873485565186,144.03371810913086,0.0,0.0,0.0,0.0,0.0,0.0,0.0,0.0,0.0,0.0,0.0,0.0,0.0,0.0,0.0,0.0,False,0,5.897178649902344,0.034916015625
STABILIZE,2.4262473583221436,29.88332525862806,0.03236368497212728,0.032494544982910156,0.0,0.0,0.0,0.36563005811112603,-1.3047848042475816,0.40008884272151635,0.15213053701091486,-0.0007216654569140185,-0.010847040183329193,0.4,-0.23832363954618652,-0.2376009609136004,0.3710683086446038,-0.05258110483614667,2.5987882167100906,4.768196493387222,0.44277338311076164,-12.093229854780157,18.87211948633194,200.34873485565186,144.03371810913086,0.0,0.0,0.0,0.0,0.0,0.0,0.0,0.0,0.0,0.0,0.0,0.0,0.0,0.0,0.0,0.0,False,0,5.925726652145386,0.034916015625
STABILIZE,2.4596776962280273,29.916789706060673,0.032354148228963216,0.0324711799621582,0.0,0.0,0.0,0.34623157381634934,-1.3292402965708123,0.5197040780260985,0.13702751139203884,-0.057925824973626014,0.012248168426674056,0.4,-0.32894902131523857,-0.2548170795765668,0.3633053600230337,0.06268548910147456,-5.221287906169891,-1.307701412588358,0.5308991763740778,6.38556690693337,-2.7065392583608627,-35.65696179866791,-137.14083433151245,0.0,0.0,0.0,0.0,0.0,0.0,0.0,0.0,0.0,0.0,0.0,0.0,0.0,0.0,0.0,0.0,False,1,5.954559326171875,0.064845947265625
STABILIZE,2.49310040473938,29.915722803914296,0.032340081532796223,0.03249311447143555,0.0,0.0,0.0,0.33512995509413984,-1.3360521296074306,0.4403967238606706,-0.03793037816991892,-0.08470350424019854,-0.01906199923987321,0.4,-0.38876369113281556,-0.1884607543600909,0.46922590739055076,-0.0935520951026959,-1.5514062717556953,1.4962755143642426,3.4395627677440643,-3.6191738072171864,-81.94944262504578,22.521305084228516,91.70747399330139,0.0,0.0,0.0,0.0,0.0,0.0,0.0,0.0,0.0,0.0,0.0,0.0,0.0,0.0,0.0,0.0,False,0,6.0120251178741455,0.034916015625
STABILIZE,2.5264945030212402,29.946480079965728,0.032393487294514973,0.03250765800476074,0.0,0.0,0.0,0.19840029344191562,-1.5232924809149273,0.4066135943695826,-0.19663963936723133,-0.06970224274427225,-0.04115349968982156,0.4,-0.3704722554335091,-0.13240683247871443,0.45242074489445155,-0.20333015832417634,0.33612758852541447,2.387784607708454,0.07518763304688036,-5.421460092376682,-84.57119464874268,-29.72508668899536,-205.32588958740234,0.0,0.0,0.0,0.0,0.0,0.0,0.0,0.0,0.0,0.0,0.0,0.0,0.0,0.0,0.0,0.0,False,0,6.040550470352173,0.0349169921875
STABILIZE,2.560051679611206,29.80009662659505,0.03245690663655599,0.032610177993774414,0.0,0.0,0.0,0.19060790137257733,-1.4958382153809435,0.4358080373576121,-0.05042228548100307,-0.08592650584037828,0.005904044005811271,0.4,-0.3377067106172333,-0.2137337749006631,0.4790473339427247,0.03185076606410084,1.0806331411004066,-4.5877426862716675,2.278933860361576,12.115538960156712,44.162288308143616,-140.87376594543457,1.5013426542282104,0.0,0.0,0.0,0.0,0.0,0.0,0.0,0.0,0.0,0.0,0.0,0.0,0.0,0.0,0.0,0.0,False,0,6.069400787353516,0.029928955078125
STABILIZE,2.5934746265411377,29.918283496918512,0.03237441380818685,0.03250908851623535,0.0,0.0,0.0,0.2838414776471323,-1.4397101753810118,0.4488815797179718,-0.032851854835332324,-0.11960861568543366,0.015689479254172307,0.4,-0.3292437811618584,-0.15364544249292253,0.47373343836391135,0.0805089191959695,-0.27148216031491756,2.665485441684723,0.7843145169317722,2.6502704923158578,-33.900386095047,34.23456847667694,9.233367443084717,0.0,0.0,0.0,0.0,0.0,0.0,0.0,0.0,0.0,0.0,0.0,0.0,0.0,0.0,0.0,0.0,False,0,6.098070859909058,0.0698330078125
STABILIZE,2.626964569091797,29.860135976933755,0.032412083943684895,0.03255438804626465,0.0,0.0,0.0,0.30748641861495285,-1.4386634488907073,0.4805546610032019,-0.09952338068195814,-0.062080687060461624,0.027302833670929814,0.4,-0.3374555910731457,-0.09171348430465158,0.4902958885570904,0.1381135777761965,-0.27148216031491756,2.665485441684723,0.7843145169317722,2.6502704923158578,-33.900386095047,34.23456847667694,9.233367443084717,0.0,0.0,0.0,0.0,0.0,0.0,0.0,0.0,0.0,0.0,0.0,0.0,0.0,0.0,0.0,0.0,False,0,6.126690149307251,0.0698330078125
STABILIZE,2.660398244857788,29.91145595618439,0.03238085110982259,0.0325016975402832,0.0,0.0,0.0,0.3857136957570196,-1.303396781742188,0.4553284245208176,-0.031292460297878105,-0.014012164393276419,-0.007238785590768081,0.4,-0.33164132864513146,-0.11537487859578374,0.4567548000539199,-0.03447923519887089,0.19056594464927912,-1.6615888103842735,-1.3164020143449306,-8.04567597432988,14.452803134918213,-15.408375859260559,-32.253849506378174,0.0,0.0,0.0,0.0,0.0,0.0,0.0,0.0,0.0,0.0,0.0,0.0,0.0,0.0,0.0,0.0,False,1,6.156039714813232,0.0349169921875
STABILIZE,2.6937241554260254,30.004750050075828,0.0323820432027181,0.03250765800476074,0.0,0.0,0.0,0.3482693180665403,-1.4034674840976316,0.43366858732181135,-0.03591660050430925,-0.15897820386332615,-0.008985117275427163,0.4,-0.48155209252906506,-0.06433405016921907,0.49216147120078013,-0.04306690205781675,-4.318376258015633,0.8818075992166996,1.9379224628210068,-0.1422596069198487,-74.36196208000183,55.87277412414551,49.19471740722656,0.0,0.0,0.0,0.0,0.0,0.0,0.0,0.0,0.0,0.0,0.0,0.0,0.0,0.0,0.0,0.0,False,0,6.212675333023071,0.029927978515625
STABILIZE,2.7274293899536133,29.67066113948586,0.03252080281575521,0.032634735107421875,0.0,0.0,0.0,0.37262353149098437,-1.3530893961617927,0.4615104927716196,-0.07725462621110571,-0.18876046030154822,0.02405903670453303,0.4,-0.4882657517157588,-0.08291959165166937,0.46605566732090153,0.12174675113496475,-1.3341037556529045,-1.1576158925890923,-0.10904204100370407,8.08903401518112,54.298269748687744,-15.36363661289215,-142.83406734466553,0.0,0.0,0.0,0.0,0.0,0.0,0.0,0.0,0.0,0.0,0.0,0.0,0.0,0.0,0.0,0.0,False,0,6.241333723068237,0.0748427734375
STABILIZE,2.7606849670410156,30.068419694319388,0.03223422368367513,0.03235149383544922,0.0,0.0,0.0,0.337740901626083,-1.387671817868331,0.49269356134475417,-0.018137261301910044,-0.2341356111533103,0.06153017595300445,0.4,-0.5328131706808429,-0.10007161418381047,0.4589422676074485,0.30807205263474086,-1.3341037556529045,-1.1576158925890923,-0.10904204100370407,8.08903401518112,54.298269748687744,-15.36363661289215,-142.83406734466553,0.0,0.0,0.0,0.0,0.0,0.0,0.0,0.0,0.0,0.0,0.0,0.0,0.0,0.0,0.0,0.0,False,0,6.269994735717773,0.0748427734375
STABILIZE,2.794126510620117,29.903778696706116,0.032428773244222005,0.03254389762878418,0.0,0.0,0.0,0.28982499016432794,-1.4249504567497315,0.4165997578229644,0.0751263334135914,-0.2852504589858888,0.07765779190734332,0.4,-0.5980805880713698,-0.15484169555443453,0.5484875173916083,0.38741523035454206,-2.3693425580859184,-2.4745453149080276,4.152461141347885,2.295847493972253,-9.896549582481384,-79.80572581291199,194.39696073532104,0.0,0.0,0.0,0.0,0.0,0.0,0.0,0.0,0.0,0.0,0.0,0.0,0.0,0.0,0.0,0.0,False,0,6.298631191253662,0.02494091796875
STABILIZE,2.8276827335357666,29.799884901491307,0.03241875966389974,0.03255486488342285,0.0,0.0,0.0,0.2985628298251841,-1.4293265802953,0.4270161431527776,0.013516121550567355,-0.22605579743831455,0.05635788517039448,0.4,-0.5250398964389794,-0.10484843726555101,0.48729034308285946,0.27997876364669205,1.5818413347005844,1.777932420372963,-1.1900205165147781,-3.6832870854088036,-68.38526129722595,36.533123254776,-80.59431314468384,0.0,0.0,0.0,0.0,0.0,0.0,0.0,0.0,0.0,0.0,0.0,0.0,0.0,0.0,0.0,0.0,False,0,6.327343702316284,0.034916015625
STABILIZE,2.861189365386963,29.84505037855069,0.032323630650838216,0.03264975547790527,0.0,0.0,0.0,0.36368484157984754,-1.3359014385588672,0.5023123886868361,0.06445464143746246,-0.10968307941119862,0.08127629130880272,0.4,-0.5151542050027308,-0.12152784055803192,0.5506253118462673,0.40321458606843136,-0.6600582972168922,-1.0144771076738834,3.9693735539913177,6.056380390355905,63.050347566604614,21.590901911258698,18.322983384132385,0.0,0.0,0.0,0.0,0.0,0.0,0.0,0.0,0.0,0.0,0.0,0.0,0.0,0.0,0.0,0.0,False,0,6.356268644332886,0.06484619140625
STABILIZE,2.895073890686035,29.51511185233662,0.032442839940389,0.032659053802490234,0.0,0.0,0.0,0.36487820369389573,-1.337881232922819,0.4745298471858688,0.01950774614585,-0.1051325382166629,0.09045136089608974,0.4,-0.5148196916147708,-0.08531658076778008,0.6389925583295095,0.4475883699899242,-0.06630817661061883,2.244805358350277,0.2726435661315918,-5.113220485323177,42.47488975524902,56.144434213638306,-28.290605545043945,0.0,0.0,0.0,0.0,0.0,0.0,0.0,0.0,0.0,0.0,0.0,0.0,0.0,0.0,0.0,0.0,False,0,6.414462089538574,0.034915771484375
STABILIZE,2.9283294677734375,30.067988587322752,0.03210953076680501,0.032251834869384766,0.0,0.0,0.0,0.3371584145559279,-1.3576838723173899,0.4409711267616128,-0.04535269519758757,-0.049998093438374275,0.061862683469701855,0.4,-0.4876791482629733,-0.026018257875368656,0.6116072770693236,0.303628740034093,-0.06630817661061883,2.244805358350277,0.2726435661315918,-5.113220485323177,42.47488975524902,56.144434213638306,-28.290605545043945,0.0,0.0,0.0,0.0,0.0,0.0,0.0,0.0,0.0,0.0,0.0,0.0,0.0,0.0,0.0,0.0,False,0,6.4431986808776855,0.034915771484375
STABILIZE,2.961787700653076,29.888010033206495,0.032326730092366536,0.03246021270751953,0.0,0.0,0.0,0.35083832296811135,-1.3694476992239732,0.47074095982636294,-0.09026529780107413,-0.006781456813187976,0.06129620502858328,0.4,-0.49129295005801493,-0.019902515469557503,0.6357940757266816,0.2997932425824982,-1.3121480122208595,0.0945749634411186,2.4188362061977386,0.5789571430147227,-30.541086196899414,-50.758516788482666,113.27940225601196,0.0,0.0,0.0,0.0,0.0,0.0,0.0,0.0,0.0,0.0,0.0,0.0,0.0,0.0,0.0,0.0,False,0,6.472064733505249,0.034917236328125
STABILIZE,2.995335102081299,29.810474843460153,0.03231623967488607,0.03244733810424805,0.0,0.0,0.0,0.35607473018398395,-1.3802801658042019,0.48816423879053655,-0.060990235489095324,-0.05307241139970511,0.04297242676166416,0.4,-0.4843613528781892,-0.01222050930997639,0.6380701946867937,0.20748056357769795,-0.8302949368953705,0.18367752199992537,1.4759489335119724,-3.406351089095113,-4.592705145478249,29.744228720664978,70.57800889015198,0.0,0.0,0.0,0.0,0.0,0.0,0.0,0.0,0.0,0.0,0.0,0.0,0.0,0.0,0.0,0.0,False,0,6.500580310821533,0.064844970703125
STABILIZE,3.0285654067993164,30.089990817263544,0.03221181233723958,0.03233003616333008,0.0,0.0,0.0,0.3666875634937144,-1.390130899412947,0.4351746440337992,-0.10799992082027607,-0.02305437129213939,0.04860460667271375,0.4,-0.44163918918866224,0.027633172838527766,0.5888366675404568,0.23485655371460015,1.3027781620621681,1.3149875216186047,-1.7670528963208199,1.8393861651837127,17.22455769777298,10.28999388217926,-30.88357448577881,0.0,0.0,0.0,0.0,0.0,0.0,0.0,0.0,0.0,0.0,0.0,0.0,0.0,0.0,0.0,0.0,False,0,6.531300783157349,0.0349169921875
STABILIZE,3.0620787143707275,29.839105318573747,0.03243711789449056,0.03258919715881348,0.0,0.0,0.0,0.3735365356839447,-1.367468651911962,0.4568570528735782,-0.10970434412003567,0.024344759785071134,0.054297249348991,0.4,-0.3870126310343128,0.05885635054536533,0.5172341982805527,0.26244096019834956,1.3027781620621681,1.3149875216186047,-1.7670528963208199,1.8393861651837127,17.22455769777298,10.28999388217926,-30.88357448577881,0.0,0.0,0.0,0.0,0.0,0.0,0.0,0.0,0.0,0.0,0.0,0.0,0.0,0.0,0.0,0.0,False,0,6.559898138046265,0.0349169921875
STABILIZE,3.095508098602295,29.914229268744965,0.03239038785298665,0.03249645233154297,0.0,0.0,0.0,0.36404620127562354,-1.3683729049250484,0.4901003839768236,-0.045186158701400504,-0.0033545650809069915,0.052250487610623356,0.4,-0.3965107747695212,0.03393860726748807,0.5096386382532554,0.25136739116522816,-1.4662410132586956,0.3761982312425971,1.997511088848114,1.88070475423747,12.480130046606064,24.71855878829956,57.56211876869202,0.0,0.0,0.0,0.0,0.0,0.0,0.0,0.0,0.0,0.0,0.0,0.0,0.0,0.0,0.0,0.0,False,0,6.617280006408691,0.034916015625
STABILIZE,3.1289544105529785,29.901007321437483,0.032386096318562825,0.03250837326049805,0.0,0.0,0.0,0.3734109242362399,-1.3781411426552244,0.446959228312157,-0.0766925985692946,0.05152687556446209,0.03281674586685708,0.4,-0.33672247162267216,0.07462466794125981,0.481029045630047,0.1536846310580134,1.9008025527000427,1.9201230257749557,-0.16007587546482682,-4.119173536539739,36.271312832832336,40.0779664516449,-15.504798293113708,0.0,0.0,0.0,0.0,0.0,0.0,0.0,0.0,0.0,0.0,0.0,0.0,0.0,0.0,0.0,0.0,False,0,6.646129608154297,0.034916748046875
STABILIZE,3.162391424179077,29.905271188495078,0.03237441380818685,0.032495975494384766,0.0,0.0,0.0,0.3628767448236704,-1.3789398479012926,0.4350762199406422,-0.04577154423901018,0.048023899154731785,0.0297036399212268,0.4,-0.33496262674175004,0.0456729703396189,0.47857277472035753,0.13765869034394324,-0.8364971727132797,-1.4371919445693493,1.0566677898168564,-0.27346489951357555,-24.935738742351532,-71.65967226028442,44.26799714565277,0.0,0.0,0.0,0.0,0.0,0.0,0.0,0.0,0.0,0.0,0.0,0.0,0.0,0.0,0.0,0.0,False,0,6.674620151519775,0.02992919921875
STABILIZE,3.1959705352783203,29.78443709079547,0.032392056783040364,0.03252696990966797,0.0,0.0,0.0,0.3670639709500056,-1.3679753665710124,0.465126277524348,-0.009313249482180335,0.016521307291313177,0.03618822093968214,0.4,-0.33580261612756707,0.03679329255871583,0.4561503885360443,0.16951446233281792,-0.975571945309639,-0.4196225665509701,0.10237757815048099,2.086428557934373,14.935874938964844,38.51889371871948,0.8316438645124435,0.0,0.0,0.0,0.0,0.0,0.0,0.0,0.0,0.0,0.0,0.0,0.0,0.0,0.0,0.0,0.0,False,0,6.703257083892822,0.03492822265625
STABILIZE,3.229426383972168,29.890352971358936,0.03224685986836751,0.03236746788024902,0.0,0.0,0.0,0.3663528842243838,-1.375426782790379,0.4700813129629278,-0.00966685036055967,0.016501634289599935,0.0243681304808873,0.4,-0.2910552202177245,0.06268002828474045,0.4558992762710106,0.11004595216175243,1.4409145340323448,1.3166763819754124,1.0958132334053516,-2.584518609053672,12.593871355056763,14.411935210227966,50.31365156173706,0.0,0.0,0.0,0.0,0.0,0.0,0.0,0.0,0.0,0.0,0.0,0.0,0.0,0.0,0.0,0.0,False,0,6.732023239135742,0.034916015625
STABILIZE,3.2628350257873535,29.929171334584453,0.03220418294270833,0.032347679138183594,0.0,0.0,0.0,0.37217199195382306,-1.3758802433182444,0.4385325891453596,-0.023669040182515755,0.025104524643273264,0.023216388346454012,0.4,-0.288834155133073,0.058187493571661725,0.4428348930054957,0.10393951787990313,-0.7142938207834959,-0.23862896487116814,0.399409094825387,0.12855189750330911,-36.46091818809509,-40.31931161880493,-6.649575382471085,0.0,0.0,0.0,0.0,0.0,0.0,0.0,0.0,0.0,0.0,0.0,0.0,0.0,0.0,0.0,0.0,False,0,6.760895729064941,0.029928955078125
STABILIZE,3.2962100505828857,29.9605983113562,0.03230455716451009,0.0324101448059082,0.0,0.0,0.0,0.37017309440453655,-1.3716855466725044,0.48333353413919217,0.028492854994862926,-0.023578948988038615,0.025627900533074722,0.4,-0.2953654811119556,0.032123462296769906,0.42540846077498984,0.11561078925342463,-1.2802356854081154,-1.0814826935529709,0.9092352353036404,1.2889752641965293,10.111206769943237,5.277597531676292,13.051541149616241,0.0,0.0,0.0,0.0,0.0,0.0,0.0,0.0,0.0,0.0,0.0,0.0,0.0,0.0,0.0,0.0,False,0,6.817983388900757,0.0349169921875
STABILIZE,3.3296122550964355,29.938143741211572,0.032362969716389973,0.03247976303100586,0.0,0.0,0.0,0.36521032164228756,-1.3792892547660212,0.48800452975783465,-0.006320579108776906,-0.0073838114289420075,0.020622779542099588,0.4,-0.27523560620112614,0.04805348421375279,0.42408962843943754,0.09028318160761595,0.3637641202658415,0.8905789814889431,0.9194926358759403,-1.0121802472561758,12.450439482927322,27.376607060432434,29.5510470867157,0.0,0.0,0.0,0.0,0.0,0.0,0.0,0.0,0.0,0.0,0.0,0.0,0.0,0.0,0.0,0.0,False,0,6.846839904785156,0.034916015625
STABILIZE,3.3631207942962646,29.84313920808282,0.03240207036336263,0.032546281814575195,0.0,0.0,0.0,0.3698533561740153,-1.3787079416346297,0.45669462243737885,-0.02651622534314963,0.010243000317492139,0.015708901394335086,0.4,-0.2556540449148213,0.06375529525700444,0.4231624188164835,0.06549456082819469,0.3637641202658415,0.8905789814889431,0.9194926358759403,-1.0121802472561758,12.450439482927322,27.376607060432434,29.5510470867157,0.0,0.0,0.0,0.0,0.0,0.0,0.0,0.0,0.0,0.0,0.0,0.0,0.0,0.0,0.0,0.0,False,0,6.8755974769592285,0.034916015625
STABILIZE,3.3965959548950195,29.873321795118336,0.032355340321858723,0.03251218795776367,0.0,0.0,0.0,0.3685104769501673,-1.3769416974039466,0.4717951568360721,0.006702555258532131,-0.023321809977269053,0.01933585446587583,0.4,-0.2572114335955249,0.04708524818835653,0.42267970409045075,0.0833503611811622,-0.7943969219923019,-0.9158380329608917,0.9244820103049278,1.3548399523017258,-8.352433145046234,-17.85774528980255,31.21834695339203,0.0,0.0,0.0,0.0,0.0,0.0,0.0,0.0,0.0,0.0,0.0,0.0,0.0,0.0,0.0,0.0,False,0,6.904106378555298,0.069833984375
STABILIZE,3.4300427436828613,29.89802333787165,0.032355578740437825,0.03247976303100586,0.0,0.0,0.0,0.3702543096226362,-1.3717371999781027,0.49827900189938495,0.016143814140542254,-0.029914661231255912,0.02285962597775201,0.4,-0.2627782154300554,0.032659847609727566,0.4345342389354248,0.10063272576048118,-0.7943969219923019,-0.9158380329608917,0.9244820103049278,1.3548399523017258,-8.352433145046234,-17.85774528980255,31.21834695339203,0.0,0.0,0.0,0.0,0.0,0.0,0.0,0.0,0.0,0.0,0.0,0.0,0.0,0.0,0.0,0.0,False,0,6.932740211486816,0.069833984375
STABILIZE,3.4635050296783447,29.884602778767366,0.032354148228963216,0.0324859619140625,0.0,0.0,0.0,0.37255533632099,-1.3758373411925202,0.4437306299080037,-0.013925535514791983,-0.01712819405733196,0.02317446570176342,0.4,-0.25334542355604506,0.045543695826562994,0.4426017163677645,0.10186609115446914,-0.0012677308404818177,0.6077414844185114,0.7688934914767742,0.3149593392580344,10.9195776283741,36.30599081516266,4.386128485202789,0.0,0.0,0.0,0.0,0.0,0.0,0.0,0.0,0.0,0.0,0.0,0.0,0.0,0.0,0.0,0.0,False,0,6.961377859115601,0.029928955078125
STABILIZE,3.496891736984253,29.951612442514783,0.032341988881429036,0.03247880935668945,0.0,0.0,0.0,0.3725146753510873,-1.3728531888554594,0.4590676329262822,-0.00026758364141137925,0.009661115983676303,0.0069788268767823885,0.4,-0.20627122527826938,0.04294101433562119,0.4315396634465189,0.02081826760231402,0.5072262138128281,0.020401907386258245,0.781045388430357,-1.7396947517706163,-1.968679204583168,-18.30986589193344,23.295724391937256,0.0,0.0,0.0,0.0,0.0,0.0,0.0,0.0,0.0,0.0,0.0,0.0,0.0,0.0,0.0,0.0,False,0,7.018842697143555,0.034916259765625
STABILIZE,3.530359983444214,29.879919072179636,0.0324132760365804,0.03255605697631836,0.0,0.0,0.0,0.36703579641967926,-1.3732413356993864,0.4972791262379186,0.009646545237004884,0.015380067364402039,0.008081468607090322,0.4,-0.18365539169528347,0.044443118530078436,0.43675798147464356,0.026243698259187948,0.540912477299571,0.14944450231269002,1.2335487641394138,0.49144134220996755,23.863190412521362,13.270184397697449,32.70593583583832,0.0,0.0,0.0,0.0,0.0,0.0,0.0,0.0,0.0,0.0,0.0,0.0,0.0,0.0,0.0,0.0,False,0,7.047468662261963,0.064844970703125
STABILIZE,3.5643372535705566,29.431853426801116,0.03240946133931478,0.033074140548706055,0.0,0.0,0.0,0.370419941710009,-1.3760245310644608,0.45478398373877355,-0.010030928329358925,0.028540802370658928,-0.0010961031357903045,0.4,-0.16964739400414286,0.053349512242791414,0.4464882789095901,-0.01957761120372148,0.03438030544202775,0.3972820471972227,0.8495221845805645,-1.732572892178703,-7.060240209102631,-18.455642461776733,16.089271008968353,0.0,0.0,0.0,0.0,0.0,0.0,0.0,0.0,0.0,0.0,0.0,0.0,0.0,0.0,0.0,0.0,False,0,7.076151132583618,0.034916748046875
STABILIZE,3.5978212356567383,29.863962918396265,0.032419474919637044,0.032547712326049805,0.0,0.0,0.0,0.3744081318550618,-1.3735435715701596,0.4477684189658184,-0.003751883584592607,0.03586945273909458,0.0019081109576703959,0.4,-0.16575116559171607,0.03436946523431505,0.45056898038496707,-0.004541352453528349,-0.3313718130812049,-0.816560722887516,1.1982589960098267,0.8452629103806406,-7.793454825878143,-30.04826009273529,23.62612932920456,0.0,0.0,0.0,0.0,0.0,0.0,0.0,0.0,0.0,0.0,0.0,0.0,0.0,0.0,0.0,0.0,False,0,7.105727195739746,0.029928955078125
STABILIZE,3.631584405899048,29.619535895371666,0.032377036412556966,0.032768964767456055,0.0,0.0,0.0,0.36979626006142224,-1.371248201122212,0.5043396742098606,0.008659609689675194,0.03587913687222584,0.004044268571898133,0.4,-0.1578883627335445,0.030708020420673013,0.43291093422119675,0.006118805475486258,-0.10260817361995578,-0.09316643700003624,0.22327231708914042,0.6014332678608248,5.722420290112495,15.166531503200531,35.115742683410645,0.0,0.0,0.0,0.0,0.0,0.0,0.0,0.0,0.0,0.0,0.0,0.0,0.0,0.0,0.0,0.0,False,0,7.134524822235107,0.034917236328125
