Mode,Time,Freq,North-Vision,East-Vision,Down-Vision,Yaw-Vision,North-Desired,East-Desired,Down-Desired,Roll-UAV,Pitch-UAV,Yaw-UAV,Roll-Control,Pitch-Control,Yaw-Control,Thrust-Control,northVraw,eastVraw,downVraw,yawVraw,zGyro
GUIDED_NOGPS,0.003737926483154297,269.07261996407493,262.02388280176143,-77.83987489310687,45.01933478663793,7.258575411244173,261.39061222902467,-76.44708113014822,41.191558977640916,1.0930682566059329,0.2884813105276866,103.85172176391241,-0.44588042316169224,-0.25341417952280354,-0.7258575411244174,0.4980861120955015,262.02388280176143,-77.83987489310687,45.01933478663793,3.793213335100347,1.7188733853924698
GUIDED_NOGPS,0.026073932647705078,44.78462441941167,262.31760619564125,-78.11924302369607,45.171156154664054,7.180011751677068,261.3905781406833,-76.44685234927618,41.191562256359916,1.0427289086492926,0.30017037887937004,103.92268742938884,-0.0768038663712532,-0.059363972533399846,-0.7180011751677068,0.4980102030508479,262.61132958952106,-78.39861115428529,45.32297752269018,3.876170081868352,1.5469860468532228
GUIDED_NOGPS,0.06014561653137207,29.360979468404583,262.3873755057653,-78.61797637402209,45.408377045286954,7.162237588157682,261.39034227317217,-76.44526934544824,41.1915850756737,1.0378801146688181,0.2975850455568145,103.94462599700292,-0.09873344550083112,-0.05191990986041533,-0.7162237588157683,0.4978916040151934,262.52691412601354,-79.61544307467416,45.88281882653276,4.074117597720303,1.8334649444186344
GUIDED_NOGPS,0.1063072681427002,21.666136330764303,262.42226016082736,-79.20983243454452,45.696205058585235,7.16975360432354,261.3897103619844,-76.44102832970071,41.19164661514353,0.8048293110720759,0.34270436807941956,104.11818110381294,-0.12106987035553013,-0.05239592496101825,-0.716975360432354,0.49774772077827917,262.52691412601354,-79.61544307467416,45.88281882653276,4.074117597720303,1.948056503444799
GUIDED_NOGPS,0.1478893756866455,24.05404599415037,262.5068098170275,-80.09698024815401,46.05011641752535,7.191884578136275,261.38849623890644,-76.43287985062197,41.19176566288848,0.4228455389321179,0.3970808380832133,104.19635261886374,-0.1637471826372689,-0.05797322864025615,-0.7191884578136275,0.49757082462268154,262.84500844182793,-81.06005459511374,46.38471159951051,4.34526788297228,1.0313240312354819
GUIDED_NOGPS,0.19258761405944824,22.37725943788813,262.6948244471447,-80.88419506427807,46.24417704171714,7.188179411860629,261.3865217203449,-76.41962804486892,41.19196061823926,-0.022930986096355875,0.41458597259572133,104.24796835842153,-0.19294742718349314,-0.06967694105846263,-0.7188179411860629,0.49747389178826107,262.9639559523475,-81.97708752304632,46.465000699108124,4.5497584285718204,0.40107045659157625
GUIDED_NOGPS,0.2287464141845703,27.658520501694735,262.73630384811406,-82.17872747659852,46.47492682195059,7.171573201907476,261.38361649565354,-76.40012988768349,41.192249494392115,-0.2116107197301533,0.4348024787653128,104.25793360442057,-0.2601310963816562,-0.0688582600996854,-0.7171573201907476,0.49735866133622075,262.8187265943679,-83.49904031163548,46.57506816723313,4.454453342180727,0.2864788975654116
GUIDED_NOGPS,0.26729774475097656,25.94281119529921,262.78786970408726,-83.26416119288541,46.50290144620313,7.147614497797224,261.37961801546044,-76.37329444340925,41.19264992106264,-0.36893384195700235,0.47054645951757623,104.27270730359531,-0.29870742147744245,-0.07185335767894634,-0.7147614497797224,0.49734487423742973,262.7847434058795,-84.31635574397437,46.46863547226816,4.6440790270854535,0.34377467707849396
GUIDED_NOGPS,0.30324316024780273,27.826050035493225,262.8724020984691,-84.26246855151206,46.43448558094883,7.122859446178645,261.37437137999467,-76.33808211600788,41.19317914713961,-0.39229148809285924,0.47371299924981763,104.28476941766955,-0.3399861376220717,-0.07740012953130782,-0.7122859446178645,0.49737934678309537,262.94957609792266,-84.97200959892629,46.25975310334521,4.492984128075079,0.40107045659157625
GUIDED_NOGPS,0.3445436954498291,24.22129055357287,263.020375445167,-84.9733458719651,46.29199622803446,7.095996060169539,261.36772922741363,-76.29350389957567,41.19385404333885,-0.3674706873707387,0.4057425851678473,104.30797840046925,-0.3618818707146984,-0.08639001402295614,-0.7095996060169539,0.4974509289076522,263.58487517531756,-85.63167227299459,46.14760010849002,4.592825238786247,0.2291831180523293
GUIDED_NOGPS,0.385833740234375,24.224927804089177,263.16823923944065,-85.60970548302463,46.11486864225632,7.074909794279941,261.35955162212986,-76.2386206288601,41.194691104857085,-0.3218996652284136,0.3601135064175771,104.32856459062768,-0.3885164346782717,-0.09429257679402883,-0.7074909794279942,0.49753991123130037,263.70327492371587,-86.22543457715294,45.937252714933706,4.439914323759751,0.6302535746439055
GUIDED_NOGPS,0.4287831783294678,23.287586961229035,263.56814003198906,-86.33622507684989,46.04134544854606,7.062332158943342,261.3497059431379,-76.17254222977631,41.19570645402575,-0.16603766987541838,0.1774521032574865,104.38287825490762,-0.42114841490487787,-0.12035705136159264,-0.7062332158943342,0.49757718050273986,264.8182305571099,-87.15156838040207,46.03918352221444,4.542135863555529,0.8021409131831525
GUIDED_NOGPS,0.465517520904541,27.22637014533959,263.90852785722836,-86.95517659960267,45.9534175063491,7.061089743707088,261.3380667723416,-76.09442696992369,41.196915842964884,-0.122666902460763,0.08539694805817029,104.42687833354084,-0.4494235619999336,-0.13798797198418045,-0.7061089743707089,0.49762174916830787,264.486682532076,-87.4885268412529,45.883816281899136,4.338536025987381,1.260507149287811
GUIDED_NOGPS,0.50433349609375,25.767969921116656,264.27792744194255,-87.49246044564963,45.87124637967698,7.067777114124331,261.3245157828809,-76.00348070910229,41.19833465623693,-0.05221550220406488,-0.11810763112786049,104.48121931857746,-0.4725329552568277,-0.1575561149541423,-0.7067777114124332,0.49766354413827996,264.7965740214939,-87.83728611529388,45.69073933491738,4.49983676511124,1.432394487827058
GUIDED_NOGPS,0.548443078994751,22.674609953616105,264.58587445614944,-87.84818890970406,45.64824388673122,7.077798496707476,261.3089416274588,-75.8989561498295,41.19997791350061,-0.06235104936511423,-0.20094165742168926,104.54504743637123,-0.4863126989459893,-0.17117756237878035,-0.7077798496707476,0.4977758670133847,265.12461024635195,-88.21875377256538,45.370176043377185,4.639004954313137,1.1459155902616465
GUIDED_NOGPS,0.6026139259338379,18.46312045498565,265.065527238247,-88.26600605585854,45.316780468136876,7.082888339922128,261.2912398266685,-75.78015208785645,41.20186027216475,-0.007107665605044519,-0.3519396642913495,104.59270849639958,-0.507355055346414,-0.1978909885033087,-0.7082888339922129,0.4979425399020139,266.1015388342037,-88.74197827971629,44.88942602611611,4.65442067906919,0.5156620156177409
GUIDED_NOGPS,0.6446359157562256,23.800980570183402,265.4296798099191,-88.86748221152315,44.7161827616064,7.081170846507883,261.27131265732015,-75.64641266268457,41.203996030042155,-0.015420472732412831,-0.3400370724868238,104.61323321485547,-0.5428183096315641,-0.21704445137562647,-0.7081170846507883,0.49824390663421786,266.63899341547034,-89.64171458228772,43.888946215325944,4.435677417184351,0.34377467707849396
GUIDED_NOGPS,0.6793522834777832,28.814355296332174,265.8628528426656,-89.46971230824583,44.10968006692946,7.056733730076935,261.2490690407682,-75.49712660808213,41.20639912800341,-0.00013092085256739285,-0.36850065855323544,104.61177838456226,-0.5762859822369769,-0.24385641309784858,-0.7056733730076936,0.498548359530537,266.65254769580866,-90.02544406273341,43.550667959346384,4.723989188179402,-0.2291831180523293
GUIDED_NOGPS,0.721365213394165,23.807600397332198,266.3860783530929,-90.04285567013602,43.49949535598091,7.0102489715445415,261.22442443123794,-75.33172650260076,41.20908315263078,0.029214359926370927,-0.4470968993126151,104.58357653347927,-0.6025522827938605,-0.27116396301758566,-0.7010248971544542,0.49885479389832493,267.41270157363033,-90.46140836538692,43.05887189327049,5.094507402424554,-1.2032113697747289
GUIDED_NOGPS,0.7633993625640869,23.795039371865567,266.9886332858858,-90.44528990401604,43.1912806450806,6.940611682209358,261.19730070415295,-75.14968802009196,41.212061338872,0.05027040573470541,-0.6011627816975217,104.51337584918988,-0.6229164493652798,-0.30450451883874075,-0.6940611682209359,0.4990103903468957,268.1373849103162,-90.84901728392778,42.964302082625004,5.014560348938318,-1.776169164905552
GUIDED_NOGPS,0.8000917434692383,27.260168202675125,267.6202633734444,-90.8809737890377,42.85445858686845,6.842815531119726,261.16762604446177,-74.95052918022363,41.215346572694145,0.010524521098196288,-0.6234486751030685,104.43298452265883,-0.651079276741105,-0.3406809642042062,-0.6842815531119726,0.49918044399291284,269.2596892719968,-91.33249571779841,42.54020178470995,4.530051040371859,-2.2345354010102105
GUIDED_NOGPS,0.845923900604248,21.819536277422007,268.1968931187349,-91.18566743267172,42.61108467248684,6.731844843456793,261.13533483496497,-74.73380959899657,41.218951393737505,0.025967472089889337,-0.7301640843038766,104.31005477797694,-0.6671440139724508,-0.3663177269252011,-0.6731844843456793,0.49930393336062534,269.5221421419231,-91.37548929628895,42.32875015012565,4.732020526306869,-3.0366763141933633
GUIDED_NOGPS,0.8843016624450684,26.060804135625656,268.7356587779084,-91.307841882449,42.25416023966162,6.5767603631271365,261.10036754464215,-74.49912973926108,41.22288799796937,0.03811857872654036,-0.7907968475048434,104.16902503199452,-0.6797866115195017,-0.3967128813823113,-0.6576760363127137,0.49948436387915385,269.34637599167587,-91.21554063325956,41.89352878414938,4.411664175368614,-3.552338329811104
GUIDED_NOGPS,0.919175386428833,28.684493441479393,269.2858827264801,-91.2459383484798,41.88785730756666,6.418075552898352,261.062670616979,-74.2461301612334,41.227168240337924,0.021039490603725137,-0.8089225687364705,104.05114962729844,-0.6844014641181735,-0.42811689231717265,-0.6418075552898352,0.49966965546638564,270.16382131648913,-91.14678511589078,41.44129298842507,4.274659678012341,-4.068000345428845
GUIDED_NOGPS,0.9584782123565674,25.44531534373559,269.96642334201516,-91.14498158925049,41.41180435563908,6.254113634550071,261.02219635829425,-73.97449077301226,41.231803637426076,-0.04408018661362434,-0.8447560356390317,103.89365912541628,-0.6902782915387595,-0.46547437131311686,-0.6254113634550071,0.4999099996408935,271.5400879879915,-91.07261901860102,40.900591294342895,4.235508355890019,-4.698253920072751
GUIDED_NOGPS,0.9995665550231934,24.345996900376715,270.6168628016168,-90.83100439972661,40.84937313742706,6.05828586721065,260.9789028260666,-73.68393008109544,41.23680537010528,-0.08531422539597644,-0.7663672351952647,103.65200703258124,-0.685425835628285,-0.4988268273937621,-0.605828586721065,0.5001937161163391,272.51188657000523,-90.27360906468792,40.206235129513324,4.342160229297988,-5.099324376664327
GUIDED_NOGPS,1.0372531414031982,26.54202816010125,271.2674605822374,-90.38478640339586,40.338106006960636,5.840496932508527,260.9327537172616,-73.37420444089624,41.242184286189435,-0.14104371318566744,-0.7522991265783011,103.47604769918337,-0.6775175675517843,-0.5352761714873481,-0.5840496932508528,0.5004520391396144,272.77513104502606,-89.80813112689857,39.9074915970258,3.9817884020584557,-5.271211715203574
GUIDED_NOGPS,1.071662187576294,29.062930472983272,272.2004438788501,-89.7973476296017,39.99237567538196,5.631910807529728,260.8837182566591,-73.04510730726001,41.24795090308867,-0.2053921793364005,-0.8050646857941769,103.29551896923076,-0.6641151640936237,-0.5942241785371485,-0.5631910807529729,0.5006277876138534,274.01129247473943,-89.31030269721857,39.863400299606845,4.100804007470913,-5.557690612768986
GUIDED_NOGPS,1.1160504817962646,22.53451388291928,272.96993811050015,-89.47624550711191,39.87809739874646,5.442302647548368,260.8317710851797,-72.69646848498074,41.25411541046324,-0.37783939477849404,-0.7497332166061977,103.03242691259103,-0.6716889033031854,-0.6254713938885504,-0.5442302647548368,0.5006880090058584,274.01129247473943,-89.31030269721857,39.863400299606845,4.100804007470913,-5.729577951308232
GUIDED_NOGPS,1.161952018737793,21.790629773173595,273.8549070055643,-88.91086628713195,39.75595130209749,5.195662109002626,260.7768921482121,-72.3281533793175,41.260687672877324,-0.4493867469122883,-0.7604158992723622,102.7680849313332,-0.6598770105088873,-0.6743578749372041,-0.5195662109002627,0.5007523681853899,275.96493246331244,-88.1119934669587,39.54105330707889,3.8523283617819573,-5.328507494716656
GUIDED_NOGPS,1.1962120532989502,29.196859163557388,274.66240292962965,-88.00195817422333,39.50858295362077,4.9293294351202075,260.71906658393976,-71.940062246511,41.267677232452925,-0.4598526244331577,-0.7861534928079983,102.6462958282427,-0.63018154751457,-0.722700050108868,-0.49293294351202077,0.5008795471394161,276.54936619033197,-86.5835783584927,39.12129525417665,2.7873834731982043,-5.385803274229739
GUIDED_NOGPS,1.242339849472046,21.68114383781157,275.466584391602,-86.84543427238914,39.16593760142035,4.746637536870522,260.65828461166836,-71.53212944430015,41.275093311523655,-0.5040813009601637,-0.7163540287714926,102.38575826235257,-0.5996447395441005,-0.7590285821057148,-0.4746637536870522,0.5010545778550517,276.7960383548877,-85.84073099171597,38.83546424300558,2.860539045809901,-4.755549699585833
GUIDED_NOGPS,1.2753143310546875,30.329990093210593,276.24756240595264,-85.8513656470124,38.87244522759158,4.515463787101184,260.5945414201523,-71.10432268243852,41.28294481528863,-0.5015811315588217,-0.6747056162860176,102.2405484405981,-0.5762016949723262,-0.8081600204595593,-0.4515463787101184,0.5012052497938485,277.91618254649256,-85.12978759082846,38.66057618559255,2.8363567767191995,-4.18259190445501
GUIDED_NOGPS,1.3195900917053223,22.59192588403221,277.20125158881956,-85.08496495113374,38.6893490278141,4.354365938451388,260.5278370559221,-70.65664227321086,41.2912403344663,-0.503550360473901,-0.5763797070983949,102.04897529475758,-0.5713105015019524,-0.8569715070114061,-0.43543659384513883,0.5013009456533261,278.7797383890744,-84.28437627085673,38.572006654844245,2.945176698406428,-4.583662361046586
GUIDED_NOGPS,1.3661699295043945,21.47203309135959,278.00309432113426,-84.340709674558,38.58540050136625,4.145276881689104,260.458176311611,-70.1891203819497,41.29998814794827,-0.5772303858151788,-0.4178564859498203,101.83107859985583,-0.5613405351485987,-0.8958384474771008,-0.4145276881689104,0.501357293823291,279.974146124886,-83.60796516198877,38.52361866366204,2.6114967787251544,-4.640958140559668
GUIDED_NOGPS,1.399374008178711,30.127814850197893,278.7424714673316,-83.34527531714406,38.62940902652716,3.915082176750342,260.3855686142823,-69.70182027755185,41.309196225453185,-0.6613801306587342,-0.32043592367276813,101.68961172176652,-0.5335119234009781,-0.942266721492525,-0.3915082176750342,0.501339893599463,280.24625192131873,-82.14348451858669,38.79260176107527,1.968448658211571,-4.583662361046586
GUIDED_NOGPS,1.4369871616363525,26.592680885597627,279.516721408132,-82.41115014595921,38.735616121269395,3.7437300217388647,260.3100279137562,-69.19483558299481,41.31887223018054,-0.8183019659316317,-0.23284202925980738,101.49149525470114,-0.5195420248055155,-0.9829913506411548,-0.37437300217388647,0.5012916280544556,280.66728805888977,-81.4820007573022,38.89062793907093,2.1354802988482504,-4.984732817638163
GUIDED_NOGPS,1.474797010421753,26.451638129473718,280.38353246897134,-81.48591822570802,38.95680234532485,3.54685253078538,260.23157257093663,-68.66828952585348,41.329023521464556,-0.9206510166229506,-0.20642069643565597,101.30396558084927,-0.5042992856888406,-1.0325104007776365,-0.35468525307853804,0.5011861105880698,282.2502378506893,-80.83226940123521,39.187177335828395,1.839892266583206,-5.099324376664327
GUIDED_NOGPS,1.5133647918701172,25.938800247371677,281.09282629439474,-80.79093914830521,39.18670749526988,3.345545537999507,260.15022524613863,-68.12233418881655,41.33965715742801,-1.0280602236330438,-0.1493944331990146,101.13049243630928,-0.5036127986560314,-1.0678969908979465,-0.33455455379995075,0.5010764748310791,282.32620751619135,-80.05854728637827,39.482317210910374,1.6023148175694786,-5.099324376664327
GUIDED_NOGPS,1.5463733673095703,30.301723764250315,281.4880315214385,-80.01685730457791,39.43653020047205,3.153241453377006,260.06601278741493,-67.55714976020307,41.350779897636066,-1.0682010319417974,-0.2006668757097285,100.94917140441295,-0.4933893472110912,-1.085441631313032,-0.31532414533770065,0.500957124848582,281.95017226010435,-79.15975522612031,39.64009605467742,1.8823808307752472,-5.271211715203574
GUIDED_NOGPS,1.5801143646240234,29.645076475078454,281.9114004452455,-79.219778588724,39.54679183676078,2.973230436924996,259.97896611888325,-66.97294378447897,41.36239820575015,-1.0697191482065385,-0.22991708078902875,100.8880753622872,-0.4848202105016799,-1.1117670486464561,-0.29732304369249957,0.5009078031844947,282.3630965403536,-78.44103325367351,39.51796224469458,1.533987173916728,-5.213915935690491
GUIDED_NOGPS,1.6257109642028809,21.93467142214645,282.58158777430964,-78.4167519345266,39.545765653767546,2.7922217067493493,259.889120129053,-66.36995041277359,41.374518252181765,-1.083103971102236,-0.22192946803938973,100.55635356486718,-0.47836810473474684,-1.1512651341856308,-0.27922217067493493,0.5009143762992071,284.01822470421047,-77.64946732378607,39.47923866193065,1.221862237240046,-5.042028597151244
GUIDED_NOGPS,1.6700022220611572,22.583775750853427,283.01138086090424,-77.26866836944389,39.29950838736149,2.5420490421615076,259.7965135591527,-65.74842965339616,41.38714591674637,-1.0188361598806475,-0.26574430447180175,100.35809366382922,-0.4511930877870951,-1.1726689032019801,-0.2542049042161508,0.5010438187646924,284.39920328366225,-75.71550453087214,38.90132425545927,0.32642562075642445,-5.156620156177409
GUIDED_NOGPS,1.7078502178192139,26.428137562537017,283.3605639482251,-75.96981928040546,39.08421684482044,2.3215740377245315,259.70118889145635,-65.1086666223524,41.40028679131721,-0.9134811322634355,-0.3182565597190051,100.14939040355031,-0.42063925740897046,-1.1946084532610945,-0.23215740377245317,0.5011580349732484,284.07212295279555,-74.54448598655824,38.87208761707144,0.990999899445427,-4.870141258611998
GUIDED_NOGPS,1.7412574291229248,29.942418206868982,284.2407255571,-74.60230201128347,38.78630541283588,2.116396368893925,259.6031922376111,-64.450970793861,41.41394618247913,-0.8403139580792904,-0.3768583554980981,99.99788314738109,-0.3890278687606743,-1.261203611997965,-0.21163963688939252,0.5013138203848216,286.35098030447887,-73.54691551642014,38.58550436597698,0.3261504308783145,-5.156620156177409
GUIDED_NOGPS,1.7880642414093018,21.36811216172155,285.17322847579896,-73.48968247000575,38.58257548383422,1.943624544064538,259.5025732269637,-63.77567525087014,41.428129114182475,-0.711690930559078,-0.4537590818373014,99.76990509326441,-0.3811010268744074,-1.305559700897392,-0.19436245440645383,0.5014227768151741,287.02561113384866,-72.37764590703898,38.29013446845427,0.2581996594361726,-4.698253920072751
GUIDED_NOGPS,1.8310420513153076,23.275956026393043,285.8618666281103,-72.00854524299517,38.18484941371427,1.7049727951853664,259.39938489488776,-63.083135935574,41.4428403303969,-0.6526932506123887,-0.49233764445597306,99.58749806129005,-0.3422061639181512,-1.3417126396159065,-0.17049727951853666,0.5016289954583413,287.4614154657673,-70.1010743055265,37.6789094067116,-0.49037840321565795,-4.583662361046586
GUIDED_NOGPS,1.8694636821746826,26.03249792077856,286.82423875887696,-70.44791904927821,37.733325064203974,1.503448118832594,259.29368357111076,-62.373730899929335,41.458084297765225,-0.6438386040445547,-0.5722089161147501,99.40284389707875,-0.305379829950274,-1.4041130570975706,-0.15034481188325943,0.5018623796167806,289.21106393749534,-68.86503693526929,37.23093131744612,-0.30711164884762354,-4.469070802020421
GUIDED_NOGPS,1.9049139022827148,28.215211161489094,287.82399096622885,-68.875392079263,37.30127123244144,1.3299141723577812,259.18552876804085,-61.647859556171966,41.47386520825728,-0.6299136625958971,-0.6340542513368057,99.28558320940797,-0.2700662523202036,-1.4630589447420934,-0.13299141723577812,0.502086296987908,289.07088398955517,-67.66006499699331,36.99397297316664,-0.5163542647858748,-3.7815214478634336
GUIDED_NOGPS,1.9488024711608887,22.787328251739893,288.4491464087082,-67.68138890070027,37.00846205575787,1.1849154757711704,259.074983069094,-60.90594192733329,41.490186981823754,-0.659080811507673,-0.6888331155322485,99.13958108570978,-0.26277624237444697,-1.4854731947179491,-0.11849154757711705,0.5022408624630329,289.4767575168755,-66.51906476983834,36.8004818766609,-1.020838556668096,-3.0939720937064457
GUIDED_NOGPS,1.9977526664733887,20.432410839986943,289.38527122106444,-66.5302566209059,36.7693743449805,1.053664955694255,258.96211201702096,-60.14841789775684,41.50705326905003,-0.6051573751449214,-0.8516077292327594,99.05558341929697,-0.24883460644142866,-1.5426082983043177,-0.10536649556942551,0.5023688394620348,291.70623519562963,-65.4116400958862,36.513668185113985,-0.9052213000418448,-1.432394487827058
GUIDED_NOGPS,2.0418789386749268,22.669952868941063,290.0235253736429,-65.06275126765398,36.35174870083429,0.9576341554856089,258.8469840022342,-59.375746463614774,41.52446745381004,-0.5948183897322261,-0.982168822929963,99.04716862623951,-0.21460529915982593,-1.5762767686488972,-0.0957634155485609,0.5025863593764879,290.6526862286597,-63.2575489372375,35.74109604072803,-1.233876315912397,-0.17188733853924698
GUIDED_NOGPS,2.0822174549102783,24.79357329061471,290.3966082052033,-63.69134062055567,35.82274707695559,0.9329399440775274,258.72967015113494,-58.58840498342444,41.5424326559201,-0.5871730601734547,-1.0400069715433367,99.09292406348942,-0.1927804540535234,-1.5952453504740765,-0.09329399440775275,0.5028598427894823,291.0764780952969,-62.40483282854343,35.2134770050248,-1.3340245943936822,1.1459155902616465
GUIDED_NOGPS,2.126579761505127,22.545294266256,290.7799823802028,-62.44060594450078,35.16254855984304,0.9718904792471166,258.6102442144401,-57.78688842856484,41.560951733792784,-0.5771666729568273,-1.142543799075978,99.22577124284616,-0.17806990308316253,-1.6197899371537026,-0.09718904792471167,0.5031992015869748,290.987754864553,-61.6594360677215,34.533072633776335,-1.0212116874650832,2.9220847551671985
GUIDED_NOGPS,2.1689183712005615,23.626287832273402,291.24456067186264,-61.601697373727255,34.40355519240375,1.0662399046079667,258.4887824555095,-56.97170863379321,41.58002728709072,-0.5023793031963611,-1.1288331548125294,99.3976188023637,-0.18474936493316088,-1.6516869224219108,-0.10662399046079668,0.5035882360473435,291.79964897517476,-60.74082322491695,33.46411593841016,-1.0213408628924725,3.9534087864026803
GUIDED_NOGPS,2.2120511531829834,23.18717003245084,291.3033333579901,-61.002196665381824,33.64052641023272,1.2111898954631373,258.36536353867245,-56.143393547761534,41.59966165938048,-0.41613904021910586,-1.0893508194284476,99.62587689423634,-0.1986014101808639,-1.6511278150809363,-0.12111898954631373,0.5039795676245739,292.00009862626695,-60.60633070350711,32.92439065851169,-0.9875490706299104,5.385803274229739
GUIDED_NOGPS,2.2516393661499023,25.266434943946795,291.6647398193477,-60.66715254186139,32.971841105291624,1.4124280911010154,258.24006841755505,-55.302486483533016,41.619856940786406,-0.3260773397620813,-1.1199830439171912,99.86997419479427,-0.22478451049777068,-1.6834980546322538,-0.14124280911010154,0.5043240079177473,292.45971853544745,-60.654303697160216,32.52701671895306,-1.1858060733033398,7.104676659622208
GUIDED_NOGPS,2.286984920501709,28.29496407730968,291.92534596870973,-60.684971599650886,32.61283071522825,1.6536637436962627,258.1129802234071,-54.449545369098686,41.64061497064445,-0.21459265759181922,-1.1377512474344504,100.10666074010271,-0.26904571843748354,-1.7015425409634894,-0.16536637436962628,0.5045138921277081,292.37950884210704,-60.79428039828545,32.38708476822005,-0.8480302571706062,8.021409131831525
GUIDED_NOGPS,2.3371355533599854,19.94647086238218,292.4740988643641,-60.86957634637736,32.43708395586267,1.9190454114890705,257.98418415342906,-53.58514199789387,41.66193734015604,-0.11351228785840385,-1.2280569137108914,100.642038288005,-0.30826694120735165,-1.7381318416893208,-0.19190454114890707,0.5046124266921467,293.731519342825,-61.16014494368653,32.39715038041495,-1.0827212590674122,10.026761414789407
GUIDED_NOGPS,2.379910469055176,23.380142255122745,292.40697984548194,-61.453847349876696,32.40795558074749,2.3613452848214935,257.85376735909904,-52.70986127931472,41.68382539504189,0.07075347604491251,-1.3756975357579464,101.19332334648423,-0.3767470600644284,-1.7291236215790338,-0.23613452848214936,0.5046379349071473,291.4640538807639,-62.40711670765825,32.43963159360756,0.15013193850651874,11.860226359208042
GUIDED_NOGPS,2.416428565979004,27.391909719047558,292.5499553140931,-62.30987984369372,32.37620984751231,2.8278304251419666,257.72181883449997,-51.82430048923473,41.7062802381959,0.15359764090079053,-1.4126719110561643,101.64902673771832,-0.4577322347878751,-1.7489660515101895,-0.28278304251419667,0.5046650351953418,292.7149759693226,-63.36237787973652,32.2918475685145,0.40523078990568706,12.948846169956605
GUIDED_NOGPS,2.4527759552001953,27.520415728936335,292.65318017514403,-63.4534069577968,32.22181235553054,3.257049032708662,257.58842930464624,-50.92906852052131,41.729302732338944,0.2932700735486589,-1.4852068124944071,102.16303262370762,-0.5459070024153846,-1.7597561560745065,-0.3257049032708662,0.5047537451884042,292.97584284070206,-64.59072628599577,31.933957904469647,0.2160171506463655,14.152057539731334
GUIDED_NOGPS,2.494614362716675,23.90448019787873,292.62064717188423,-64.60428308838179,31.954997620174694,3.725135279621782,257.453691113811,-50.02478513355223,41.752893502672755,0.345921413858922,-1.5929569953544722,102.80653889636038,-0.6224318237519503,-1.7607878497321827,-0.37251352796217824,0.504898947941249,292.2168438258081,-65.8597450994132,31.639187387540023,0.8380650611999272,15.068790011940651
GUIDED_NOGPS,2.5280566215515137,29.9054844137695,292.03812989241095,-66.48686471768718,31.57622645692749,4.311532702926415,257.3176981138529,-49.11208020673223,41.77705293953373,0.35853530583248105,-1.6691491429281398,103.2917965161331,-0.7616563313376784,-1.7227101096879327,-0.43115327029264156,0.5051004132413032,290.81893294545864,-69.0101227676527,31.155534078772884,2.820935050966739,16.04281826366305
GUIDED_NOGPS,2.572395086288452,22.559239259052084,291.6088550567052,-68.64847375950572,31.177755037199603,4.824177968220156,257.1805455525434,-48.191592987009486,41.80178120104684,0.3819189387036957,-1.8390941745966947,104.09913853640695,-0.8740291741988636,-1.7148099998509854,-0.48241779682201563,0.5053120130819236,289.31767970223495,-71.07555341145138,30.73854364528598,3.1265663119209393,17.24602963343778
GUIDED_NOGPS,2.6249806880950928,19.021873115070818,291.1222607583953,-71.12621155701237,30.776254280747185,5.502764243440745,257.0423299618935,-47.26397134039213,41.82707821577941,0.41485544490281945,-1.9530144728765142,104.96718727802387,-1.0063791412446508,-1.6973609670618284,-0.5502764243440745,0.5055254119675161,290.2820044777737,-73.29295849193313,30.43468511818277,2.9577279723751246,18.105466326134014
GUIDED_NOGPS,2.667163610458374,23.709492153936598,290.4251600245051,-73.31928182558983,30.434036594570586,6.375047097092918,256.9031490464806,-46.32987100246481,41.85294368539498,0.5153078374389903,-2.201667296167417,105.83443688750789,-1.138792253166741,-1.662894649768498,-0.6375047097092919,0.5057094535454122,289.49033917125104,-75.58933357338508,30.128881020243092,3.0174430028841925,18.391945223699427
GUIDED_NOGPS,2.7093424797058105,23.714183944048987,290.0036335700123,-76.62967762029785,29.88243279698825,7.085855551661895,256.76310157177613,-45.38995482890522,41.87937708730719,0.6216748002704221,-2.3340920710126816,106.62031162322039,-1.330344049658255,-1.6553415394893842,-0.7085855551661896,0.5059984721451595,290.10921155334404,-81.00674079557547,29.083732252538965,3.7437651605592634,18.27735366467326
GUIDED_NOGPS,2.7510664463043213,23.968273197938213,289.15254986122454,-79.97889966672089,29.295698342173242,7.795163277778972,256.6222872524718,-44.444892046000554,41.90637767733359,0.7306665300946956,-2.4825850793238136,107.37351756413273,-1.5033548467468876,-1.6095608859010784,-0.7795163277778973,0.5063053396675802,286.56351440152,-83.3406246312022,28.67448175373775,5.481198283216827,17.53250853100319
GUIDED_NOGPS,2.7904369831085205,25.406781919726686,286.92221367103076,-83.95813787290474,28.584802026136202,8.508526788495681,256.4808066408068,-43.4953575011641,41.93394449234947,0.8222046186295007,-2.5314418493437376,107.95864620994938,-1.719012664286888,-1.4688286461541138,-0.8508526788495682,0.5066745712331067,278.16599875126605,-87.52704819193666,27.996192072131958,10.46864903693421,16.50118449976771
GUIDED_NOGPS,2.8269035816192627,27.430963218751636,285.8348322191293,-87.43725064564457,28.111370076818748,9.136876115160382,256.3387610148951,-42.54203091345177,41.96207635294174,0.8692333525510946,-2.576243194543967,108.2565858917345,-1.8932452481122848,-1.448827408088149,-0.9136876115160382,0.5069253531380615,284.84509721826623,-91.44407911379494,27.663436404586612,8.814253862018106,16.27200138171538
GUIDED_NOGPS,2.8664729595184326,25.276484448917362,284.9057838285324,-90.13840213984214,27.774354960435033,9.680097972637034,256.1962522670523,-41.585596124078506,41.99077186606278,0.9625736505314311,-2.551213112556809,109.1825136563781,-2.0,-1.415605440615269,-0.9680097972637034,0.5071082084528139,284.84509721826623,-91.44407911379494,27.663436404586612,8.814253862018106,14.610423775835994
GUIDED_NOGPS,2.903548240661621,26.984642900799702,283.0365546339608,-93.0742835536562,27.497642692145195,10.227597245828605,256.0533827921222,-40.62674034693502,42.020029427684236,1.0106397194332206,-2.60633658114022,109.70414203348115,-2.0,-1.3025973561982678,-1.0227597245828606,0.5072611933677695,280.7630655804862,-96.33469243337885,27.166055267262447,8.366351607613467,13.80828286265284
GUIDED_NOGPS,2.9427456855773926,25.51636786168381,280.44699240554365,-95.08096291646706,27.383360638500392,10.715379554478726,255.9102553758044,-39.666153419104084,42.04984722545091,0.9844920477431193,-2.6550213157704246,110.22876886362982,-2.0,-1.164523036306553,-1.0715379554478728,0.5073332432934753,273.6157032594342,-97.46411720222748,27.320590243652195,11.961642726701527,12.032113697747288
GUIDED_NOGPS,2.9812378883361816,26.006510457034082,280.6140202335975,-98.21901875471276,27.313607064581465,11.145998036864246,255.76697308298105,-38.70452705137719,42.0802232413346,0.947667829884936,-2.6594869788271436,110.59139726704414,-2.0,-1.250508616225704,-1.1145998036864246,0.5073833080883766,279.0011378915354,-100.85824662853209,27.45417568282983,9.17137909716449,10.084057194302488
GUIDED_NOGPS,3.0292186737060547,20.872999442630782,279.3044917108896,-100.44088011201008,27.477740770053813,11.488098881441694,255.62363914604362,-37.74255407877109,42.11115525428792,0.8260862471513307,-2.6564014408695904,110.98895525787391,-2.0,-1.1597438189175782,-1.1488098881441695,0.5073167072421171,278.2974546047266,-103.00027650527076,27.658456383679496,9.746007016738645,7.677634454753031
GUIDED_NOGPS,3.068427324295044,25.47220366569093,277.39026956518444,-103.44898787908733,27.51794852886729,11.86307025940497,255.48035685322026,-36.78092771104423,42.142640842898196,0.8458816828307615,-2.7661741067759196,111.17629368642902,-2.0,-1.050799302543472,-1.186307025940497,0.5073123461570155,275.27398648974065,-106.48844050345924,27.441213520092617,10.202225590688101,6.187944187412891
GUIDED_NOGPS,3.1115660667419434,23.18537558802231,275.9391967540502,-105.69459658879134,27.47351696048463,12.07391735710623,255.33722943690248,-35.820340783213254,42.17467738804123,0.7004633802240463,-2.84549480115457,111.43407868608364,-2.0,-0.9997783563441933,-1.2073917357106232,0.5073505802137783,273.50770152481505,-107.59507275764413,27.320880977681856,10.879853829483508,3.666929888837269
GUIDED_NOGPS,3.156902313232422,22.086327374213422,275.709584839732,-107.5825740879407,27.25290189546104,12.23877586077979,255.1943599619724,-34.86148500606977,42.207262075535226,0.5066132200689757,-2.901349526865996,111.55811492141108,-2.0,-1.0238465814287878,-1.223877586077979,0.5074771800900371,272.4676436878428,-108.66420900271885,26.99661118860872,11.11220306024812,2.4064227395494577
GUIDED_NOGPS,3.196547031402588,25.194343997405063,273.99766518290147,-108.50100184232872,26.98608147490886,12.348560604821145,255.05185121412953,-33.90505021669654,42.240391898794606,0.16453859009494604,-2.8216915918970757,111.62320662420129,-2.0,-0.9077917038078069,-1.2348560604821146,0.5076271552119429,270.44153960738294,-109.2437237666233,26.64075225843608,11.47890278795532,1.1459155902616465
GUIDED_NOGPS,3.2426743507385254,21.683833945096417,272.135071111005,-109.38229158211784,26.48892995397328,12.383863026581498,254.9098055882179,-32.95172362898417,42.27406366148382,-0.13914337313167005,-2.649497827166,111.6364845119478,-2.0,-0.8239034267425386,-1.2383863026581499,0.5078925668537553,268.9844842452444,-110.2389419770115,25.829426414875098,11.117058076850697,-0.057295779513082325
GUIDED_NOGPS,3.2796003818511963,27.087287850998425,271.04560244998737,-110.10080456689265,25.98270685960893,12.398833351726832,254.76832497655292,-32.00218908414773,42.308273980171265,-0.32787341270953024,-2.6252895023133593,111.63678504027128,-2.0,-0.788178481575031,-1.2398833351726832,0.5081627835602812,269.82664318465254,-110.81974795704325,25.47794190551568,11.301665691937018,-0.2291831180523293
GUIDED_NOGPS,3.3135182857513428,29.489379952331067,269.8635958711075,-110.56460430388722,25.516704390177807,12.385333992992198,254.6275106572485,-31.05712630124306,42.34301928698305,-0.4238257244388676,-2.5166698577162925,111.62605481308519,-2.0,-0.7310817862011866,-1.2385333992992198,0.5084131574484027,267.5976686304156,-110.635122977607,25.242744850142714,11.264577162350932,-0.5729577951308232
GUIDED_NOGPS,3.3588104248046875,22.08283886592782,268.7765266102028,-110.70113192433907,25.306471569478763,12.361569885894694,254.48746318254402,-30.11721012768345,42.37829583225691,-0.512971912742846,-2.27145582122908,111.5482248074929,-2.0,-0.6935347351402287,-1.2361569885894694,0.508535912131389,267.0322973833193,-110.64852483836704,25.198727952777972,11.81383896223737,-0.9740282517223995
GUIDED_NOGPS,3.4050474166870117,21.632166360654384,268.01257802443956,-110.58036990329505,25.311691164342733,12.294601248261912,254.34828226713122,-29.18310978975616,42.41409968719601,-0.6060798242088433,-2.187924528670528,111.45112000806283,-2.0,-0.6696810031134158,-1.2294601248261914,0.5085512042614266,266.62179667856674,-110.45746189391123,25.493600690107577,11.353579844154268,-2.635605857601787
GUIDED_NOGPS,3.4473485946655273,23.64346835928252,267.0683525997565,-110.29306610433885,25.456595818123436,12.181554745905908,254.2100666764813,-28.255488143138805,42.45042674652278,-0.5071961873868068,-2.021041236019137,111.31584128136156,-2.0,-0.6239291316708456,-1.218155474590591,0.5084969154641996,264.2633571218292,-109.77321158073843,25.67745881148483,11.361586769087054,-3.4377467707849396
GUIDED_NOGPS,3.500486373901367,18.820860294183635,265.8524339473269,-109.89973912245118,25.76905942488948,12.042218841468287,254.07291411517178,-27.335000923416032,42.487272731132826,-0.4332848427482477,-2.0796333734838566,111.15073511855483,-2.0,-0.5686946185108726,-1.2042218841468288,0.5083591066531217,263.7470499225045,-109.46854389270399,26.136118773076102,11.052900444168216,-3.8388172273765155
GUIDED_NOGPS,3.5412657260894775,24.52881078394105,264.9615696375369,-109.19755201262687,26.253722605755655,11.85090420044061,253.93692111521372,-26.422295996596034,42.524633190748695,-0.4526517374181131,-2.066259863088972,110.98210457813639,-2.0,-0.5323069302626224,-1.185090420044061,0.5081354552924965,263.1433470814656,-108.3509005644383,26.947590232706094,11.263251199942559,-4.354479242994256
GUIDED_NOGPS,3.582334518432617,24.3595709216357,264.2936786288396,-108.48413162622698,26.741366737262695,11.683368866709618,253.80218292437843,-25.51801260962695,42.56250350657377,-0.35282083873556047,-2.105791717344536,110.83024898231949,-2.0,-0.5117881413718063,-1.1683368866709618,0.5079105683846555,263.6928423398326,-107.63295042153877,27.140391206005948,11.160186742150614,-4.698253920072751
GUIDED_NOGPS,3.614901542663574,30.717150264379768,263.1508531493053,-107.4841326618933,27.150166269397797,11.491030308876224,253.6687933945247,-24.622780640913547,42.6008788939461,-0.4483957291524018,-2.1045321877729037,110.71391720037583,-2.0,-0.4431673578555067,-1.1491030308876224,0.5077253563122741,260.90766928089505,-106.46854699970297,27.362517369481413,11.124635715116383,-5.385803274229739
GUIDED_NOGPS,3.6587953567504883,22.786709259621443,262.6516475009519,-106.63300102719232,27.262739173909562,11.31148246643362,253.5368448699256,-23.73721985083354,42.63975440499225,-0.4090368174210562,-2.0783300880128537,110.31094969972342,-2.0,-0.4473905566588245,-1.131148246643362,0.5076885076155413,261.7673288800623,-105.79750566033536,27.285308946241383,10.678745906731422,-6.589014644004467
GUIDED_NOGPS,3.7039616107940674,22.144398042311003,261.8927957935919,-105.63080910327805,27.247496513523185,11.038941010633778,253.40642807559564,-22.861939132254392,42.67912493128114,-0.45477688674533906,-1.9205091757296002,110.01008669697353,-2.0,-0.41037984874076666,-1.1038941010633778,0.507715814208879,259.95279138570436,-104.62637464979592,27.09466322484682,11.00618543896617,-7.448451336700702
GUIDED_NOGPS,3.7484729290008545,22.471371704410906,261.40572885769154,-104.37638935801397,27.051338122821544,10.726033985887339,253.2776320056176,-21.99753576104959,42.71898520647789,-0.6055506979915789,-1.7524501300456152,109.6486672370423,-2.0,-0.3982611148854773,-1.072603398588734,0.5078338235418282,260.7080124019638,-102.7052877639107,26.77404219737649,9.957166692238445,-8.250592249883855
GUIDED_NOGPS,3.786712884902954,26.15506070602321,260.5975289849107,-102.8723670088926,26.970763949497726,10.381582343066366,253.15054381146962,-21.14459464661529,42.75932980899768,-0.7538317036341756,-1.5757308313808769,109.34214200747047,-2.0,-0.3547793957102555,-1.0381582343066367,0.50789428292975,259.6518429759286,-101.2854386129712,27.043586426269933,10.42963852804803,-8.88084582452776
GUIDED_NOGPS,3.8257205486297607,25.637868433599433,260.07806515603295,-101.2562563345042,26.999914519861807,10.042245978175131,253.0252486903522,-20.30368758238673,42.80015316465957,-0.9169743471370739,-1.3220184387405816,109.0841862530866,-2.0,-0.3425674425816688,-1.0042245978175133,0.5079001193223989,258.31035013650643,-99.77804262663074,27.182114935939072,10.133112846778971,-9.85487407625016
GUIDED_NOGPS,3.8710577487945557,22.062975392675664,259.48937620088975,-99.85712882995868,27.275249975399543,9.65150065521593,252.90182977351515,-19.475372496355064,42.841449549340375,-1.3684163406593013,-0.7493491251870903,108.42860420598127,-2.0,-0.3190890253820814,-0.965150065521593,0.5077830997869704,258.8238841043461,-98.50790525027413,27.60004856398969,9.465232149426669,-11.631043241155712
GUIDED_NOGPS,3.9108164310455322,25.158678935182408,258.8225559514431,-97.841862815416,27.89467025778409,9.153070618459436,252.78036801458452,-18.660192701583455,42.88321309162848,-1.6790570793711836,-0.3736342927664405,107.88681994063752,-2.0,-0.2883790146070434,-0.9153070618459437,0.5074942714169222,256.61869013847104,-95.2396405693432,28.90184727342358,9.612879348956483,-12.891550390443523
GUIDED_NOGPS,3.9527170658111572,23.86938236616416,257.9922341955303,-95.73603877783158,28.669096785332545,8.668507885785333,252.66094207788976,-17.85867614672385,42.92543777547771,-1.8806157483348482,-0.09381630346854815,107.30418431386792,-2.0,-0.24961621659924882,-0.8668507885785334,0.5071281704950725,256.5564036223996,-93.46057051387747,29.505394518584442,9.125724795167486,-13.750987083139758
GUIDED_NOGPS,3.9955742359161377,23.335395571380882,257.4499089115666,-93.4790247649953,29.658298660919844,8.134469499802162,252.5436282267905,-17.071334666533502,42.96811744286117,-2.1501130283121603,0.013416465881462,106.70934313905151,-2.0,-0.23541940025637134,-0.8134469499802162,0.5066549093909707,256.94021655611,-91.73686321176528,30.567654190751583,8.280843703027855,-14.152057539731334
GUIDED_NOGPS,4.037302494049072,23.971834849801105,256.6788124873373,-90.84368436285003,30.625425183399425,7.568876583489281,252.42850021200374,-16.298663232391462,43.01124579642507,-2.3667188174607747,-0.05116910921909099,106.18005128969972,-2.0,-0.19671499052631417,-0.7568876583489281,0.5061929103065128,254.45486801536026,-87.33361936290737,31.80322684086233,6.645462688046848,-13.2926208470351
GUIDED_NOGPS,4.070616960525513,30.02300594833325,255.73494329166488,-87.9125282444258,31.504772922872565,7.035215804036434,252.3156291599307,-15.541139202814989,43.054816402142606,-2.459062548152524,-0.08309151908945298,105.921378365453,-2.0,-0.14609053824508605,-0.7035215804036434,0.5057750217396351,254.10453812598405,-84.66710215860476,32.14343773700387,7.647721089727824,-13.407212406061264
GUIDED_NOGPS,4.115984201431274,22.04813019754618,254.77925226770807,-84.75521859281918,31.976480603916432,6.612709480229,252.20508346098384,-14.799221573976311,43.09882269196776,-2.4433546071653756,-0.2321765927438336,105.13990227156599,-2.0,-0.11005191166418772,-0.6612709480229001,0.5055611710440256,251.84023501868717,-82.26493425694544,31.98277723388319,5.935183221277825,-12.948846169956605
GUIDED_NOGPS,4.161826133728027,21.81851474229593,253.37150229854123,-82.09022632142124,32.00754168335916,6.072119100449599,252.09692865791394,-14.073350230218963,43.143257966489195,-2.362681321887651,-0.3712548256143373,104.63797899021843,-2.0,-0.035385683141286095,-0.6072119100449599,0.505567858141565,249.51765377656534,-79.33864254871357,31.896410079190503,10.76604881712501,-12.776958831417359
GUIDED_NOGPS,4.2061333656311035,22.57125790394188,252.3296288761695,-78.81632374379076,31.333083968245546,5.4878465940032335,251.9912273341369,-13.363945194574299,43.18811539758407,-2.2881865830444377,-0.45259053251984743,104.01286641700052,-2.0,0.004143626880476186,-0.5487846594003234,0.5059275157146692,251.73084944425125,-74.84539442571335,30.120064591663052,4.487852701877301,-12.891550390443523
GUIDED_NOGPS,4.249971866607666,22.817079473188883,250.51509396543884,-75.23394668600379,30.552265928435617,4.959511704573416,251.888039002061,-12.671405879278112,43.23338803107188,-2.1846910744287618,-0.36332308167767485,103.49631970063996,-2.0,0.10780488706927466,-0.4959511704573416,0.5063405610513181,245.38219346170695,-71.51780308358452,29.640323114453405,9.043993681561432,-12.891550390443523
GUIDED_NOGPS,4.287165880203247,26.892425272174705,249.615365061417,-71.98243123987031,29.61185050760793,4.455448562483798,251.78741999141357,-11.99611033628726,43.27906878936833,-2.0334480612030537,-0.2166959156291468,102.92793867866818,-2.0,0.13010350231310336,-0.4455448562483798,0.5068336091408802,249.60589360587514,-69.58409621031308,29.075163816707448,4.110449260840312,-13.57909974460051
GUIDED_NOGPS,4.3266706466674805,25.322112075731415,249.28236585534987,-68.49640214917714,29.17631337420258,3.956941896124313,251.68942333756831,-11.33841450779586,43.32515047413915,-1.9607868012651655,-0.1641311533026989,102.39114728160772,-2.0,0.12629753386675124,-0.3956941896124313,0.5070744185499683,250.17523898835134,-64.38730715363387,28.813453191446996,2.8294920395290433,-14.2666490987575
GUIDED_NOGPS,4.372451543807983,21.847381525351334,249.27459767815623,-65.18175800484822,28.946019031723196,3.4022586269099984,251.59409866987198,-10.698651476752119,43.371625768953955,-2.0245621985362785,-0.10593471324259038,101.68711187253031,-2.0,0.11406025455819825,-0.34022586269099986,0.5072128033686154,249.478812890597,-61.57387065059774,28.949440087015265,1.1105571355264772,-14.725015334862157
GUIDED_NOGPS,4.410711050033569,26.198189870017927,248.08355237237885,-61.554027810106334,29.039660227421418,2.739015994594105,251.50149209997164,-10.077130717374715,43.4184872419401,-2.235795830459266,-0.038713512215632274,101.16208889140977,-1.9956345943528528,0.19987299885538828,-0.2739015994594105,0.5071894135072593,245.77562291536418,-58.70090562608745,29.356087403802103,1.0100269328997769,-15.355268909506062
GUIDED_NOGPS,4.451533555984497,24.47270796501485,248.62902067334,-58.67904602530856,29.226132983992724,2.1928763590047415,251.41164611014142,-9.474137345669263,43.46572734843649,-2.5640570698476064,0.11961283406620205,100.50370646674473,-1.9240263070848194,0.12369223089958391,-0.21928763590047418,0.5071197971822219,248.1095349665127,-55.76236179924054,29.372871461160912,1.1867062138771587,-15.183381570966816
GUIDED_NOGPS,4.490871429443359,25.4280379271043,248.14403505788064,-55.72860614107504,29.27856681011562,1.5835246564990921,251.3245994416097,-8.889931369945216,43.51333843364748,-2.8801249274635925,0.1864514644583601,99.9663549941723,-1.8253556553596693,0.16915887935976737,-0.15835246564990924,0.5071173858117659,247.1809655285784,-52.722550997897194,29.106741565383956,0.2117429333486598,-15.068790011940651
GUIDED_NOGPS,4.5265514850616455,28.02704942132414,246.88106741339533,-51.76954031904645,29.312586653049735,1.0301820358511176,251.24038698288604,-8.324746941331696,43.561312735296674,-3.2332100625035207,0.43022465119581754,99.31834762685652,-1.662186411633307,0.2507898152512829,-0.10301820358511177,0.5071243630411235,243.86040076592477,-46.82370816000164,29.458146932604453,-0.5437382349731195,-15.126085791453734
GUIDED_NOGPS,4.577610492706299,19.588841614631253,245.68510495722313,-47.80562631130988,29.35581308412534,0.5152144649348825,251.15903965808803,-7.778791604294739,43.609642386280775,-3.6344444026540423,0.715955369839546,98.62028863330288,-1.547449700708519,0.2955554595504727,-0.051521446493488256,0.5071269146510777,243.49900060973593,-43.870619776030814,29.50255075438773,-2.033341138053288,-14.03746598070517
GUIDED_NOGPS,4.617231607437134,25.250919599048796,245.46798604750194,-43.79011869990512,29.485073698783413,-0.19479634041339036,251.08058431526848,-7.252245547153464,43.65831941732347,-3.8306740299612163,0.9122829676726272,98.11082482311163,-1.3900007581566218,0.2841826931546698,0.01947963404133904,0.50708662285927,244.69002836675833,-40.67602816368293,29.494523409358184,-1.2597626520932153,-13.178029288008934
GUIDED_NOGPS,4.661326885223389,22.679391583170666,244.70823242811943,-40.65265738325945,29.726027540849685,-0.6710422285512716,251.00504361474233,-6.74526085259636,43.70733575962921,-3.9853684231518964,1.1435510385351433,97.51513670483814,-1.309069769345188,0.3301955248063048,0.06710422285512717,0.5069906541093898,244.3107668696003,-37.41132421006464,30.181008458803262,-1.3987468008999713,-11.516451682129548
GUIDED_NOGPS,4.696674585342407,28.295727614331685,243.4294335701249,-36.64426399885605,30.30200562224766,-1.1860098946606663,250.93243591741367,-6.257960748198585,43.75668324753713,-4.049421510301452,1.2916602755922848,97.15618294319728,-1.135821821522881,0.40924796943758956,0.11860098946606663,0.5067273388126448,240.7869712386058,-31.845439622820617,31.230484998581648,-3.6912332010645486,-10.084057194302488
GUIDED_NOGPS,4.738611221313477,23.851193894900856,242.73819283779125,-32.65726041920332,31.125211646280864,-1.5247429089123845,250.8627751731026,-5.790438856937399,43.80635362117483,-4.0526453595896985,1.5180824339603827,96.7716364627364,-1.0073830983363705,0.4210842767366389,0.15247429089123846,0.506340570987447,240.40419710425658,-28.715017424724746,31.964141481457798,-2.8413231986736065,-8.479775367936185
GUIDED_NOGPS,4.774860858917236,27.594105263157896,241.84738827155724,-28.818119770771762,31.90459181877381,-1.8931284048557482,250.79607080887234,-5.342758447709812,43.85633852911225,-4.038504733573657,1.710440411225217,96.45817859115701,-0.8643155681840436,0.470123234823884,0.18931284048557484,0.5059758733551692,239.04497777856585,-25.893902264769963,32.5191489762821,-3.3952449826919207,-7.677634454753031
GUIDED_NOGPS,4.81906533241272,22.626538131638714,240.52271277187333,-25.960163917350773,32.4929310097362,-2.173748921077662,250.7323276173563,-4.9149516858481235,43.906629531015525,-4.047773300277364,1.8919688033958788,96.2370375563995,-0.7978624731014282,0.5389835982214501,0.2173748921077662,0.5057068492606397,238.06665086833874,-23.27157206255765,32.99550257146881,-3.937779093919289,-6.875493541569879
GUIDED_NOGPS,4.85956883430481,24.696637284862188,239.06063579598526,-23.254289403529736,33.073828433870084,-2.492247346172538,250.6715456450849,-4.50701888363723,43.95721810030081,-4.07009905424002,2.3045681514384784,95.85355658544914,-0.7039497417117164,0.6155643335856589,0.2492247346172538,0.5054416948332153,237.00038199015992,-20.597393883261624,33.70683375385945,-4.27410542693346,-6.875493541569879
GUIDED_NOGPS,4.905608892440796,21.72336568640653,238.21013981159422,-20.633159778122874,33.70435804482897,-2.771400717810643,250.61372008081258,-4.118927750830792,44.00809562678812,-4.046343229419893,2.6429335884867946,95.51096112687047,-0.62212063436559,0.6372393468667017,0.2771400717810643,0.5051518687909796,236.53449131665053,-18.030513388549384,34.41073780915877,-4.544738383583777,-6.760901982543714
GUIDED_NOGPS,4.948376893997192,23.38600844154758,237.05845396852692,-17.20191784739823,34.66466863863068,-3.0866344254895277,250.55884114384494,-3.7506126451675215,44.05925341935521,-3.963469129125543,2.9974797436788707,95.19639676464553,-0.4808378242287046,0.7006293124681098,0.3086634425489528,0.5046972923903623,234.64576788892018,-12.977846270383722,35.87643435287394,-5.5585927608719174,-6.818197762056797
GUIDED_NOGPS,4.988703012466431,24.80251673486766,235.90624461707642,-13.785808742834716,35.716751934401344,-3.3827271322055683,250.50689397236553,-3.4019738228882517,44.11068270859138,-3.820482533945911,3.2354217631341355,94.88643594992118,-0.3544417852277563,0.7573427333759636,0.33827271322055685,0.504196965387095,233.28393102131358,-10.349066569571082,36.86308364117145,-4.845532880925987,-6.990085100596044
GUIDED_NOGPS,5.030856370925903,23.7262570780466,234.80596019719502,-9.367784442695948,37.28010721239476,-3.6600505270025105,250.45785851176305,-3.0728766892519985,44.16237464945135,-3.611483441098575,3.333100298454488,94.60148045774825,-0.174349523937256,0.8074840400871556,0.3660050527002511,0.5034411337185283,232.56522876893158,-4.77644048813308,39.10080364313901,-5.616501405193233,-6.760901982543714
GUIDED_NOGPS,5.076370000839233,21.97650560114014,233.65786038800366,-5.732559518331449,38.65168839813237,-3.9345581792430524,250.4117094029581,-2.7631510490527518,44.21432032390909,-3.4197472244916236,3.29406918244245,94.3609416857479,-0.06015401962781334,0.8619741074698687,0.3934558179243053,0.5027813159628883,231.25988294420313,-2.0721714972902228,39.99117791008677,-6.125758570391028,-5.901465289847479
GUIDED_NOGPS,5.119791269302368,23.03524785536187,232.4124681270398,-1.9824417888069945,39.91553328342928,-4.207639806407812,250.36841587073042,-2.472590357135985,44.26651074361167,-3.132202450293022,3.1423583012585965,94.11972672501973,0.08321402137979061,0.9254249091646786,0.42076398064078124,0.5021754887300912,230.30753001183112,0.901286619002282,40.65461829706218,-6.534320834520599,-5.271211715203574
GUIDED_NOGPS,5.157986879348755,26.188865855790603,231.33662810110417,0.8792434950170004,40.57384723743897,-4.437694760774983,250.32794161204563,-2.2009509689148246,44.3189368525331,-2.900593083415417,2.904682659180962,93.9287273150695,0.17749952859999324,0.9766944513024588,0.44376947607749834,0.5018725448075471,229.26656775924192,3.808615363338905,41.075745505168086,-6.6821229052389555,-4.698253920072751
GUIDED_NOGPS,5.193821430206299,27.9123426966666,230.22956289387474,3.845141337101046,40.85933704801309,-4.61095247628357,250.29024468438251,-1.9479513908871837,44.37158952962818,-2.8106900781348894,2.807840822033936,93.85010500753349,0.29232335650773855,1.0328929961090059,0.461095247628357,0.5017561262408076,227.74860498516634,6.825522028961916,40.84764734180914,-6.128296639937844,-3.896113006889598
GUIDED_NOGPS,5.2353196144104,24.103810125854835,228.9712975006067,7.847367361419163,40.58309865575847,-4.732572123576871,250.2552773940597,-1.7132715311517615,44.424459591486354,-2.6057910197802654,2.546539982504051,93.71458722421126,0.45528132374208996,1.093768746089653,0.4732572123576871,0.501920680467864,226.27390180259133,12.907964691956632,39.8259031202983,-5.964455055945294,-2.3491269600363753
GUIDED_NOGPS,5.276535272598267,24.26641364467381,227.86839380347215,11.844663231787017,39.86514179940663,-4.83112596804202,250.2229861845629,-1.4965519499246085,44.47753779498554,-2.488483161115531,2.337343241057608,93.6791385424189,0.6067618259162182,1.143610569109862,0.48311259680420204,0.5023061979977894,225.7453644585302,15.80050297444246,38.92187493611258,-6.415127349243221,-0.7448451336700702
GUIDED_NOGPS,5.310863018035889,29.139657352471204,226.81633218160647,15.786498301605347,38.94312882201459,-4.875477003100782,250.1933115248717,-1.2973931100562623,44.530814839945975,-2.403766830735982,2.2061720193684518,93.69657601536994,0.7707295528812068,1.1986838790820273,0.4875477003100782,0.5027938430089657,225.04722190250283,18.6510272384169,38.08160840963303,-6.357427208968858,0.4583662361046586
GUIDED_NOGPS,5.353957414627075,23.20744089281861,225.89453502233204,18.619964309453394,38.103059850120935,-4.843992806331198,250.1661877977867,-1.115354627547461,44.58428137178409,-2.2035165698851977,1.986164369126348,93.82033904313057,0.8385509445513243,1.2343085637973168,0.4843992806331199,0.5032406107608316,224.6575819628699,21.408362715500772,37.30569620461732,-6.455651902935315,2.807493196141034
GUIDED_NOGPS,5.401291370391846,21.131804738944897,225.15177915532746,21.368288274429673,37.316049909096904,-4.740319092906278,250.1415431882565,-0.9499545220661076,44.637927984166296,-1.9537278007579573,1.8349704478852993,94.01943905743644,0.9365772184264942,1.264726449941089,0.4740319092906278,0.5036609390375347,224.03482565014338,24.045474869371304,36.560845113040465,-6.271866225977433,4.92743703812508
GUIDED_NOGPS,5.442083835601807,24.51949023734362,224.56031826825156,24.75191001936714,36.34928446216963,-4.537692661121653,250.1192995717045,-0.8006684674636091,44.691745221662906,-1.6075082864943613,1.6808341024941504,94.3167571920071,1.0856896618031073,1.291937465785668,0.45376926611216534,0.5041712303797466,223.31659736721198,28.80189247322931,35.181312068851184,-6.251108131890234,6.932789321082962
GUIDED_NOGPS,5.477313995361328,28.392071915953643,224.0932583143389,27.937564854750644,35.47596512603908,-4.277389507098727,250.09937240235615,-0.666929042291784,44.74572358240191,-1.2347333169028731,1.5883375463197222,94.61829638348482,1.213188804833609,1.3129437546375928,0.4277389507098727,0.5046348792281814,223.41006468896686,30.965327221651272,34.68573819622567,-6.181751914495862,8.88084582452776
GUIDED_NOGPS,5.518190145492554,24.468567694964296,223.60476250069755,30.874901906413015,34.601529807820214,-3.971938352598243,250.08167060156586,-0.5481249803187467,44.799853520722856,-0.9066792243454548,1.5354870366260445,95.06912984984068,1.3122315496208414,1.3353938950618807,0.3971938352598243,0.5050991618564513,222.60474283429602,32.857486024358415,33.93753915838387,-5.77760386403429,11.058085446024888
GUIDED_NOGPS,5.5634331703186035,22.10798075047834,223.28978750685414,32.87415194647725,34.016536870006576,-3.571250497313441,250.06609644614377,-0.4436004210459856,44.8541254498307,-0.6162469343143776,1.5237922586631016,95.52964169425044,1.366427809587241,1.345475456692115,0.3571250497313441,0.5054187942899121,223.082706993653,34.79964259342202,33.42633325541026,-5.794334013722846,12.490479933851947
STABILIZE,5.601779460906982,26.080898401308303,223.02063235861254,35.14897359424864,33.22631633131148,-3.0751343848791226,250.05254545668305,-0.35265416022464535,44.90852974444964,-0.3916191413464361,1.5665076214021267,96.08271626229224,1.465022745792226,1.358173044060194,0.3075134384879123,0.5058411067065691,222.68904990893537,37.78979216496544,32.315076580140385,-5.070550842875093,13.922874421679005
STABILIZE,5.639532089233398,26.495751764044446,222.86173147315617,37.16432248364317,32.60894057793958,-2.5773424892375716,250.04090628588676,-0.2745389003718657,44.96305674347694,-0.3114722608824784,1.5564239143096608,96.72005487412446,1.538721506716252,1.3628704594385923,0.2577342489237572,0.5061770580827687,222.52209293993002,38.90353269254203,32.085411898268156,-4.582113660507403,14.839606893888321
STABILIZE,5.675515651702881,27.79267662377248,222.8243441702156,38.90571019434774,32.11117625008268,-2.062126866687717,250.03106060689484,-0.20846050128825766,45.01769675263684,-0.42849362512804245,1.4651881683673345,97.30397457645802,1.6016627531610035,1.3610981303361387,0.20621268666877168,0.5064532602512771,223.22312817426402,40.02380572553573,31.93304027183956,-4.467211295232218,15.2406773504799
STABILIZE,5.717711448669434,23.705740058327493,223.00700512705666,39.91516993790256,31.969731179699096,-1.5413806456888002,250.02288300161104,-0.1535772305725942,45.072440047134315,-0.6988205596460996,1.2575627973168175,97.94763794346169,1.620904858113389,1.346256975090126,0.15413806456888002,0.5065513544337176,223.51804761850147,40.818171395629896,31.890741368989648,-4.1734121511301225,15.928226704636886
STABILIZE,5.76165246963501,22.759136365856172,223.18306844470945,40.791967142445294,31.92827755959387,-0.9136002589210613,250.01624084903,-0.10899901414036606,45.12727687430899,-0.9263688454536033,1.1216197279970554,98.65123622043221,1.6511510152674653,1.3375114057738606,0.09136002589210614,0.5065994996573575,223.963023581917,41.53392430617025,31.961051037952473,-3.4831876795752805,16.558480279280793
STABILIZE,5.801238775253296,25.266739356991824,223.65083660615056,41.549307083695034,31.795225764236402,-0.22293722357517598,250.01099421356423,-0.07378668673887034,45.18219745628895,-0.9910515906672703,1.1990397087957385,99.39192925478507,1.679569364440045,1.3060162465159775,0.0222937223575176,0.5066934858460262,225.0278907161411,42.29582554928497,31.533884885767147,-2.4359104699342,17.131438074411616
STABILIZE,5.853651762008667,19.082278970523337,224.21889697101437,42.078088573714666,31.528789060961973,0.4054859199272298,250.0069957333711,-0.046951242464686516,45.2371919926446,-0.9459955007553407,1.1152363826091496,100.33220724687487,1.6926508139689818,1.2785078388378743,-0.04054859199272298,0.5068542014658413,225.36239476424913,42.40451586568879,31.09143125916637,-1.8338103073403715,16.95955073587237
STABILIZE,5.897114992141724,23.015402850103435,225.21375531062466,42.57900646459219,31.327581646426836,1.2531146862637643,250.00409050867978,-0.02745308527944701,45.29225066304249,-0.9477301553611124,0.9321634071907129,101.01011035218781,1.713205259192369,1.2163382644620824,-0.12531146862637643,0.5069823345083079,228.1974198723156,43.03667797880283,31.35742879434705,-1.1811568249334528,16.78766339733312
STABILIZE,5.929936408996582,30.475659022873252,226.3037422482552,42.84386477971534,31.396423064625314,1.9337350096385344,250.00211599011823,-0.01420127952640371,45.347363629899206,-0.8932444023305984,0.5684741900209282,101.62455416992216,1.7203956066688375,1.1519731814496217,-0.19337350096385345,0.5069754702826369,228.96798230665397,43.09040049465443,31.740409140362587,-0.7274001048182868,16.443888720254627
