Mode,Time,Freq,time2delay,actualDelay,North-Desired,East-Desired,Down-Desired,Roll-UAV,Pitch-UAV,Yaw-UAV,Roll-Control,Pitch-Control,Yaw-Control,Thrust-Control,North-Pos,East-Pos,Down-Pos,Yaw-Ang,North-Vel,East-Vel,Down-Vel,Yaw-Vel,North-Acc,East-Acc,Down-Acc,North-Avg,East-Avg,Down-Avg,Yaw-Avg,North-Dif,East-Dif,Down-Dif,Yaw-Dif,North-One,East-One,Down-One,Yaw-One,North-Two,East-Two,Down-Two,Yaw-Two,Landing-State,Q-Size,Kalman-Time,Kalman-Dt
STABILIZE,0.034334659576416016,29.133989969853992,0.03277710278828939,0.032912254333496094,0.0,0.0,0.0,-0.2468115537010553,-1.1720142510755847,8.781741555520059,-0.14190370165640645,0.13743199285636945,0.022445817114244995,0.4,0.11102701196087923,0.11419541090456546,0.1607325995819146,0.1111574245989711,-0.012545206118375063,0.017572414071764797,1.8561989068984985,-0.05674174316902804,3.5175807774066925,-0.413364777341485,27.62129008769989,0.0,0.0,0.0,0.0,0.0,0.0,0.0,0.0,0.0,0.0,0.0,0.0,0.0,0.0,0.0,0.0,False,0,0.14498639106750488,0.034859130859375
STABILIZE,0.06776213645935059,29.915082699151966,0.03234365781148275,0.03248906135559082,0.0,0.0,0.0,-0.24707110088951578,-1.1719416803156533,8.78171423476338,-0.08083545360195936,0.07810498982007717,0.015619603715678549,0.4,0.12333673139815182,0.12710306777644673,0.1921640975240716,0.1231710529650544,-0.012545206118375063,0.017572414071764797,1.8561989068984985,-0.05674174316902804,3.5175807774066925,-0.413364777341485,27.62129008769989,0.0,0.0,0.0,0.0,0.0,0.0,0.0,0.0,0.0,0.0,0.0,0.0,0.0,0.0,0.0,0.0,False,0,0.173600435256958,0.034859130859375
STABILIZE,0.10111141204833984,29.984372654289658,0.03241613705952962,0.03252816200256348,0.0,0.0,0.0,-0.24520912728874683,-1.1728289645775203,8.783341527333135,-0.059980978790196135,0.057757704253266165,0.013705163662952942,0.4,0.1336977539308697,0.1382015012295753,0.22486620400137924,0.13416242459529776,0.04710512002930045,0.09735248750075698,1.9933201372623444,0.13808681490422048,0.10208413004875183,1.37114766985178,19.713014364242554,0.0,0.0,0.0,0.0,0.0,0.0,0.0,0.0,0.0,0.0,0.0,0.0,0.0,0.0,0.0,0.0,False,0,0.20230960845947266,0.0399140625
STABILIZE,0.13458657264709473,29.873109028232815,0.03251007397969564,0.03263521194458008,0.0,0.0,0.0,-0.24567390031742503,-1.172873574250537,8.783789758497416,-0.04998814942861826,0.04795702698900661,0.01323203623507542,0.4,0.14470126578617326,0.15006871623533452,0.2607282739345861,0.14694124238415873,-0.0031389714422402903,0.04396522126626223,1.6185721382498741,0.19347199179063407,1.0996175929903984,-0.8080744184553623,16.330061852931976,0.0,0.0,0.0,0.0,0.0,0.0,0.0,0.0,0.0,0.0,0.0,0.0,0.0,0.0,0.0,0.0,False,0,0.2309868335723877,0.029935791015625
STABILIZE,0.16810369491577148,29.83698265682132,0.03248122533162435,0.032608985900878906,0.0,0.0,0.0,-0.24589876295150656,-1.1717028371381144,8.784254211360977,-0.043041238700075285,0.04039807720603226,0.012568811882903461,0.4,0.14891608235572923,0.15787144358549607,0.3080102095397231,0.15124491122527403,0.23453168105334044,0.11303515639156103,1.6588320955634117,-0.06073537612107565,3.0559200793504715,-0.4682315979152918,26.769983768463135,0.0,0.0,0.0,0.0,0.0,0.0,0.0,0.0,0.0,0.0,0.0,0.0,0.0,0.0,0.0,0.0,False,0,0.28842711448669434,0.034923828125
STABILIZE,0.20155787467956543,29.89163109245494,0.03240230878194173,0.03253459930419922,0.0,0.0,0.0,-0.24507380416581595,-1.172051176785785,8.784836484987721,-0.016298067617682016,0.01449529598051274,0.009565378996809041,0.4,0.15215867223162682,0.1613447267363842,0.3366470259527484,0.15445087044987826,-0.041542877443134785,-0.060041475808247924,1.6039380803704262,-0.05580894876975189,1.249571517109871,-1.006918027997017,17.69210994243622,0.0,0.0,0.0,0.0,0.0,0.0,0.0,0.0,0.0,0.0,0.0,0.0,0.0,0.0,0.0,0.0,False,0,0.3170785903930664,0.02993603515625
STABILIZE,0.23512506484985352,29.7918415762819,0.03238085110982259,0.0325169563293457,0.0,0.0,0.0,-0.2445994261836174,-1.1722630193717614,8.785066150098563,-0.013325674307385049,0.011799389155535071,0.00945935883953766,0.4,0.15295811109642785,0.1616965677067288,0.36064714745950677,0.15631055856344586,0.046806095633655787,-0.006896498234709725,1.8045077100396156,0.139271452518821,2.012578584253788,-0.533355213701725,29.4844388961792,0.0,0.0,0.0,0.0,0.0,0.0,0.0,0.0,0.0,0.0,0.0,0.0,0.0,0.0,0.0,0.0,False,0,0.3458564281463623,0.034925048828125
STABILIZE,0.2684791088104248,29.981157700610446,0.032282384236653645,0.03240680694580078,0.0,0.0,0.0,-0.24542929416777395,-1.1726735777739026,8.786890664380602,-0.011164750491315614,0.009652046025282015,0.009336499503364395,0.4,0.15407583641108435,0.16345555420939953,0.38881609301534964,0.15756907717401428,-0.05719573237001896,-0.020602230506483465,1.6441930085420609,-0.05599223662932492,0.19416171126067638,-0.8531694300472736,20.207086205482483,0.0,0.0,0.0,0.0,0.0,0.0,0.0,0.0,0.0,0.0,0.0,0.0,0.0,0.0,0.0,0.0,False,0,0.37448620796203613,0.034925048828125
STABILIZE,0.3018946647644043,29.924900649966823,0.03234675725301107,0.032469987869262695,0.0,0.0,0.0,-0.24504232126261044,-1.1726589569002104,8.788070579559722,-0.008620811765735117,0.00683562598346266,0.009013914051958415,0.4,0.15326699522216414,0.16447436324977063,0.41774471116503753,0.15699834814490526,-0.1332663232460618,0.0015867455658735707,1.7697101458907127,-0.1216421473016363,-1.283019781112671,-0.81545514985919,22.30471968650818,0.0,0.0,0.0,0.0,0.0,0.0,0.0,0.0,0.0,0.0,0.0,0.0,0.0,0.0,0.0,0.0,False,0,0.4034759998321533,0.034925048828125
STABILIZE,0.33536791801452637,29.873321795118336,0.032411845525105794,0.03255963325500488,0.0,0.0,0.0,-0.24414585893404625,-1.1730348307479728,8.788091070127232,-0.006823130227627229,0.005386154579893505,0.008866795323494473,0.4,0.15150843056578434,0.16463326315011922,0.4459927708383552,0.15546262513509443,-0.1332663232460618,0.0015867455658735707,1.7697101458907127,-0.1216421473016363,-1.283019781112671,-0.81545514985919,22.30471968650818,0.0,0.0,0.0,0.0,0.0,0.0,0.0,0.0,0.0,0.0,0.0,0.0,0.0,0.0,0.0,0.0,False,0,0.43192148208618164,0.034925048828125
STABILIZE,0.36887645721435547,29.845687489771088,0.03241160710652669,0.03255748748779297,0.0,0.0,0.0,-0.24435193854791024,-1.1730821084636338,8.789101084350747,-0.005531982787483922,0.0037039789351001845,0.00860213597312991,0.4,0.14803551851242283,0.1628420643713477,0.48954562704162385,0.1520762368287509,-0.23655695840716362,-0.01997171202674508,1.869274489581585,0.12419862574299126,0.3094310173764825,-0.8200879208743572,22.897180914878845,0.0,0.0,0.0,0.0,0.0,0.0,0.0,0.0,0.0,0.0,0.0,0.0,0.0,0.0,0.0,0.0,False,0,0.49073266983032227,0.034925048828125
STABILIZE,0.4023292064666748,29.892270193993472,0.03235772450764974,0.03249716758728027,0.0,0.0,0.0,-0.24318621735565946,-1.1727942800231412,8.789779834399518,-0.004979105083883596,0.00220112099882617,0.008657156520478966,0.4,0.1430666271794629,0.16101481792108027,0.5170894235235879,0.152185989507249,-0.23655695840716362,-0.01997171202674508,1.869274489581585,0.12419862574299126,0.3094310173764825,-0.8200879208743572,22.897180914878845,0.0,0.0,0.0,0.0,0.0,0.0,0.0,0.0,0.0,0.0,0.0,0.0,0.0,0.0,0.0,0.0,False,0,0.5199127197265625,0.034925048828125
STABILIZE,0.4357314109802246,29.935365992919948,0.032352717717488606,0.03247976303100586,0.0,0.0,0.0,-0.24287789834765686,-1.1716481956247544,8.791250032618363,-0.004318722810914124,0.0020187131223054224,0.008484861705750826,0.4,0.1432858227822476,0.1600277404270337,0.5371436543515934,0.1492518130850542,0.16932262806221843,0.0758536159992218,1.401312742382288,-0.06309217825091351,4.918576031923294,-0.9147080592811108,17.213578522205353,0.0,0.0,0.0,0.0,0.0,0.0,0.0,0.0,0.0,0.0,0.0,0.0,0.0,0.0,0.0,0.0,False,0,0.5481898784637451,0.034925048828125
STABILIZE,0.4692089557647705,29.872470745760538,0.03242019017537435,0.0325474739074707,0.0,0.0,0.0,-0.2429299785400782,-1.1718810623867695,8.792276268541158,-0.0034947614327832132,0.0007909739259435864,0.00848542741231132,0.4,0.13791058979031692,0.15778549516597692,0.5599722590278626,0.1478072397087521,-0.19643085543066263,0.016685396258253604,1.6708364710211754,0.06948414141656119,-0.21068472415208817,1.1839637532830238,26.690611243247986,0.0,0.0,0.0,0.0,0.0,0.0,0.0,0.0,0.0,0.0,0.0,0.0,0.0,0.0,0.0,0.0,False,0,0.5771603584289551,0.064861083984375
STABILIZE,0.5031964778900146,29.421943503300433,0.03237894376118978,0.033111572265625,0.0,0.0,0.0,-0.24254460646050138,-1.1708236637258869,8.794441438508052,-0.004612194658814446,0.0010535734227220229,0.009002930422020697,0.4,0.13723960352411832,0.16203735516156634,0.6187818411377223,0.15244113175558052,-0.19643085543066263,0.016685396258253604,1.6708364710211754,0.06948414141656119,-0.21068472415208817,1.1839637532830238,26.690611243247986,0.0,0.0,0.0,0.0,0.0,0.0,0.0,0.0,0.0,0.0,0.0,0.0,0.0,0.0,0.0,0.0,False,0,0.6059105396270752,0.064861083984375
STABILIZE,0.5366756916046143,29.870556061987237,0.032449992497762044,0.03255748748779297,0.0,0.0,0.0,-0.24207748555429598,-1.1702609201713012,8.794746235699764,-0.005667160824392099,0.0022080832330454198,0.009167947730053845,0.4,0.1383694776230035,0.1642533710405255,0.6751895784990678,0.15196726635894955,0.04912099684588611,0.030156230786815286,1.7835628241300583,-0.10670736505223485,4.835300147533417,1.1576959863305092,27.735450863838196,0.0,0.0,0.0,0.0,0.0,0.0,0.0,0.0,0.0,0.0,0.0,0.0,0.0,0.0,0.0,0.0,False,0,0.6347434520721436,0.034925048828125
STABILIZE,0.5701894760131836,29.837407165011523,0.032401355107625325,0.03264260292053223,0.0,0.0,0.0,-0.2419870922694991,-1.170888550523002,8.795962009372026,-0.0035844391326378994,-0.0009368561516051565,0.00857274372176384,0.4,0.1221360080266307,0.15480500725564386,0.6964256595310434,0.14334683550396748,-0.15006344765424728,0.0748401100281626,1.6771188005805016,0.07845972368736535,1.84684619307518,0.9684338234364986,20.599152147769928,0.0,0.0,0.0,0.0,0.0,0.0,0.0,0.0,0.0,0.0,0.0,0.0,0.0,0.0,0.0,0.0,False,0,0.6919395923614502,0.029909912109375
STABILIZE,0.6036975383758545,29.84398858696039,0.03238347371419271,0.032507896423339844,0.0,0.0,0.0,-0.24127515177023104,-1.170443627731599,8.798063146315451,-0.0021301240370002424,-0.001407418358310727,0.008131752034183176,0.4,0.12049336672526112,0.14843664220858732,0.700302145272468,0.13559393525382918,0.2061178209260106,-0.0074436225986573845,1.4883209019899368,-0.10654330711002231,-0.28694625943899155,-0.9613504633307457,23.65473508834839,0.0,0.0,0.0,0.0,0.0,0.0,0.0,0.0,0.0,0.0,0.0,0.0,0.0,0.0,0.0,0.0,False,0,0.7208967208862305,0.074840087890625
STABILIZE,0.6372213363647461,29.83337482484654,0.03239467938741048,0.03253316879272461,0.0,0.0,0.0,-0.24181078801154815,-1.169838088772995,8.796566481113572,-0.0026814837913938855,0.0001901005415627545,0.008201064185221003,0.4,0.1215830455972551,0.148386848337586,0.7578206506903248,0.13479160644352733,0.13284723972901702,0.014234683476388454,1.5834171324968338,0.003741066030155895,5.561395362019539,-0.9128264151513577,22.42071032524109,0.0,0.0,0.0,0.0,0.0,0.0,0.0,0.0,0.0,0.0,0.0,0.0,0.0,0.0,0.0,0.0,False,0,0.7495887279510498,0.02494580078125
STABILIZE,0.6710131168365479,29.589028726226086,0.032274516423543294,0.032919883728027344,0.0,0.0,0.0,-0.24096725964905158,-1.1704357303253712,8.799032179403946,8.627863680935208e-05,-0.002175216617828982,0.007634742152081521,0.4,0.11199100644549319,0.1416612440053563,0.7512333691443505,0.12828232273752377,-0.17385188257321715,0.04224608710501343,1.5290900133550167,0.01994882145106517,-1.9279196858406067,-0.7651758380234241,26.961156725883484,0.0,0.0,0.0,0.0,0.0,0.0,0.0,0.0,0.0,0.0,0.0,0.0,0.0,0.0,0.0,0.0,False,0,0.7831873893737793,0.034925048828125
STABILIZE,0.7045679092407227,29.802849326748856,0.032506736119588216,0.03262591361999512,0.0,0.0,0.0,-0.24089906447905723,-1.1700673269970137,8.798743603911513,0.0020024175346814743,-0.004703050660710645,0.00731398331416856,0.4,0.10352195554585272,0.13644441928697204,0.7569563242876938,0.12305924950174695,-0.17385188257321715,0.04224608710501343,1.5290900133550167,0.01994882145106517,-1.9279196858406067,-0.7651758380234241,26.961156725883484,0.0,0.0,0.0,0.0,0.0,0.0,0.0,0.0,0.0,0.0,0.0,0.0,0.0,0.0,0.0,0.0,False,0,0.8117592334747314,0.034925048828125
STABILIZE,0.7380163669586182,29.896744670083326,0.03238514264424642,0.03251218795776367,0.0,0.0,0.0,-0.2412230715778097,-1.1706324184291266,8.79892204260358,0.0009129749711088212,-0.0009668443170506184,0.007799687561753105,0.4,0.10296035844137824,0.13200691872219492,0.7603973086140802,0.12487558680759504,0.23007888812571764,0.07540392107330263,1.4286618679761887,0.37966951195008725,4.564272612333298,1.0653695091605186,22.834834456443787,0.0,0.0,0.0,0.0,0.0,0.0,0.0,0.0,0.0,0.0,0.0,0.0,0.0,0.0,0.0,0.0,False,0,0.8412215709686279,0.034925048828125
STABILIZE,0.771416425704956,29.93942595275995,0.032386096318562825,0.032503366470336914,0.0,0.0,0.0,-0.24150705803689415,-1.1707460770457838,8.797821528373563,0.0008428783443728693,-0.002698752802500874,0.008093655636324925,0.4,0.09501243976253913,0.12654662589641774,0.7765930064902625,0.12461095569218532,-0.16571579035371542,0.014073692727833986,2.115960232913494,0.2640245909048395,4.92263063788414,-0.7160449400544167,30.105826258659363,0.0,0.0,0.0,0.0,0.0,0.0,0.0,0.0,0.0,0.0,0.0,0.0,0.0,0.0,0.0,0.0,False,0,0.8691318035125732,0.029936279296875
STABILIZE,0.8048005104064941,29.953537532047392,0.0324275811513265,0.03253364562988281,0.0,0.0,0.0,-0.2414980934136085,-1.1709387097247193,8.798355990676114,0.0038159900070112154,-0.00639866085424829,0.00764363293014275,0.4,0.08216935800879117,0.11541938813579325,0.7930447370567164,0.11769539723064103,-0.03267395659349859,0.0046439869038295,1.906626671552658,-0.04904442679932779,0.7555308751761913,-0.8094536140561104,27.75542438030243,0.0,0.0,0.0,0.0,0.0,0.0,0.0,0.0,0.0,0.0,0.0,0.0,0.0,0.0,0.0,0.0,False,0,0.9267547130584717,0.0349248046875
STABILIZE,0.8382349014282227,29.909322988718856,0.03248122533162435,0.03259706497192383,0.0,0.0,0.0,-0.24067815054808964,-1.1708105369560757,8.799512853966785,0.0035612986522541995,-0.005655483071487106,0.0069852318768253915,0.4,0.07648950804906778,0.11039899911488035,0.8021123142452208,0.10616668184871036,-0.08136528194881976,0.0037274272472131997,1.7474642023444176,-0.37105683016968627,0.0713104847818613,-0.861082412302494,24.495916068553925,0.0,0.0,0.0,0.0,0.0,0.0,0.0,0.0,0.0,0.0,0.0,0.0,0.0,0.0,0.0,0.0,False,0,0.9552133083343506,0.064860107421875
STABILIZE,0.8717916011810303,29.80052008582837,0.032485040028889973,0.03262925148010254,0.0,0.0,0.0,-0.24059341351369914,-1.1694657367415238,8.798656518999596,0.0030730251499668892,-0.005825804974334416,0.0068431397843673435,0.4,0.06828988726939443,0.10750944213608377,0.8401996028130835,0.10158184224946547,-0.1944909803569317,0.05049450555816293,1.565290242433548,-0.05620335884378707,-0.5767728202044964,-0.746384309604764,27.85738706588745,0.0,0.0,0.0,0.0,0.0,0.0,0.0,0.0,0.0,0.0,0.0,0.0,0.0,0.0,0.0,0.0,False,0,0.9840242862701416,0.03492578125
STABILIZE,0.905210018157959,29.925541174959687,0.03238967259724935,0.0325160026550293,0.0,0.0,0.0,-0.24019843648060202,-1.1702662562565904,8.79884691052271,0.0030755491240382236,-0.006174960835949574,0.006411827993197092,0.4,0.06645362797548006,0.10349295240079667,0.8443874492026426,0.0960590848706867,0.11255700374022126,0.06324672140181065,1.728535257279873,-0.02770524830555512,6.909969449043274,1.02359838783741,23.739270865917206,0.0,0.0,0.0,0.0,0.0,0.0,0.0,0.0,0.0,0.0,0.0,0.0,0.0,0.0,0.0,0.0,False,0,1.0127367973327637,0.034925048828125
STABILIZE,0.9396159648895264,29.063333240943486,0.032416613896687825,0.03352618217468262,0.0,0.0,0.0,-0.23995489754800875,-1.1711650664626818,8.80164387298783,0.002753025260040216,-0.004695428711855498,0.006061448249208076,0.4,0.06480333175529719,0.0996646051266891,0.8484235317690814,0.09073556137654634,0.11255700374022126,0.06324672140181065,1.728535257279873,-0.02770524830555512,6.909969449043274,1.02359838783741,23.739270865917206,0.0,0.0,0.0,0.0,0.0,0.0,0.0,0.0,0.0,0.0,0.0,0.0,0.0,0.0,0.0,0.0,False,0,1.041377305984497,0.034925048828125
STABILIZE,0.9730827808380127,29.88162206833661,0.032448800404866536,0.03256964683532715,0.0,0.0,0.0,-0.23971391993635424,-1.1709692321325726,8.801638750345953,0.0015356444068622699,-0.002574896671405598,0.006253282961506367,0.4,0.06123172570440843,0.09422351386797173,0.8550850614745348,0.08979550864330932,0.0038742218748666346,-0.030000481638126075,1.8736639991402626,0.19015304012232356,4.114188626408577,-0.9079066105186939,25.991564989089966,0.0,0.0,0.0,0.0,0.0,0.0,0.0,0.0,0.0,0.0,0.0,0.0,0.0,0.0,0.0,0.0,False,0,1.070035457611084,0.034925048828125
STABILIZE,1.006638765335083,29.801155297243913,0.03242376645406087,0.03262591361999512,0.0,0.0,0.0,-0.24010612220510105,-1.1711888654030709,8.80477551472228,0.0022008605856366097,-0.002007842530181,0.00584682539136228,0.4,0.058246891951415136,0.08722006531965498,0.8495587745117524,0.07971772480840535,0.1577423419803381,0.0712751760147512,1.3568210415542126,-0.007694461564070595,8.19241851568222,-1.0046998038887978,20.956861972808838,0.0,0.0,0.0,0.0,0.0,0.0,0.0,0.0,0.0,0.0,0.0,0.0,0.0,0.0,0.0,0.0,False,0,1.1287791728973389,0.0349248046875
STABILIZE,1.0403542518615723,29.66121903441838,0.0323672612508138,0.03272700309753418,0.0,0.0,0.0,-0.24023365464350988,-1.1713096743740157,8.80575308554724,0.0023455121899796077,0.0004659858243026924,0.005656140330497874,0.4,0.060131883202707404,0.08403074582277606,0.8508895426061185,0.07497109423428085,0.2707104664295912,0.05861824029125273,1.5895724296569824,-0.038496707070337255,-0.7477414328604937,1.0561607778072357,24.441495537757874,0.0,0.0,0.0,0.0,0.0,0.0,0.0,0.0,0.0,0.0,0.0,0.0,0.0,0.0,0.0,0.0,False,0,1.156038761138916,0.03493115234375
STABILIZE,1.0738871097564697,29.82022423979581,0.032346518834431966,0.032642364501953125,0.0,0.0,0.0,-0.2404515803667156,-1.1712909980755037,8.805619043084777,0.0021843770054799905,0.0014480615111680019,0.005503045279167205,0.4,0.06211993154759708,0.08099214796868252,0.8520515483777164,0.07038757013692006,0.2707104664295912,0.05861824029125273,1.5895724296569824,-0.038496707070337255,-0.7477414328604937,1.0561607778072357,24.441495537757874,0.0,0.0,0.0,0.0,0.0,0.0,0.0,0.0,0.0,0.0,0.0,0.0,0.0,0.0,0.0,0.0,False,0,1.1847996711730957,0.03493115234375
STABILIZE,1.1074254512786865,29.816832422211007,0.03244522412618001,0.032570600509643555,0.0,0.0,0.0,-0.24023386808692146,-1.171660041734096,8.807851661169725,0.0018485924297987487,7.953352901662026e-05,0.005239965696214666,0.4,0.05557829842418911,0.0788922190510603,0.8517494741695011,0.06461838384811514,-0.19913120195269585,0.10193161433562636,1.5186489559710026,-0.11197353428380724,-3.9971888065338135,1.0646947659552097,25.301864743232727,0.0,0.0,0.0,0.0,0.0,0.0,0.0,0.0,0.0,0.0,0.0,0.0,0.0,0.0,0.0,0.0,False,0,1.2134861946105957,0.02993603515625
STABILIZE,1.140869140625,29.899941544647056,0.03234890302022298,0.03246879577636719,0.0,0.0,0.0,-0.24028167941111153,-1.1708957008772893,8.808115477226417,0.0014762887646507107,-0.0015584474495616701,0.004963318610505385,0.4,0.04629336263373372,0.07539943169502365,0.8532630508331314,0.060299473267817434,-0.36056817043572664,0.02112646325258538,1.8975075334310532,-0.0471234927911679,-3.8461726158857346,-0.8993331342935562,27.662700414657593,0.0,0.0,0.0,0.0,0.0,0.0,0.0,0.0,0.0,0.0,0.0,0.0,0.0,0.0,0.0,0.0,False,0,1.2420992851257324,0.0349248046875
STABILIZE,1.174386739730835,29.834860297046607,0.0323360284169515,0.03250861167907715,0.0,0.0,0.0,-0.23965735743229005,-1.1715333630693334,8.809005109365811,0.0007221580859042737,-0.0014342684855571594,0.005129222831733104,0.4,0.04408071216100588,0.0719405306973145,0.8571562124658167,0.05812363850857859,0.025571559672243893,0.010503978410270065,1.7368059605360031,0.06734497152523815,3.6262642592191696,-0.9848914109170437,24.247072637081146,0.0,0.0,0.0,0.0,0.0,0.0,0.0,0.0,0.0,0.0,0.0,0.0,0.0,0.0,0.0,0.0,False,0,1.2709898948669434,0.034925048828125
STABILIZE,1.2077381610870361,29.982872256773177,0.032326491673787434,0.03245663642883301,0.0,0.0,0.0,-0.24043130324261713,-1.172216808873158,8.809924623582825,0.001465648574920809,-0.001850277418661266,0.00413238993451583,0.4,0.0441687594495658,0.06632623955660728,0.8410817762975373,0.043522082192714806,0.14073438942432404,0.036994789843447506,1.2135292403399944,-0.23857813418257515,1.3957586139440536,0.8326849900186062,18.07773858308792,0.0,0.0,0.0,0.0,0.0,0.0,0.0,0.0,0.0,0.0,0.0,0.0,0.0,0.0,0.0,0.0,False,0,1.3290565013885498,0.02993603515625
STABILIZE,1.242100715637207,29.10245486462858,0.03243234952290853,0.0334928035736084,0.0,0.0,0.0,-0.24036492234162107,-1.1724327068839537,8.8114562935042,0.0015839044039588027,-0.004222095066825229,0.003769002001449041,0.4,0.036918928795961446,0.06308750974974325,0.8395543329577057,0.036883091536138383,-0.2886843401938677,0.00029070224627503194,1.6939230263233185,-0.2270747615989514,-4.1680168360471725,-1.0048574768006802,22.26811647415161,0.0,0.0,0.0,0.0,0.0,0.0,0.0,0.0,0.0,0.0,0.0,0.0,0.0,0.0,0.0,0.0,False,0,1.3577296733856201,0.0349248046875
STABILIZE,1.2756822109222412,29.778093317808764,0.032448561986287434,0.03258323669433594,0.0,0.0,0.0,-0.24057441705007004,-1.1723981290512806,8.811149788765196,0.0016790265587334563,-0.003971676171545484,0.003765214114005233,0.4,0.03201381323978259,0.06082767983051447,0.8452273310682518,0.0343881846689514,-0.15584612265229225,0.04853241262026131,1.8246766179800034,0.017871903664745777,1.1196804232895374,1.0005824267864227,20.60704380273819,0.0,0.0,0.0,0.0,0.0,0.0,0.0,0.0,0.0,0.0,0.0,0.0,0.0,0.0,0.0,0.0,False,0,1.386763095855713,0.06985009765625
STABILIZE,1.3090922832489014,29.932161539175176,0.03230431874593099,0.0324251651763916,0.0,0.0,0.0,-0.23992149365409915,-1.1721986661831751,8.811615095402402,0.0016899374998610717,-0.002938354967139115,0.003590581843711846,0.4,0.02758521540707973,0.05764482146700685,0.8805009704975262,0.030332490268018344,-0.06299415254034102,-0.0053394996939459816,1.6977356746792793,0.025880747363728685,-0.8438307791948318,-0.8346571587026119,25.738820433616638,0.0,0.0,0.0,0.0,0.0,0.0,0.0,0.0,0.0,0.0,0.0,0.0,0.0,0.0,0.0,0.0,False,0,1.415525197982788,0.02993603515625
STABILIZE,1.3435416221618652,29.02893685937143,0.03231099446614583,0.033327341079711914,0.0,0.0,0.0,-0.23980345944750486,-1.173424898582604,8.813735869139691,0.0016802575954875814,-0.0031880362328007414,0.003545186001815686,0.4,0.02461002499746669,0.05450420086542592,0.8755705992388649,0.028688589321773372,-0.06299415254034102,-0.0053394996939459816,1.6977356746792793,0.025880747363728685,-0.8438307791948318,-0.8346571587026119,25.738820433616638,0.0,0.0,0.0,0.0,0.0,0.0,0.0,0.0,0.0,0.0,0.0,0.0,0.0,0.0,0.0,0.0,False,0,1.444221019744873,0.02993603515625
STABILIZE,1.3780696392059326,28.9635875232196,0.03221920331319173,0.033516883850097656,0.0,0.0,0.0,-0.2396796622687984,-1.1739932983875958,8.814401812583768,0.0009659136258453677,-0.004438196871184573,0.003884258866206023,0.4,0.019892564192018358,0.05206355736044377,0.8743814867650846,0.02721238973808571,-0.167237117420882,0.02378072531428188,1.8662594258785248,0.02841596817531329,1.23604079708457,-0.8597370237112045,26.18965208530426,0.0,0.0,0.0,0.0,0.0,0.0,0.0,0.0,0.0,0.0,0.0,0.0,0.0,0.0,0.0,0.0,False,1,1.4729385375976562,0.034925048828125
STABILIZE,1.411780834197998,29.65933133450246,0.03231194814046224,0.03280758857727051,0.0,0.0,0.0,-0.23845663152054297,-1.1742201887340873,8.814657944677643,0.0017323438234336493,-0.005093707367780477,0.003990219798507091,0.4,0.011098263664226823,0.046333919166760926,0.873799306257677,0.025896761821439927,-0.2448707353323698,-0.10224544676020741,1.7645640298724174,0.07387361851556541,-0.08009190205484629,-1.037160214036703,22.58293926715851,0.0,0.0,0.0,0.0,0.0,0.0,0.0,0.0,0.0,0.0,0.0,0.0,0.0,0.0,0.0,0.0,False,0,1.5302515029907227,0.034925048828125
STABILIZE,1.4452707767486572,29.86098632360584,0.0324435551961263,0.03258204460144043,0.0,0.0,0.0,-0.23961445530656592,-1.1743940383928053,8.814176416341157,0.0016184142718510246,-0.0038427923580629094,0.0040344914688487795,0.4,0.011384209956050254,0.044719496141308615,0.8755268635123543,0.02530579900810946,0.10343773756176233,0.05122197326272726,1.7088934779167175,0.06938737150984385,3.9762280881404877,1.0026579722762108,21.30766212940216,0.0,0.0,0.0,0.0,0.0,0.0,0.0,0.0,0.0,0.0,0.0,0.0,0.0,0.0,0.0,0.0,False,0,1.5588836669921875,0.0349248046875
STABILIZE,1.4787096977233887,29.90441831780232,0.032404216130574544,0.032536983489990234,0.0,0.0,0.0,-0.23905640750703472,-1.1740550902552433,8.814491458816624,0.0012810671577782396,-0.002678718085611949,0.004302839482297971,0.4,0.011765999934008432,0.04311565121043548,0.8776472541283358,0.02692110127575003,0.1008958206512034,0.04554643819574267,1.7331350594758987,0.18706017838771105,-2.0741302520036697,1.1654797941446304,27.7795672416687,0.0,0.0,0.0,0.0,0.0,0.0,0.0,0.0,0.0,0.0,0.0,0.0,0.0,0.0,0.0,0.0,False,0,1.587789535522461,0.029936279296875
STABILIZE,1.5121674537658691,29.891205039944698,0.032425912221272786,0.032558441162109375,0.0,0.0,0.0,-0.23787809315350175,-1.173556699889244,8.814324972955605,0.0006944825006946109,-0.00227606400705901,0.00419300571057565,0.4,0.01068133296670901,0.042549069586403865,0.8703320425663957,0.024740239447648468,-8.488000275974628e-05,0.09639260242693126,1.4631991274654865,-0.03753260652568079,-2.905437722802162,0.9604785591363907,20.535875856876373,0.0,0.0,0.0,0.0,0.0,0.0,0.0,0.0,0.0,0.0,0.0,0.0,0.0,0.0,0.0,0.0,False,0,1.6164655685424805,0.034925048828125
STABILIZE,1.5457580089569092,29.772386232156673,0.03241017659505208,0.032543182373046875,0.0,0.0,0.0,-0.23713061432620847,-1.1732372818238401,8.816246817433317,0.0003209519601640644,-0.0010509385679700913,0.0040726970454076535,0.4,0.011175131818124961,0.04181174649542513,0.8721578538187671,0.022510985100117932,0.09697074419818819,0.0830259348731488,1.6961045563220978,-0.040179014679423135,0.5735594779253006,0.9875334799289703,20.77488899230957,0.0,0.0,0.0,0.0,0.0,0.0,0.0,0.0,0.0,0.0,0.0,0.0,0.0,0.0,0.0,0.0,True,0,1.6459286212921143,0.034885498046875
STABILIZE,1.5796692371368408,29.48274674370708,0.03225830396016439,0.03292131423950195,0.0,0.0,0.0,-0.2376102216719903,-1.172736863745431,8.816521732547411,-0.0006949741850473954,0.0002937031197900549,0.003958234050360996,0.4,0.008396875650744842,0.04050315097100374,0.8757545666973059,0.02040570656335256,-0.09574720752425492,0.04527306591626257,1.8036602064967155,-0.03736355934372297,1.9403550773859024,-0.8390015922486782,24.62695688009262,0.0,0.0,0.0,0.0,0.0,0.0,0.0,0.0,0.0,0.0,0.0,0.0,0.0,0.0,0.0,0.0,True,1,1.6737382411956787,0.02993505859375
STABILIZE,1.613865613937378,29.244291361915455,0.03236058553059896,0.033308982849121094,0.0,0.0,0.0,-0.23729080360658641,-1.1726136001752534,8.816976793900862,-0.00040555993232698146,-0.0014530487007186554,0.00360892755900326,0.4,0.0020252251194619914,0.037918041370731216,0.8710206858598962,0.01563634363359452,-0.18134721321985126,0.03277929499745369,1.6276007518172264,-0.09781887436345496,-0.6643693894147873,1.2013030238449574,27.980804443359375,0.0,0.0,0.0,0.0,0.0,0.0,0.0,0.0,0.0,0.0,0.0,0.0,0.0,0.0,0.0,0.0,True,0,1.730994701385498,0.03492626953125
STABILIZE,1.6473772525787354,29.8422898775516,0.03242972691853841,0.03254413604736328,0.0,0.0,0.0,-0.23771576943900816,-1.173636314281757,8.818096944924745,-0.0005938540078579404,-0.0015453716737201815,0.0032338824148039603,0.4,0.00202027035094148,0.037169159960354026,0.8731565704387371,0.011451230763571373,0.053699471754953265,0.06417191470973194,1.679389737546444,-0.17208031955783015,1.2588473968207836,1.0579644702374935,21.3917538523674,0.0,0.0,0.0,0.0,0.0,0.0,0.0,0.0,0.0,0.0,0.0,0.0,0.0,0.0,0.0,0.0,True,0,1.759814739227295,0.034923828125
STABILIZE,1.6807615756988525,29.951826329132004,0.03235510190327962,0.032468318939208984,0.0,0.0,0.0,-0.23802131368266044,-1.1740750472142245,8.81962861484612,-0.0005003003875674347,-0.001713934184480424,0.0033259527546970163,0.4,0.00043046735887746656,0.03629607294102746,0.8712022548495046,0.011689496208689885,-0.04499423666857183,0.05285512306727469,1.449133176356554,0.08334154136567246,-1.1429458856582642,-0.8867055177688599,21.00979834794998,0.0,0.0,0.0,0.0,0.0,0.0,0.0,0.0,0.0,0.0,0.0,0.0,0.0,0.0,0.0,0.0,True,0,1.7885253429412842,0.02993603515625
STABILIZE,1.7142133712768555,29.894400729843767,0.032406123479207356,0.032526493072509766,0.0,0.0,0.0,-0.2378927140271938,-1.1736674770198452,8.820030742233504,-0.0005216385730921271,-0.002001325470510634,0.0035162342459551382,0.4,-0.00019860000363647204,0.0356991791187171,0.8673371854713399,0.013127762470305861,-0.005284939106786624,0.06647395784966648,1.608111895620823,0.14080136153205097,1.2540142983198166,1.0501435957849026,20.76190859079361,0.0,0.0,0.0,0.0,0.0,0.0,0.0,0.0,0.0,0.0,0.0,0.0,0.0,0.0,0.0,0.0,True,0,1.817145824432373,0.034925048828125
STABILIZE,1.7476322650909424,29.922552292897297,0.0323973019917806,0.03252887725830078,0.0,0.0,0.0,-0.23823678480663318,-1.1741574363710878,8.820680463978302,-0.0006127227094315251,-0.00245027629148856,0.003696850032815845,0.4,-0.00429393560946661,0.03487162385220655,0.8678857629271752,0.014491197671196977,-0.2015706617385149,0.04791558894794434,1.5848137438297272,0.13983694415733047,-3.2501675188541412,-0.8767491206526756,20.586855709552765,0.0,0.0,0.0,0.0,0.0,0.0,0.0,0.0,0.0,0.0,0.0,0.0,0.0,0.0,0.0,0.0,True,0,1.8460032939910889,0.034926025390625
STABILIZE,1.7810664176940918,29.91060273269247,0.032419474919637044,0.032536983489990234,0.0,0.0,0.0,-0.23831479837355943,-1.17496692050944,8.822563888641932,-0.0007438343693691299,-0.002656588409626279,0.0041475734877398016,0.4,-0.010578826484646848,0.03309704039108762,0.860740137812588,0.018237116860084297,-0.0978571129962802,0.031693262280896306,1.126321218907833,0.18560964364315605,1.2092160061001778,-0.8392189629375935,20.838657021522522,0.0,0.0,0.0,0.0,0.0,0.0,0.0,0.0,0.0,0.0,0.0,0.0,0.0,0.0,0.0,0.0,True,0,1.9033203125,0.029934814453125
STABILIZE,1.8145387172698975,29.874172892969323,0.032439263661702473,0.03256940841674805,0.0,0.0,0.0,-0.23728888261588235,-1.1754612554506196,8.82265097355385,-0.0006845781123613779,-0.002700686784593906,0.004421160405294035,0.4,-0.010740429166465636,0.03219136486766035,0.8562833272029696,0.01992824250045698,0.002834009501384571,0.036259047919884324,1.5659645199775696,0.1493113903717034,4.150985926389694,0.9202833287417889,15.170332789421082,0.0,0.0,0.0,0.0,0.0,0.0,0.0,0.0,0.0,0.0,0.0,0.0,0.0,0.0,0.0,0.0,True,0,1.931931495666504,0.034925048828125
STABILIZE,1.848029375076294,29.860773732397373,0.032393487294514973,0.03251314163208008,0.0,0.0,0.0,-0.23749763027239087,-1.1745571091592393,8.823187143403697,-0.0007718364808786229,-0.0034654242783014127,0.00462275246873634,0.4,-0.014983295155820586,0.031721412464791224,0.8567839837902957,0.022353062221489306,-0.22651052568107843,0.05720703047700226,1.5880478546023369,0.18844406542700554,-6.506474316120148,-0.8822699077427387,20.136062800884247,0.0,0.0,0.0,0.0,0.0,0.0,0.0,0.0,0.0,0.0,0.0,0.0,0.0,0.0,0.0,0.0,True,0,1.9609005451202393,0.034925048828125
STABILIZE,1.8813765048980713,29.98694511371192,0.03236368497212728,0.032473087310791016,0.0,0.0,0.0,-0.23739752531236788,-1.1746463285052726,8.82339802549432,-0.0006588246885009857,-0.0038421787801164076,0.00447077555725605,0.4,-0.016930320244843474,0.03075287996366249,0.8562861869999057,0.020815508019915656,-0.09365407167933881,0.025041718618012965,1.5348133631050587,-0.04812267142649341,0.011712382547557354,1.0393832810223103,19.85737234354019,0.0,0.0,0.0,0.0,0.0,0.0,0.0,0.0,0.0,0.0,0.0,0.0,0.0,0.0,0.0,0.0,True,0,1.9893696308135986,0.0349248046875
STABILIZE,1.914851188659668,29.87268350355398,0.03245356877644857,0.03258204460144043,0.0,0.0,0.0,-0.23699742563739323,-1.1748022489174192,8.823450105686742,-0.0008510611190235996,-0.002514954430607413,0.004254937940660534,0.4,-0.015629053481873028,0.030710311844411718,0.8555751032690257,0.018469409947278484,0.09288572473451495,0.07742865127511322,1.5280893072485924,-0.09489169140696153,2.9526349157094955,-0.8100929670035839,22.838442027568817,0.0,0.0,0.0,0.0,0.0,0.0,0.0,0.0,0.0,0.0,0.0,0.0,0.0,0.0,0.0,0.0,True,0,2.017949342727661,0.029936279296875
STABILIZE,1.9482927322387695,29.903778696706116,0.032425912221272786,0.03253507614135742,0.0,0.0,0.0,-0.23720254475590516,-1.174527974133561,8.824757233139154,-0.0009380031554419139,-0.000905622003654014,0.0041198322185645305,0.4,-0.01522715646526409,0.029436262419661477,0.851478122146891,0.018029739738059394,0.018927763449028134,0.004615324723999947,1.576504111289978,0.020330311528594183,3.3902954310178757,0.8471610955893993,15.76956957578659,0.0,0.0,0.0,0.0,0.0,0.0,0.0,0.0,0.0,0.0,0.0,0.0,0.0,0.0,0.0,0.0,True,0,2.0467569828033447,0.034925048828125
STABILIZE,1.9825990200042725,29.148770266795466,0.03241613705952962,0.03339791297912598,0.0,0.0,0.0,-0.2374647599870102,-1.174259782486932,8.825422322809583,-0.0008428978904392148,-0.0015785907433222184,0.0037233227429670584,0.4,-0.017918970693759324,0.028234394506663076,0.8492118834260116,0.013541712975102737,-0.14871140010654926,0.0015260175132425502,1.547359861433506,-0.08480672366434598,-6.245649233460426,-0.8946696296334267,25.20999014377594,0.0,0.0,0.0,0.0,0.0,0.0,0.0,0.0,0.0,0.0,0.0,0.0,0.0,0.0,0.0,0.0,True,0,2.104156494140625,0.029935791015625
STABILIZE,2.016033411026001,29.909322988718856,0.032407315572102864,0.03252983093261719,0.0,0.0,0.0,-0.23612092026781017,-1.1745527335693022,8.825773223778192,-0.000633099081514596,-0.001172809563785077,0.0034898331418344096,0.4,-0.020172316124904312,0.027019252524633507,0.8448826692129886,0.011430933690419365,-0.14871140010654926,0.0015260175132425502,1.547359861433506,-0.08480672366434598,-6.245649233460426,-0.8946696296334267,25.20999014377594,0.0,0.0,0.0,0.0,0.0,0.0,0.0,0.0,0.0,0.0,0.0,0.0,0.0,0.0,0.0,0.0,True,0,2.133046865463257,0.029935791015625
STABILIZE,2.0495169162750244,29.86587675700309,0.03241875966389974,0.03254580497741699,0.0,0.0,0.0,-0.2350893482597267,-1.1751152636804763,8.826270973813957,-0.0006376768405373203,-0.0004428176915485934,0.0035136047227625356,0.4,-0.01918050901074078,0.02615870698557989,0.8399760500596392,0.011060204998320408,0.04365683998912573,0.020058742666151375,1.4901109039783478,0.016983924044264576,-1.4063160866498947,0.974683091044426,22.713960707187653,0.0,0.0,0.0,0.0,0.0,0.0,0.0,0.0,0.0,0.0,0.0,0.0,0.0,0.0,0.0,0.0,True,0,2.1653735637664795,0.03492822265625
STABILIZE,2.082984685897827,29.879919072179636,0.03237870534261068,0.03251051902770996,0.0,0.0,0.0,-0.23531335712016196,-1.174214959370504,8.827325384267079,-0.0005626820493911512,-0.0009497487200824827,0.003222752173515388,0.4,-0.019895717857010938,0.02582632736455432,0.8411582785350841,0.006487929168811126,-0.046995002776384354,0.047732231905683875,1.5946298837661743,-0.23524772327110635,2.167408913373947,0.9274039417505264,20.318132638931274,0.0,0.0,0.0,0.0,0.0,0.0,0.0,0.0,0.0,0.0,0.0,0.0,0.0,0.0,0.0,0.0,True,0,2.193845748901367,0.034925048828125
STABILIZE,2.1163980960845947,29.92703583991552,0.03236583073933919,0.0324859619140625,0.0,0.0,0.0,-0.2342532904166348,-1.175178442930299,8.827508091827376,-0.0010325645135029387,-0.0012949704778859052,0.003199217317110765,0.4,-0.02080774163355443,0.026423004746692333,0.8441423226008145,0.0059787514247140626,-0.06218964117579162,0.1013183849863708,1.7082897946238518,0.009443176754578977,3.566852957010269,1.1106425896286964,25.002792477607727,0.0,0.0,0.0,0.0,0.0,0.0,0.0,0.0,0.0,0.0,0.0,0.0,0.0,0.0,0.0,0.0,True,0,2.222546100616455,0.029935791015625
STABILIZE,2.1498818397521973,29.865664096155626,0.03238371213277181,0.03253912925720215,0.0,0.0,0.0,-0.23494580756545064,-1.1742942535978995,8.82789655883642,-0.0020789643254731753,-0.0009443743130035134,0.003249713406006125,0.4,-0.021824844159728116,0.02925288908829383,0.8379984284266259,0.004931268105527537,-0.08540651760995388,0.23788309190422297,1.4062825590372086,-0.03167027984045331,3.1924694776535034,1.257744338363409,26.667487621307373,0.0,0.0,0.0,0.0,0.0,0.0,0.0,0.0,0.0,0.0,0.0,0.0,0.0,0.0,0.0,0.0,True,0,2.25126051902771,0.034925048828125
STABILIZE,2.1832048892974854,30.00839945339162,0.03239253362019857,0.03252458572387695,0.0,0.0,0.0,-0.23576948569067185,-1.1752878326787248,8.829873044827492,-0.0024910600867370175,-0.00153108353922902,0.0032174918997783498,0.4,-0.02598668370838258,0.02968609896395681,0.8454399724949357,0.0037079185584075174,-0.26231196243315935,0.08560923743061721,1.9638840109109879,-0.0385354904052289,-3.551400452852249,3.2498538494110107,28.29883098602295,0.0,0.0,0.0,0.0,0.0,0.0,0.0,0.0,0.0,0.0,0.0,0.0,0.0,0.0,0.0,0.0,True,0,2.281083106994629,0.034925048828125
STABILIZE,2.216789960861206,29.775345188655805,0.03252366383870443,0.032640695571899414,0.0,0.0,0.0,-0.2349730216004249,-1.1762213274391953,8.829929393888145,-0.004008856027156595,-0.0004042010483689307,0.0031704871053497116,0.4,-0.020903549416869692,0.034539454887851415,0.8333580449336989,0.002955917586330719,0.13040624326094985,0.20866154227405787,1.280802022665739,0.005811036900439579,3.187531977891922,-0.8308078162372112,19.86892968416214,0.0,0.0,0.0,0.0,0.0,0.0,0.0,0.0,0.0,0.0,0.0,0.0,0.0,0.0,0.0,0.0,True,0,2.337709426879883,0.029935791015625
STABILIZE,2.2502589225769043,29.879919072179636,0.032378228505452473,0.032521724700927734,0.0,0.0,0.0,-0.2355201837859664,-1.1758877153869225,8.83114004491853,-0.004187468471817993,-0.0015081695607102896,0.00322381921498453,0.4,-0.025626741375898647,0.03488624028076664,0.8294759891835833,0.0018963933101366899,-0.32021086663007736,0.08795954054221511,1.5150897204875946,-0.04189436599666159,-4.997919499874115,2.971409633755684,16.114895045757294,0.0,0.0,0.0,0.0,0.0,0.0,0.0,0.0,0.0,0.0,0.0,0.0,0.0,0.0,0.0,0.0,True,0,2.3659253120422363,0.0399140625
STABILIZE,2.2836005687713623,29.990804630576392,0.03237512906392415,0.03248405456542969,0.0,0.0,0.0,-0.23498316016247414,-1.1763700974970546,8.832831370511755,-0.0036323856768419194,-0.0008891579768620357,0.0028139488085884715,0.4,-0.024125523594740295,0.03333491476527756,0.8320518990963676,-0.0033934341875387795,0.08397410856559873,-0.050339847803115845,1.4158189296722412,-0.284894927604901,4.344318062067032,-0.7462499663233757,22.092607617378235,0.0,0.0,0.0,0.0,0.0,0.0,0.0,0.0,0.0,0.0,0.0,0.0,0.0,0.0,0.0,0.0,True,0,2.3946826457977295,0.02993603515625
STABILIZE,2.317107677459717,29.844413294530344,0.03247073491414388,0.03259897232055664,0.0,0.0,0.0,-0.23457484291615432,-1.1774138357795971,8.832242266695841,-0.0028408993317716996,-0.0003285731901443044,0.0030053740885803712,0.4,-0.022930504520090288,0.032886193254453716,0.8264412683849732,-0.001377218009545834,0.034553202567622066,0.04122435348108411,1.4223224483430386,0.1381508746081158,-0.44331406243145466,1.167040504515171,19.512826204299927,0.0,0.0,0.0,0.0,0.0,0.0,0.0,0.0,0.0,0.0,0.0,0.0,0.0,0.0,0.0,0.0,True,0,2.423344850540161,0.02993603515625
STABILIZE,2.350454568862915,29.988445918892637,0.032412322362264,0.03251791000366211,0.0,0.0,0.0,-0.234875798126458,-1.1783788134432729,8.832082611023992,-0.0026829656946409835,0.0015547664829783036,0.0027064015983470913,0.4,-0.019626021263176408,0.03266518650258717,0.8218055817682571,-0.005529527840336845,0.16348859062418342,0.05421494133770466,1.4597725123167038,-0.23787166317072841,6.761230528354645,1.3700896874070168,26.396939158439636,0.0,0.0,0.0,0.0,0.0,0.0,0.0,0.0,0.0,0.0,0.0,0.0,0.0,0.0,0.0,0.0,True,0,2.452033758163452,0.039913818359375
STABILIZE,2.383962869644165,29.842714536774174,0.032491238911946614,0.03259468078613281,0.0,0.0,0.0,-0.2351772869452906,-1.17851701805226,8.833734663029489,-0.00182858840553939,-0.0008110807231187306,0.002715217508226922,0.4,-0.023883087838761363,0.03377959887181026,0.8236424809294692,-0.0056531445065520726,-0.2781451214104891,0.11435600463300943,1.372445560991764,0.024922353095278217,-1.073499396443367,-0.7314077578485012,20.93871384859085,0.0,0.0,0.0,0.0,0.0,0.0,0.0,0.0,0.0,0.0,0.0,0.0,0.0,0.0,0.0,0.0,True,0,2.4807639122009277,0.029936279296875
STABILIZE,2.4174606800079346,29.854609903837257,0.03241089185078939,0.0325312614440918,0.0,0.0,0.0,-0.23517024331270903,-1.178331002119083,8.834251196085471,-0.0010413657240311222,0.001965640828404722,0.0026325274821384498,0.4,-0.01775085938085076,0.031144823040261605,0.8144147601879889,-0.007025558169699672,0.1459992490708828,-0.01156015059677884,1.4602203853428364,-0.03425457596143085,10.262972116470337,-0.8481595665216446,17.314785718917847,0.0,0.0,0.0,0.0,0.0,0.0,0.0,0.0,0.0,0.0,0.0,0.0,0.0,0.0,0.0,0.0,True,0,2.5388195514678955,0.029935791015625
STABILIZE,2.4508962631225586,29.90719032543282,0.03234842618306478,0.03251504898071289,0.0,0.0,0.0,-0.23283271779097794,-1.178937394851333,8.834419389493782,-0.0014168585494572004,0.0016161965466527835,0.0024029928334978494,0.4,-0.017703116495513642,0.03114069697178973,0.8133463918376777,-0.011783699833680064,-0.035650230711326,0.06659983191639185,1.646687276661396,-0.2870614049126909,0.9500602260231972,1.1548468843102455,18.16869229078293,0.0,0.0,0.0,0.0,0.0,0.0,0.0,0.0,0.0,0.0,0.0,0.0,0.0,0.0,0.0,0.0,True,0,2.5675430297851562,0.034925048828125
STABILIZE,2.4843294620513916,29.910176139199887,0.032399924596150716,0.03253293037414551,0.0,0.0,0.0,-0.23235887341730832,-1.1787741106414875,8.835002516894173,-0.0017040523968965173,0.0004005594572653829,0.00249690587292711,0.4,-0.021144257025870063,0.03178828896794832,0.8177306916877002,-0.00977252411722202,-0.2431391505524516,0.09705743286758661,1.7295356839895248,0.13732031293287167,1.8716871738433838,1.3748351484537125,24.56367015838623,0.0,0.0,0.0,0.0,0.0,0.0,0.0,0.0,0.0,0.0,0.0,0.0,0.0,0.0,0.0,0.0,True,0,2.5962536334991455,0.034925048828125
STABILIZE,2.5178029537200928,29.874598460081057,0.03240207036336263,0.032527923583984375,0.0,0.0,0.0,-0.2313930419799862,-1.1782112603651962,8.837045597229652,-0.0018543522339620963,-0.00013011409895975217,0.0027956223898053627,0.4,-0.02016407794124512,0.03212976898565798,0.8128485227122562,-0.0075261709523096795,0.02825543051585555,0.07793706026859581,1.1714803986251354,0.14477204931735557,-2.0009778439998627,1.338817086070776,22.617855668067932,0.0,0.0,0.0,0.0,0.0,0.0,0.0,0.0,0.0,0.0,0.0,0.0,0.0,0.0,0.0,0.0,True,0,2.6258773803710938,0.034925048828125
STABILIZE,2.551215410232544,29.928317100146277,0.03225758870442708,0.03237795829772949,0.0,0.0,0.0,-0.23142217700566453,-1.1776681536044744,8.837228304789951,-0.0014784656585759494,0.001314226906053052,0.0029784309515621466,0.4,-0.01857133296243504,0.03170498142476402,0.8112168682332318,-0.005240692781787772,0.06309509626589715,0.03174575394950807,1.380292046815157,0.1414649971192397,0.07280074059963226,-0.5414907354861498,25.545600056648254,0.0,0.0,0.0,0.0,0.0,0.0,0.0,0.0,0.0,0.0,0.0,0.0,0.0,0.0,0.0,0.0,True,0,2.6542928218841553,0.029935791015625
STABILIZE,2.584780693054199,29.793957819814317,0.03242686589558919,0.03257465362548828,0.0,0.0,0.0,-0.23105772238042088,-1.176527618734788,8.837547616133648,-0.001946968781657188,0.0007579562000015522,0.0031260299443749474,0.4,-0.015176976505042598,0.031084305559564963,0.8119718081334882,-0.003873932000842111,0.16669826582074165,0.029089488089084625,1.756543479859829,0.0791567831787835,6.211719661951065,-0.6777115166187286,19.477808475494385,0.0,0.0,0.0,0.0,0.0,0.0,0.0,0.0,0.0,0.0,0.0,0.0,0.0,0.0,0.0,0.0,True,0,2.683119058609009,0.03492529296875
STABILIZE,2.6181437969207764,29.972802046635273,0.03232863744099935,0.032465219497680664,0.0,0.0,0.0,-0.23081738509900107,-1.1784750764218879,8.839982578572759,-0.0018261952469324726,0.0016487137674532741,0.003373042116421661,0.4,-0.011818320234207256,0.03061309123276976,0.8168207516975532,-0.0025393008470352436,0.16669826582074165,0.029089488089084625,1.756543479859829,0.0791567831787835,6.211719661951065,-0.6777115166187286,19.477808475494385,0.0,0.0,0.0,0.0,0.0,0.0,0.0,0.0,0.0,0.0,0.0,0.0,0.0,0.0,0.0,0.0,True,1,2.7186686992645264,0.03492529296875
STABILIZE,2.6516151428222656,29.875662430907745,0.03242328961690267,0.03254103660583496,0.0,0.0,0.0,-0.2333013328010643,-1.1792594809593815,8.84071084749301,-0.001468311550349139,0.0016661315170212294,0.003298908924030049,0.4,-0.014801447917645913,0.029840835913624957,0.8277903439505285,-0.002691898212984668,0.054364732932299376,0.06902362802065909,1.8246421590447426,0.08881266963319813,1.435675472021103,1.4458732679486275,26.750901341438293,0.0,0.0,0.0,0.0,0.0,0.0,0.0,0.0,0.0,0.0,0.0,0.0,0.0,0.0,0.0,0.0,True,0,2.7723138332366943,0.029935791015625
STABILIZE,2.685187339782715,29.786129220105956,0.032392295201619466,0.032662153244018555,0.0,0.0,0.0,-0.23282193889869401,-1.1752879394004307,8.841361423011454,-0.0015013959930702946,0.0012195675329734344,0.003355248634034358,0.4,-0.01558334121229195,0.030250121162790952,0.8192646617610971,-0.0011332839055195366,-0.08287655655294657,0.09006105246953666,1.2038138695061207,0.08912945967659713,-6.80328831076622,3.156864270567894,17.11743474006653,0.0,0.0,0.0,0.0,0.0,0.0,0.0,0.0,0.0,0.0,0.0,0.0,0.0,0.0,0.0,0.0,True,0,2.801274299621582,0.034925048828125
STABILIZE,2.7186479568481445,29.886732221747184,0.032410415013631184,0.0325465202331543,0.0,0.0,0.0,-0.23230231091324413,-1.1759527089057433,8.840577658804195,-0.0014805464491108949,0.00176598517840916,0.0034711093523220357,0.4,-0.012132829571109638,0.029776812264592115,0.8234102140000528,0.0011617413877843884,0.17511009937152267,0.028312552603892982,1.7147190868854523,0.13287319277253223,2.386963739991188,1.4758381061255932,26.700973510742188,0.0,0.0,0.0,0.0,0.0,0.0,0.0,0.0,0.0,0.0,0.0,0.0,0.0,0.0,0.0,0.0,True,0,2.8296518325805664,0.034925048828125
STABILIZE,2.752147912979126,29.851635173125512,0.03240922292073568,0.03254294395446777,0.0,0.0,0.0,-0.23210092705443455,-1.1758486552426064,8.840838059766302,-0.0012841581256629662,0.00022145666048552936,0.004173400075874474,0.4,-0.014849295477041554,0.02847767387198135,0.8211549410068387,0.01037818453463799,-0.1957262633368373,-0.020549455075524747,1.3382360339164734,0.544346706860417,3.36151085793972,-0.6185216829180717,20.780588686466217,0.0,0.0,0.0,0.0,0.0,0.0,0.0,0.0,0.0,0.0,0.0,0.0,0.0,0.0,0.0,0.0,True,0,2.8583033084869385,0.034925048828125
STABILIZE,2.785512685775757,29.97066032140739,0.03235462506612142,0.032465457916259766,0.0,0.0,0.0,-0.23264798251827026,-1.1724239557040796,8.833769667748985,-0.001005459520350917,-0.0018278836120011756,0.005477179248716387,0.4,-0.019459622520201836,0.027011811452914772,0.8156258903201357,0.026962408088400062,-0.30464455485343933,-0.029500204254873097,1.1550425551831722,0.9754666998068879,-6.704875081777573,6.969201564788818,13.900050520896912,0.0,0.0,0.0,0.0,0.0,0.0,0.0,0.0,0.0,0.0,0.0,0.0,0.0,0.0,0.0,0.0,True,0,2.8875105381011963,0.029935791015625
STABILIZE,2.820326089859009,28.726338787335028,0.032438071568806966,0.03381180763244629,0.0,0.0,0.0,-0.240078801448421,-1.1756991381328066,8.838006092581686,-0.0006104575500175577,-0.0038727170153393794,0.005709319992981907,0.4,-0.030030955520953535,0.02477380963383641,0.8046674617397649,0.029589443613378025,-0.6696064956486225,-0.07114498876035213,1.0624769143760204,0.1669939096994334,-18.074673414230347,-10.595083236694336,14.528754353523254,0.0,0.0,0.0,0.0,0.0,0.0,0.0,0.0,0.0,0.0,0.0,0.0,0.0,0.0,0.0,0.0,True,0,2.916194200515747,0.034925048828125
STABILIZE,2.853628396987915,30.026229883740907,0.03230455716451009,0.0324254035949707,0.0,0.0,0.0,-0.24504242798431622,-1.1766660367871864,8.796978000011066,0.000801164188842374,-0.006297165820810796,0.006553274844777091,0.4,-0.03969842460123047,0.019892497056277172,0.7963472811865485,0.040390420698883954,0.049887545173987746,-0.10420685866847634,1.4092447236180305,0.458560384658703,5.9403568506240845,4.754969850182533,4.787978902459145,0.0,0.0,0.0,0.0,0.0,0.0,0.0,0.0,0.0,0.0,0.0,0.0,0.0,0.0,0.0,0.0,True,0,2.9749884605407715,0.02993603515625
STABILIZE,2.8871467113494873,29.833799230380755,0.03243234952290853,0.03258156776428223,0.0,0.0,0.0,-0.2436117167966101,-1.1761395786125666,8.791871579832835,-0.0014234522090016367,-0.00491399439980365,0.006373047028568069,0.4,-0.031458533124053986,0.02772178931781314,0.7938055515765396,0.03866945294163934,0.4438861273229122,0.5272176116704941,1.5501229092478752,-0.07335313675646929,13.986554741859436,10.743100941181183,6.132512912154198,0.0,0.0,0.0,0.0,0.0,0.0,0.0,0.0,0.0,0.0,0.0,0.0,0.0,0.0,0.0,0.0,True,0,3.0037169456481934,0.034925048828125
STABILIZE,2.9213790893554688,29.211906784973046,0.03240254720052083,0.03252553939819336,0.0,0.0,0.0,-0.24990466889971905,-1.1740115477992845,8.835193762190933,0.007373787084389893,-0.008632200265418735,0.009536194805027697,0.4,-0.04769102329173951,-0.006065707871264158,0.7919512187297031,0.08102193303737915,-1.005259994417429,-1.9683685153722763,1.3586793094873428,2.5356498862027004,-34.15480852127075,-63.3947491645813,31.328019499778748,0.0,0.0,0.0,0.0,0.0,0.0,0.0,0.0,0.0,0.0,0.0,0.0,0.0,0.0,0.0,0.0,True,0,3.0323898792266846,0.034925048828125
STABILIZE,2.954101800918579,30.560482637016744,0.03161457379659017,0.03174901008605957,0.0,0.0,0.0,-0.22181295461710285,-1.1768027472922926,8.831444842110242,0.003178553440182927,-0.01321210609871191,0.00823549003830438,0.4,-0.06874524142572783,0.008228654066698,0.7928562545499404,0.07036559777567912,-1.2818021699786186,0.9197796694934368,1.5274818986654282,-0.6439203528711833,-6.538676470518112,94.80656385421753,12.0347760617733,0.0,0.0,0.0,0.0,0.0,0.0,0.0,0.0,0.0,0.0,0.0,0.0,0.0,0.0,0.0,0.0,True,0,3.061133861541748,0.029935791015625
STABILIZE,2.9875831604003906,29.86715278568987,0.03234747250874837,0.032543182373046875,0.0,0.0,0.0,-0.22634062298488083,-1.1768299613272668,8.857632641161716,-0.010659800042589972,-0.005073728944269703,0.005891682206163435,0.4,-0.04745125331856465,0.057728845689139385,0.8047941433364587,0.0416066649015738,1.2079129926860332,3.017844073474407,2.4061255156993866,-1.6622186353546924,59.82508063316345,25.56837499141693,37.79797554016113,0.0,0.0,0.0,0.0,0.0,0.0,0.0,0.0,0.0,0.0,0.0,0.0,0.0,0.0,0.0,0.0,True,0,3.0899298191070557,0.034925048828125
STABILIZE,3.021779775619507,29.24408746095493,0.032383235295613606,0.0332646369934082,0.0,0.0,0.0,-0.25055236293210664,-1.1953285681988943,8.921052655152579,-0.0021672109990541187,0.0006476570396534961,0.005611806804974731,0.4,-0.03454823469228322,0.021104499743643722,0.8154113624400561,0.04179346094815236,0.7270608097314835,-2.1697059273719788,2.0815566182136536,0.05119088711717702,-16.915982961654663,-98.07142615318298,27.61135697364807,0.0,0.0,0.0,0.0,0.0,0.0,0.0,0.0,0.0,0.0,0.0,0.0,0.0,0.0,0.0,0.0,True,0,3.1185390949249268,0.034925048828125
STABILIZE,3.055194854736328,29.924473648537774,0.03239014943440755,0.03252291679382324,0.0,0.0,0.0,-0.2483579512178285,-1.2316578107856633,8.870071269413957,-0.005875893809450164,0.009505307506036474,0.0004983563214432537,0.4,0.005677050625424129,0.041833450813847775,0.7931022320977091,-0.022675738162907747,1.9251426681876183,0.6174954120069742,0.7925147190690041,-1.3231353881132903,31.80481195449829,-4.536335542798042,16.37030690908432,0.0,0.0,0.0,0.0,0.0,0.0,0.0,0.0,0.0,0.0,0.0,0.0,0.0,0.0,0.0,0.0,True,0,3.1764278411865234,0.034925048828125
STABILIZE,3.0887222290039062,29.829980015219725,0.03243616422017415,0.032541513442993164,0.0,0.0,0.0,-0.2759549036724419,-1.2007928262566103,8.842837597645824,-0.00020857469917443972,0.02620480481668351,0.0015675676110973678,0.4,0.05322806551371959,-0.00923548597302673,0.7840472584646673,0.006497204573601874,2.76532880961895,-3.0162034556269646,0.9120967239141464,1.8238105591117333,-32.64385461807251,-84.02674198150635,18.48752349615097,0.0,0.0,0.0,0.0,0.0,0.0,0.0,0.0,0.0,0.0,0.0,0.0,0.0,0.0,0.0,0.0,True,0,3.2052831649780273,0.034925048828125
STABILIZE,3.124786376953125,27.72726912143849,0.03232291539510091,0.03509688377380371,0.0,0.0,0.0,-0.3168458588511331,-1.2169032147962606,8.980073173544305,0.016246313766416363,0.043352129034469764,0.00423029936854173,0.4,0.10124694466822542,-0.06109303259889356,0.774784297888144,0.03632708327157789,2.76532880961895,-3.0162034556269646,0.9120967239141464,1.8238105591117333,-32.64385461807251,-84.02674198150635,18.48752349615097,0.0,0.0,0.0,0.0,0.0,0.0,0.0,0.0,0.0,0.0,0.0,0.0,0.0,0.0,0.0,0.0,True,0,3.233954668045044,0.034925048828125
STABILIZE,3.158231258392334,29.899302115040527,0.03235295613606771,0.03249025344848633,0.0,0.0,0.0,-0.3035632753495739,-1.2142043295787535,8.936124321329858,0.040231310985450804,0.034888032547954265,0.002598496991898307,0.4,0.08864730582986267,-0.10617420895254329,0.722594224288432,0.005112910337228063,-0.8435102179646492,-2.5848090648651123,-1.6251718625426292,-1.8246244188400225,-82.3421835899353,-2.9881933704018593,-79.04456853866577,0.0,0.0,0.0,0.0,0.0,0.0,0.0,0.0,0.0,0.0,0.0,0.0,0.0,0.0,0.0,0.0,True,0,3.2624692916870117,0.02993603515625
STABILIZE,3.191718101501465,29.862687162253565,0.032376797993977864,0.03250455856323242,0.0,0.0,0.0,-0.26232077887203864,-1.1616499726186194,8.852741371942342,0.021737642502772332,0.03222234955115675,-0.0010459980893552955,0.4,0.08997510590956434,-0.06917493111587142,0.6964167891125386,-0.04009556633036159,0.10761142475530505,2.1994080394506454,0.082558358553797,-2.669231524338636,38.010093569755554,-9.352585673332214,95.11472582817078,0.0,0.0,0.0,0.0,0.0,0.0,0.0,0.0,0.0,0.0,0.0,0.0,0.0,0.0,0.0,0.0,True,0,3.291426658630371,0.034925048828125
STABILIZE,3.2256669998168945,29.455002563256247,0.03232696851094564,0.03304719924926758,0.0,0.0,0.0,-0.28058278372194867,-1.1758231487549247,8.860525226275218,0.02310261707172272,-0.006959201670038956,0.011290759754168624,0.4,-0.021700623366849303,-0.055646058266954616,0.6028900462643383,0.09024960105192131,-5.212002247571945,2.2704953327775,-0.6323928479105234,3.510517023466508,-2.470114827156067,170.77075242996216,-123.03612232208252,0.0,0.0,0.0,0.0,0.0,0.0,0.0,0.0,0.0,0.0,0.0,0.0,0.0,0.0,0.0,0.0,True,0,3.3485822677612305,0.02993603515625
STABILIZE,3.259723424911499,29.365296292147416,0.03242925008138021,0.033055782318115234,0.0,0.0,0.0,-0.263971123330243,-1.1782561902033302,8.84965071134291,0.007936459116608846,-0.021692798546656115,0.004841465135619669,0.4,-0.03417203502918259,-0.044553005488052945,0.6117032647606954,0.01988531593515229,-0.7200568448752165,0.6163857411593199,2.070714719593525,-4.160675900370852,73.17123413085938,-12.309980392456055,-111.68391704559326,0.0,0.0,0.0,0.0,0.0,0.0,0.0,0.0,0.0,0.0,0.0,0.0,0.0,0.0,0.0,0.0,True,0,3.3772194385528564,0.0349248046875
STABILIZE,3.296437978744507,27.236978304208634,0.03232005437215169,0.03570890426635742,0.0,0.0,0.0,-0.2628186356295091,-1.1673103851715616,8.802772561748174,-0.0043456743686725975,-0.0008714878293632108,0.008942854561214762,0.4,0.09271147380354162,-0.04137138361637198,0.6292382920609101,0.08289697990211209,7.637398689985275,0.16858881572261453,2.469051815569401,3.8031786765705067,67.98089742660522,-14.14792686700821,-86.14705204963684,0.0,0.0,0.0,0.0,0.0,0.0,0.0,0.0,0.0,0.0,0.0,0.0,0.0,0.0,0.0,0.0,True,0,3.405966281890869,0.0399150390625
STABILIZE,3.329817771911621,29.958030370126995,0.032323630650838216,0.03245711326599121,0.0,0.0,0.0,-0.2620990111674248,-1.191055431099405,8.859860990378435,-0.016024394621697306,0.03763019016561037,0.015227430869752048,0.4,0.22457352135261152,-0.03835757072545584,0.6497181925593721,0.14864325909262624,7.637398689985275,0.16858881572261453,2.469051815569401,3.8031786765705067,67.98089742660522,-14.14792686700821,-86.14705204963684,0.0,0.0,0.0,0.0,0.0,0.0,0.0,0.0,0.0,0.0,0.0,0.0,0.0,0.0,0.0,0.0,True,0,3.4346835613250732,0.0399150390625
STABILIZE,3.363276720046997,29.88524157979864,0.032396586736043294,0.03253602981567383,0.0,0.0,0.0,-0.26595753443995307,-1.1709061596044559,8.85880743369896,0.01050129533558951,0.027235296429075642,0.024823355640864363,0.4,0.18667961264511046,-0.10406111984828131,0.6802654143444761,0.24975302162392132,-2.4200083687901497,-3.8143184036016464,2.985423058271408,5.724303423099054,-109.13474559783936,-82.73875713348389,22.71556258201599,0.0,0.0,0.0,0.0,0.0,0.0,0.0,0.0,0.0,0.0,0.0,0.0,0.0,0.0,0.0,0.0,True,0,3.46323823928833,0.02993505859375
STABILIZE,3.3966927528381348,29.92596820685522,0.03196600278218587,0.03209686279296875,0.0,0.0,0.0,-0.2568191682172991,-1.1816962576674894,8.778400739242278,-0.0026311335746127974,0.04278555132644317,0.01562865989309386,0.4,0.14699557395435925,-0.04350249511915533,0.6771223020996373,0.18112235705993374,-2.136877179145813,3.4396942704916,1.3216369785368443,-3.8047918818750994,18.207381665706635,171.80999517440796,46.993374824523926,0.0,0.0,0.0,0.0,0.0,0.0,0.0,0.0,0.0,0.0,0.0,0.0,0.0,0.0,0.0,0.0,True,1,3.4919345378875732,0.02993603515625
STABILIZE,3.430222988128662,29.82361682914169,0.032439502080281575,0.03267788887023926,0.0,0.0,0.0,-0.27274930379588447,-1.183267307898298,8.924869023351322,0.01814924315130637,0.06481805905020235,0.024190030564828557,0.4,0.2176500307986951,-0.111700173522948,0.6972647678104985,0.2602521073038373,2.917728014290333,-3.6301355808973312,1.5690561383962631,1.6871608853779922,14.554335176944733,-57.21863508224487,69.83368396759033,0.0,0.0,0.0,0.0,0.0,0.0,0.0,0.0,0.0,0.0,0.0,0.0,0.0,0.0,0.0,0.0,True,0,3.5493733882904053,0.034925048828125
STABILIZE,3.4638748168945312,29.717540863970978,0.03247812589009603,0.03259539604187012,0.0,0.0,0.0,-0.2711931946038852,-1.1755410832865443,8.88837873771053,0.003351623940674859,0.021178292396983964,0.016427846177578077,0.4,0.1583998429289628,-0.05325602072039942,0.7135346024670538,0.18303889266082313,-3.3859308809041977,3.3968642354011536,2.2412221878767014,-4.4353626300134925,-106.43603801727295,133.01836252212524,67.10642576217651,0.0,0.0,0.0,0.0,0.0,0.0,0.0,0.0,0.0,0.0,0.0,0.0,0.0,0.0,0.0,0.0,True,0,3.5782291889190674,0.029935791015625
STABILIZE,3.497154951095581,30.046233747627063,0.03224638303120931,0.03237485885620117,0.0,0.0,0.0,-0.25812458812241784,-1.1902535242021632,8.795297773475243,0.006984173200031976,-0.013131044851226781,0.019355573121795883,0.4,0.14792308791930134,-0.06357398436972662,0.7430538231410472,0.24224588897949287,-0.38486963603645563,-0.7120129186660051,3.240225464105606,3.7839435832072814,37.37744092941284,-91.49872064590454,84.34259295463562,0.0,0.0,0.0,0.0,0.0,0.0,0.0,0.0,0.0,0.0,0.0,0.0,0.0,0.0,0.0,0.0,True,0,3.607145071029663,0.034925048828125
STABILIZE,3.530641794204712,29.863962918396265,0.032430203755696614,0.03256535530090332,0.0,0.0,0.0,-0.26834617965875346,-1.183232196457096,8.896823412845604,-0.005832715394872654,-0.0066275445815688495,0.021439391640851978,0.4,0.13856538808515498,-0.07434478998191699,0.7766848001340501,0.3036065032174591,-0.38486963603645563,-0.7120129186660051,3.240225464105606,3.7839435832072814,37.37744092941284,-91.49872064590454,84.34259295463562,0.0,0.0,0.0,0.0,0.0,0.0,0.0,0.0,0.0,0.0,0.0,0.0,0.0,0.0,0.0,0.0,True,0,3.6355204582214355,0.034925048828125
STABILIZE,3.5640926361083984,29.89312237189081,0.0323973019917806,0.03252410888671875,0.0,0.0,0.0,-0.26901297687647596,-1.1813718236819137,8.88290775618535,0.014683542611361332,0.013139013127243934,0.025829596146947072,0.4,0.1762191944630669,-0.09710845224499812,0.767260975093627,0.3301093143333807,2.404935657978058,-1.4168040826916695,0.6990833207964897,1.725482942376818,14.284081757068634,71.86073660850525,-26.2064129114151,0.0,0.0,0.0,0.0,0.0,0.0,0.0,0.0,0.0,0.0,0.0,0.0,0.0,0.0,0.0,0.0,True,0,3.66416335105896,0.034925048828125
STABILIZE,3.598623514175415,28.9605877316541,0.032401355107625325,0.0336151123046875,0.0,0.0,0.0,-0.26226250882068197,-1.1857220138529772,8.834104347018316,-0.011482596926699522,0.002190637483320321,0.018787551291625054,0.4,0.19914200142793623,-0.059004431404989385,0.7373305663536074,0.26847071337162043,1.524481363594532,2.1653132513165474,-0.47347755171358585,-3.418918850611348,11.422038078308105,71.93043231964111,-27.95824706554413,0.0,0.0,0.0,0.0,0.0,0.0,0.0,0.0,0.0,0.0,0.0,0.0,0.0,0.0,0.0,0.0,True,1,3.692875623703003,0.02993603515625
STABILIZE,3.6322662830352783,29.725122782648135,0.03237655957539876,0.032568931579589844,0.0,0.0,0.0,-0.26570545777089727,-1.184146267867114,8.878330675667794,0.005545918849093341,0.010422681133714024,0.02510818775012104,0.4,0.1766143452861518,-0.07051629518404823,0.7125344094662894,0.3160969702201758,0.9883463382720947,0.31959228217601776,0.2976715797558427,0.5472425469859437,82.05047845840454,57.324594259262085,-0.6560457870364189,0.0,0.0,0.0,0.0,0.0,0.0,0.0,0.0,0.0,0.0,0.0,0.0,0.0,0.0,0.0,0.0,True,0,3.750394105911255,0.034925048828125
