E-kp,E-ki,E-kd,E-I-Tot,E-P,E-I,E-D,E-PID,N-kp,N-ki,N-kd,N-I-Tot,N-P,N-I,N-D,N-PID,D-kp,D-ki,D-kd,D-I-Tot,D-P,D-I,D-D,D-PID,Y-kp,Y-ki,Y-kd,Y-I-Tot,Y-P,Y-I,Y-D,Y-PID,errorN,desiredN,actualN,errorE,desiredE,actualE,errorD,desiredD,actualD,errorY,desiredY,actualY,roll,pitch,yaw-rate,thrust,dt,Time,Mode
0.16,0.015,0.11,1.311698350657606,6.3984899925353345,0.01967547525986409,13.75,20.1681654677952,0.17,0.015,0.08,-0.32794815343933925,-1.6997210432185579,-0.004919222301590089,-10.0,-11.704640265520148,0.002,8e-05,0,0.31153805591664097,0.01899610848101227,2.492304447333128e-05,0.0,0.0190210315254856,0.2,0.02,0.0,0.00022163413102873673,0.0013514194866913146,4.432682620574735e-06,0.0,0.0013558521693118894,-9.998359077756222,-10.0,-0.001640922243778583,39.99056245334584,40.0,0.009437546654164733,9.498054240506134,10.0,0.5019457594938669,0.006757097433456573,0,-0.006757097433456573,4.000471706574607,3.9995282377920587,-0.0013558521693118894,0.5190210315254856,0.03280019760131836,0.0337979793548584,STABILIZE
0.16,0.015,0.11,2.6438019789460094,6.398634411371545,0.03965702968419014,6.87649037600975,13.314781817065485,0.17,0.015,0.08,-0.6609659499218735,-1.6995958721635342,-0.009914489248828103,-4.999115812672513,-6.708626174084875,0.002,8e-05,0,0.6281491394711305,0.01901014428637587,5.025193115769044e-05,0.0,0.01906039621753356,0.2,0.02,0.0,0.0004256620163929147,0.001225035932309572,8.513240327858295e-06,0.0,0.0012335491726374302,-9.997622777432554,-10.0,-0.002377222567445951,39.991465071072156,40.0,0.008534928927846392,9.505072143187935,10.0,0.4949278568120653,0.00612517966154786,0,-0.00612517966154786,4.0004275953515,3.999572358934167,-0.0012335491726374302,0.5190603962175335,0.0333096981048584,0.06688976287841797,STABILIZE
0.16,0.015,0.11,3.9837505264541044,6.398760760381573,0.05975625789681156,4.5851911109667025,11.043708129245086,0.17,0.015,0.08,-0.9959157903214175,-1.6994815906513068,-0.014938736854821262,-3.3322088384339814,-5.046629165940109,0.002,8e-05,0,0.946785054260899,0.019020086556651345,7.574280434087192e-05,0.0,0.019095829360992217,0.2,0.02,0.0,0.0006121541921680239,0.0011132132822256205,1.2243083843360477e-05,0.0,0.001125456366068981,-9.99695053324298,-10.0,-0.003049466757019602,39.99225475238483,40.0,0.0077452476151724245,9.510043278325673,10.0,0.4899567216743269,0.005566066411128103,0,-0.005566066411128103,4.000388565865662,3.9996113963848132,-0.001125456366068981,0.5190958293609922,0.03350520133972168,0.10030674934387207,STABILIZE
0.16,0.015,0.11,5.324561968075515,6.398601435407301,0.07986842952113272,3.4380765742088277,9.91654643913726,0.17,0.015,0.08,-1.331197890218972,-1.7000302859653773,-0.01996796835328458,-2.501081978849507,-4.221080233168169,0.002,8e-05,0,1.265842904703179,0.019032542127522936,0.00010126743237625433,0.0,0.01913380955989919,0.2,0.02,0.0,0.0006823379646609914,0.00041866251051000003,1.3646759293219827e-05,0.0,0.0004323092698032199,-10.000178152737513,-10.0,0.00017815273751255927,39.99125897129563,40.0,0.008741028704372386,9.516271063761469,10.0,0.4837289362385312,0.00209331255255,0,-0.00209331255255,4.000146138115587,3.9998538565451303,-0.0004323092698032199,0.5191338095598992,0.03352761268615723,0.13387393951416016,STABILIZE
0.16,0.015,0.11,6.686907901099312,6.398312543932195,0.10030361851648968,2.749295267575684,9.247911430024368,0.17,0.015,0.08,-1.671982527775211,-1.7005405741123676,-0.025079737916628164,-2.0022753412175884,-3.727895653246584,0.002,8e-05,0,1.5895061672894748,0.01900121935641054,0.000127160493383158,0.0,0.019128379849793698,0.2,0.02,0.0,0.0007373017108193225,0.00032267430942245446,1.4746034216386449e-05,0.0,0.0003374203436388409,-10.003179847719808,-10.0,0.0031798477198090383,39.98945339957622,40.0,0.010546600423780552,9.50060967820527,10.0,0.49939032179472964,0.001613371547112272,0,-0.001613371547112272,4.000104970906534,3.727783017186437,-0.0003374203436388409,0.5191283798497937,0.034067630767822266,0.16795563697814941,STABILIZE
0.16,0.015,0.11,8.03126520868767,6.398278894382656,0.12046897813031504,-0.0008423615733584881,6.517905510939613,0.17,0.015,0.08,-2.0084553728599257,-1.7014822133069554,-0.030126830592898883,-0.004911575844501613,-1.7365206197443557,0.002,8e-05,0,1.9093619631524459,0.019028856543236262,0.00015274895705219568,0.0,0.019181605500288457,0.2,0.02,0.0,0.0009447358770031081,0.0012340670519436566,1.8894717540062163e-05,-0.0,0.0012529617694837186,-10.008718901805619,-10.0,0.008718901805618755,39.9892430898916,40.0,0.01075691010839672,9.514428271618131,10.0,0.48557172838186885,0.006170335259718282,0,-0.006170335259718282,4.000186987339728,1.7360898390104207,-0.0012529617694837186,0.5191816055002885,0.03361797332763672,0.20163202285766602,STABILIZE
0.16,0.015,0.11,9.371770202784246,6.39832198949836,0.1405765530417637,-0.0012617420341998278,6.537636800505924,0.17,0.015,0.08,-2.3441601677833424,-1.7024883100754586,-0.03516240251675013,-0.008090055872358608,-1.7457407684645674,0.002,8e-05,0,2.228380023628973,0.019033687680978382,0.00017827040189031786,0.0,0.0192119580828687,0.2,0.02,0.0,0.0011414672678771343,0.0011737654743895643,2.2829345357542685e-05,-0.0,0.001196594819747107,-10.014637118090933,-10.0,0.014637118090932861,39.98951243436475,40.0,0.01048756563525394,9.51684384048919,10.0,0.4831561595108085,0.005868827371947821,0,-0.005868827371947821,4.000178795872632,1.7453310378636597,-0.001196594819747107,0.5192119580828687,0.033521413803100586,0.23521780967712402,STABILIZE
0.16,0.015,0.11,10.712521722602698,6.398360976880891,0.16068782583904048,-0.0016203660262417764,6.557428436693689,0.17,0.015,0.08,-2.6801145356488023,-1.7034510988341023,-0.040201718034732034,-0.011113807055500363,-1.7547666239243347,0.002,8e-05,0,2.547503042992037,0.019036564976200022,0.00020380024343936298,0.0,0.019240365219639385,0.2,0.02,0.0,0.0013289341053505275,0.0011182911967829148,2.6578682107010552e-05,0.0,0.0011448698788899254,-10.020300581377072,-10.0,0.020300581377072257,39.98975610550557,40.0,0.010243894494426906,9.518282488100011,10.0,0.481717511899989,0.0055914559839145735,0,-0.0055914559839145735,4.000171227428526,1.7543762583014424,-0.0011448698788899254,0.5192403652196393,0.033527374267578125,0.26871204376220703,STABILIZE
0.16,0.015,0.11,12.052746797435422,6.3983966675444695,0.1807912019615313,-0.00082052857817339,6.578367340927827,0.17,0.015,0.08,-3.0161177263686225,-1.704377380088738,-0.045241765895529334,-0.012174808674439846,-1.7617939546587071,0.002,8e-05,0,2.866519599882573,0.019037795524332764,0.00022932156799060588,0.0,0.01926711709232337,0.2,0.02,0.0,0.001507708434786943,0.0010668628493717986,3.015416869573886e-05,0.0,0.0010970170180675375,-10.025749294639635,-10.0,0.02574929463963499,39.989979172152935,40.0,0.010020827847064852,9.518897762166382,10.0,0.48110223783361755,0.005334314246858993,0,-0.005334314246858993,4.0001640080542575,1.7614215416359777,-0.0010970170180675375,0.5192671170923233,0.03351402282714844,0.30228376388549805,STABILIZE
0.16,0.015,0.11,13.392678994360228,6.398227390771951,0.20089018491540342,-0.0003491722210175123,6.5987684034663365,0.17,0.015,0.08,-3.35197006677784,-1.7039394803930255,-0.050279551001667595,-0.00953505773447357,-1.7637540891291665,0.002,8e-05,0,3.1853384078640343,0.019029649733414082,0.0002548270726291228,0.0,0.019284476806043206,0.2,0.02,0.0,0.0017133907695907017,0.0012276762504845476,3.4267815391814035e-05,0.0,0.0012619440658763617,-10.02317341407662,-10.0,0.023173414076619887,39.988921192324696,40.0,0.011078807675301021,9.514824866707041,10.0,0.4851751332929583,0.006138381252422738,0,-0.006138381252422738,4.000188936773972,1.7633255391534994,-0.0012619440658763617,0.5192844768060432,0.033507585525512695,0.33576273918151855,STABILIZE
0.16,0.015,0.11,14.73475685079633,6.397957004587692,0.22102135276194496,-0.0013192651683480612,6.617659092181289,0.17,0.015,0.08,-3.6883448343569505,-1.7037895720494345,-0.05532517251535426,-0.0064784446130687606,-1.7655931891778576,0.002,8e-05,0,3.503875026203853,0.018981607314653128,0.0002803100020963083,-0.0,0.019261917316749436,0.2,0.02,0.0,0.0019564156375604866,0.0014481859685521856,3.912831275120973e-05,0.0,0.0014873142813033953,-10.02229160029079,-10.0,0.02229160029079004,39.98723127867307,40.0,0.01276872132692514,9.490803657326564,10.0,0.509196342673436,0.007240929842760927,0,-0.007240929842760927,4.000223100310334,1.7650876628130434,-0.0014873142813033953,0.5192619173167494,0.033562660217285156,0.36931562423706055,STABILIZE
0.16,0.015,0.11,16.100323285699165,6.397409538901713,0.24150484928548746,-0.003700133308429167,6.635214254878771,0.17,0.015,0.08,-4.030645564092436,-1.7038371522710207,-0.06045968346138653,-0.0037847594915811603,-1.7680815952239886,0.002,8e-05,0,3.82670061546804,0.018904678045810558,0.0003061360492374432,-0.0,0.019210814095048,0.2,0.02,0.0,0.002133479091035805,0.001036884216415366,4.26695818207161e-05,-0.0,0.001079553798236082,-10.02257148394718,-10.0,0.022571483947180643,39.98380961813571,40.0,0.016190381864290046,9.452339022905278,10.0,0.5476609770947221,0.0051844210820768295,0,-0.0051844210820768295,4.000159968872674,1.7677196471155643,-0.001079553798236082,0.519210814095048,0.034152984619140625,0.40344691276550293,STABILIZE
0.16,0.015,0.11,17.43931204258549,6.397409538901713,0.26158968063878235,-0.0038600254925085314,6.655139194047987,0.17,0.015,0.08,-4.366284180328937,-1.7038371522710207,-0.06549426270493405,-0.0010820303170557292,-1.7704134452930105,0.002,8e-05,0,4.143243131021818,0.018904678045810558,0.0003314594504817455,-0.0,0.019236137496292303,0.2,0.02,0.0,0.002307096402796829,0.001036884216415366,4.614192805593658e-05,-0.0,0.0010830261444713025,-10.02257148394718,-10.0,0.022571483947180643,39.98380961813571,40.0,0.016190381864290046,9.452339022905278,10.0,0.5476609770947221,0.0051844210820768295,0,-0.0051844210820768295,4.000160179870634,1.7700514971750403,-0.0010830261444713025,0.5192361374962923,0.03348827362060547,0.43695616722106934,STABILIZE
0.16,0.015,0.11,18.79169778677314,6.396523309879669,0.2818754668015971,-0.007608691098946782,6.670790085582319,0.17,0.015,0.08,-4.705559829572885,-1.7050025454664204,-0.07058339744359328,-0.0017231514307803958,-1.777309094340794,0.002,8e-05,0,4.46067567444856,0.018767432591534804,0.0003568540539558848,-0.0,0.01912428664549069,0.2,0.02,0.0,0.0021573317468099756,-0.0008854473632368229,4.3146634936199514e-05,-0.0,-0.0008423007283006234,-10.029426738037767,-10.0,0.029426738037766742,39.978270686747926,40.0,0.021729313252072252,9.383716295767401,10.0,0.6162837042325984,-0.004427236816184114,0,0.004427236816184114,3.999862655635386,1.7776181684714898,0.0008423007283006234,0.5191242866454907,0.033828020095825195,0.4707760810852051,STABILIZE
0.16,0.015,0.11,20.134311657969874,6.3961050115110645,0.3020146748695481,-0.008626566554888894,6.689493119825724,0.17,0.015,0.08,-5.042510314848876,-1.7055304615859752,-0.07563765472273314,-0.004432526665696584,-1.785600642974405,0.002,8e-05,0,4.775070682002269,0.01872190812403797,0.0003820056545601816,-0.0,0.01910391377859815,0.2,0.02,0.0,0.001790279073457603,-0.002185761943440431,3.580558146915206e-05,-0.0,-0.0021499563619712786,-10.032532126976324,-10.0,0.032532126976324016,39.97565632194415,40.0,0.02434367805585296,9.360954062018985,10.0,0.6390459379810149,-0.010928809717202153,0,0.010928809717202153,3.9996593351393597,1.7863635853384345,0.0021499563619712786,0.5191039137785981,0.03358578681945801,0.5044255256652832,STABILIZE
0.16,0.015,0.11,21.47196005401932,6.396287998795842,0.3220794008102898,-0.006766893243520886,6.71160050636261,0.17,0.015,0.08,-5.378350849483009,-1.706271309227852,-0.08067526274224512,-0.006936753068497073,-1.7938833250385944,0.002,8e-05,0,5.087724738904207,0.018687883507382232,0.0004070179791123366,-0.0,0.019094901486494568,0.2,0.02,0.0,0.0013424728162855053,-0.00267661684957242,2.6849456325710105e-05,-0.0,-0.00264976739324671,-10.036890054281482,-10.0,0.036890054281481906,39.97679999247401,40.0,0.023200007525993504,9.343941753691116,10.0,0.6560582463088849,-0.013383084247862099,0,0.013383084247862099,3.9995808776201787,1.794817591630561,0.00264976739324671,0.5190949014864946,0.03346061706542969,0.5378398895263672,STABILIZE
0.16,0.015,0.11,23.261097448315923,6.39702161366308,0.34891646172473884,-0.0023086338746500304,6.743629441513169,0.17,0.015,0.08,-5.827955520997598,-1.70802364653739,-0.08741933281496397,-0.010491188219979092,-1.805934167572333,0.002,8e-05,0,5.504379904176886,0.018621767857168785,0.00044035039233415095,-0.0,0.019062118249502935,0.2,0.02,0.0,0.0005669947592489462,-0.0034658810354630653,1.1339895184978924e-05,-0.0,-0.0034545411402780862,-10.047197920808175,-10.0,0.04719792080817483,39.98138508539425,40.0,0.018614914605750522,9.310883928584392,10.0,0.6891160714156079,-0.017329405177315325,0,0.017329405177315325,3.999453602910391,1.807143905662266,0.0034545411402780862,0.519062118249503,0.04474925994873047,0.5828361511230469,STABILIZE
0.16,0.015,0.11,24.61342649725818,6.39702161366308,0.3692013974588727,-0.0023086338746500304,6.7639143772473025,0.17,0.015,0.08,-6.167791611712342,-1.70802364653739,-0.09251687417568513,-0.010491188219979092,-1.8110317089330543,0.002,8e-05,0,5.819310934731756,0.018621767857168785,0.0004655448747785405,-0.0,0.019087312731947324,0.2,0.02,0.0,-1.9154469251269962e-05,-0.0034658810354630653,-3.8308938502539925e-07,-0.0,-0.003466264124848091,-10.047197920808175,-10.0,0.04719792080817483,39.98138508539425,40.0,0.018614914605750522,9.310883928584392,10.0,0.6891160714156079,-0.017329405177315325,0,0.017329405177315325,3.999452061132636,1.812241446789828,0.003466264124848091,0.5190873127319473,0.03382396697998047,0.6164047718048096,STABILIZE
0.16,0.015,0.11,26.148816095197002,6.398579900709235,0.39223224142795504,0.006874385054955321,6.797686527192146,0.17,0.015,0.08,-6.552601192249672,-1.7038831897227757,-0.09828901788374508,0.0029011747800867962,-1.7992710328264339,0.002,8e-05,0,6.178179359281645,0.018694345488978047,0.0004942543487425317,-0.0,0.019188599837720578,0.2,0.02,0.0,-0.001048206585436898,-0.005360587466079431,-2.0964131708737962e-05,-0.0,-0.005381551597788169,-10.022842292486915,-10.0,0.022842292486915744,39.99112437943272,40.0,0.008875620567282725,9.347172744489024,10.0,0.6528272555109755,-0.026802937330397153,0,0.026802937330397153,3.9991578642583177,1.8011420339076967,0.005381551597788169,0.5191885998377206,0.038393259048461914,0.6547994613647461,STABILIZE
0.16,0.015,0.11,27.489211748250234,6.398573756735613,0.4123381762237535,0.008561691204777108,6.819473624164144,0.17,0.015,0.08,-6.888697361226163,-1.7046792335211571,-0.10333046041839244,0.002145244893576796,-1.8058644490459728,0.002,8e-05,0,6.492338903150582,0.018746078893281573,0.0005193871122520466,0.0,0.01926546600553362,0.2,0.02,0.0,-0.0020611152801033213,-0.006044083865180689,-4.1222305602066425e-05,-0.0,-0.0060853061707827555,-10.027524903065629,-10.0,0.027524903065628523,39.99108597959758,40.0,0.008914020402423133,9.373039446640787,10.0,0.6269605533592136,-0.03022041932590344,0,0.03022041932590344,3.9990469479934396,1.807973981027512,0.0060853061707827555,0.5192654660055336,0.03351736068725586,0.6888959407806396,STABILIZE
0.16,0.015,0.11,28.82988425809885,6.3986209467299195,0.4324482638714827,0.008003291390881554,6.839072501992284,0.17,0.015,0.08,-7.2250208850053195,-1.7054926903049,-0.1083753132750798,0.0019453392126893175,-1.8119226643672903,0.002,8e-05,0,6.806680821840596,0.018753226184897227,0.0005445344657472477,0.0,0.019297760650644476,0.2,0.02,0.0,-0.003257623681325007,-0.007138212037945695,-6.515247362650015e-05,-0.0,-0.007203364511572195,-10.032309942969999,-10.0,0.032309942969997986,39.991380917061996,40.0,0.008619082938003238,9.376613092448613,10.0,0.6233869075513877,-0.03569106018972847,0,0.03569106018972847,3.998870529329479,1.8144140187145912,0.007203364511572195,0.5192977606506445,0.0335240364074707,0.7219357490539551,STABILIZE
0.16,0.015,0.11,30.204744719904014,6.398604937048181,0.4530711707985602,0.005685098953107694,6.857361206799848,0.17,0.015,0.08,-7.570113230494922,-1.7064396714166237,-0.11355169845742383,0.0030383925226874593,-1.81695297735136,0.002,8e-05,0,7.129206000997106,0.018762915046698494,0.0005703364800797685,0.0,0.019333251526778263,0.2,0.02,0.0,-0.004659039446673098,-0.00815274175464307,-9.318078893346196e-05,-0.0,-0.008245922543576532,-10.037880420097785,-10.0,0.037880420097785916,39.99128085655113,40.0,0.008719143448873045,9.381457523349246,10.0,0.6185424766507548,-0.04076370877321535,0,0.04076370877321535,3.9987062966945377,1.8197983609953685,0.008245922543576532,0.5193332515267782,0.034379005432128906,0.7562718391418457,STABILIZE
0.16,0.015,0.11,31.55546000722202,6.3985436430554525,0.47333190010833026,0.0054355717209371174,6.87731111488472,0.17,0.015,0.08,-7.90934952918124,-1.707452285104205,-0.11864024293771859,0.0002166837173476206,-1.8258758443245762,0.002,8e-05,0,7.4462585095074845,0.018774074113650015,0.0005957006807605988,0.0,0.019369774794410613,0.2,0.02,0.0,-0.006191848430443304,-0.009076436454824142,-0.00012383696860886607,-0.0,-0.009200273423433008,-10.043836971201205,-10.0,0.0438369712012061,39.99089776909658,40.0,0.009102230903423101,9.387037056825006,10.0,0.6129629431749934,-0.04538218227412071,0,0.04538218227412071,3.9985525266606343,1.829043545250861,0.009200273423433008,0.5193697747944106,0.03377556800842285,0.7900593280792236,STABILIZE
0.16,0.015,0.11,33.188014628568965,6.397898065693209,0.49782021942853444,-0.0023194174090201366,6.893398867712723,0.17,0.015,0.08,-8.319153214301668,-1.7063746631761472,-0.12478729821452501,-0.007449073458973665,-1.8386110348496458,0.002,8e-05,0,7.829883479962281,0.018792582988734482,0.0006263906783969826,0.0,0.019418973667131464,0.2,0.02,0.0,-0.007891149741123201,-0.008324343659370875,-0.00015782299482246402,-0.0,-0.00848216665419334,-10.037498018683218,-10.0,0.03749801868321812,39.98686291058255,40.0,0.013137089417446552,9.39629149436724,10.0,0.6037085056327601,-0.041621718296854376,0,0.041621718296854376,3.998663311407947,1.8415162935665041,0.00848216665419334,0.5194189736671314,0.040827274322509766,0.8309412002563477,STABILIZE
0.16,0.015,0.11,34.53577142276358,6.396539396083597,0.5180365713414536,-0.007835748248931752,6.906740219176118,0.17,0.015,0.08,-8.657042414132924,-1.7038713414489222,-0.12985563621199386,0.0017750176870344391,-1.8319519599738816,0.002,8e-05,0,8.147394039160393,0.018836566149504293,0.0006517915231328314,0.0,0.019488357672637124,0.2,0.02,0.0,-0.008956249664706296,-0.006318789906412739,-0.00017912499329412592,-0.0,-0.006497914899706865,-10.022772596758365,-10.0,0.022772596758364946,39.97837122552248,40.0,0.021628774477519264,9.418283074752146,10.0,0.5817169252478545,-0.031593949532063695,0,0.031593949532063695,3.9989892198291104,1.8341573551205228,0.006497914899706865,0.5194883576726371,0.033712148666381836,0.864598274230957,STABILIZE
0.16,0.015,0.11,35.94605096871903,6.396994771913502,0.5391907645307854,-0.006254196969223442,6.929931339475065,0.17,0.015,0.08,-9.010059336087183,-1.7013562125170625,-0.13515089004130773,0.010769692181295922,-1.8257374103770743,0.002,8e-05,0,8.47951591956179,0.01883121274305969,0.0006783612735649432,0.0,0.019509574016624634,0.2,0.02,0.0,-0.009692606558842631,-0.0041751218894525155,-0.00019385213117685264,0.0,-0.004368974020629368,-10.007977720688602,-10.0,0.007977720688601976,39.98121732445939,40.0,0.018782675540613303,9.415606371529845,10.0,0.5843936284701549,-0.020875609447262578,0,0.020875609447262578,3.999334530525792,1.8271946816347806,0.004368974020629368,0.5195095740166247,0.03527355194091797,0.8999104499816895,STABILIZE
0.16,0.015,0.11,37.28591102895172,6.39751877005086,0.5592886654342758,-0.004040036360624484,6.952767399124512,0.17,0.015,0.08,-9.344926784735542,-1.6988459504304745,-0.14017390177103312,0.020412732243480454,-1.8186071199580272,0.002,8e-05,0,8.794891675811197,0.018823069476693797,0.0007035913340648958,0.0,0.019526660810758694,0.2,0.02,0.0,-0.010030072920665762,-0.002014153798689714,-0.00020060145841331524,0.0,-0.0022147552571030295,-9.993211473120438,-10.0,-0.00678852687956259,39.98449231281788,40.0,0.015507687182124932,9.411534738346898,10.0,0.5884652616531029,-0.010070768993448569,0,0.010070768993448569,3.999680285136258,1.8193101641705773,0.0022147552571030295,0.5195266608107587,0.03350949287414551,0.9334139823913574,STABILIZE
0.16,0.015,0.11,38.62397176032027,6.398077325302287,0.5793595764048041,-0.0014952986714052235,6.975941603035686,0.17,0.015,0.08,-9.67883593123387,-1.6964103492395244,-0.14518253896850805,0.030085077411613648,-1.8115078107964186,0.002,8e-05,0,9.109649524773033,0.018813094663721965,0.0007287719619818427,0.0,0.019541866625703806,0.2,0.02,0.0,-0.010013689294941812,9.79250248075693e-05,-0.00020027378589883624,0.0,-0.00010234876109126694,-9.97888440729132,-10.0,-0.02111559270867993,39.98798328313929,40.0,0.012016716860704177,9.406547331860983,10.0,0.5934526681390165,0.0004896251240378464,0,-0.0004896251240378464,4.000015480221682,1.8114736284482151,0.00010234876109126694,0.5195418666257038,0.033461570739746094,0.966911792755127,STABILIZE
0.16,0.015,0.11,39.97373578802376,6.398328075668978,0.5996060368203564,0.0017003941438801964,6.999634506633214,0.17,0.015,0.08,-10.015440991354007,-1.695345564130555,-0.1502316148703101,0.030569952994127913,-1.8150072260067371,0.002,8e-05,0,9.427234046247827,0.01881819635176679,0.0007541787236998263,0.0,0.01957237507546662,0.2,0.02,0.0,-0.009910254413633251,0.0006128944499710649,-0.00019820508827266502,0.0,0.00041468936169839984,-9.972620965473853,-10.0,-0.02737903452614758,39.989550472931114,40.0,0.010449527068887255,9.409098175883395,10.0,0.5909018241166056,0.0030644722498553243,0,-0.0030644722498553243,4.0000970701771505,1.8147932828883966,-0.00041468936169839984,0.5195723750754666,0.0337529182434082,1.0006077289581299,STABILIZE
0.16,0.015,0.11,41.31358060899723,6.398766287490255,0.6197037091349584,0.009040421891006343,7.027510418516219,0.17,0.015,0.08,-10.349241153844396,-1.6937808898718736,-0.15523861730766594,0.027976759976162155,-1.8210427472033772,0.002,8e-05,0,9.742634355676211,0.018828419861040564,0.0007794107484540969,-0.0,0.019607830609494663,0.2,0.02,0.0,-0.009718604206398715,0.0011440922727080037,-0.00019437208412797428,0.0,0.0009497201885800294,-9.963416999246315,-10.0,-0.03658300075368574,39.99228929681409,40.0,0.0077107031859065854,9.414209930520283,10.0,0.5857900694797181,0.005720461363540018,0,-0.005720461363540018,4.000181794583756,1.8206433745856716,-0.0009497201885800294,0.5196078306094947,0.03350257873535156,1.0341434478759766,STABILIZE
0.16,0.015,0.11,42.831451759205414,6.398083550377154,0.6424717763880812,0.004792164826569119,7.045347491591805,0.17,0.015,0.08,-10.727470692211076,-1.6939452990252908,-0.16091206038316613,0.02085818472927303,-1.833999174679184,0.002,8e-05,0,10.100078621342139,0.018833600236918487,0.0008080062897073712,0.0,0.01964160652662586,0.2,0.02,0.0,-0.009519506393488081,0.0010490386828329208,-0.00019039012786976163,0.0,0.0008586485549631592,-9.964384111913475,-10.0,-0.0356158880865252,39.98802218985721,40.0,0.011977810142789489,9.416800118459243,10.0,0.5831998815407575,0.005245193414164604,0,-0.005245193414164604,4.000167878334304,1.8336329834147178,-0.0008586485549631592,0.5196416065266258,0.03795814514160156,1.0722084045410156,STABILIZE
0.16,0.015,0.11,44.17112639014665,6.397452705245483,0.6625668958521996,5.31477250865966e-05,7.060072748822769,0.17,0.015,0.08,-11.061438229597929,-1.6944975432353744,-0.16592157344396893,0.012256367172776545,-1.848162749506567,0.002,8e-05,0,10.416141710933752,0.01886650889734604,0.0008332913368747002,0.0,0.01969980023422074,0.2,0.02,0.0,-0.009387761721775835,0.0007864132519392341,-0.00018775523443551672,0.0,0.0005986580175037174,-9.967632607266907,-10.0,-0.032367392733093275,39.984079407784265,40.0,0.01592059221573494,9.433254448673019,10.0,0.566745551326981,0.0039320662596961705,0,-0.0039320662596961705,4.0001268253744,1.8478882351440518,-0.0005986580175037174,0.5196998002342207,0.03350520133972168,1.105616807937622,STABILIZE
0.16,0.015,0.11,45.74784535183507,6.396864699427448,0.6862176802775259,-0.004292172964340484,7.078790206740634,0.17,0.015,0.08,-11.454648207344947,-1.6949868874429848,-0.1718197231101742,0.004237904097157678,-1.8625687064560013,0.002,8e-05,0,10.788642050299163,0.01889076564459293,0.0008630913640239331,0.0,0.019753857008616864,0.2,0.02,0.0,-0.009280706306267327,0.000542914610172172,-0.00018561412612534654,0.0,0.0003573004840468255,-9.970511102605792,-10.0,-0.029488897394208253,39.98040437142155,40.0,0.019595628578452227,9.445382822296466,10.0,0.5546171777035345,0.0027145730508608603,0,-0.0027145730508608603,4.000088240733151,1.8623791914155268,-0.0003573004840468255,0.5197538570086169,0.039437294006347656,1.145104169845581,STABILIZE
0.16,0.015,0.11,47.42154086473885,6.396526356266983,0.7113231129710827,-0.0064249001908907935,7.1014245690471745,0.17,0.015,0.08,-11.872001456721453,-1.694729853107373,-0.17808002185082178,0.0018466685835602107,-1.8709632063746344,0.002,8e-05,0,11.184528523072059,0.0189124771923716,0.0008947622818457647,0.0,0.019807239474217364,0.2,0.02,0.0,-0.009398211185641698,-0.000561349908117474,-0.00018796422371283397,-0.0,-0.0007493141318303079,-9.968999135925722,-10.0,-0.031000864074277684,39.97828972666864,40.0,0.021710273331357555,9.456238596185798,10.0,0.5437614038142025,-0.0028067495405873694,0,0.0028067495405873694,3.9999083422871444,1.871159152212703,0.0007493141318303079,0.5198072394742174,0.04186511039733887,1.1870288848876953,STABILIZE
0.16,0.015,0.11,49.013459739214454,6.395777366792365,0.7352018960882167,-0.01080940614550195,7.12016985673508,0.17,0.015,0.08,-12.269246797685271,-1.695743483938125,-0.18403870196527908,-0.004944456503251853,-1.884726642406656,0.002,8e-05,0,11.560290536200089,0.018871016430220575,0.0009248232428960072,0.0,0.019795839673116582,0.2,0.02,0.0,-0.009786054203536485,-0.0019477732467185615,-0.0001957210840707297,-0.0,-0.002143494330789291,-9.974961670224264,-10.0,-0.02503832977573664,39.97360854245228,40.0,0.0263914575477202,9.435508215110287,10.0,0.5644917848897123,-0.009738866233592807,0,0.009738866233592807,3.9996795852773457,1.8854065163017515,0.002143494330789291,0.5197958396731166,0.03982424736022949,1.2268178462982178,STABILIZE
0.16,0.015,0.11,50.36188346753499,6.39599554698056,0.7554282520130248,-0.0074468872538552755,7.143976911739729,0.17,0.015,0.08,-12.605492079931713,-1.6945988400721936,-0.1890823811989757,-0.0013430351527119384,-1.8850242564238813,0.002,8e-05,0,11.879332214151304,0.018916430983630276,0.0009503465771321044,0.0,0.01986677756076238,0.2,0.02,0.0,-0.010350196279284041,-0.003344877919828496,-0.00020700392558568084,-0.0,-0.003551881845414177,-9.968228471012903,-10.0,-0.03177152898709595,39.9749721686285,40.0,0.025027831371499557,9.458215491815137,10.0,0.5417845081848636,-0.016724389599142478,0,0.016724389599142478,3.9994495991948775,1.886191758757932,0.003551881845414177,0.5198667775607624,0.033731698989868164,1.260483980178833,STABILIZE
0.16,0.015,0.11,51.79513387850765,6.396178066320544,0.7769270081776147,-0.0041580123314932825,7.168947062166665,0.17,0.015,0.08,-12.963388736322447,-1.6970125363098563,-0.19445083104483668,-0.006128003779591031,-1.897591371134284,0.002,8e-05,0,12.219796857790614,0.018992428585155038,0.0009775837486232493,0.0,0.01997001233377829,0.2,0.02,0.0,-0.010933276644251708,-0.0032526467572904674,-0.00021866553288503416,-0.0,-0.0034713122901755015,-9.982426684175625,-10.0,-0.017573315824374824,39.976112914503396,40.0,0.023887085496601297,9.496214292577518,10.0,0.5037857074224826,-0.016263233786452336,0,0.016263233786452336,3.999461213295512,1.8987266825817986,0.0034713122901755015,0.5199700123337783,0.035852670669555664,1.2963581085205078,STABILIZE
0.16,0.015,0.11,53.15993230246364,6.396178066320544,0.7973989845369546,-0.0021079020991148856,7.191469148758383,0.17,0.015,0.08,-13.304192261541536,-1.6970125363098563,-0.19956288392312302,-0.0049601770667655155,-1.9015355972997448,0.002,8e-05,0,12.544000922547397,0.018992428585155038,0.0010035200738037918,0.0,0.019995948658958828,0.2,0.02,0.0,-0.011488509112392083,-0.0032526467572904674,-0.00022977018224784165,-0.0,-0.003482416939538309,-9.982426684175625,-10.0,-0.017573315824374824,39.976112914503396,40.0,0.023887085496601297,9.496214292577518,10.0,0.5037857074224826,-0.016263233786452336,0,0.016263233786452336,3.999460093738855,1.902670908588368,0.003482416939538309,0.5199959486589588,0.03414034843444824,1.3306052684783936,STABILIZE
0.16,0.015,0.11,54.75051014252965,6.40065912023383,0.8212576521379447,0.014499803452548187,7.236416575824323,0.17,0.015,0.08,-13.699710495046295,-1.6910841503806577,-0.20549565742569442,0.008495199267110233,-1.8880846085392418,0.002,8e-05,0,12.928948883877272,0.019363408516046222,0.0010343159107101818,0.0,0.020397724426756404,0.2,0.02,0.0,-0.00867260135567722,0.014164400831843438,-0.00017345202711354442,0.0,0.013990948804729893,-9.947553825768574,-10.0,-0.05244617423142635,40.00411950146144,40.0,-0.004119501461436328,9.68170425802311,10.0,0.3182957419768897,0.07082200415921719,0,-0.07082200415921719,4.002330761884771,1.8831388587870115,-0.013990948804729893,0.5203977244267564,0.03976035118103027,1.37028169631958,STABILIZE
0.16,0.015,0.11,56.293644092812684,6.401832706077835,0.8444046613921903,0.021269880793013424,7.267507248263039,0.17,0.015,0.08,-14.07979527404692,-1.6753675965037935,-0.21119692911070378,0.049244600337725215,-1.8373199252767722,0.002,8e-05,0,13.29790006657034,0.019132847701566712,0.0010638320053256273,0.0,0.02019667970689234,0.2,0.02,0.0,-0.023477469948619788,-0.07677419380062607,-0.00046954939897239574,-0.0,-0.07724374319959847,-9.855103508845843,-10.0,-0.14489649115415687,40.01145441298647,40.0,-0.011454412986467644,9.566423850783355,10.0,0.4335761492166449,-0.38387096900313034,0,0.38387096900313034,3.9876006188011637,1.864077737852051,0.07724374319959847,0.5201966797068923,0.038567304611206055,1.4088873863220215,STABILIZE
0.16,0.015,0.11,57.71097851923495,6.398591551034952,0.8656646777885242,0.007805904848574294,7.2720621336720495,0.17,0.015,0.08,-14.432398408434455,-1.6913253545930433,-0.21648597612651682,0.003673365008764446,-1.9041379657107957,0.002,8e-05,0,13.630996861082112,0.018797172136183395,0.001090479748886569,-0.0,0.019887651885069964,0.2,0.02,0.0,-0.017447701333110747,0.03402692564880699,-0.0003489540266622149,0.0,0.033677971622144774,-9.948972674076725,-10.0,-0.051027325923274955,39.991197193968446,40.0,0.008802806031552849,9.398586068091697,10.0,0.6014139319083022,0.1701346282440349,0,-0.1701346282440349,4.0056365221590156,1.892251950668058,-0.033677971622144774,0.5198876518850699,0.03544116020202637,1.4442732334136963,STABILIZE
0.16,0.015,0.11,59.783494032916366,6.397762678329148,0.8967524104937454,0.004907040919233067,7.299422129742125,0.17,0.015,0.08,-14.948997513181007,-1.694388222102302,-0.2242349626977151,0.004447886484441653,-1.9141752983155755,0.002,8e-05,0,14.119184847174314,0.01883768092935409,0.0011295347877739452,-0.0,0.019967215717128034,0.2,0.02,0.0,-0.013409466734203991,0.015582311949339223,-0.0002681893346840798,0.0,0.015314122614655144,-9.966989541778247,-10.0,-0.03301045822175264,39.98601673955717,40.0,0.013983260442827522,9.418840464677045,10.0,0.5811595353229551,0.07791155974669611,0,-0.07791155974669611,4.002599221934251,1.9087342772771827,-0.015314122614655144,0.519967215717128,0.05183100700378418,1.4961919784545898,STABILIZE
0.16,0.015,0.11,61.48574148361688,6.401347820381917,0.9222861222542531,0.01649315543608114,7.340127098072252,0.17,0.015,0.08,-15.374430266334917,-1.6998421499325185,-0.23061645399502376,-0.0076166099221136345,-1.9380752138496558,0.002,8e-05,0,14.520399538300197,0.018859734431434728,0.001161631963064016,-0.0,0.020021366394498745,0.2,0.02,0.0,-0.018890829964124608,-0.02576601932208383,-0.0003778165992824922,-0.0,-0.02614383592136632,-9.999071470191284,-10.0,-0.0009285298087162996,40.00842387738698,40.0,-0.008423877386983324,9.429867215717364,10.0,0.5701327842826366,-0.12883009661041914,0,0.12883009661041914,3.995632111825909,1.9470643444642546,0.02614383592136632,0.5200213663944987,0.04254722595214844,1.5387885570526123,STABILIZE
0.16,0.015,0.11,63.06421409390693,6.401347820381917,0.9459632114086038,0.0009966898673640114,7.348307721657886,0.17,0.015,0.08,-15.768928697275367,-1.6998421499325185,-0.2365339304591305,-0.02164982939676988,-1.958025909788419,0.002,8e-05,0,14.892440865504165,0.018859734431434728,0.0011913952692403332,-0.0,0.02005112970067506,0.2,0.02,0.0,-0.023973629014239276,-0.02576601932208383,-0.00047947258028478555,-0.0,-0.026245491902368617,-9.999071470191284,-10.0,-0.0009285298087162996,40.00842387738698,40.0,-0.008423877386983324,9.429867215717364,10.0,0.5701327842826366,-0.12883009661041914,0,0.12883009661041914,3.995587252537122,1.9670149899697311,0.026245491902368617,0.520051129700675,0.03945350646972656,1.5781826972961426,STABILIZE
0.16,0.015,0.11,64.45562343681597,6.417234816065915,0.9668343515522395,0.05978027972537112,7.443849447343525,0.17,0.015,0.08,-16.112608646848226,-1.6841320877632269,-0.24168912970272338,-0.01738285184375048,-1.9432040693097006,0.002,8e-05,0,15.21976688283485,0.018870506416061878,0.0012175813506267882,-0.0,0.020088087766688665,0.2,0.02,0.0,-0.040290811939480045,-0.09406936472505852,-0.0008058162387896009,-0.0,-0.09487518096384812,-9.906659339783687,-10.0,-0.09334066021631332,40.107717600411966,40.0,-0.10771760041196782,9.43525320803094,10.0,0.5647467919690613,-0.47034682362529256,0,0.47034682362529256,3.9839134433702155,1.9759746280546855,0.09487518096384812,0.5200880877666887,0.034691810607910156,1.612856388092041,STABILIZE
0.16,0.015,0.11,65.83614472041597,6.408018915195255,0.9875421708062395,0.035592716962272467,7.431153802963767,0.17,0.015,0.08,-16.45602148638487,-1.6936596686083085,-0.24684032229577305,-0.0010198186232868664,-1.9415198095273685,0.002,8e-05,0,15.544888176714194,0.018864100699327077,0.0012435910541371356,0.0,0.02010769175346421,0.2,0.02,0.0,-0.05125739781362486,-0.06363003105372096,-0.001025147956272497,-0.0,-0.06465517900999346,-9.962703932990049,-10.0,-0.037296067009951125,40.050118219970344,40.0,-0.05011821997034069,9.432050349663538,10.0,0.567949650336463,-0.3181501552686048,0,0.3181501552686048,3.989157580564615,1.9637008347024392,0.06465517900999346,0.5201076917534642,0.0344698429107666,1.6474330425262451,STABILIZE
0.16,0.015,0.11,67.20245761729855,6.409900688468724,1.0080368642594781,0.045378262868977275,7.46331581559718,0.17,0.015,0.08,-16.79656919202393,-1.6974931503070034,-0.251948537880359,-0.006037116248193174,-1.9554788044355556,0.002,8e-05,0,15.866558921078362,0.018863518840235825,0.001269324713686269,0.0,0.020132843553922093,0.2,0.02,0.0,-0.06603408739723082,-0.08665393643666323,-0.0013206817479446164,-0.0,-0.08797461818460785,-9.985253825335313,-10.0,-0.014746174664687646,40.061879302929526,40.0,-0.06187930292952919,9.431759420117912,10.0,0.5682405798820883,-0.43326968218331613,0,0.43326968218331613,3.9850984778131324,1.9856705357959477,0.08797461818460785,0.5201328435539221,0.03410506248474121,1.6814475059509277,STABILIZE
0.16,0.015,0.11,68.60118487383671,6.397696103606391,1.0290177731075507,-0.01418078735625144,7.41253308935769,0.17,0.015,0.08,-17.13973760833618,-1.6677341358101263,-0.2570960641250427,0.08609560361099516,-1.8387345963241737,0.002,8e-05,0,16.197130089352047,0.018900163213944787,0.0012957704071481638,0.0,0.02019593362109295,0.2,0.02,0.0,-0.07924790961254073,-0.07554905585191281,-0.0015849581922508147,-0.0,-0.07713401404416362,-9.810200798883095,-10.0,-0.18979920111690576,39.98560064753994,40.0,0.01439935246005851,9.450081606972393,10.0,0.5499183930276059,-0.377745279259564,0,0.377745279259564,3.987790564286418,1.8650660393422094,0.07713401404416362,0.520195933621093,0.03498077392578125,1.7164809703826904,STABILIZE
0.16,0.015,0.11,69.94223479932737,6.37878309603028,1.0491335219899105,-0.09149088118254324,7.336425736837647,0.17,0.015,0.08,-17.465262227650147,-1.6451506247265713,-0.2619789334147522,0.1492837229961879,-1.7578458351451356,0.002,8e-05,0,16.517407420817722,0.01904272530390195,0.0013213925936654178,0.0,0.020364117897567365,0.2,0.02,0.0,-0.08908997314645821,-0.058517944883035626,-0.0017817994629291643,-0.0,-0.06029974434596479,-9.677356616038654,-10.0,-0.32264338396134534,39.86739435018925,40.0,0.13260564981075038,9.521362651950975,10.0,0.4786373480490248,-0.2925897244151781,0,0.2925897244151781,3.9909711727470323,1.7782494421310182,0.06029974434596479,0.5203641178975673,0.03363776206970215,1.7500908374786377,STABILIZE
0.16,0.015,0.11,71.5563290177695,6.37878309603028,1.0733449352665425,-0.15445853459327608,7.297669496703547,0.17,0.015,0.08,-17.857065244083714,-1.6451506247265713,-0.2678559786612557,0.10666288365076565,-1.8063437197370613,0.002,8e-05,0,16.902894776053717,0.01904272530390195,0.0013522315820842974,0.0,0.020394956885986245,0.2,0.02,0.0,-0.10093592872624323,-0.058517944883035626,-0.0020187185745248644,0.0,-0.060536663457560494,-9.677356616038654,-10.0,-0.32264338396134534,39.86739435018925,40.0,0.13260564981075038,9.521362651950975,10.0,0.4786373480490248,-0.2925897244151781,0,0.2925897244151781,3.9907235119047515,1.8267466943624484,0.060536663457560494,0.5203949568859862,0.04048657417297363,1.7906899452209473,STABILIZE
0.16,0.015,0.11,72.92179191564786,6.378623261387382,1.0938268787347178,-0.11833801405820514,7.354112126063895,0.17,0.015,0.08,-18.1856557029452,-1.630913530749749,-0.272784835544178,0.17179917731209104,-1.731899188981836,0.002,8e-05,0,17.21957222795163,0.018491587762760848,0.0013775657782361306,-0.0,0.019869153540996977,0.2,0.02,0.0,-0.1136258338803303,-0.07409952727975005,-0.0022725166776066063,-0.0,-0.07637204395735667,-9.593609004410288,-10.0,-0.406390995589712,39.86639538367114,40.0,0.133604616328861,9.245793881380424,10.0,0.7542061186195755,-0.3704976363987503,0,0.3704976363987503,3.988717290391652,1.7577284142115417,0.07637204395735667,0.5198691535409969,0.03425097465515137,1.8249006271362305,STABILIZE
0.16,0.015,0.11,74.25779495858484,6.381054653327546,1.1138669243787724,-0.1159448632677553,7.378976714438563,0.17,0.015,0.08,-18.511500252940536,-1.6535769782216965,-0.277672503794108,0.11870421074851759,-1.8125452712672867,0.002,8e-05,0,17.52997660778344,0.01853202470992083,0.0014023981286226752,-0.0,0.019934422838543506,0.2,0.02,0.0,-0.12551354497408107,-0.07097301779477483,-0.0025102708994816213,0.0,-0.07348328869425645,-9.726923401304097,-10.0,-0.27307659869590234,39.88159158329716,40.0,0.11840841670283998,9.266012354960415,10.0,0.7339876450395859,-0.35486508897387414,0,0.35486508897387414,3.9886972360343873,1.837284604965991,0.07348328869425645,0.5199344228385435,0.03349924087524414,1.8583760261535645,STABILIZE
0.16,0.015,0.11,75.62372850767662,6.382421254188907,1.1343559276151491,-0.062484354707937534,7.454292827096119,0.17,0.015,0.08,-18.84452391034396,-1.653331415707138,-0.28266785865515937,0.03931093332054707,-1.8966883410417503,0.002,8e-05,0,17.847252906911972,0.01853119974572327,0.0014277802325529578,-0.0,0.019958979978276226,0.2,0.02,0.0,-0.13642146340981295,-0.06371002684342196,-0.002728429268196259,0.0,-0.06643845611161822,-9.72547891592434,-10.0,-0.2745210840756608,39.89013283868067,40.0,0.10986716131932982,9.265599872861635,10.0,0.7344001271383644,-0.31855013421710976,0,0.31855013421710976,3.989393122384282,1.918897907163561,0.06643845611161822,0.5199589799782762,0.03424239158630371,1.8926188945770264,STABILIZE
0.16,0.015,0.11,76.96016767916763,6.379006280636329,1.1544025151875144,0.0008178113579634711,7.5342266071818065,0.17,0.015,0.08,-19.171029557757198,-1.655859444401718,-0.287565443366358,-0.030975201035791117,-1.974400088803867,0.002,8e-05,0,18.157863933871866,0.018532359478822237,0.0014526291147097495,-0.0,0.019984988593531986,0.2,0.02,0.0,-0.14486884885133036,-0.050400652285465954,-0.0028973769770266073,0.0,-0.05329802926249256,-9.740349672951282,-10.0,-0.2596503270487176,39.868789253977056,40.0,0.13121074602294683,9.266179739411118,10.0,0.7338202605888814,-0.25200326142732976,0,0.25200326142732976,3.99127736068213,1.9919740813512126,0.05329802926249256,0.519984988593532,0.03352093696594238,1.9261610507965088,STABILIZE
0.16,0.015,0.11,78.33080401953112,6.392733624694093,1.1749620602929667,0.05583946015729802,7.623535145144357,0.17,0.015,0.08,-19.505252243086982,-1.6562627293658645,-0.29257878364630474,-0.03208164003475223,-1.9809231530469216,0.002,8e-05,0,18.47600003957647,0.018547583705059375,0.0014780800031661176,-0.0,0.02002566370822549,0.2,0.02,0.0,-0.157806191952772,-0.07542572181915987,-0.0031561238390554404,-0.0,-0.07858184565821531,-9.74272193744626,-10.0,-0.2572780625537395,39.954585154338076,40.0,0.04541484566192605,9.273791852529687,10.0,0.7262081474703133,-0.3771286090957993,0,0.3771286090957993,3.9868747399704594,2.0072085955532475,0.07858184565821531,0.5200256637082254,0.03430485725402832,1.9605169296264648,STABILIZE
0.16,0.015,0.11,79.78297427284708,6.40660925586249,1.1967446140927063,0.10908843205293102,7.712442302008127,0.17,0.015,0.08,-19.858686444311992,-1.6567165564571795,-0.29788029666467986,-0.07238124611192027,-2.0269780992337796,0.002,8e-05,0,18.81262691949373,0.018563912183552956,0.0015050101535594987,0.0,0.020068922337112455,0.2,0.02,0.0,-0.17605818767772877,-0.10065400775361776,-0.0035211637535545754,-0.0,-0.10417517150717233,-9.745391508571643,-10.0,-0.25460849142835745,40.04130784914056,40.0,-0.041307849140559884,9.281956091776477,10.0,0.7180439082235233,-0.5032700387680887,0,0.5032700387680887,3.9820415160366025,2.0620343302996447,0.10417517150717233,0.5200689223371124,0.03626680374145508,1.9966847896575928,STABILIZE
0.16,0.015,0.11,81.32858744438542,6.402737291689814,1.2199288116657812,0.08532449615008293,7.707990599505678,0.17,0.015,0.08,-20.233929381861028,-1.651605568942745,-0.3035089407279154,0.0037470860789425658,-1.9513674235917178,0.002,8e-05,0,19.17073311391722,0.01854328695920011,0.0015336586491133777,0.0,0.02007694560831349,0.2,0.02,0.0,-0.19039019414636482,-0.07421332353015568,-0.0038078038829272966,-0.0,-0.07802112741308298,-9.715326876133792,-10.0,-0.2846731238662074,40.01710807306134,40.0,-0.017108073061334418,9.271643479600055,10.0,0.7283565203999456,-0.3710666176507784,0,0.3710666176507784,3.9872784952012132,1.9772316565240728,0.07802112741308298,0.5200769456083135,0.038623809814453125,2.0353403091430664,STABILIZE
0.16,0.015,0.11,82.66766612387146,6.401348381707745,1.2400149918580718,0.07413104922310426,7.715494422788921,0.17,0.015,0.08,-20.560274941212878,-1.6575705209689884,-0.3084041241181932,-0.01370134870381486,-1.9796759937909965,0.002,8e-05,0,19.480948175944913,0.018536949281935847,0.0015584758540755932,0.0,0.02009542513601144,0.2,0.02,0.0,-0.19825357931177023,-0.04698778036201042,-0.0039650715862354045,0.0,-0.05095285194824582,-9.750414829229342,-10.0,-0.24958517077065756,40.00842738567341,40.0,-0.008427385673409483,9.268474640967924,10.0,0.7315253590320766,-0.2349389018100521,0,0.2349389018100521,3.9918488182594984,1.9960611344727437,0.05095285194824582,0.5200954251360115,0.03346991539001465,2.06882905960083,STABILIZE
0.16,0.015,0.11,84.1896981921834,6.406287197440108,1.262845472882751,0.1060033648720891,7.775136035194948,0.17,0.015,0.08,-20.929063582102998,-1.6492598104540868,-0.313935953731545,0.013973181928316963,-1.9492225822573148,0.002,8e-05,0,19.832559378504154,0.01849930097013336,0.0015866047502803324,-0.0,0.02008590572041369,0.2,0.02,0.0,-0.20449203549369807,-0.03282235539097422,-0.004089840709873962,0.0,-0.036912196100848185,-9.701528296788744,-10.0,-0.2984717032112565,40.03929498400067,40.0,-0.03929498400066813,9.24965048506668,10.0,0.7503495149333216,-0.1641117769548711,0,0.1641117769548711,3.994400458915905,1.960671734124375,0.036912196100848185,0.5200859057204137,0.038013458251953125,2.1069180965423584,STABILIZE
0.16,0.015,0.11,85.53103567638132,6.387666480165526,1.2829655351457199,-0.025223253238427477,7.645408762072819,0.17,0.015,0.08,-21.257666421762973,-1.6626637251759728,-0.3188649963264446,-0.02246838741192317,-2.0039971089143407,0.002,8e-05,0,20.14368731080688,0.018520520447187435,0.0016114949848645504,-0.0,0.020132015432051984,0.2,0.02,0.0,-0.20581905882528603,-0.007899375207063148,-0.00411638117650572,0.0,-0.012015756383568868,-9.78037485397631,-10.0,-0.21962514602368904,39.92291550103454,40.0,0.07708449896546246,9.260260223593717,10.0,0.7397397764062836,-0.03949687603531574,0,0.03949687603531574,3.9986175932298513,2.0067540346663684,0.012015756383568868,0.520132015432052,0.03359818458557129,2.1404476165771484,STABILIZE
0.16,0.015,0.11,87.09088598944432,6.414398879849391,1.3063632898416646,0.016639381666205672,7.737401551357261,0.17,0.015,0.08,-21.636924387761077,-1.6570541048991152,-0.32455386581641615,-0.007721335608527719,-1.9893293063240591,0.002,8e-05,0,20.50315976270001,0.01847773207347247,0.001640252781016001,-0.0,0.02011798485448847,0.2,0.02,0.0,-0.2179075845579777,-0.062137874119589,-0.004358151691159554,0.0,-0.06649602581074855,-9.747377087641853,-10.0,-0.2526229123581467,40.089992999058694,40.0,-0.08999299905869283,9.238866036736235,10.0,0.7611339632637647,-0.310689370597945,0,0.310689370597945,3.9891540023188643,2.0109901627763254,0.06649602581074855,0.5201179848544885,0.03890872001647949,2.1793556213378906,STABILIZE
0.16,0.015,0.11,88.4313680730686,6.398713250375463,1.3264705210960288,-0.03392172411800694,7.691262047353486,0.17,0.015,0.08,-21.964474767715494,-1.6612641029357857,-0.3294671215157324,-0.03199695993240883,-2.022728184383927,0.002,8e-05,0,20.81367572749184,0.018527873690360862,0.0016650940581993475,-0.0,0.02019296774856021,0.2,0.02,0.0,-0.21867540919103917,-0.004581457776976977,-0.004373508183820783,0.0,-0.00895496596079776,-9.77214178197521,-10.0,-0.22785821802478984,39.99195781484664,40.0,0.008042185153353781,9.263936845180432,10.0,0.7360631548195681,-0.022907288884884885,0,0.022907288884884885,3.999190978200636,2.0243272531336767,0.00895496596079776,0.5201929677485602,0.03351879119873047,2.2129156589508057,STABILIZE
0.16,0.015,0.11,89.77387979501299,6.421968377613112,1.3466081969251948,0.06738274547748625,7.835959320015793,0.17,0.015,0.08,-22.28962567121765,-1.6525856610734881,-0.33434438506826475,0.009196374410046214,-1.9777336717317067,0.002,8e-05,0,21.12403825509832,0.01855792304552622,0.0016899230604078656,0.0,0.020247846105934084,0.2,0.02,0.0,-0.22412541148320994,-0.0325879299656586,-0.004482508229664199,0.0,-0.037070438195322804,-9.721092123961695,-10.0,-0.27890787603830525,40.13730236008195,40.0,-0.13730236008194946,9.27896152276311,10.0,0.7210384772368905,-0.162939649828293,0,0.162939649828293,3.994359487799742,1.9891009925404899,0.037070438195322804,0.5202478461059341,0.033447980880737305,2.2463090419769287,STABILIZE
0.16,0.015,0.11,91.23016682580936,6.445491725947423,1.3684525023871403,0.1389911369897106,7.952935365324274,0.17,0.015,0.08,-22.639177789014674,-1.6438036854105182,-0.3395876668352201,0.011483867688202221,-1.9719074845575362,0.002,8e-05,0,21.460033697761027,0.018588847869968273,0.0017168026958208824,0.0,0.020305650565789157,0.2,0.02,0.0,-0.2351752152414234,-0.061132710439953546,-0.004703504304828468,-0.0,-0.06583621474478202,-9.669433443591283,-10.0,-0.3305665564087177,40.28432328717139,40.0,-0.2843232871713927,9.294423934984136,10.0,0.7055760650158629,-0.3056635521997677,0,0.3056635521997677,3.9894233272645163,1.9932186642543122,0.06583621474478202,0.5203056505657891,0.036150217056274414,2.282637119293213,STABILIZE
0.16,0.015,0.11,92.5899217037676,6.434870048109851,1.388848825556514,0.17199896613168575,7.9957178397980515,0.17,0.015,0.08,-22.97418815638135,-1.684481870281491,-0.3446128223457202,-0.06420602211959309,-2.0933007147468046,0.002,8e-05,0,21.769168310818884,0.018286761594367328,0.0017415334648655109,-0.0,0.02002829505923284,0.2,0.02,0.0,-0.2522453822196403,-0.10097804021973825,-0.005044907644392807,-0.0,-0.10602294786413105,-9.90871688400877,-10.0,-0.0912831159912289,40.21793780068657,40.0,-0.21793780068656696,9.143380797183664,10.0,0.8566192028163367,-0.5048902010986912,0,0.5048902010986912,3.981398778871788,2.128466970840214,0.10602294786413105,0.5200282950592329,0.033809661865234375,2.3164002895355225,STABILIZE
0.16,0.015,0.11,93.93565914795721,6.423616644035822,1.409034887219358,0.03136687584239375,7.864018407097574,0.17,0.015,0.08,-23.314295158617668,-1.724899476387889,-0.349714427379265,-0.1912609749673961,-2.26587487873455,0.002,8e-05,0,22.070809511811575,0.017997822008200354,0.0017656647609449261,-0.0,0.01976348676914528,0.2,0.02,0.0,-0.27562744316904375,-0.13951216536976024,-0.005512548863380875,-0.0,-0.14502471423314112,-10.146467508164053,-10.0,0.14646750816405302,40.147604025223885,40.0,-0.14760402522388621,8.998911004100176,10.0,1.0010889958998233,-0.6975608268488012,0,0.6975608268488012,3.9721178148712983,2.314404681740506,0.14502471423314112,0.5197634867691453,0.033519744873046875,2.3501667976379395,STABILIZE
0.16,0.015,0.11,95.45855262494327,6.44792752262107,1.4318782893741488,0.18416946102315454,8.063975273018373,0.17,0.015,0.08,-23.693155803165624,-1.7043510527944026,-0.35539733704748433,-0.12826205758157083,-2.1880104474234576,0.002,8e-05,0,22.411106173241233,0.01801019114474525,0.0017928884938592988,-0.0,0.01980307963860455,0.2,0.02,0.0,-0.30209812588887414,-0.14009601314134457,-0.006041962517777483,-0.0,-0.14613797565912204,-10.025594428202368,-10.0,0.02559442820236696,40.29954701638169,40.0,-0.2995470163816857,9.005095572372625,10.0,0.994904427627375,-0.7004800657067228,0,0.7004800657067228,3.9729518122124907,2.2367484471597794,0.14613797565912204,0.5198030796386045,0.037789344787597656,2.3876774311065674,STABILIZE
0.16,0.015,0.11,97.01125219726637,6.428481805398771,1.4551687829589954,0.019383360890677236,7.903033949248444,0.17,0.015,0.08,-24.083219430012367,-1.7158739421524165,-0.3612482914501855,-0.18074486180223825,-2.25786709540484,0.002,8e-05,0,22.763285121876777,0.018226126965443623,0.0018210628097501424,-0.0,0.020047189775193767,0.2,0.02,0.0,-0.3263082982467694,-0.12529359774621582,-0.006526165964935388,-0.0,-0.1318197637111512,-10.093376130308332,-10.0,0.09337613030833256,40.17801128374232,40.0,-0.17801128374232456,9.113063482721811,10.0,0.8869365172781883,-0.6264679887310791,0,0.6264679887310791,3.975074034016683,2.3014669766473346,0.1318197637111512,0.5200471897751938,0.03864550590515137,2.4263319969177246,STABILIZE
0.16,0.015,0.11,98.57686430249356,6.448326327296895,1.4786529645374034,0.00015085476657999308,7.927130146600878,0.17,0.015,0.08,-24.47665504517327,-1.7217315857147082,-0.367149825677599,-0.2178006503063017,-2.306682061698609,0.002,8e-05,0,23.118564515897937,0.018291228254781338,0.0018494851612718352,-0.0,0.020140713416053172,0.2,0.02,0.0,-0.353920392065829,-0.1421582898238045,-0.00707840784131658,-0.0,-0.14923669766512107,-10.127832857145341,-10.0,0.12783285714534043,40.302039545605595,40.0,-0.302039545605595,9.145614127390669,10.0,0.8543858726093317,-0.7107914491190224,0,0.7107914491190224,3.971077044767951,2.356125896101306,0.14923669766512107,0.5201407134160532,0.03884696960449219,2.465160369873047,STABILIZE
0.16,0.015,0.11,100.03690083212496,6.415795867054193,1.5005535124818743,-0.07949764269737333,7.836851736838693,0.17,0.015,0.08,-24.840892929850735,-1.7005948888561349,-0.372613393947761,-0.049927240691637585,-2.1231355234955336,0.002,8e-05,0,23.45321883371563,0.018382021147860188,0.0018762575066972507,0.0,0.020258278654557437,0.2,0.02,0.0,-0.3625043566595454,-0.04715033104104033,-0.007250087133190908,0.0,-0.05440041817423123,-10.003499346212557,-10.0,0.0034993462125565145,40.098724169088705,40.0,-0.09872416908870431,9.191010573930093,10.0,0.8089894260699073,-0.23575165520520164,0,0.23575165520520164,3.9912302202593226,2.1395760748375774,0.05440041817423123,0.5202582786545574,0.03641104698181152,2.5016367435455322,STABILIZE
0.16,0.015,0.11,101.46038512052273,6.399534648781612,1.521905776807841,-0.09616036296223203,7.82528006262722,0.17,0.015,0.08,-25.194663013977067,-1.689840678338752,-0.377919945209656,0.09199812870699432,-1.9757624948414139,0.002,8e-05,0,23.781200114474867,0.018431249886967396,0.0019024960091579895,0.0,0.020333745896125386,0.2,0.02,0.0,-0.36248067996243866,0.00013305366692341615,-0.007249613599248773,0.0,-0.007116559932325357,-9.9402392843456,-10.0,-0.05976071565440101,39.997091554885074,40.0,0.0029084451149253565,9.215624943483698,10.0,0.7843750565163018,0.0006652683346170807,0,-0.0006652683346170807,4.00002294055141,1.9757160502168372,0.007116559932325357,0.5203337458961254,0.03558969497680664,2.537165641784668,STABILIZE
0.16,0.015,0.11,103.02874581463813,6.408945320404066,1.5454311872195718,-0.1515698200152322,7.802806687608406,0.17,0.015,0.08,-25.586213073292182,-1.7000310342369027,-0.3837931960993827,0.016325290856963874,-2.0674989394793215,0.002,8e-05,0,24.143338404714417,0.018498012839761414,0.0019314670723771534,0.0,0.020429479912138566,0.2,0.02,0.0,-0.36049346556871914,0.01015068507283954,-0.007209869311374383,0.0,0.002940815761465157,-10.000182554334721,-10.0,0.00018255433472007948,40.05590825252541,40.0,-0.05590825252541429,9.249006419880708,10.0,0.7509935801192933,0.05075342536419769,0,-0.05075342536419769,4.001829850716081,2.063954871276459,-0.002940815761465157,0.5204294799121386,0.0391542911529541,2.5763282775878906,STABILIZE
0.16,0.015,0.11,104.63654949725665,6.43118253089267,1.5695482424588498,-0.005942287067312148,7.994788486284208,0.17,0.015,0.08,-25.992444838666525,-1.7264763587361116,-0.3898866725799979,-0.01783573190362622,-2.134198763219736,0.002,8e-05,0,24.514474296269793,0.01855670166825753,0.0019611579437015837,0.0,0.020517859611959115,0.2,0.02,0.0,-0.3511819028242171,0.046557580618473704,-0.007023638056484342,0.0,0.03953394256198936,-10.155743286683009,-10.0,0.1557432866830083,40.19489081807919,40.0,-0.194890818079188,9.278350834128766,10.0,0.7216491658712334,0.2327879030923685,0,-0.2327879030923685,4.008638030579873,2.1179295315749678,-0.03953394256198936,0.5205178596119591,0.040000200271606445,2.616368532180786,STABILIZE
0.16,0.015,0.11,106.00656456425091,6.446105266731756,1.5900984684637636,-0.015842850605038115,8.020360884590481,0.17,0.015,0.08,-26.341081165282272,-1.742904638438563,-0.3951162174792341,-0.04911293287792207,-2.187133788795719,0.002,8e-05,0,24.830973388447216,0.018614635288982443,0.0019864778710757774,0.0,0.02060111316005822,0.2,0.02,0.0,-0.34015208668284874,0.06487096167119691,-0.006803041733656975,0.0,0.05806791993753993,-10.252380226109192,-10.0,0.2523802261091931,40.28815791707348,40.0,-0.28815791707347344,9.30731764449122,10.0,0.6926823555087787,0.3243548083559845,0,-0.3243548083559845,4.012317333038322,2.164454626249339,-0.05806791993753993,0.5206011131600582,0.03400540351867676,2.650439500808716,STABILIZE
0.16,0.015,0.11,107.3975771348135,6.446105266731756,1.6109636570222026,0.10700278702812209,8.16407171078208,0.17,0.015,0.08,-26.695060858324073,-1.742904638438563,-0.40042591287486107,-0.10374844434558962,-2.2470789956590136,0.002,8e-05,0,25.15232329648607,0.018614635288982443,0.0020121858637188856,0.0,0.020626821152701327,0.2,0.02,0.0,-0.3289532223248833,0.06487096167119691,-0.006579064446497666,0.0,0.05829189722469924,-10.252380226109192,-10.0,0.2523802261091931,40.28815791707348,40.0,-0.28815791707347344,9.30731764449122,10.0,0.6926823555087787,0.3243548083559845,0,-0.3243548083559845,4.012656684599579,2.224398872565404,-0.05829189722469924,0.5206268211527013,0.03452658653259277,2.684913396835327,STABILIZE
0.16,0.015,0.11,108.82459045704334,6.442633892461172,1.63236885685565,0.15635913357857945,8.231361882895403,0.17,0.015,0.08,-27.062202015438665,-1.7611544173258118,-0.40593303023157995,-0.18065493888614176,-2.3477423864435334,0.002,8e-05,0,25.482429934758663,0.018629435537943752,0.0020385943947806933,0.0,0.020668029932724444,0.2,0.02,0.0,-0.31059439438307945,0.10360730807588592,-0.006211887887661589,0.0,0.09739542018822434,-10.359731866622422,-10.0,0.35973186662242207,40.266461827882324,40.0,-0.26646182788232453,9.314717768971876,10.0,0.6852822310281245,0.5180365403794296,0,-0.5180365403794296,4.021063196124469,2.3114811454729294,-0.09739542018822434,0.5206680299327244,0.035439252853393555,2.7203567028045654,STABILIZE
0.16,0.015,0.11,110.17270158131909,6.438473194741327,1.6525905237197862,0.10623444341292564,8.197298161874038,0.17,0.015,0.08,-27.414226766647744,-1.786320319938731,-0.41121340149971614,-0.22685995964126554,-2.424393681079713,0.002,8e-05,0,25.794515888834418,0.018631226068729457,0.0020635612711067536,0.0,0.02069478733983621,0.2,0.02,0.0,-0.2843438268243704,0.15671331959401283,-0.005686876536487409,0.0,0.1510264430575254,-10.507766587874887,-10.0,0.5077665878748864,40.2404574671333,40.0,-0.24045746713329613,9.315613034364729,10.0,0.6843869656352711,0.7835665979700641,0,-0.7835665979700641,4.032780480816149,2.3694654068813725,-0.1510264430575254,0.5206947873398362,0.033501386642456055,2.7538957595825195,STABILIZE
0.16,0.015,0.11,111.51728182731175,6.422295577609134,1.672759227409676,-0.03661059263851021,8.0584442123803,0.17,0.015,0.08,-27.77174849076354,-1.8144079400909743,-0.41657622736145306,-0.24355279971728272,-2.47453696716971,0.002,8e-05,0,26.10651347239782,0.018627938971249838,0.002088521077791826,0.0,0.020716460049041662,0.2,0.02,0.0,-0.24837767166859406,0.21473735008468814,-0.004967553433371881,0.0,0.20976979665131626,-10.672987882888084,-10.0,0.672987882888083,40.13934736005709,40.0,-0.1393473600570851,9.313969485624918,10.0,0.6860305143750818,1.0736867504234406,0,-1.0736867504234406,4.045666239876995,2.3991494070626365,-0.20976979665131626,0.5207164600490417,0.03349781036376953,2.787325382232666,STABILIZE
0.16,0.015,0.11,112.87571238904165,6.376443107588801,1.6931356858356248,-0.28191399902446285,7.787664794399964,0.17,0.015,0.08,-28.146981902726623,-1.8714209482133721,-0.4222047285408993,-0.35550605633508037,-2.6491317330893516,0.002,8e-05,0,26.424105469400196,0.01863462290016043,0.002113928437552016,0.0,0.020748551337712445,0.2,0.02,0.0,-0.19148293328987093,0.33382830949699505,-0.0038296586657974186,0.0,0.3299986508311976,-11.008358518902188,-10.0,1.0083585189021886,39.85276942243001,40.0,0.1472305775699932,9.317311450080215,10.0,0.6826885499197842,1.6691415474849751,0,-1.6691415474849751,4.07546640301691,2.5314961064835555,-0.3299986508311976,0.5207485513377125,0.03408622741699219,2.8216419219970703,STABILIZE
0.16,0.015,0.11,114.20852806318463,6.363883472179082,1.7131279209477694,-0.3334501376142793,7.743561255512572,0.17,0.015,0.08,-28.52072137836701,-1.896051101026581,-0.42781082067550513,-0.4246844243332141,-2.7485463460353,0.002,8e-05,0,26.736286486938656,0.018632392839303534,0.002138902918955093,0.0,0.020771295758258628,0.2,0.02,0.0,-0.1306752489642621,0.36292810848549384,-0.0026135049792852423,0.0,0.3603146035062086,-11.153241770744593,-10.0,1.1532417707445939,39.77427170111926,40.0,0.22572829888074225,9.316196419651767,10.0,0.6838035803482327,1.8146405424274692,0,-1.8146405424274692,4.085029907775247,2.6205033235784594,-0.3603146035062086,0.5207712957582586,0.03350949287414551,2.8552799224853516,STABILIZE
0.16,0.015,0.11,115.5375695664547,6.353095006966844,1.7330635434968205,-0.3643005486997836,7.721858001763882,0.17,0.015,0.08,-28.898340096281945,-1.9179145718990251,-0.4334751014442292,-0.437695263187082,-2.7890849365303363,0.002,8e-05,0,27.048127740392136,0.01863332621109828,0.002163850219231371,0.0,0.02079717643032965,0.2,0.02,0.0,-0.066450850693754,0.3837574889251797,-0.0013290170138750802,0.0,0.38242847191130463,-11.281850422935442,-10.0,1.2818504229354426,39.706843793542774,40.0,0.29315620645722795,9.31666310554914,10.0,0.6833368944508599,1.9187874446258983,0,-1.9187874446258983,4.091143811633514,2.6535894738473083,-0.38242847191130463,0.5207971764303296,0.03347134590148926,2.8885695934295654,STABILIZE
