E-kp,E-ki,E-kd,E-I-Tot,E-P,E-I,E-D,E-PID,N-kp,N-ki,N-kd,N-I-Tot,N-P,N-I,N-D,N-PID,Y-kp,Y-ki,Y-kd,Y-I-Tot,Y-P,Y-I,Y-D,Y-PID,D-kp,D-ki,D-kd,D-I-Tot,D-P,D-I,D-D,D-PID,errorN,desiredN,actualN,errorE,desiredE,actualE,errorD,desiredD,actualD,errorY,desiredY,actualY,roll,pitch,yaw-rate,thrust,dt,Time,Mode
0.01,0.0,0.0,-0.0021645073115516855,-0.0006443477227792471,-0.0,-0.0,-0.0006443477227792471,0.01,0.0,0.0,-0.002129869540868736,-0.0006340364761770314,-0.0,-0.0,-0.0006340364761770314,0.5,0,0,-0.002153851954920782,-0.03205878758066962,-0.0,-0.0,-0.03205878758066962,0.002,8e-05,0.0,-0.0027650571103574667,-0.00016462483105554116,-2.2120456882859735e-07,-0.0,-0.00016484603562436976,-0.06340364761770315,0.0,0.06340364761770315,-0.06443477227792471,0.0,0.06443477227792471,-0.08231241552777058,0.0,0.08231241552777058,-0.06411757516133924,0,0.06411757516133924,-0.000645056845803514,0.0006333150137615643,0.03205878758066962,0.4,0.03359222412109375,0.033838748931884766,STABILIZE
0.01,0.0,0.0,-0.006193455757122214,-0.0009756999094113716,-0.0,-0.0,-0.0009756999094113716,0.01,0.0,0.0,-0.006004549015108536,-0.0009383402302330834,-0.0,-0.0,-0.0009383402302330834,0.5,0,0,-0.006123874344853602,-0.048071482404759926,-0.0,-0.0,-0.048071482404759926,0.002,8e-05,0.0,-0.008725095375504007,-0.00028867129346294286,-6.980076300403206e-07,-0.0,-0.00028936930109298316,-0.09383402302330834,0.0,0.09383402302330834,-0.09756999094113716,0.0,0.09756999094113716,-0.14433564673147142,0.0,0.14433564673147142,-0.09614296480951985,0,0.09614296480951985,-0.000977273080521823,0.0009367016744869314,0.048071482404759926,0.4,0.04129290580749512,0.07506370544433594,STABILIZE
0.01,0.0,0.0,-0.011299204977248824,-0.0013257310768614605,-0.0,-0.0,-0.0013257310768614605,0.01,0.0,0.0,-0.010854257740016422,-0.0012592489942498824,-0.0,-0.0,-0.0012592489942498824,0.5,0,0,-0.011135592203730421,-0.06506577024762117,-0.0,-0.0,-0.06506577024762117,0.002,8e-05,0.0,-0.01679801293258277,-0.0004192339742880839,-1.3438410346066216e-06,-0.0,-0.0004205778153226905,-0.12592489942498825,0.0,0.12592489942498825,-0.13257310768614605,0.0,0.13257310768614605,-0.20961698714404195,0.0,0.20961698714404195,-0.13013154049524234,0,0.13013154049524234,-0.0013285876913793422,0.0012562347169183384,0.06506577024762117,0.4,0.0385127067565918,0.11356449127197266,STABILIZE
0.01,0.0,0.0,-0.01593010933539876,-0.001383050340219291,-0.0,-0.0,-0.001383050340219291,0.01,0.0,0.0,-0.015199285600366281,-0.0012976714256564667,-0.0,-0.0,-0.0012976714256564667,0.5,0,0,-0.015700680005773026,-0.0681696894326309,-0.0,-0.0,-0.0681696894326309,0.002,8e-05,0.0,-0.024683656409004218,-0.00047101995849768767,-1.9746925127203374e-06,-0.0,-0.00047299465101040804,-0.12976714256564667,0.0,0.12976714256564667,-0.1383050340219291,0.0,0.1383050340219291,-0.23550997924884384,0.0,0.23550997924884384,-0.1363393788652618,0,0.1363393788652618,-0.0013861343230152224,0.0012943766882577551,0.0681696894326309,0.4,0.033483266830444336,0.14711499214172363,STABILIZE
0.01,0.0,0.0,-0.020893610764922976,-0.0014539535495938219,-0.0,-0.0,-0.0014539535495938219,0.01,0.0,0.0,-0.019791291323612313,-0.0013451316809046843,-0.0,-0.0,-0.0013451316809046843,0.5,0,0,-0.020618067152136835,-0.07202226691881941,-0.0,-0.0,-0.07202226691881941,0.002,8e-05,0.0,-0.033820113451465135,-0.0005352666594827948,-2.705609076117211e-06,-0.0,-0.000537972268558912,-0.13451316809046843,0.0,0.13451316809046843,-0.1453953549593822,0.0,0.1453953549593822,-0.2676333297413974,0.0,0.2676333297413974,-0.14404453383763882,0,0.14404453383763882,-0.001457330681375709,0.0013414721199007257,0.07202226691881941,0.4,0.03413796424865723,0.1812574863433838,STABILIZE
0.01,0.0,0.0,-0.02616892215464213,-0.001553450370570346,-0.0,-0.0,-0.001553450370570346,0.01,0.0,0.0,-0.024395403415336622,-0.0013557985693461237,-0.0,-0.0,-0.0013557985693461237,0.5,0,0,-0.026025970291159554,-0.0796247701291679,-0.0,-0.0,-0.0796247701291679,0.002,8e-05,0.0,-0.04483256317398641,-0.000648579499427378,-3.5866050539189127e-06,-0.0,-0.0006521661044812969,-0.13557985693461236,0.0,0.13557985693461236,-0.1553450370570346,0.0,0.1553450370570346,-0.32428974971368896,0.0,0.32428974971368896,-0.1592495402583358,0,0.1592495402583358,-0.0015572127109498065,0.0013514756332699807,0.0796247701291679,0.4,0.03395867347717285,0.21516895294189453,STABILIZE
0.01,0.0,0.0,-0.03156462303956978,-0.0016122425432928162,-0.0,-0.0,-0.0016122425432928162,0.01,0.0,0.0,-0.029215568669901607,-0.0014402717376012807,-0.0,-0.0,-0.0014402717376012807,0.5,0,0,-0.031905706933943394,-0.08784365331790336,-0.0,-0.0,-0.08784365331790336,0.002,8e-05,0.0,-0.0569016374316027,-0.0007212510623279319,-4.552130994528217e-06,-0.0,-0.00072580319332246,-0.14402717376012808,0.0,0.14402717376012808,-0.1612242543292816,0.0,0.1612242543292816,-0.36062553116396595,0.0,0.36062553116396595,-0.17568730663580673,0,0.17568730663580673,-0.0016166512938094537,0.0014353213196913503,0.08784365331790336,0.4,0.03346705436706543,0.24863648414611816,STABILIZE
0.01,0.0,0.0,-0.03695004176413412,-0.001609881283318613,-0.0,0.0,-0.001609881283318613,0.01,0.0,0.0,-0.03416030049415077,-0.001478145270037958,-0.0,-0.0,-0.001478145270037958,0.5,0,0,-0.03814406871426347,-0.09324272059755123,-0.0,-0.0,-0.09324272059755123,0.002,8e-05,0.0,-0.06972923957395989,-0.0007669196270531092,-5.578339165916792e-06,-0.0,-0.000772497966219026,-0.1478145270037958,0.0,0.1478145270037958,-0.1609881283318613,0.0,0.1609881283318613,-0.3834598135265546,0.0,0.3834598135265546,-0.18648544119510246,0,0.18648544119510246,-0.001614683792579889,0.0014728976324561722,0.09324272059755123,0.4,0.03345227241516113,0.2820866107940674,STABILIZE
0.01,0.0,0.0,-0.04224708621767859,-0.0015842310550894074,-0.0,0.0,-0.0015842310550894074,0.01,0.0,0.0,-0.03884864361205722,-0.0014021816938561101,-0.0,0.0,-0.0014021816938561101,0.5,0,0,-0.04466334120682712,-0.09748864701709797,-0.0,-0.0,-0.09748864701709797,0.002,8e-05,0.0,-0.08339356882438455,-0.0008173408750989102,-6.671485505950765e-06,-0.0,-0.0008240123606048609,-0.14021816938561102,0.0,0.14021816938561102,-0.15842310550894073,0.0,0.15842310550894073,-0.4086704375494551,0.0,0.4086704375494551,-0.19497729403419595,0,0.19497729403419595,-0.0015889934912313318,0.0013967824538271344,0.09748864701709797,0.4,0.03343605995178223,0.3155331611633301,STABILIZE
0.01,0.0,0.0,-0.04758461730735768,-0.0015956229330286631,-0.0,-0.0,-0.0015956229330286631,0.01,0.0,0.0,-0.04358517387528699,-0.001415957337580231,-0.0,-0.0,-0.001415957337580231,0.5,0,0,-0.050651098618288114,-0.08950020976565351,-0.0,0.0,-0.08950020976565351,0.002,8e-05,0.0,-0.09780570931184966,-0.0008616846062141758,-7.824456744947973e-06,-0.0,-0.0008695090629591238,-0.1415957337580231,0.0,0.1415957337580231,-0.1595622933028663,0.0,0.1595622933028663,-0.4308423031070879,0.0,0.4308423031070879,-0.17900041953130702,0,0.17900041953130702,-0.0016000387973855515,0.0014109654755220938,0.08950020976565351,0.4,0.033451080322265625,0.34900665283203125,STABILIZE
0.01,0.0,0.0,-0.053153641053506014,-0.001663664233740613,-0.0,-0.0,-0.001663664233740613,0.01,0.0,0.0,-0.047919618228409205,-0.0012948517320321607,-0.0,0.0,-0.0012948517320321607,0.5,0,0,-0.05671223613653912,-0.09053380057745003,-0.0,-0.0,-0.09053380057745003,0.002,8e-05,0.0,-0.11309023844506992,-0.0009132058187430698,-9.047219075605594e-06,-0.0,-0.0009222530378186754,-0.12948517320321606,0.0,0.12948517320321606,-0.1663664233740613,0.0,0.1663664233740613,-0.4566029093715349,0.0,0.4566029093715349,-0.18106760115490006,0,0.18106760115490006,-0.0016677479432685822,0.0012895877202803384,0.09053380057745003,0.4,0.03347444534301758,0.3824806213378906,STABILIZE
0.01,0.0,0.0,-0.05882832756625657,-0.0016736769804638,-0.0,-0.0,-0.0016736769804638,0.01,0.0,0.0,-0.052196048548447525,-0.0012612790097080377,-0.0,0.0,-0.0012612790097080377,0.5,0,0,-0.06276552779955784,-0.08926708893666424,-0.0,0.0,-0.08926708893666424,0.002,8e-05,0.0,-0.12952762918448046,-0.0009696000805551312,-1.0362210334758438e-05,-0.0,-0.0009799622908898897,-0.12612790097080376,0.0,0.12612790097080376,-0.16736769804638,0.0,0.16736769804638,-0.48480004027756557,0.0,0.48480004027756557,-0.17853417787332848,0,0.17853417787332848,-0.0016775990058531575,0.0012560577020284578,0.08926708893666424,0.4,0.0339055061340332,0.4163641929626465,STABILIZE
0.01,0.0,0.0,-0.06470089357057775,-0.0017556434932920165,-0.0,-0.0,-0.0017556434932920165,0.01,0.0,0.0,-0.056224797856905394,-0.0012044219689134603,-0.0,0.0,-0.0012044219689134603,0.5,0,0,-0.06807422496073763,-0.07935355364269281,-0.0,0.0,-0.07935355364269281,0.002,8e-05,0.0,-0.1473608331387776,-0.0010662714889495826,-1.1788866651102209e-05,-0.0,-0.0010780603556006848,-0.12044219689134603,0.0,0.12044219689134603,-0.17556434932920165,0.0,0.17556434932920165,-0.5331357444747913,0.0,0.5331357444747913,-0.15870710728538562,0,0.15870710728538562,-0.0017589729563445501,0.001199554289554451,0.07935355364269281,0.4,0.033449649810791016,0.4498322010040283,STABILIZE
0.01,0.0,0.0,-0.07015363245770237,-0.0016303889849455613,-0.0,0.0,-0.0016303889849455613,0.01,0.0,0.0,-0.06024767188846153,-0.0012028541334263892,-0.0,0.0,-0.0012028541334263892,0.5,0,0,-0.07388913625270929,-0.08693399331162095,-0.0,-0.0,-0.08693399331162095,0.002,8e-05,0.0,-0.16589116865840708,-0.0011081276967025576,-1.3271293492672567e-05,-0.0,-0.00112139899019523,-0.12028541334263891,0.0,0.12028541334263891,-0.16303889849455613,0.0,0.16303889849455613,-0.5540638483512788,0.0,0.5540638483512788,-0.1738679866232419,0,0.1738679866232419,-0.0016340316162034873,0.0011979010751227276,0.08693399331162095,0.4,0.03344440460205078,0.4832630157470703,STABILIZE
0.01,0.0,0.0,-0.07554572673401959,-0.0016114518825997477,-0.0,0.0,-0.0016114518825997477,0.01,0.0,0.0,-0.06395204393449212,-0.001107068423051195,-0.0,0.0,-0.001107068423051195,0.5,0,0,-0.07941372225591613,-0.08255238186907514,-0.0,0.0,-0.08255238186907514,0.002,8e-05,0.0,-0.1853543634603023,-0.001163332846114151,-1.4828349076824185e-05,-0.0,-0.0011781611951909752,-0.11070684230511951,0.0,0.11070684230511951,-0.16114518825997476,0.0,0.16114518825997476,-0.5816664230570755,0.0,0.5816664230570755,-0.16510476373815028,0,0.16510476373815028,-0.0016146353400807935,0.0011024202383000375,0.08255238186907514,0.4,0.03346109390258789,0.5167446136474609,STABILIZE
0.01,0.0,0.0,-0.08095025706691622,-0.0016143747600605128,-0.0,-0.0,-0.0016143747600605128,0.01,0.0,0.0,-0.06739698508266986,-0.0010290304054101395,-0.0,0.0,-0.0010290304054101395,0.5,0,0,-0.08480586691996388,-0.08053375327776277,-0.0,0.0,-0.08053375327776277,0.002,8e-05,0.0,-0.20570114957928698,-0.0012155482876616034,-1.645609196634296e-05,-0.0,-0.0012320043796279464,-0.10290304054101394,0.0,0.10290304054101394,-0.16143747600605127,0.0,0.16143747600605127,-0.6077741438308016,0.0,0.6077741438308016,-0.16106750655552554,0,0.16106750655552554,-0.0016172611447394605,0.001024488082358699,0.08053375327776277,0.4,0.0334775447845459,0.5501933097839355,STABILIZE
0.01,0.0,0.0,-0.08631370686110815,-0.001603085529404353,-0.0,0.0,-0.001603085529404353,0.01,0.0,0.0,-0.07055499789049098,-0.0009439008153621368,-0.0,0.0,-0.0009439008153621368,0.5,0,0,-0.0900119003756487,-0.0778017620994687,-0.0,0.0,-0.0778017620994687,0.002,8e-05,0.0,-0.22665672286049093,-0.001252685401244887,-1.8132537828839277e-05,-0.0,-0.0012708179390737264,-0.09439008153621367,0.0,0.09439008153621367,-0.1603085529404353,0.0,0.1603085529404353,-0.6263427006224435,0.0,0.6263427006224435,-0.1556035241989374,0,0.1556035241989374,-0.0016056430544550194,0.0009395436900470871,0.0778017620994687,0.4,0.033457040786743164,0.583672046661377,STABILIZE
0.01,0.0,0.0,-0.0915294500257407,-0.001556187172751659,-0.0,0.0,-0.001556187172751659,0.01,0.0,0.0,-0.0735953469460516,-0.0009071290613069094,-0.0,0.0,-0.0009071290613069094,0.5,0,0,-0.09527783065386994,-0.07855805867839134,-0.0,-0.0,-0.07855805867839134,0.002,8e-05,0.0,-0.24823477527117446,-0.0012876204718885668,-1.9858782021693958e-05,-0.0,-0.0013074792539102607,-0.09071290613069094,0.0,0.09071290613069094,-0.1556187172751659,0.0,0.1556187172751659,-0.6438102359442834,0.0,0.6438102359442834,-0.1571161173567827,0,0.1571161173567827,-0.0015586688421316323,0.0009028582895850232,0.07855805867839134,0.4,0.03351616859436035,0.6171829700469971,STABILIZE
0.01,0.0,0.0,-0.09640138336710777,-0.001455989048674305,-0.0,0.0,-0.001455989048674305,0.01,0.0,0.0,-0.07639921990761853,-0.0008379442081549294,-0.0,0.0,-0.0008379442081549294,0.5,0,0,-0.09945079396752056,-0.06235500836604298,-0.0,0.0,-0.06235500836604298,0.002,8e-05,0.0,-0.2710388604643024,-0.001363011190005876,-2.1683108837144194e-05,-0.0,-0.00138469429884302,-0.08379442081549293,0.0,0.08379442081549293,-0.1455989048674305,0.0,0.1455989048674305,-0.681505595002938,0.0,0.681505595002938,-0.12471001673208595,0,0.12471001673208595,-0.0014578094679969507,0.0008347731193913395,0.06235500836604298,0.4,0.03346133232116699,0.6506483554840088,STABILIZE
0.01,0.0,0.0,-0.10079930369492716,-0.0013145726457660805,-0.0,0.0,-0.0013145726457660805,0.01,0.0,0.0,-0.07910923991541152,-0.0008100460913737906,-0.0,0.0,-0.0008100460913737906,0.5,0,0,-0.1038077199075355,-0.06511595519526102,-0.0,-0.0,-0.06511595519526102,0.002,8e-05,0.0,-0.2944434744232222,-0.001399164286833091,-2.355547795385778e-05,-0.0,-0.0014227197647869489,-0.08100460913737906,0.0,0.08100460913737906,-0.13145726457660806,0.0,0.13145726457660806,-0.6995821434165455,0.0,0.6995821434165455,-0.13023191039052204,0,0.13023191039052204,-0.0013164104633889308,0.0008070560098447499,0.06511595519526102,0.4,0.03345513343811035,0.6840989589691162,STABILIZE
0.01,0.0,0.0,-0.10530975369208954,-0.0013480741415112518,-0.0,-0.0,-0.0013480741415112518,0.01,0.0,0.0,-0.08194581223597587,-0.0008477889785465028,-0.0,-0.0,-0.0008477889785465028,0.5,0,0,-0.10818013060395697,-0.06534086177234248,-0.0,-0.0,-0.06534086177234248,0.002,8e-05,0.0,-0.3195656889859814,-0.001501695300950427,-2.5565255118878517e-05,-0.0,-0.0015272605560693055,-0.08477889785465027,0.0,0.08477889785465027,-0.13480741415112518,0.0,0.13480741415112518,-0.7508476504752135,0.0,0.7508476504752135,-0.13068172354468496,0,0.13068172354468496,-0.0013500042928214387,0.0008447120530215656,0.06534086177234248,0.4,0.03345847129821777,0.717566967010498,STABILIZE
0.01,0.0,0.0,-0.10982886076427316,-0.001346286969286961,-0.0,0.0,-0.001346286969286961,0.01,0.0,0.0,-0.0848822415032174,-0.0008747915009701038,-0.0,-0.0,-0.0008747915009701038,0.5,0,0,-0.11246641971867498,-0.06384640914198428,-0.0,0.0,-0.06384640914198428,0.002,8e-05,0.0,-0.3451018100035383,-0.0015214929154338409,-2.7608144800283066e-05,-0.0,-0.0015491010602341239,-0.08747915009701038,0.0,0.08747915009701038,-0.13462869692869608,0.0,0.13462869692869608,-0.7607464577169204,0.0,0.7607464577169204,-0.12769281828396856,0,0.12769281828396856,-0.0013482332371435746,0.0008717889148771938,0.06384640914198428,0.4,0.033567190170288086,0.7511312961578369,STABILIZE
0.01,0.0,0.0,-0.1147547244409642,-0.0014407448796111583,-0.0,-0.0,-0.0014407448796111583,0.01,0.0,0.0,-0.08734069872889279,-0.000719063679410275,-0.0,0.0,-0.000719063679410275,0.5,0,0,-0.11619417449918573,-0.054515755662108624,-0.0,0.0,-0.054515755662108624,0.002,8e-05,0.0,-0.3716957949703598,-0.0015556722712692893,-2.9735663597628788e-05,-0.0,-0.001585407934866918,-0.0719063679410275,0.0,0.0719063679410275,-0.14407448796111583,0.0,0.14407448796111583,-0.7778361356346446,0.0,0.7778361356346446,-0.10903151132421725,0,0.10903151132421725,-0.0014421106187360248,0.0007163207008746947,0.054515755662108624,0.4,0.034189701080322266,0.7853231430053711,STABILIZE
0.01,0.0,0.0,-0.11921320716037276,-0.0013314322262371612,-0.0,0.0,-0.0013314322262371612,0.01,0.0,0.0,-0.0893741667807407,-0.0006072525263960569,-0.0,0.0,-0.0006072525263960569,0.5,0,0,-0.12013196380689099,-0.0587969037267729,-0.0,-0.0,-0.0587969037267729,0.002,8e-05,0.0,-0.3980063597416801,-0.001571419517879527,-3.184050877933441e-05,-0.0,-0.0016032600266588613,-0.060725252639605695,0.0,0.060725252639605695,-0.1331432226237161,0.0,0.1331432226237161,-0.7857097589397635,0.0,0.7857097589397635,-0.1175938074535458,0,0.1175938074535458,-0.0013326757456899186,0.0006045186190077659,0.0587969037267729,0.4,0.033486366271972656,0.8188440799713135,STABILIZE
0.01,0.0,0.0,-0.12327459621575083,-0.0012131076583817692,-0.0,0.0,-0.0012131076583817692,0.01,0.0,0.0,-0.0912427096222032,-0.0005581202884247155,-0.0,0.0,-0.0005581202884247155,0.5,0,0,-0.1234092790516762,-0.04894552292540906,-0.0,0.0,-0.04894552292540906,0.002,8e-05,0.0,-0.42505983224402627,-0.001616135476356706,-3.4004786579522106e-05,-0.0,-0.001650140262936228,-0.05581202884247155,0.0,0.05581202884247155,-0.12131076583817692,0.0,0.12131076583817692,-0.808067738178353,0.0,0.808067738178353,-0.09789104585081812,0,0.09789104585081812,-0.0012140594476266926,0.0005560468548640096,0.04894552292540906,0.4,0.03347921371459961,0.8523013591766357,STABILIZE
0.01,0.0,0.0,-0.12716437172775844,-0.0011630406043082705,-0.0,0.0,-0.0011630406043082705,0.01,0.0,0.0,-0.09253209503402757,-0.0003855254844206944,-0.0,0.0,-0.0003855254844206944,0.5,0,0,-0.12682166240436785,-0.05101503138670352,-0.0,-0.0,-0.05101503138670352,0.002,8e-05,0.0,-0.4520908164760407,-0.0016164496968630174,-3.616726531808326e-05,-0.0,-0.0016526169621811006,-0.038552548442069436,0.0,0.038552548442069436,-0.11630406043082704,0.0,0.11630406043082704,-0.8082248484315087,0.0,0.8082248484315087,-0.10203006277340704,0,0.10203006277340704,-0.001163725288448702,0.000383453777439398,0.05101503138670352,0.4,0.033444881439208984,0.8857636451721191,STABILIZE
0.01,0.0,0.0,-0.13090440824293528,-0.0011184441389853071,-0.0,0.0,-0.0011184441389853071,0.01,0.0,0.0,-0.09405563291619311,-0.00045560838989550784,-0.0,-0.0,-0.00045560838989550784,0.5,0,0,-0.12981417865340134,-0.04474504788881102,-0.0,0.0,-0.04474504788881102,0.002,8e-05,0.0,-0.4797534181509145,-0.0016544798205471395,-3.838027345207316e-05,-0.0,-0.0016928600939992127,-0.04556083898955078,0.0,0.04556083898955078,-0.11184441389853071,0.0,0.11184441389853071,-0.8272399102735697,0.0,0.8272399102735697,-0.08949009577762204,0,0.08949009577762204,-0.0011191543877568917,0.00045386094052943027,0.04474504788881102,0.4,0.03343963623046875,0.9191899299621582,STABILIZE
0.01,0.0,0.0,-0.13454134529310272,-0.0010887537286873427,-0.0,0.0,-0.0010887537286873427,0.01,0.0,0.0,-0.09562059280285291,-0.0004684865006856653,-0.0,-0.0,-0.0004684865006856653,0.5,0,0,-0.13252437508547454,-0.04056622963489285,-0.0,0.0,-0.04056622963489285,0.002,8e-05,0.0,-0.5078063379378948,-0.0016795848043196413,-4.0624507035031585e-05,-0.0,-0.0017202093113546728,-0.046848650068566526,0.0,0.046848650068566526,-0.10887537286873426,0.0,0.10887537286873426,-0.8397924021598207,0.0,0.8397924021598207,-0.0811324592697857,0,0.0811324592697857,-0.001089416027173405,0.0004669443251534454,0.04056622963489285,0.4,0.03340458869934082,0.9525892734527588,STABILIZE
0.01,0.0,0.0,-0.1379161213946922,-0.001007246630755082,-0.0,0.0,-0.001007246630755082,0.01,0.0,0.0,-0.09653468234799144,-0.0002728221330344191,-0.0,0.0,-0.0002728221330344191,0.5,0,0,-0.13539841554818266,-0.04288977232227469,-0.0,-0.0,-0.04288977232227469,0.002,8e-05,0.0,-0.5361951947858151,-0.0016946060746126745,-4.2895615582865215e-05,-0.0,-0.0017375016901955398,-0.027282213303441907,0.0,0.027282213303441907,-0.10072466307550819,0.0,0.10072466307550819,-0.8473030373063373,0.0,0.8473030373063373,-0.08577954464454939,0,0.08577954464454939,-0.00100765395347046,0.00027131384317109,0.04288977232227469,0.4,0.03350496292114258,0.9861295223236084,STABILIZE
0.01,0.0,0.0,-0.14144385998862627,-0.0010541154747158966,-0.0,-0.0,-0.0010541154747158966,0.01,0.0,0.0,-0.09719028837282354,-0.00019590013196578811,-0.0,0.0,-0.00019590013196578811,0.5,0,0,-0.13809138524307557,-0.04023400477020457,-0.0,0.0,-0.04023400477020457,0.002,8e-05,0.0,-0.5646283331854953,-0.0016992081688466348,-4.517026665483963e-05,-0.0,-0.0017443784355014745,-0.019590013196578812,0.0,0.019590013196578812,-0.10541154747158965,0.0,0.10541154747158965,-0.8496040844233174,0.0,0.8496040844233174,-0.08046800954040914,0,0.08046800954040914,-0.0010543895633990908,0.00019441950605535488,0.04023400477020457,0.4,0.033466339111328125,1.019608736038208,STABILIZE
0.01,0.0,0.0,-0.1451357751253449,-0.00110469159447829,-0.0,-0.0,-0.00110469159447829,0.01,0.0,0.0,-0.09757931469661155,-0.00011640411385549044,-0.0,0.0,-0.00011640411385549044,0.5,0,0,-0.14060919579098055,-0.037668852692420436,-0.0,0.0,-0.037668852692420436,0.002,8e-05,0.0,-0.5932851721215587,-0.0017149348197165915,-4.74628137697247e-05,-0.0,-0.001762397633486316,-0.011640411385549044,0.0,0.011640411385549044,-0.110469159447829,0.0,0.110469159447829,-0.8574674098582957,0.0,0.8574674098582957,-0.07533770538484087,0,0.07533770538484087,-0.0011048436981853013,0.00011495146460004624,0.037668852692420436,0.4,0.03342032432556152,1.05299711227417,STABILIZE
0.01,0.0,0.0,-0.14835957661525506,-0.0009644991892844972,-0.0,0.0,-0.0009644991892844972,0.01,0.0,0.0,-0.09771234408025414,-3.979982423728004e-05,-0.0,0.0,-3.979982423728004e-05,0.5,0,0,-0.14330531902086202,-0.04033140188021056,-0.0,-0.0,-0.04033140188021056,0.002,8e-05,0.0,-0.6226364275939794,-0.0017562658368534215,-4.9810914207518355e-05,-0.0,-0.00180607675106094,-0.003979982423728004,0.0,0.003979982423728004,-0.09644991892844972,0.0,0.09644991892844972,-0.8781329184267107,0.0,0.8781329184267107,-0.08066280376042112,0,0.08066280376042112,-0.0009645542648991188,3.8441932894838995e-05,0.04033140188021056,0.4,0.03342461585998535,1.0864133834838867,STABILIZE
0.01,0.0,0.0,-0.15129720390823226,-0.0008781860749118636,-0.0,0.0,-0.0008781860749118636,0.01,0.0,0.0,-0.09723486303338184,0.0001427400975610573,-0.0,0.0,0.0001427400975610573,0.5,0,0,-0.14642882626265036,-0.0466876885842947,-0.0,-0.0,-0.0466876885842947,0.002,8e-05,0.0,-0.6521048272787591,-0.001761880298088011,-5.216838618230073e-05,-0.0,-0.0018140486842703118,0.01427400975610573,0.0,-0.01427400975610573,-0.08781860749118636,0.0,0.08781860749118636,-0.8809401490440055,0.0,0.8809401490440055,-0.0933753771685894,0,0.0933753771685894,-0.0008779522841607196,-0.00014417109404391988,0.0466876885842947,0.4,0.033451080322265625,1.1198694705963135,STABILIZE
0.01,0.0,0.0,-0.15380248332376228,-0.0007482396463613239,-0.0,0.0,-0.0007482396463613239,0.01,0.0,0.0,-0.09701622576806633,6.529933111132555e-05,-0.0,-0.0,6.529933111132555e-05,0.5,0,0,-0.14983349348936773,-0.05084277198593492,-0.0,-0.0,-0.05084277198593492,0.002,8e-05,0.0,-0.6818052856827761,-0.001774098358469073,-5.454442285462209e-05,-0.0,-0.001828642781323695,0.0065299331111325545,0.0,-0.0065299331111325545,-0.07482396463613239,0.0,0.07482396463613239,-0.8870491792345365,0.0,0.8870491792345365,-0.10168554397186984,0,0.10168554397186984,-0.0007481225782189575,-6.662716405134878e-05,0.05084277198593492,0.4,0.03348231315612793,1.1533746719360352,STABILIZE
0.01,0.0,0.0,-0.1560682115261013,-0.0006777606274682574,-0.0,0.0,-0.0006777606274682574,0.01,0.0,0.0,-0.09722595765290923,-6.27383345118249e-05,-0.0,-0.0,-6.27383345118249e-05,0.5,0,0,-0.15318509903833746,-0.05012927582290611,-0.0,0.0,-0.05012927582290611,0.002,8e-05,0.0,-0.712689917978938,-0.0018477404079239002,-5.7015193438315044e-05,-0.0,-0.0019047556013622152,-0.00627383345118249,0.0,0.00627383345118249,-0.06777606274682574,0.0,0.06777606274682574,-0.9238702039619501,0.0,0.9238702039619501,-0.10025855164581222,0,0.10025855164581222,-0.0006778693719411733,6.155226517003884e-05,0.05012927582290611,0.4,0.033429622650146484,1.1868247985839844,STABILIZE
0.01,0.0,0.0,-0.15873602888481364,-0.0007933324602552716,-0.0,-0.0,-0.0007933324602552716,0.01,0.0,0.0,-0.09663699261925135,0.00017514132953301676,-0.0,0.0,0.00017514132953301676,0.5,0,0,-0.15613037721581233,-0.04379206798099763,-0.0,0.0,-0.04379206798099763,0.002,8e-05,0.0,-0.7435442006099316,-0.0018350359606980312,-5.948353604879454e-05,0.0,-0.0018945194967468256,0.017514132953301675,0.0,-0.017514132953301675,-0.07933324602552716,0.0,0.07933324602552716,-0.9175179803490155,0.0,0.9175179803490155,-0.08758413596199525,0,0.08758413596199525,-0.0007930638069028604,-0.00017635383745758852,0.04379206798099763,0.4,0.033627986907958984,1.2204091548919678,STABILIZE
0.01,0.0,0.0,-0.161781618731735,-0.0009102726854910579,-0.0,-0.0,-0.0009102726854910579,0.01,0.0,0.0,-0.09524671307204567,0.0004155298515647042,-0.0,0.0,0.0004155298515647042,0.5,0,0,-0.15865192625580565,-0.037682310022019466,-0.0,0.0,-0.037682310022019466,0.002,8e-05,0.0,-0.7742197019860811,-0.0018336724522954595,-6.19375761588865e-05,0.0,-0.001895610028454346,0.04155298515647042,0.0,-0.04155298515647042,-0.09102726854910578,0.0,0.09102726854910578,-0.9168362261477297,0.0,0.9168362261477297,-0.07536462004403893,0,0.07536462004403893,-0.0009097253265226896,-0.0004167268287207737,0.037682310022019466,0.4,0.03345799446105957,1.2538862228393555,STABILIZE
0.01,0.0,0.0,-0.16442183929550935,-0.0007900382874616421,-0.0,0.0,-0.0007900382874616421,0.01,0.0,0.0,-0.09425844041542622,0.0002957227316132395,-0.0,-0.0,0.0002957227316132395,0.5,0,0,-0.16057646589875074,-0.028794185314024976,-0.0,0.0,-0.028794185314024976,0.002,8e-05,0.0,-0.8048139461030601,-0.0018309549255087977,-6.438511568824482e-05,0.0,-0.0018953400411970424,0.02957227316132395,0.0,-0.02957227316132395,-0.07900382874616421,0.0,0.07900382874616421,-0.9154774627543989,0.0,0.9154774627543989,-0.05758837062804995,0,0.05758837062804995,-0.0007897406555553303,-0.0002965166548630237,0.028794185314024976,0.4,0.033418893814086914,1.287299394607544,STABILIZE
0.01,0.0,0.0,-0.16723858401474767,-0.0008420069447783981,-0.0,-0.0,-0.0008420069447783981,0.01,0.0,0.0,-0.09328490811429502,0.00029101712800591476,-0.0,-0.0,0.00029101712800591476,0.5,0,0,-0.16244288579064195,-0.027896360293344215,-0.0,0.0,-0.027896360293344215,0.002,8e-05,0.0,-0.8353361065458585,-0.001824792348908797,-6.682688852366869e-05,0.0,-0.0018916192374324658,0.029101712800591473,0.0,-0.029101712800591473,-0.0842006944778398,0.0,0.0842006944778398,-0.9123961744543985,0.0,0.9123961744543985,-0.05579272058668843,0,0.05579272058668843,-0.0008417231628381662,-0.00029183690820315587,0.027896360293344215,0.4,0.033452749252319336,1.3207597732543945,STABILIZE
0.01,0.0,0.0,-0.16963214264387882,-0.0007151933813295614,-0.0,0.0,-0.0007151933813295614,0.01,0.0,0.0,-0.09178498814349335,0.0004481748734229972,-0.0,0.0,0.0004481748734229972,0.5,0,0,-0.16495181263479283,-0.03748326553062368,-0.0,-0.0,-0.03748326553062368,0.002,8e-05,0.0,-0.8659445593099285,-0.0018291561830300908,-6.92755647447943e-05,-0.0,-0.001898431747774885,0.04481748734229972,0.0,-0.04481748734229972,-0.07151933813295613,0.0,0.07151933813295613,-0.9145780915150454,0.0,0.9145780915150454,-0.07496653106124736,0,0.07496653106124736,-0.0007146063715722867,-0.00044911025770251765,0.03748326553062368,0.4,0.03346729278564453,1.3542354106903076,STABILIZE
0.01,0.0,0.0,-0.17159910699819308,-0.0005883812445910393,-0.0,0.0,-0.0005883812445910393,0.01,0.0,0.0,-0.08976444825571027,0.0006044073810041743,-0.0,0.0,0.0006044073810041743,0.5,0,0,-0.1681064041360102,-0.04718190417613512,-0.0,-0.0,-0.04718190417613512,0.002,8e-05,0.0,-0.8965859389049224,-0.0018331611371141846,-7.17268751123938e-05,-0.0,-0.0019048880122265785,0.06044073810041743,0.0,-0.06044073810041743,-0.05883812445910393,0.0,0.05883812445910393,-0.9165805685570922,0.0,0.9165805685570922,-0.09436380835227023,0,0.09436380835227023,-0.000587385012789935,-0.0006053756007212329,0.04718190417613512,0.4,0.03343009948730469,1.3876731395721436,STABILIZE
0.01,0.0,0.0,-0.17283020405242172,-0.0003684308566431449,-0.0,0.0,-0.0003684308566431449,0.01,0.0,0.0,-0.0884907820118278,0.0003811705532876086,-0.0,-0.0,0.0003811705532876086,0.5,0,0,-0.17133141115129538,-0.04825745026520928,-0.0,-0.0,-0.04825745026520928,0.002,8e-05,0.0,-0.9273187284366359,-0.0018394825875523379,-7.418549827493087e-05,-0.0,-0.0019136680858272688,0.03811705532876086,0.0,-0.03811705532876086,-0.03684308566431449,0.0,0.03684308566431449,-0.9197412937761689,0.0,0.9197412937761689,-0.09651490053041856,0,0.09651490053041856,-0.0003677882513654535,-0.0003817906350055293,0.04825745026520928,0.4,0.033414602279663086,1.4210808277130127,STABILIZE
0.01,0.0,0.0,-0.17395355461222503,-0.00033581413099833466,-0.0,0.0,-0.00033581413099833466,0.01,0.0,0.0,-0.08649336439518221,0.0005971075149435568,-0.0,0.0,0.0005971075149435568,0.5,0,0,-0.17497949985952263,-0.05452793558818732,-0.0,-0.0,-0.05452793558818732,0.002,8e-05,0.0,-0.9587959709928311,-0.0018819597788037573,-7.670367767942649e-05,-0.0,-0.001958663456483184,0.05971075149435568,0.0,-0.05971075149435568,-0.033581413099833465,0.0,0.033581413099833465,-0.9409798894018786,0.0,0.9409798894018786,-0.10905587117637464,0,0.10905587117637464,-0.0003346769984766137,-0.0005977456161871213,0.05452793558818732,0.4,0.03345155715942383,1.45452880859375,STABILIZE
0.01,0.0,0.0,-0.1764629378034827,-0.0007506626410641719,-0.0,-0.0,-0.0007506626410641719,0.01,0.0,0.0,-0.08479985236399999,0.0005066010717016265,-0.0,-0.0,0.0005066010717016265,0.5,0,0,-0.17742581571080035,-0.036589826619443426,-0.0,0.0,-0.036589826619443426,0.002,8e-05,0.0,-0.9898873606778028,-0.0018601499186402723,-7.919098885422423e-05,0.0,-0.0019393409074944966,0.05066010717016265,0.0,-0.05066010717016265,-0.07506626410641719,0.0,0.07506626410641719,-0.9300749593201362,0.0,0.9300749593201362,-0.07317965323888685,0,0.07317965323888685,-0.0007500149849529947,-0.0005075594239935196,0.036589826619443426,0.4,0.03342890739440918,1.4879653453826904,STABILIZE
0.01,0.0,0.0,-0.1783728267302262,-0.0005709213650387993,-0.0,0.0,-0.0005709213650387993,0.01,0.0,0.0,-0.08556742840050281,-0.00022945080857580187,-0.0,-0.0,-0.00022945080857580187,0.5,0,0,-0.17938430809431896,-0.02927251761501829,-0.0,0.0,-0.02927251761501829,0.002,8e-05,0.0,-1.0208144289569303,-0.001849000095379794,-8.166515431655443e-05,0.0,-0.0019306652496963485,-0.022945080857580187,0.0,0.022945080857580187,-0.057092136503879926,0.0,0.057092136503879926,-0.924500047689897,0.0,0.924500047689897,-0.05854503523003658,0,0.05854503523003658,-0.000571155520621549,0.00022886731937387327,0.02927251761501829,0.4,0.033452749252319336,1.5214262008666992,STABILIZE
0.01,0.0,0.0,-0.18120201562561286,-0.0008028360159313056,-0.0,-0.0,-0.0008028360159313056,0.01,0.0,0.0,-0.08738965580040871,-0.0005170915905427269,-0.0,-0.0,-0.0005170915905427269,0.5,0,0,-0.17923510519406524,0.0021169576587909723,-0.0,0.0,0.0021169576587909723,0.002,8e-05,0.0,-1.0535816002955367,-0.0018596612855169517,-8.428652802364294e-05,-0.0,-0.0019439478135405946,-0.05170915905427269,0.0,0.05170915905427269,-0.08028360159313055,0.0,0.08028360159313055,-0.9298306427584758,0.0,0.9298306427584758,0.004233915317581945,0,-0.004233915317581945,-0.0008027978028619763,0.0005171509153104558,-0.0021169576587909723,0.4,0.03523993492126465,1.5566575527191162,STABILIZE
0.01,0.0,0.0,-0.184010724698021,-0.0008399820102416891,-0.0,-0.0,-0.0008399820102416891,0.01,0.0,0.0,-0.08923970581693731,-0.0005532821989993421,-0.0,-0.0,-0.0005532821989993421,0.5,0,0,-0.17886174755094875,0.0055828798127391865,-0.0,0.0,0.0055828798127391865,0.002,8e-05,0.0,-1.0843271874348543,-0.0018389758017339092,-8.674617499478835e-05,0.0,-0.0019257219767286975,-0.0553282198999342,0.0,0.0553282198999342,-0.08399820102416891,0.0,0.08399820102416891,-0.9194879008669545,0.0,0.9194879008669545,0.011165759625478373,0,-0.011165759625478373,-0.0008398741710615184,0.0005534458835721376,-0.0055828798127391865,0.4,0.03343772888183594,1.5900945663452148,STABILIZE
0.01,0.0,0.0,-0.18445588188043757,-0.0001321380988696906,-0.0,0.0,-0.0001321380988696906,0.01,0.0,0.0,-0.08839066426897993,0.00025202499350774834,-0.0,0.0,0.00025202499350774834,0.5,0,0,-0.17972544821647865,-0.012818816414019527,-0.0,-0.0,-0.012818816414019527,0.002,8e-05,0.0,-1.1165283412111453,-0.001911683966688305,-8.932226729689163e-05,-0.0,-0.0020010062339851967,0.025202499350774836,0.0,-0.025202499350774836,-0.01321380988696906,0.0,0.01321380988696906,-0.9558419833441525,0.0,0.9558419833441525,-0.025637632828039054,0,0.025637632828039054,-0.00013202531426286397,-0.0002520840949351401,0.012818816414019527,0.4,0.03368878364562988,1.6237804889678955,STABILIZE
0.01,0.0,0.0,-0.18663404234813938,-0.000650498929275979,-0.0,-0.0,-0.000650498929275979,0.01,0.0,0.0,-0.08507948637927812,0.000988870059773851,-0.0,0.0,0.000988870059773851,0.5,0,0,-0.18167672385263212,-0.029137033998679486,-0.0,-0.0,-0.029137033998679486,0.002,8e-05,0.0,-1.145800325208506,-0.0017483922355966198,-9.166402601668049e-05,0.0,-0.0018400562616133003,0.09888700597738509,0.0,-0.09888700597738509,-0.0650498929275979,0.0,0.0650498929275979,-0.8741961177983099,0.0,0.8741961177983099,-0.05827406799735897,0,0.05827406799735897,-0.000649492838619964,-0.0009895311539753137,0.029137033998679486,0.4,0.033484458923339844,1.657283067703247,STABILIZE
0.01,0.0,0.0,-0.18959724833001412,-0.0008870022411379772,-0.0,-0.0,-0.0008870022411379772,0.01,0.0,0.0,-0.08265552217692385,0.0007255863051971068,-0.0,-0.0,0.0007255863051971068,0.5,0,0,-0.16876131095244787,0.19330414857690373,-0.0,0.0,0.19330414857690373,0.002,8e-05,0.0,-1.1782117016144749,-0.0019403958878533376,-9.4256936129158e-05,-0.0,-0.0020346528239824956,0.07255863051971068,0.0,-0.07255863051971068,-0.08870022411379772,0.0,0.08870022411379772,-0.9701979439266688,0.0,0.9701979439266688,0.38660829715380746,0,-0.38660829715380746,-0.0008918779687121193,-0.0007195847073134108,-0.19330414857690373,0.4,0.033406972885131836,1.690678596496582,STABILIZE
0.01,0.0,0.0,-0.1920638074139181,-0.0007376259238135631,-0.0,0.0,-0.0007376259238135631,0.01,0.0,0.0,-0.06947385942830733,0.003941983885890831,-0.0,0.0,0.003941983885890831,0.5,0,0,-0.16295597733904382,0.08680441911116615,-0.0,-0.0,0.08680441911116615,0.002,8e-05,0.0,-1.2147493114902201,-0.0021853186825656038,-9.717994491921762e-05,-0.0,-0.0022824986274848215,0.39419838858908307,0.0,-0.39419838858908307,-0.07376259238135631,0.0,0.07376259238135631,-1.0926593412828018,0.0,1.0926593412828018,0.1736088382223323,0,-0.1736088382223323,-0.0007495669112666287,-0.003939730752937184,-0.08680441911116615,0.4,0.03343915939331055,1.7241239547729492,STABILIZE
0.01,0.0,0.0,-0.195094215726624,-0.0009058901216326584,-0.0,-0.0,-0.0009058901216326584,0.01,0.0,0.0,-0.06023910390018648,0.0027605764456035886,-0.0,-0.0,0.0027605764456035886,0.5,0,0,-0.15789676088482854,0.07561842722413015,-0.0,-0.0,0.07561842722413015,0.002,8e-05,0.0,-1.2508123576915595,-0.002156089473012601,-0.00010006498861532477,0.0,-0.002256154461627926,0.27605764456035886,0.0,-0.27605764456035886,-0.09058901216326584,0.0,0.09058901216326584,-1.0780447365063004,0.0,1.0780447365063004,0.1512368544482603,0,-0.1512368544482603,-0.0009131737226306394,-0.002758175660974093,-0.07561842722413015,0.4,0.03345227241516113,1.7575876712799072,STABILIZE
0.01,0.0,0.0,-0.19873862433250072,-0.0010742980752332055,-0.0,-0.0,-0.0010742980752332055,0.01,0.0,0.0,-0.05494309483636808,0.0015611565438911619,-0.0,-0.0,0.0015611565438911619,0.5,0,0,-0.15355234904513737,0.06403224476358876,-0.0,-0.0,0.06403224476358876,0.002,8e-05,0.0,-1.2868616258557204,-0.002125319281700414,-0.00010294893006845764,0.0,-0.002228268211768872,0.15611565438911618,0.0,-0.15611565438911618,-0.10742980752332054,0.0,0.10742980752332054,-1.062659640850207,0.0,1.062659640850207,0.12806448952717753,0,-0.12806448952717753,-0.0010777848031567475,-0.0015587514320982477,-0.06403224476358876,0.4,0.03392362594604492,1.7915034294128418,STABILIZE
0.01,0.0,0.0,-0.20108593924704768,-0.0007008864764963303,-0.0,0.0,-0.0007008864764963303,0.01,0.0,0.0,-0.04996224547682882,0.0014872354518482912,-0.0,-0.0,0.0014872354518482912,0.5,0,0,-0.15251974233692012,0.015416339598143529,-0.0,-0.0,0.015416339598143529,0.002,8e-05,0.0,-1.3231587919361258,-0.0021675994714844336,-0.00010585270335489008,-0.0,-0.0022734521748393236,0.1487235451848291,0.0,-0.1487235451848291,-0.07008864764963303,0.0,0.07008864764963303,-1.0837997357422169,0.0,1.0837997357422169,0.030832679196287058,0,-0.030832679196287058,-0.0007016867036192194,-0.0014868580672457695,-0.015416339598143529,0.4,0.033490657806396484,1.8250133991241455,STABILIZE
0.01,0.0,0.0,-0.20395782598847992,-0.0008590231377750006,-0.0,-0.0,-0.0008590231377750006,0.01,0.0,0.0,-0.04277665249517703,0.002149315479897453,-0.0,0.0,0.002149315479897453,0.5,0,0,-0.15084033179059006,0.025116807294451385,-0.0,0.0,0.025116807294451385,0.002,8e-05,0.0,-1.359134694749686,-0.002152183264983558,-0.00010873077557997489,0.0,-0.0022609140405635327,0.2149315479897453,0.0,-0.2149315479897453,-0.08590231377750006,0.0,0.08590231377750006,-1.0760916324917789,0.0,1.0760916324917789,0.05023361458890277,0,-0.05023361458890277,-0.0008609072024656337,-0.0021485615122919855,-0.025116807294451385,0.4,0.0334320068359375,1.8584394454956055,STABILIZE
0.01,0.0,0.0,-0.207077106879962,-0.0009337414942095774,-0.0,-0.0,-0.0009337414942095774,0.01,0.0,0.0,-0.03698508191294965,0.0017336783564559813,-0.0,-0.0,0.0017336783564559813,0.5,0,0,-0.14814491021957812,0.040343063879148766,-0.0,0.0,0.040343063879148766,0.002,8e-05,0.0,-1.3947329593673956,-0.0021312333163823875,-0.00011157863674939165,0.0,-0.002242811953131779,0.17336783564559813,0.0,-0.17336783564559813,-0.09337414942095774,0.0,0.09337414942095774,-1.0656166581911937,0.0,1.0656166581911937,0.08068612775829753,0,-0.08068612775829753,-0.0009361820002989553,-0.00173236170702567,-0.040343063879148766,0.4,0.03340625762939453,1.8918426036834717,STABILIZE
0.01,0.0,0.0,-0.2092251659851137,-0.0006411030076191503,-0.0,0.0,-0.0006411030076191503,0.01,0.0,0.0,-0.03306622595676043,0.0011696095018585144,-0.0,-0.0,0.0011696095018585144,0.5,0,0,-0.14749711416059375,0.00966695936677641,-0.0,-0.0,0.00966695936677641,0.002,8e-05,0.0,-1.429614675830109,-0.0020821376173058956,-0.00011436917406640872,0.0,-0.0021965067913723045,0.11696095018585144,0.0,-0.11696095018585144,-0.06411030076191503,0.0,0.06411030076191503,-1.0410688086529478,0.0,1.0410688086529478,0.01933391873355282,0,-0.01933391873355282,-0.0006414976447726818,-0.0011693931011285917,-0.00966695936677641,0.4,0.03350567817687988,1.9253439903259277,STABILIZE
0.01,0.0,0.0,-0.21186919350818864,-0.0007904274505098522,-0.0,-0.0,-0.0007904274505098522,0.01,0.0,0.0,-0.027693194228074817,0.0016062585331465687,-0.0,0.0,0.0016062585331465687,0.5,0,0,-0.14621461272674852,0.019170079164882683,-0.0,0.0,0.019170079164882683,0.002,8e-05,0.0,-1.4641363116856598,-0.0020640366545805534,-0.0001171309049348528,0.0,-0.002181167559515406,0.16062585331465687,0.0,-0.16062585331465687,-0.07904274505098521,0.0,0.07904274505098521,-1.0320183272902768,0.0,1.0320183272902768,0.03834015832976537,0,-0.03834015832976537,-0.0007915021206320118,-0.0016057292495500913,-0.019170079164882683,0.4,0.03345060348510742,1.9588356018066406,STABILIZE
0.01,0.0,0.0,-0.21469205207258313,-0.0008443340109018184,-0.0,-0.0,-0.0008443340109018184,0.01,0.0,0.0,-0.02226717548644453,0.0016229549100104745,-0.0,0.0,0.0016229549100104745,0.5,0,0,-0.1454857093523771,0.010900969630671227,-0.0,-0.0,0.010900969630671227,0.002,8e-05,0.0,-1.498574450175158,-0.0020601309584256447,-0.00011988595601401265,0.0,-0.002180016914439657,0.16229549100104745,0.0,-0.16229549100104745,-0.08443340109018184,0.0,0.08443340109018184,-1.0300654792128223,0.0,1.0300654792128223,0.021801939261342454,0,-0.021801939261342454,-0.000844951509459834,-0.0016226335102401304,-0.010900969630671227,0.4,0.033432960510253906,1.9922358989715576,STABILIZE
0.01,0.0,0.0,-0.2166545864220165,-0.0005865833628092329,-0.0,0.0,-0.0005865833628092329,0.01,0.0,0.0,-0.018722578881607492,0.0010594471362337377,-0.0,-0.0,0.0010594471362337377,0.5,0,0,-0.1453230480212643,0.002430898359325726,-0.0,-0.0,0.002430898359325726,0.002,8e-05,0.0,-1.5327627028020483,-0.0020437104910029555,-0.00012262101622416386,0.0,-0.0021663315072271193,0.10594471362337377,0.0,-0.10594471362337377,-0.05865833628092328,0.0,0.05865833628092328,-1.0218552455014778,0.0,1.0218552455014778,0.004861796718651452,0,-0.004861796718651452,-0.0005866732594063679,-0.001059397358263633,-0.002430898359325726,0.4,0.033457040786743164,2.0257039070129395,STABILIZE
0.01,0.0,0.0,-0.2190303621341046,-0.0007107000622148174,-0.0,-0.0,-0.0007107000622148174,0.01,0.0,0.0,-0.01516107825072606,0.0010654030626994165,-0.0,0.0,0.0010654030626994165,0.5,0,0,-0.1447057114923255,0.00923363908663466,-0.0,0.0,0.00923363908663466,0.002,8e-05,0.0,-1.5669166951970162,-0.002043395291608068,-0.00012535333561576131,0.0,-0.002168748627223829,0.10654030626994165,0.0,-0.10654030626994165,-0.07107000622148174,0.0,0.07107000622148174,-1.0216976458040339,0.0,1.0216976458040339,0.01846727817326932,0,-0.01846727817326932,-0.000711043420476284,-0.0010651739382086048,-0.00923363908663466,0.4,0.03342866897583008,2.059123992919922,STABILIZE
0.01,0.0,0.0,-0.22183208774892238,-0.0008378516953500919,-0.0,-0.0,-0.0008378516953500919,0.01,0.0,0.0,-0.011568578310792435,0.0010743315295756557,-0.0,0.0,0.0010743315295756557,0.5,0,0,-0.14363738025278397,0.015974139928466212,-0.0,0.0,0.015974139928466212,0.002,8e-05,0.0,-1.6012625023635134,-0.002054212062053659,-0.00012810100018908108,-0.0,-0.00218231306224274,0.10743315295756557,0.0,-0.10743315295756557,-0.08378516953500918,0.0,0.08378516953500918,-1.0271060310268294,0.0,1.0271060310268294,0.031948279856932424,0,-0.031948279856932424,-0.000838450615199812,-0.001073864174238273,-0.015974139928466212,0.4,0.03343939781188965,2.092580795288086,STABILIZE
0.01,0.0,0.0,-0.22499293635227993,-0.0009322326327731652,-0.0,-0.0,-0.0009322326327731652,0.01,0.0,0.0,-0.007895573404604443,0.0010832834670560297,-0.0,0.0,0.0010832834670560297,0.5,0,0,-0.1422715461533061,0.020141349337882173,-0.0,0.0,0.020141349337882173,0.002,8e-05,0.0,-1.636065157423227,-0.0020528772380524578,-0.00013088521259385817,0.0,-0.002183762450646316,0.10832834670560296,0.0,-0.10832834670560296,-0.09322326327731652,0.0,0.09322326327731652,-1.026438619026229,0.0,1.026438619026229,0.040282698675764346,0,-0.040282698675764346,-0.0009329940217829773,-0.00108262777856535,-0.020141349337882173,0.4,0.03390622138977051,2.1264798641204834,STABILIZE
0.01,0.0,0.0,-0.22839885946902386,-0.001017766826415564,-0.0,-0.0,-0.001017766826415564,0.01,0.0,0.0,-0.005987608752368244,0.0005701429722453457,-0.0,-0.0,0.0005701429722453457,0.5,0,0,-0.14063040615318986,0.024520486698753338,-0.0,0.0,0.024520486698753338,0.002,8e-05,0.0,-1.6713233681817115,-0.0021071900943588993,-0.00013370586945453693,-0.0,-0.0022408959638134363,0.05701429722453456,0.0,-0.05701429722453456,-0.10177668264155641,0.0,0.10177668264155641,-1.0535950471794495,0.0,1.0535950471794495,0.049040973397506675,0,-0.049040973397506675,-0.0010182544539954791,-0.0005692716299545717,-0.024520486698753338,0.4,0.033464670181274414,2.159954786300659,STABILIZE
0.01,0.0,0.0,-0.2319963144155841,-0.0010748400558602555,-0.0,-0.0,-0.0010748400558602555,0.01,0.0,0.0,-0.0030602933198125505,0.000874617175138556,-0.0,0.0,0.000874617175138556,0.5,0,0,-0.1390476282693426,0.0236449530898978,-0.0,-0.0,0.0236449530898978,0.002,8e-05,0.0,-1.7073408514575845,-0.0021522456465063533,-0.00013658726811660677,-0.0,-0.00228883291462296,0.08746171751385559,0.0,-0.08746171751385559,-0.10748400558602555,0.0,0.10748400558602555,-1.0761228232531765,0.0,1.0761228232531765,0.0472899061797956,0,-0.0472899061797956,-0.0010755615676984584,-0.0008737297424370189,-0.0236449530898978,0.4,0.03346967697143555,2.1934149265289307,STABILIZE
0.01,0.0,0.0,-0.2350059269913504,-0.0009001932613306045,-0.0,0.0,-0.0009001932613306045,0.01,0.0,0.0,0.0007013170853908419,0.0011251203446520103,0.0,0.0,0.0011251203446520103,0.5,0,0,-0.13767225705830521,0.020569090951660665,-0.0,-0.0,0.020569090951660665,0.002,8e-05,0.0,-1.742857982974191,-0.0021246776219960217,-0.0001394286386379353,0.0,-0.002264106260633957,0.11251203446520103,0.0,-0.11251203446520103,-0.09001932613306045,0.0,0.09001932613306045,-1.0623388109980108,0.0,1.0623388109980108,0.04113818190332133,0,-0.04113818190332133,-0.0009010008619475837,-0.0011244737188856838,-0.020569090951660665,0.4,0.033432960510253906,2.2268800735473633,STABILIZE
0.01,0.0,0.0,-0.23813429964597913,-0.0009353482559397736,-0.0,-0.0,-0.0009353482559397736,0.01,0.0,0.0,0.0028786045039176263,0.000650984462028654,0.0,-0.0,0.000650984462028654,0.5,0,0,-0.13593654913686676,0.025947857822120137,-0.0,0.0,0.025947857822120137,0.002,8e-05,0.0,-1.777525990785017,-0.0020730689225776293,-0.00014220207926280136,0.0,-0.0022152710018404306,0.0650984462028654,0.0,-0.0650984462028654,-0.09353482559397736,0.0,0.09353482559397736,-1.0365344612888145,0.0,1.0365344612888145,0.051895715644240274,0,-0.051895715644240274,-0.0009359375020825661,-0.0006501370023985399,-0.025947857822120137,0.4,0.03344607353210449,2.260300636291504,STABILIZE
0.01,0.0,0.0,-0.24099453642646707,-0.0008541496432480644,-0.0,0.0,-0.0008541496432480644,0.01,0.0,0.0,0.005291997487051071,0.0007207091278677797,0.0,0.0,0.0007207091278677797,0.5,0,0,-0.1346972803941986,0.018504079131831587,-0.0,-0.0,0.018504079131831587,0.002,8e-05,0.0,-1.812057083265295,-0.0020623971081137954,-0.00014496456666122362,0.0,-0.002207361674775019,0.07207091278677796,0.0,-0.07207091278677796,-0.08541496432480644,0.0,0.08541496432480644,-1.0311985540568978,0.0,1.0311985540568978,0.037008158263663174,0,-0.037008158263663174,-0.0008546149813061421,-0.0007201572701707829,-0.018504079131831587,0.4,0.033486366271972656,2.293788433074951,STABILIZE
0.01,0.0,0.0,-0.24358196683602448,-0.0007741147652168699,-0.0,0.0,-0.0007741147652168699,0.01,0.0,0.0,0.008782764718020652,0.0010443776363790113,0.0,0.0,0.0010443776363790113,0.5,0,0,-0.13373294197628016,0.01442567508712689,-0.0,-0.0,0.01442567508712689,0.002,8e-05,0.0,-1.8461934801032702,-0.0020426047963237152,-0.00014769547840826164,0.0,-0.002190300274731977,0.10443776363790112,0.0,-0.10443776363790112,-0.07741147652168699,0.0,0.07741147652168699,-1.0213023981618576,0.0,1.0213023981618576,0.02885135017425378,0,-0.02885135017425378,-0.0007746405645107266,-0.0010439876976812911,-0.01442567508712689,0.4,0.03342437744140625,2.3272204399108887,STABILIZE
0.01,0.0,0.0,-0.24593954644403734,-0.0007048094127689273,-0.0,0.0,-0.0007048094127689273,0.01,0.0,0.0,0.012624871229262933,0.001148615650042377,0.0,0.0,0.001148615650042377,0.5,0,0,-0.13287258135948243,0.012860440831642353,-0.0,-0.0,0.012860440831642353,0.002,8e-05,0.0,-1.8790252961805678,-0.001963044889846306,-0.00015032202369444543,0.0,-0.0021133669135407515,0.1148615650042377,0.0,-0.1148615650042377,-0.07048094127689272,0.0,0.07048094127689272,-0.9815224449231531,0.0,0.9815224449231531,0.025720881663284706,0,-0.025720881663284706,-0.0007053249714617542,-0.0011482991354531398,-0.012860440831642353,0.4,0.03344988822937012,2.360668897628784,STABILIZE
0.01,0.0,0.0,-0.2479117473122101,-0.0005782843034437337,-0.0,0.0,-0.0005782843034437337,0.01,0.0,0.0,0.01618569579822255,0.0010440969724620117,0.0,-0.0,0.0010440969724620117,0.5,0,0,-0.1322189864004946,0.009582282202897559,-0.0,-0.0,0.009582282202897559,0.002,8e-05,0.0,-1.912192965786997,-0.001945069898785324,-0.00015297543726295977,0.0,-0.0020980453360482836,0.10440969724620118,0.0,-0.10440969724620118,-0.05782843034437337,0.0,0.05782843034437337,-0.9725349493926619,0.0,0.9725349493926619,0.019164564405795118,0,-0.019164564405795118,-0.0005786335056013237,-0.001043903486778958,-0.009582282202897559,0.4,0.034104347229003906,2.3948700428009033,STABILIZE
0.01,0.0,0.0,-0.2498100536597241,-0.0005672851437510416,-0.0,0.0,-0.0005672851437510416,0.01,0.0,0.0,0.020416805698370094,0.0012644143507579717,0.0,0.0,0.0012644143507579717,0.5,0,0,-0.1313894402080713,0.012394975964581589,-0.0,0.0,0.012394975964581589,0.002,8e-05,0.0,-1.9444701181942579,-0.0019291247766416966,-0.00015555760945554063,0.0,-0.002084682386097237,0.12644143507579717,0.0,-0.12644143507579717,-0.05672851437510416,0.0,0.05672851437510416,-0.9645623883208483,0.0,0.9645623883208483,0.024789951929163178,0,-0.024789951929163178,-0.0005678321600928296,-0.0012641687872620704,-0.012394975964581589,0.4,0.0334630012512207,2.428267240524292,STABILIZE
0.01,0.0,0.0,-0.251846716023929,-0.0006081501513426135,-0.0,-0.0,-0.0006081501513426135,0.01,0.0,0.0,0.02479698811797247,0.0013079284265310174,0.0,0.0,0.0013079284265310174,0.5,0,0,-0.13036465881440706,0.015300055880723164,-0.0,0.0,0.015300055880723164,0.002,8e-05,0.0,-1.9765293316633308,-0.0019145849470001298,-0.00015812234653306647,0.0,-0.002072707293533196,0.13079284265310173,0.0,-0.13079284265310173,-0.060815015134261345,0.0,0.060815015134261345,-0.9572924735000649,0.0,0.9572924735000649,0.03060011176144633,0,-0.03060011176144633,-0.0006088485934453722,-0.001307603443619486,-0.015300055880723164,0.4,0.03348946571350098,2.4617395401000977,STABILIZE
0.01,0.0,0.0,-0.25420739368168255,-0.0005470326152543217,-0.0,0.0,-0.0005470326152543217,0.01,0.0,0.0,0.029448526832503402,0.0010778868430465927,0.0,-0.0,0.0010778868430465927,0.5,0,0,-0.12929282721616311,0.012418612943064265,-0.0,-0.0,0.012418612943064265,0.002,8e-05,0.0,-2.0168675050219314,-0.001869488313617213,-0.00016134940040175453,0.0,-0.0020308377140189674,0.10778868430465928,0.0,-0.10778868430465928,-0.05470326152543217,0.0,0.05470326152543217,-0.9347441568086065,0.0,0.9347441568086065,0.02483722588612853,0,-0.02483722588612853,-0.0005474998184849116,-0.0010776496078614428,-0.012418612943064265,0.4,0.043154239654541016,2.5048813819885254,STABILIZE
0.01,0.0,0.0,-0.25616466502457425,-0.0005788884673884684,-0.0,-0.0,-0.0005788884673884684,0.01,0.0,0.0,0.03378491702165153,0.0012825438229150195,0.0,0.0,0.0012825438229150195,0.5,0,0,-0.12850862286021003,0.011596932111271469,-0.0,-0.0,0.011596932111271469,0.002,8e-05,0.0,-2.0482430401483307,-0.0018559445535007062,-0.00016385944321186646,0.0,-0.002019803996712573,0.12825438229150193,0.0,-0.12825438229150193,-0.05788884673884684,0.0,0.05788884673884684,-0.9279722767503531,0.0,0.9279722767503531,0.023193864222542937,0,-0.023193864222542937,-0.0005794076056061525,-0.001282309378402337,-0.011596932111271469,0.4,0.03381085395812988,2.5386910438537598,STABILIZE
0.01,0.0,0.0,-0.25779011217748754,-0.00048590383265764356,-0.0,0.0,-0.00048590383265764356,0.01,0.0,0.0,0.03768288231858857,0.0011652401457368225,0.0,-0.0,0.0011652401457368225,0.5,0,0,-0.12800166669881627,0.0075773592936913894,-0.0,-0.0,0.0075773592936913894,0.002,8e-05,0.0,-2.0791054314248667,-0.0018451727796097157,-0.00016632843451398936,0.0,-0.002011501214123705,0.11652401457368225,0.0,-0.11652401457368225,-0.048590383265764356,0.0,0.048590383265764356,-0.9225863898048579,0.0,0.9225863898048579,0.015154718587382779,0,-0.015154718587382779,-0.0004862120213686871,-0.0011651115835424235,-0.0075773592936913894,0.4,0.03345203399658203,2.572155475616455,STABILIZE
0.01,0.0,0.0,-0.25940611258007307,-0.0004828802525231257,-0.0,0.0,-0.0004828802525231257,0.01,0.0,0.0,0.040925476793762336,0.0009689260203752481,0.0,-0.0,0.0009689260203752481,0.5,0,0,-0.12732597235898938,0.010095277603954275,-0.0,0.0,0.010095277603954275,0.002,8e-05,0.0,-2.1098005090213943,-0.0018344112782785916,-0.00016878404072171157,0.0,-0.0020031953190003033,0.09689260203752481,0.0,-0.09689260203752481,-0.04828802525231257,0.0,0.04828802525231257,-0.9172056391392958,0.0,0.9172056391392958,0.02019055520790855,0,-0.02019055520790855,-0.00048322166398878067,-0.0009687557972414552,-0.010095277603954275,0.4,0.03346586227416992,2.605698585510254,STABILIZE
0.01,0.0,0.0,-0.261106205742309,-0.0005084464722976916,-0.0,-0.0,-0.0005084464722976916,0.01,0.0,0.0,0.04458947398578167,0.0010957908002763351,0.0,0.0,0.0010957908002763351,0.5,0,0,-0.12670448536689438,0.00929339861275619,-0.0,-0.0,0.00929339861275619,0.002,8e-05,0.0,-2.140327987182431,-0.0018259691790901416,-0.0001712262389745945,0.0,-0.0019971954180647363,0.10957908002763352,0.0,-0.10957908002763352,-0.050844647229769155,0.0,0.050844647229769155,-0.9129845895450708,0.0,0.9129845895450708,0.01858679722551238,0,-0.01858679722551238,-0.0005088019209601386,-0.0010956258021740319,-0.00929339861275619,0.4,0.03343701362609863,2.6390600204467773,STABILIZE
0.01,0.0,0.0,-0.26289065886602786,-0.0005338358576226128,-0.0,-0.0,-0.0005338358576226128,0.01,0.0,0.0,0.048656933049405514,0.0012168184575503907,0.0,0.0,0.0012168184575503907,0.5,0,0,-0.12613436450254928,0.008527849695819897,-0.0,-0.0,0.008527849695819897,0.002,8e-05,0.0,-2.1705831960003428,-0.0018102257921128904,-0.00017364665568002743,0.0,-0.001983872447792918,0.12168184575503907,0.0,-0.12168184575503907,-0.05338358576226128,0.0,0.05338358576226128,-0.9051128960564452,0.0,0.9051128960564452,0.017055699391639794,0,-0.017055699391639794,-0.0005341980541844676,-0.0012166594923907475,-0.008527849695819897,0.4,0.03342700004577637,2.6724915504455566,STABILIZE
0.01,0.0,0.0,-0.26447289741720703,-0.0004626467112019379,-0.0,0.0,-0.0004626467112019379,0.01,0.0,0.0,0.052291881044275096,0.001062859158603599,0.0,-0.0,0.001062859158603599,0.5,0,0,-0.12570984854088244,0.0062064254903761665,-0.0,-0.0,0.0062064254903761665,0.002,8e-05,0.0,-2.2013194948410355,-0.0017974593733124144,-0.00017610555958728286,0.0,-0.0019735649328996973,0.1062859158603599,0.0,-0.1062859158603599,-0.046264671120193786,0.0,0.046264671120193786,-0.8987296866562071,0.0,0.8987296866562071,0.012412850980752333,0,-0.012412850980752333,-0.0004628769635920304,-0.001062758903509795,-0.0062064254903761665,0.4,0.03419971466064453,2.7069754600524902,STABILIZE
0.01,0.0,0.0,-0.2659078115241316,-0.00042828436067107755,-0.0,0.0,-0.00042828436067107755,0.01,0.0,0.0,0.05600748685484804,0.001109011230294207,0.0,0.0,0.001109011230294207,0.5,0,0,-0.12516480308905148,0.008134091153874475,-0.0,0.0,0.008134091153874475,0.002,8e-05,0.0,-2.231010589802334,-0.001772403178944015,-0.00017848084718418675,0.0,-0.0019508840261282018,0.11090112302942068,0.0,-0.11090112302942068,-0.042828436067107754,0.0,0.042828436067107754,-0.8862015894720076,0.0,0.8862015894720076,0.01626818230774895,0,-0.01626818230774895,-0.0004285992286709012,-0.0011088895813816688,-0.008134091153874475,0.4,0.03350377082824707,2.740211248397827,STABILIZE
0.01,0.0,0.0,-0.26722811805915714,-0.0003950665949279587,-0.0,0.0,-0.0003950665949279587,0.01,0.0,0.0,0.059866787480688764,0.00115479300950727,0.0,0.0,0.00115479300950727,0.5,0,0,-0.12449381633671178,0.010038746475018038,-0.0,0.0,0.010038746475018038,0.002,8e-05,0.0,-2.260231513975201,-0.0017487167877116665,-0.0001808185211180161,0.0,-0.0019295353088296825,0.115479300950727,0.0,-0.115479300950727,-0.039506659492795866,0.0,0.039506659492795866,-0.8743583938558332,0.0,0.8743583938558332,0.020077492950036076,0,-0.020077492950036076,-0.000395471231333638,-0.0011546545000225331,-0.010038746475018038,0.4,0.03341984748840332,2.7736294269561768,STABILIZE
0.01,0.0,0.0,-0.2686016843052076,-0.000386766274835981,-0.0,0.0,-0.000386766274835981,0.01,0.0,0.0,0.06414217136293127,0.0012038547848590697,0.0,0.0,0.0012038547848590697,0.5,0,0,-0.12394068958097733,0.007787421081533748,-0.0,-0.0,0.007787421081533748,0.002,8e-05,0.0,-2.290914364358074,-0.0017279241941269606,-0.00018327314914864593,0.0,-0.0019111973432756066,0.12038547848590697,0.0,-0.12038547848590697,-0.0386766274835981,0.0,0.0386766274835981,-0.8639620970634803,0.0,0.8639620970634803,0.015574842163067495,0,-0.015574842163067495,-0.0003870935071287434,-0.0012037496048254172,-0.007787421081533748,0.4,0.035514116287231445,2.80914044380188,STABILIZE
0.01,0.0,0.0,-0.26990267087784114,-0.0003886451372854868,-0.0,-0.0,-0.0003886451372854868,0.01,0.0,0.0,0.06776287931651304,0.0010816180345673808,0.0,-0.0,0.0010816180345673808,0.5,0,0,-0.12343610586979055,0.007536742109076396,-0.0,-0.0,0.007536742109076396,0.002,8e-05,0.0,-2.3197640957959664,-0.0017236623453588088,-0.00018558112766367733,0.0,-0.0019092434730224861,0.10816180345673806,0.0,-0.10816180345673806,-0.03886451372854868,0.0,0.03886451372854868,-0.8618311726794043,0.0,0.8618311726794043,0.015073484218152793,0,-0.015073484218152793,-0.0003889296779920893,-0.0010815157516254805,-0.007536742109076396,0.4,0.03347492218017578,2.8426353931427,STABILIZE
0.01,0.0,0.0,-0.2710349264999341,-0.0003349478280177534,-0.0,0.0,-0.0003349478280177534,0.01,0.0,0.0,0.07150540048712697,0.001107125734637953,0.0,0.0,0.001107125734637953,0.5,0,0,-0.12298255839151699,0.006708500262063093,-0.0,-0.0,0.006708500262063093,0.002,8e-05,0.0,-2.3483193984955157,-0.00168946595291332,-0.00018786555187964127,0.0,-0.0018773315047929614,0.11071257346379529,0.0,-0.11071257346379529,-0.03349478280177534,0.0,0.03349478280177534,-0.84473297645666,0.0,0.84473297645666,0.013417000524126185,0,-0.013417000524126185,-0.0003352070753893938,-0.001107047269270977,-0.006708500262063093,0.4,0.03380393981933594,2.8764257431030273,STABILIZE
0.01,0.0,0.0,-0.2723077078956213,-0.00037751980786493086,-0.0,-0.0,-0.00037751980786493086,0.01,0.0,0.0,0.07519676192954264,0.001094895059923751,0.0,-0.0,0.001094895059923751,0.5,0,0,-0.12268028924311657,0.004482804007596732,-0.0,-0.0,0.004482804007596732,0.002,8e-05,0.0,-2.3767293105024807,-0.0016853333272581754,-0.00019013834484019848,0.0,-0.001875471672098374,0.1094895059923751,0.0,-0.1094895059923751,-0.03775198078649308,0.0,0.03775198078649308,-0.8426666636290877,0.0,0.8426666636290877,0.008965608015193464,0,-0.008965608015193464,-0.0003776911317416798,-0.0010948359724540922,-0.004482804007596732,0.4,0.03371429443359375,2.910139799118042,STABILIZE
0.01,0.0,0.0,-0.2734239199603637,-0.00033274575181216413,-0.0,0.0,-0.00033274575181216413,0.01,0.0,0.0,0.07844783948444223,0.0009691547685021733,0.0,-0.0,0.0009691547685021733,0.5,0,0,-0.12248561816057373,0.0029015980817121067,-0.0,-0.0,0.0029015980817121067,0.002,8e-05,0.0,-2.4047438415783167,-0.001670241076751988,-0.00019237950732626534,0.0,-0.0018626205840782534,0.09691547685021733,0.0,-0.09691547685021733,-0.03327457518121641,0.0,0.03327457518121641,-0.835120538375994,0.0,0.835120538375994,0.0058031961634242134,0,-0.0058031961634242134,-0.0003328439108298532,-0.0009691210614175261,-0.0029015980817121067,0.4,0.033545494079589844,2.9437031745910645,STABILIZE
0.01,0.0,0.0,-0.27449992044869803,-0.00032158367611446407,-0.0,0.0,-0.00032158367611446407,0.01,0.0,0.0,0.08176954217065523,0.0009927554609619525,0.0,0.0,0.0009927554609619525,0.5,0,0,-0.12223165463650779,0.0037950969610867024,-0.0,0.0,0.0037950969610867024,0.002,8e-05,0.0,-2.4324236767550715,-0.0016545314331896806,-0.00019459389414040574,0.0,-0.0018491253273300863,0.09927554609619525,0.0,-0.09927554609619525,-0.03215836761144641,0.0,0.03215836761144641,-0.8272657165948403,0.0,0.8272657165948403,0.007590193922173405,0,-0.007590193922173405,-0.00032171518745494,-0.0009927128508153322,-0.0037950969610867024,0.4,0.03345942497253418,2.977155923843384,STABILIZE
0.01,0.0,0.0,-0.2756655385649861,-0.0003365589811321202,-0.0,-0.0,-0.0003365589811321202,0.01,0.0,0.0,0.08545697777470115,0.0010647051144332849,0.0,0.0,0.0010647051144332849,0.5,0,0,-0.12193925480393475,0.004221356392751063,-0.0,0.0,0.004221356392751063,0.002,8e-05,0.0,-2.4609617172186726,-0.0016480069566048243,-0.00019687693737749384,0.0,-0.0018448838939823181,0.10647051144332849,0.0,-0.10647051144332849,-0.03365589811321202,0.0,0.03365589811321202,-0.8240034783024122,0.0,0.8240034783024122,0.008442712785502127,0,-0.008442712785502127,-0.0003367158651151371,-0.0010646555098532341,-0.004221356392751063,0.4,0.03463339805603027,3.0117835998535156,STABILIZE
0.01,0.0,0.0,-0.27685078193172796,-0.00035237997647375536,-0.0,-0.0,-0.00035237997647375536,0.01,0.0,0.0,0.08928458028052039,0.0011379692296099018,0.0,0.0,0.0011379692296099018,0.5,0,0,-0.12162467736448641,0.004676288170955894,-0.0,0.0,0.004676288170955894,0.002,8e-05,0.0,-2.4885705326804026,-0.0016416533542164438,-0.00019908564261443223,0.0,-0.001840738996830876,0.11379692296099019,0.0,-0.11379692296099019,-0.035237997647375535,0.0,0.035237997647375535,-0.8208266771082219,0.0,0.8208266771082219,0.009352576341911788,0,-0.009352576341911788,-0.0003525657261948894,-0.0011379116943204637,-0.004676288170955894,0.4,0.03363537788391113,3.045423984527588,STABILIZE
