E-kp,E-ki,E-kd,E-I-Tot,E-P,E-I,E-D,E-PID,N-kp,N-ki,N-kd,N-I-Tot,N-P,N-I,N-D,N-PID,Y-kp,Y-ki,Y-kd,Y-I-Tot,Y-P,Y-I,Y-D,Y-PID,D-kp,D-ki,D-kd,D-I-Tot,D-P,D-I,D-D,D-PID,errorN,desiredN,actualN,errorE,desiredE,actualE,errorD,desiredD,actualD,errorY,desiredY,actualY,roll,pitch,yaw-rate,thrust,dt,Time,Mode
0.03,0.0,0.007,-0.004524973881971641,-0.0035315239576214474,-0.0,-0.021436988126570213,-0.02496851208419166,0.03,0.0,0.007,-0.004433642260557432,-0.0034602440303719774,-0.0,-0.021004306096815886,-0.024464550127187863,0.3,0,0,-0.004530124632926012,-0.035355438704142206,-0.0,-0.0,-0.035355438704142206,0.002,8e-05,0.0,-0.00633821619757296,-0.0003297781443482448,-5.070572958058368e-07,-0.0,-0.00033028520164405067,-0.11534146767906592,0.0,0.11534146767906592,-0.11771746525404825,0.0,0.11771746525404825,-0.1648890721741224,0.0,0.1648890721741224,-0.11785146234714068,0,0.11785146234714068,-0.025018780266499972,0.024413140777063164,0.035355438704142206,0.4,0.038439273834228516,0.03870511054992676,STABILIZE
0.03,0.0,0.007,-0.009752284601589719,-0.004656721260034615,-0.0,-0.007796256870141274,-0.012452978130175889,0.03,0.0,0.007,-0.009507538381349125,-0.004520052700946797,-0.0,-0.007343192710544071,-0.011863245411490867,0.3,0,0,-0.009728317576525387,-0.04630781847991949,-0.0,-0.0,-0.04630781847991949,0.002,8e-05,0.0,-0.014164013422558153,-0.0004647712532506077,-1.1331210738046524e-06,-0.0,-0.00046590437432441234,-0.15066842336489325,0.0,0.15066842336489325,-0.15522404200115386,0.0,0.15522404200115386,-0.23238562662530385,0.0,0.23238562662530385,-0.15435939493306497,0,0.15435939493306497,-0.01248489342759571,0.01182965308474748,0.04630781847991949,0.4,0.0336759090423584,0.07229757308959961,STABILIZE
0.03,0.0,0.007,-0.015118427570275806,-0.004786193594544486,-0.0,-0.0008981741079674805,-0.005684367702511966,0.03,0.0,0.007,-0.014669840482315653,-0.004604382960523187,-0.0,-0.0005850149837524998,-0.005189397944275686,0.3,0,0,-0.015027386726867605,-0.0472636882252622,-0.0,-0.0,-0.0472636882252622,0.002,8e-05,0.0,-0.022682890851620854,-0.0005065462825176131,-1.8146312681296686e-06,-0.0,-0.0005083609137857428,-0.15347943201743958,0.0,0.15347943201743958,-0.1595397864848162,0.0,0.1595397864848162,-0.25327314125880657,0.0,0.25327314125880657,-0.1575456274175407,0,0.1575456274175407,-0.005698615430597034,0.005173748097421759,0.0472636882252622,0.4,0.03363513946533203,0.10594797134399414,STABILIZE
0.03,0.0,0.007,-0.021350145596824174,-0.005584187404705295,-0.0,-0.0055616959620018655,-0.01114588336670716,0.03,0.0,0.007,-0.020625087423739686,-0.00533644411068279,-0.0,-0.005102171835093098,-0.010438615945775888,0.3,0,0,-0.021050691638447295,-0.05397430255773752,-0.0,-0.0,-0.05397430255773752,0.002,8e-05,0.0,-0.03432218979543991,-0.0006953248556794766,-2.7457751836351933e-06,-0.0,-0.0006980706308631118,-0.17788147035609303,0.0,0.17788147035609303,-0.18613958015684318,0.0,0.18613958015684318,-0.3476624278397383,0.0,0.3476624278397383,-0.17991434185912505,0,0.17991434185912505,-0.011178606635757449,0.010403565377823387,0.05397430255773752,0.4,0.033478736877441406,0.13942646980285645,STABILIZE
0.03,0.0,0.007,-0.027516622520776288,-0.005535778295874158,-0.0,0.00033800583399281887,-0.005197772461881339,0.03,0.0,0.007,-0.02640667551962591,-0.005190255358383615,-0.0,0.0010207304438017352,-0.00416952491458188,0.3,0,0,-0.026944133441118717,-0.05290668824609272,-0.0,0.0,-0.05290668824609272,0.002,8e-05,0.0,-0.04655665556832608,-0.0007322094492787724,-3.724532445466087e-06,-0.0,-0.0007359339817242385,-0.1730085119461205,0.0,0.1730085119461205,-0.1845259431958053,0.0,0.1845259431958053,-0.3661047246393862,0.0,0.3661047246393862,-0.17635562748697575,0,0.17635562748697575,-0.005210581560578202,0.004153506516110631,0.05290668824609272,0.4,0.03341794013977051,0.17283272743225098,STABILIZE
0.03,0.0,0.007,-0.03367276277481904,-0.005520669579887649,-0.0,0.00010538197583962902,-0.00541528760404802,0.03,0.0,0.007,-0.032091719264580834,-0.005098202244903767,-0.0,0.0006420624353093553,-0.004456139809594412,0.3,0,0,-0.03289135804604716,-0.0533331935373411,-0.0,-0.0,-0.0533331935373411,0.002,8e-05,0.0,-0.0597765448067022,-0.0007903506348246835,-4.7821235845361764e-06,-0.0,-0.0007951327584092197,-0.16994007483012558,0.0,0.16994007483012558,-0.1840223193295883,0.0,0.1840223193295883,-0.39517531741234174,0.0,0.39517531741234174,-0.177777311791137,0,0.177777311791137,-0.005429088022454085,0.004439315834861704,0.0533331935373411,0.4,0.03345322608947754,0.2062849998474121,STABILIZE
0.03,0.0,0.007,-0.03978219824983119,-0.005480973423911542,-0.0,0.0002769877725809146,-0.005203985651330628,0.03,0.0,0.007,-0.03764107676556066,-0.004978509243130042,-0.0,0.0008351815721094807,-0.004143327671020562,0.3,0,0,-0.03886533224937584,-0.05359446707883021,-0.0,-0.0,-0.05359446707883021,0.002,8e-05,0.0,-0.07395822989735923,-0.0008481900868046965,-5.916658391788738e-06,-0.0,-0.0008541067451964852,-0.16595030810433475,0.0,0.16595030810433475,-0.18269911413038475,0.0,0.18269911413038475,-0.42409504340234827,0.0,0.42409504340234827,-0.17864822359610072,0,0.17864822359610072,-0.005216879228500944,0.004127081531050135,0.05359446707883021,0.4,0.03343987464904785,0.23976635932922363,STABILIZE
0.03,0.0,0.007,-0.04588056358141172,-0.00547170524180894,-0.0,6.467841149926174e-05,-0.005407026830309678,0.03,0.0,0.007,-0.04307304883440561,-0.00487378968402267,-0.0,0.0007307899932249543,-0.0041429996907977155,0.3,0,0,-0.044798516033358,-0.0532349753520212,-0.0,0.0,-0.0532349753520212,0.002,8e-05,0.0,-0.08906153462157165,-0.0009034205849683834,-7.124922769725733e-06,-0.0,-0.0009105455077381091,-0.162459656134089,0.0,0.162459656134089,-0.1823901747269647,0.0,0.1823901747269647,-0.45171029248419164,0.0,0.45171029248419164,-0.17744991784007066,0,0.17744991784007066,-0.00541983210142446,0.004126233824446648,0.0532349753520212,0.4,0.033435821533203125,0.2731590270996094,STABILIZE
0.03,0.0,0.007,-0.05167722890205637,-0.005202862516807441,-0.0,0.0018767997759975303,-0.003326062740809911,0.03,0.0,0.007,-0.04810878448658015,-0.004519881487022961,-0.0,0.0024706445928527137,-0.0020492368941702472,0.3,0,0,-0.050487452584436,-0.0510616934130808,-0.0,0.0,-0.0510616934130808,0.002,8e-05,0.0,-0.10566683930103377,-0.0009936186010170006,-8.453347144082703e-06,-0.0,-0.0010020719481610833,-0.15066271623409871,0.0,0.15066271623409871,-0.17342875056024806,0.0,0.17342875056024806,-0.4968093005085003,0.0,0.4968093005085003,-0.17020564471026933,0,0.17020564471026933,-0.003332135619360029,0.0020393473020612783,0.0510616934130808,0.4,0.03342390060424805,0.3065907955169678,STABILIZE
0.03,0.0,0.007,-0.05740780220407385,-0.0051332516725043145,-0.0,0.0004849834482865677,-0.0046482682242177465,0.03,0.0,0.007,-0.053170350452295796,-0.0045339777697029965,-0.0,-9.820975238305506e-05,-0.004632187522086052,0.3,0,0,-0.05617783663251958,-0.05097251512642426,-0.0,0.0,-0.05097251512642426,0.002,8e-05,0.0,-0.12308635902995635,-0.0010402540207886167,-9.846908722396509e-06,-0.0,-0.0010501009295110133,-0.1511325923234332,0.0,0.1511325923234332,-0.17110838908347717,0.0,0.17110838908347717,-0.5201270103943083,0.0,0.5201270103943083,-0.16990838375474754,0,0.16990838375474754,-0.004661984335922986,0.00461838291782425,0.05097251512642426,0.4,0.033490896224975586,0.3400866985321045,STABILIZE
0.03,0.0,0.007,-0.06304576568128478,-0.005055441415324039,-0.0,0.0005426617426139294,-0.00451277967271011,0.03,0.0,0.007,-0.05824083064141675,-0.004546591273120999,-0.0,-8.79686816793529e-05,-0.0046345599548003515,0.3,0,0,-0.061845852425332214,-0.050823886847650934,-0.0,0.0,-0.050823886847650934,0.002,8e-05,0.0,-0.14123923706491856,-0.0010851531975593492,-1.1299138965193485e-05,-0.0,-0.0010964523365245428,-0.15155304243736664,0.0,0.15155304243736664,-0.16851471384413463,0.0,0.16851471384413463,-0.5425765987796746,0.0,0.5425765987796746,-0.16941295615883645,0,0.16941295615883645,-0.004526463456912679,0.004621196265286589,0.050823886847650934,0.4,0.03345680236816406,0.373546838760376,STABILIZE
0.03,0.0,0.007,-0.06870500802456149,-0.004984722265226845,-0.0,0.0004844793122456191,-0.004500242952981226,0.03,0.0,0.007,-0.06313894610813994,-0.004314313426360586,-0.0,0.0015912777697938496,-0.0027230356565667363,0.3,0,0,-0.06738220473148361,-0.04876479382686062,-0.0,0.0,-0.04876479382686062,0.002,8e-05,0.0,-0.16036192495454993,-0.0011228981114721455,-1.2828953996363995e-05,-0.0,-0.0011357270654685095,-0.14381044754535288,0.0,0.14381044754535288,-0.16615740884089486,0.0,0.16615740884089486,-0.5614490557360727,0.0,0.5614490557360727,-0.16254931275620207,0,0.16254931275620207,-0.004507950140644614,0.0027102574328379263,0.04876479382686062,0.4,0.03405952453613281,0.40761542320251465,STABILIZE
0.03,0.0,0.007,-0.07405544353432826,-0.004795570788177789,-0.0,0.0013186102272628626,-0.0034769605609149268,0.03,0.0,0.007,-0.06768085778096664,-0.004070894584362704,-0.0,0.0016969181503332645,-0.00237397643402944,0.3,0,0,-0.07265336589814705,-0.04724517558334289,-0.0,0.0,-0.04724517558334289,0.002,8e-05,0.0,-0.17979649323414,-0.0011612742894457886,-1.43837194587312e-05,-0.0,-0.00117565800890452,-0.13569648614542348,0.0,0.13569648614542348,-0.1598523596059263,0.0,0.1598523596059263,-0.5806371447228943,0.0,0.5806371447228943,-0.15748391861114297,0,0.15748391861114297,-0.003483472560957395,0.002364410659877405,0.04724517558334289,0.4,0.033471107482910156,0.44109535217285156,STABILIZE
0.03,0.0,0.007,-0.07925060033875522,-0.004661375725288843,-0.0,0.000936499432723304,-0.003724876292565539,0.03,0.0,0.007,-0.07207662059992978,-0.0039441161970282775,-0.0,0.0008847411019771971,-0.0030593750950510803,0.3,0,0,-0.07782201579979987,-0.046375922981863764,-0.0,0.0,-0.046375922981863764,0.002,8e-05,0.0,-0.2001274087416682,-0.0012161331484602986,-1.6010192699333457e-05,-0.0,-0.001232143341159632,-0.1314705399009426,0.0,0.1314705399009426,-0.15537919084296142,0.0,0.15537919084296142,-0.6080665742301493,0.0,0.6080665742301493,-0.1545864099395459,0,0.1545864099395459,-0.003733117047058789,0.003049314099940291,0.046375922981863764,0.4,0.03343534469604492,0.4745204448699951,STABILIZE
0.03,0.0,0.007,-0.08432800600556048,-0.004548684539084532,-0.0,0.0007852165346980395,-0.0037634680043864928,0.03,0.0,0.007,-0.07621921395296999,-0.003711216233889136,-0.0,0.001622814597548556,-0.00208840163634058,0.3,0,0,-0.08304908411473491,-0.04682762495092084,-0.0,-0.0,-0.04682762495092084,0.002,8e-05,0.0,-0.22289810173678365,-0.001359968797297137,-1.7831848138942693e-05,-0.0,-0.0013778006454360796,-0.12370720779630455,0.0,0.12370720779630455,-0.1516228179694844,0.0,0.1516228179694844,-0.6799843986485685,0.0,0.6799843986485685,-0.15609208316973613,0,0.15609208316973613,-0.003769143507261793,0.0020781410049313617,0.04682762495092084,0.4,0.03348708152770996,0.5080256462097168,STABILIZE
0.03,0.0,0.007,-0.08949524504270802,-0.004540395254739297,-0.0,5.665101254052542e-05,-0.004483744242198772,0.03,0.0,0.007,-0.08028596691802933,-0.0035734104290529234,-0.0,0.0009417988396575992,-0.002631611589395324,0.3,0,0,-0.08828606774535463,-0.04601679050392696,-0.0,0.0,-0.04601679050392696,0.002,8e-05,0.0,-0.24769532580273082,-0.0014526029299892942,-1.981562606421847e-05,-0.0,-0.0014724185560535128,-0.11911368096843078,0.0,0.11911368096843078,-0.15134650849130993,0.0,0.15134650849130993,-0.7263014649946471,0.0,0.7263014649946471,-0.15338930167975653,0,0.15338930167975653,-0.004490773380647534,0.0026195985246899836,0.04601679050392696,0.4,0.03414177894592285,0.542151927947998,STABILIZE
0.03,0.0,0.007,-0.09438956829110298,-0.0043032015549916815,-0.0,0.0016220256544627778,-0.0026811759005289037,0.03,0.0,0.007,-0.08426867761294968,-0.0035016908335761404,-0.0,0.000490447359752032,-0.0030112434738241087,0.3,0,0,-0.09328602093322252,-0.04396073826953416,-0.0,0.0,-0.04396073826953416,0.002,8e-05,0.0,-0.27247967721672495,-0.001452731448678972,-2.1798374177337996e-05,-0.0,-0.00147452982285631,-0.11672302778587135,0.0,0.11672302778587135,-0.14344005183305605,0.0,0.14344005183305605,-0.726365724339486,0.0,0.726365724339486,-0.14653579423178054,0,0.14653579423178054,-0.002688868475181056,0.0030043764396963913,0.04396073826953416,0.4,0.034121036529541016,0.5762712955474854,STABILIZE
0.03,0.0,0.007,-0.09895244277868478,-0.004091840311322246,-0.0,0.001474215727671226,-0.0026176245836510197,0.03,0.0,0.007,-0.08787135696361426,-0.0032307679371715928,-0.0,0.0018896500982482764,-0.0013411178389233164,0.3,0,0,-0.0979893648901594,-0.04217808851281301,-0.0,0.0,-0.04217808851281301,0.002,8e-05,0.0,-0.2972399326267645,-0.0014802804895783842,-2.3779194610141164e-05,-0.0,-0.0015040596841885254,-0.10769226457238643,0.0,0.10769226457238643,-0.13639467704407487,0.0,0.13639467704407487,-0.740140244789192,0.0,0.740140244789192,-0.14059362837604336,0,0.14059362837604336,-0.002620907563763733,0.0013346906237096947,0.04217808851281301,0.4,0.03345346450805664,0.6097350120544434,STABILIZE
0.03,0.0,0.007,-0.10333626654361262,-0.0039321701043323965,-0.0,0.001113931869379413,-0.0028182382349529835,0.03,0.0,0.007,-0.09127522196377857,-0.003053173875261804,-0.0,0.0012389768204310648,-0.0018141970548307394,0.3,0,0,-0.10253544507968772,-0.04077709682623437,-0.0,0.0,-0.04077709682623437,0.002,8e-05,0.0,-0.3221640619674314,-0.0014904175217073672,-2.5773124957394514e-05,-0.0,-0.0015161906466647616,-0.1017724625087268,0.0,0.1017724625087268,-0.13107233681107988,0.0,0.13107233681107988,-0.7452087608536836,0.0,0.7452087608536836,-0.1359236560874479,0,0.1359236560874479,-0.0028225341480513973,0.001807506206293967,0.04077709682623437,0.4,0.03344583511352539,0.6431987285614014,STABILIZE
0.03,0.0,0.007,-0.10752954057748106,-0.0037608232590665286,-0.0,0.0011952570740856544,-0.0025655661849808744,0.03,0.0,0.007,-0.0943923917834148,-0.0027956972679253045,-0.0,0.0017960688791965114,-0.000999628388728793,0.3,0,0,-0.1068789598218293,-0.03895569699573066,-0.0,0.0,-0.03895569699573066,0.002,8e-05,0.0,-0.34735336578825304,-0.0015061026924530286,-2.7788269263060246e-05,-0.0,-0.0015338909617160887,-0.09318990893084349,0.0,0.09318990893084349,-0.12536077530221762,0.0,0.12536077530221762,-0.7530513462265143,0.0,0.7530513462265143,-0.1298523233191022,0,0.1298523233191022,-0.0025678251026096713,0.0009938113540695105,0.03895569699573066,0.4,0.033449649810791016,0.676628828048706,STABILIZE
0.03,0.0,0.007,-0.1118502346060732,-0.0034092464830594283,-0.0,0.0021576480163115904,-0.001251598466747838,0.03,0.0,0.007,-0.09759945509954512,-0.0025305354322969417,-0.0,0.0016273142815142118,-0.0009032211507827299,0.3,0,0,-0.11184729987586231,-0.039202720081001764,-0.0,-0.0,-0.039202720081001764,0.002,8e-05,0.0,-0.3769349394921126,-0.0015560906873736337,-3.015479515936901e-05,-0.0,-0.0015862454825330027,-0.08435118107656472,0.0,0.08435118107656472,-0.11364154943531428,0.0,0.11364154943531428,-0.7780453436868169,0.0,0.7780453436868169,-0.13067573360333923,0,0.13067573360333923,-0.0012536552059207832,0.0009003642562066401,0.039202720081001764,0.4,0.03802037239074707,0.7146837711334229,STABILIZE
0.03,0.0,0.007,-0.11558411573104817,-0.003209249900205679,-0.0,0.0013369684383428572,-0.0018722814618628218,0.03,0.0,0.007,-0.1004657463807894,-0.0024635612919667385,-0.0,0.0004477192086432103,-0.002015842083323528,0.3,0,0,-0.1162745794114774,-0.038052219479672314,-0.0,0.0,-0.038052219479672314,0.002,8e-05,0.0,-0.4045534926783992,-0.0015825327782765526,-3.2364279414271936e-05,-0.0,-0.0016148970576908245,-0.08211870973222463,0.0,0.08211870973222463,-0.10697499667352264,0.0,0.10697499667352264,-0.7912663891382763,0.0,0.7912663891382763,-0.1268407315989077,0,0.1268407315989077,-0.0018767395181300394,0.0020116923120652307,0.038052219479672314,0.4,0.03490424156188965,0.7495894432067871,STABILIZE
0.03,0.0,0.007,-0.1190021893303294,-0.0029890000353931427,-0.0,0.0014980133764394524,-0.0014909866589536904,0.03,0.0,0.007,-0.10312451496661948,-0.0023250111989453464,-0.0,0.0009423383429979858,-0.0013826728559473605,0.3,0,0,-0.12052223762761723,-0.03714446219370398,-0.0,0.0,-0.03714446219370398,0.002,8e-05,0.0,-0.4317658310363772,-0.0015864234234595482,-3.454126648291018e-05,-0.0,-0.0016209646899424583,-0.07750037329817822,0.0,0.07750037329817822,-0.09963333451310476,0.0,0.09963333451310476,-0.7932117117297741,0.0,0.7932117117297741,-0.12381487397901328,0,0.12381487397901328,-0.0014939710998439417,0.0013794476418416907,0.03714446219370398,0.4,0.03430652618408203,0.7838985919952393,STABILIZE
0.03,0.0,0.007,-0.12215796479126208,-0.0028315324602943134,-0.0,0.0010989099865350886,-0.0017326224737592248,0.03,0.0,0.007,-0.10556214789235585,-0.002187176128641539,-0.0,0.0009619017448929163,-0.0012252743837486229,0.3,0,0,-0.12462991588688438,-0.03685631145671765,-0.0,0.0,-0.03685631145671765,0.002,8e-05,0.0,-0.4588092300005049,-0.0016176533671164223,-3.670473840004039e-05,-0.0,-0.0016543581055164626,-0.07290587095471797,0.0,0.07290587095471797,-0.09438441534314379,0.0,0.09438441534314379,-0.8088266835582111,0.0,0.8088266835582111,-0.12285437152239218,0,0.12285437152239218,-0.0017352457383607806,0.001221556457781159,0.03685631145671765,0.4,0.03343534469604492,0.8172955513000488,STABILIZE
0.03,0.0,0.007,-0.12541201231892515,-0.0025057613710964717,-0.0,0.00195111958580379,-0.0005546417852926816,0.03,0.0,0.007,-0.10799205284361992,-0.0018711349206034075,-0.0,0.0018928450417213206,2.1710121117913097e-05,0.3,0,0,-0.12911400322985267,-0.03452946754192579,-0.0,0.0,-0.03452946754192579,0.002,8e-05,0.0,-0.4905737665048264,-0.0016306737556160682,-3.924590132038612e-05,-0.0,-0.0016699196569364544,-0.062371164020113584,0.0,0.062371164020113584,-0.08352537903654907,0.0,0.08352537903654907,-0.8153368778080341,0.0,0.8153368778080341,-0.11509822513975264,0,0.11509822513975264,-0.0005545970539830874,-2.2824264826891624e-05,0.03452946754192579,0.4,0.03895878791809082,0.8562896251678467,STABILIZE
0.03,0.0,0.007,-0.12804342594336451,-0.0023608783064230183,-0.0,0.001011015088473008,-0.0013498632179500102,0.03,0.0,0.007,-0.10985058399180889,-0.0016674557845331635,-0.0,0.00142130262248583,-0.0002461531620473335,0.3,0,0,-0.13286451334814103,-0.033649206244318594,-0.0,0.0,-0.033649206244318594,0.002,8e-05,0.0,-0.5183471505873521,-0.0016612003871837595,-4.146777204698818e-05,-0.0,-0.0017026681592307476,-0.055581859484438785,0.0,0.055581859484438785,-0.07869594354743395,0.0,0.07869594354743395,-0.8306001935918798,0.0,0.8306001935918798,-0.11216402081439532,0,0.11216402081439532,-0.0013503425082638566,0.0002435101573568015,0.033649206244318594,0.4,0.03343772888183594,0.88970947265625,STABILIZE
0.03,0.0,0.007,-0.1305399860353522,-0.0022352670409563798,-0.0,0.0008747249456475555,-0.0013605420953088244,0.03,0.0,0.007,-0.11154686837022608,-0.0015187491682390657,-0.0,0.001035555102259791,-0.0004831940659792747,0.3,0,0,-0.13638484734860118,-0.03151891512501825,-0.0,0.0,-0.03151891512501825,0.002,8e-05,0.0,-0.5465779643514409,-0.0016850761373290132,-4.3726237148115274e-05,-0.0,-0.0017288023744771283,-0.05062497227463553,0.0,0.05062497227463553,-0.07450890136521267,0.0,0.07450890136521267,-0.8425380686645065,0.0,0.8425380686645065,-0.1050630504167275,0,0.1050630504167275,-0.0013614258385407092,0.00048069843421695986,0.03151891512501825,0.4,0.03350687026977539,0.9232103824615479,STABILIZE
0.03,0.0,0.007,-0.13290581146769995,-0.0021225498016123772,-0.0,0.0007865404584035197,-0.0013360093432088576,0.03,0.0,0.007,-0.11319808270607326,-0.0014814215001036372,-0.0,0.0002604723232865135,-0.0012209491768171237,0.3,0,0,-0.13967840161395043,-0.029548811408199697,-0.0,0.0,-0.029548811408199697,0.002,8e-05,0.0,-0.5746881805293227,-0.0016813112513387328,-4.597505444234582e-05,0.0,-0.0017272863057810786,-0.04938071667012124,0.0,0.04938071667012124,-0.0707516600537459,0.0,0.0707516600537459,-0.8406556256693664,0.0,0.8406556256693664,-0.09849603802733232,0,0.09849603802733232,-0.0013381062775744963,0.0012186506666914435,0.029548811408199697,0.4,0.03343844413757324,0.9566600322723389,STABILIZE
0.03,0.0,0.007,-0.13509856422172675,-0.0019672319464455264,-0.0,0.0010837842077906748,-0.0008834477386548516,0.03,0.0,0.007,-0.11465600205466395,-0.0013079748788921428,-0.0,0.001210283960989107,-9.76909179030358e-05,0.3,0,0,-0.14271761997085955,-0.027266400340647663,-0.0,0.0,-0.027266400340647663,0.002,8e-05,0.0,-0.6027815363987467,-0.0016802668714838579,-4.8222522911899735e-05,0.0,-0.0017284893943957575,-0.0435991626297381,0.0,0.0435991626297381,-0.06557439821485088,0.0,0.06557439821485088,-0.8401334357419289,0.0,0.8401334357419289,-0.09088800113549221,0,0.09088800113549221,-0.0008836015936683954,9.62893869633646e-05,0.027266400340647663,0.4,0.03343915939331055,0.9900984764099121,STABILIZE
0.03,0.0,0.007,-0.13706711569159816,-0.0017656739336405088,-0.0,0.0014061101065152035,-0.00035956382712530534,0.03,0.0,0.007,-0.11595235167230444,-0.0011627487336677022,-0.0,0.001013127425144209,-0.00014962130852349317,0.3,0,0,-0.14569413054044095,-0.026697534742429852,-0.0,0.0,-0.026697534742429852,0.002,8e-05,0.0,-0.6311403461295696,-0.001695744710332815,-5.049122769036557e-05,-0.0,-0.0017462359380231807,-0.03875829112225674,0.0,0.03875829112225674,-0.058855797788016966,0.0,0.058855797788016966,-0.8478723551664075,0.0,0.8478723551664075,-0.08899178247476618,0,0.08899178247476618,-0.0003597957850791029,0.00014906265387611606,0.026697534742429852,0.4,0.0334470272064209,1.0235514640808105,STABILIZE
0.03,0.0,0.007,-0.1387782426556374,-0.0015230865007592397,-0.0,0.0016794464598684884,0.00015635995910924863,0.03,0.0,0.007,-0.11695166041976815,-0.0008894919519938662,-0.0,0.001891772088794855,0.0010022801368009889,0.3,0,0,-0.14840200610594978,-0.02410299648266025,-0.0,0.0,-0.02410299648266025,0.002,8e-05,0.0,-0.6600391603038291,-0.0017148695832935315,-5.280313282430634e-05,-0.0,-0.0017676727161178379,-0.029649731733128876,0.0,0.029649731733128876,-0.050769550025307995,0.0,0.050769550025307995,-0.8574347916467657,0.0,0.8574347916467657,-0.08034332160886751,0,0.08034332160886751,0.0001577652577502044,-0.0010020598948593175,0.02410299648266025,0.4,0.03370380401611328,1.0572800636291504,STABILIZE
0.03,0.0,0.007,-0.14040647256848987,-0.0014609567949164393,-0.0,0.00043358721872343035,-0.0010273695761930089,0.03,0.0,0.007,-0.11779497174447931,-0.0007566753321147235,-0.0,0.000926892989954785,0.00017021765784006157,0.3,0,0,-0.1510403130482118,-0.023672654727368278,-0.0,0.0,-0.023672654727368278,0.002,8e-05,0.0,-0.6886774703048612,-0.0017130804956012526,-5.50941976243889e-05,0.0,-0.0017681746932256416,-0.025222511070490783,0.0,0.025222511070490783,-0.04869855983054798,0.0,0.04869855983054798,-0.8565402478006263,0.0,0.8565402478006263,-0.0789088490912276,0,0.0789088490912276,-0.0010271341749135724,-0.00017163240909622563,0.023672654727368278,0.4,0.03343486785888672,1.0906882286071777,STABILIZE
0.03,0.0,0.007,-0.1419729446551393,-0.0014050726329466793,-0.0,0.00038987051141974597,-0.0010152021215269333,0.03,0.0,0.007,-0.11849579051624182,-0.0006286108033785774,-0.0,0.0008934299370921466,0.0002648191337135692,0.3,0,0,-0.1535948987491786,-0.022913772211688836,-0.0,0.0,-0.022913772211688836,0.002,8e-05,0.0,-0.7174465522315069,-0.0017203264173315073,-5.739572417852056e-05,-0.0,-0.001777722141510028,-0.02095369344595258,0.0,0.02095369344595258,-0.04683575443155598,0.0,0.04683575443155598,-0.8601632086657537,0.0,0.8601632086657537,-0.07637924070562946,0,0.07637924070562946,-0.001014848197348396,-0.0002661722327221649,0.022913772211688836,0.4,0.03344607353210449,1.1241390705108643,STABILIZE
0.03,0.0,0.007,-0.1434823898620723,-0.0013440625146951288,-0.0,0.0004225319107508349,-0.0009215306039442939,0.03,0.0,0.007,-0.11899362458972527,-0.00044328877499744395,-0.0,0.0012834669559767772,0.0008401781809793332,0.3,0,0,-0.1559235408494944,-0.020735039223681508,-0.0,0.0,-0.020735039223681508,0.002,8e-05,0.0,-0.7464956831052498,-0.0017244237689688592,-5.971965464841999e-05,-0.0,-0.0017841434236172792,-0.014776292499914799,0.0,0.014776292499914799,-0.04480208382317096,0.0,0.04480208382317096,-0.8622118844844295,0.0,0.8622118844844295,-0.0691167974122717,0,0.0691167974122717,-0.0009205164135691955,-0.0008412892262173468,0.020735039223681508,0.4,0.03369140625,1.1578350067138672,STABILIZE
0.03,0.0,0.007,-0.14492332235021832,-0.0012914459803326766,-0.0,0.0003667839992682485,-0.0009246619810644281,0.03,0.0,0.007,-0.11929974707954011,-0.0002743644564982121,-0.0,0.0011775526051564917,0.0009031881486582796,0.3,0,0,-0.15799968177675877,-0.018607560570513017,-0.0,0.0,-0.018607560570513017,0.002,8e-05,0.0,-0.7752471415979008,-0.0017179132635519998,-6.201977132783207e-05,0.0,-0.001779933034879832,-0.009145481883273738,0.0,0.009145481883273738,-0.043048199344422555,0.0,0.043048199344422555,-0.8589566317759999,0.0,0.8589566317759999,-0.06202520190171006,0,0.06202520190171006,-0.0009236836985447351,-0.0009041886065116516,0.018607560570513017,0.4,0.033472537994384766,1.1913208961486816,STABILIZE
0.03,0.0,0.007,-0.1461871014999195,-0.0011258785924855212,-0.0,0.0011472305491602127,2.135195667469147e-05,0.03,0.0,0.007,-0.11960532632769193,-0.00027223517169380193,-0.0,1.4753995984626117e-05,-0.00025748117570917583,0.3,0,0,-0.16005073367476155,-0.018272460220475743,-0.0,0.0,-0.018272460220475743,0.002,8e-05,0.0,-0.8040471766129477,-0.0017104962732315896,-6.432377412903582e-05,0.0,-0.0017748200473606255,-0.009074505723126732,0.0,0.009074505723126732,-0.03752928641618404,0.0,0.03752928641618404,-0.8552481366157948,0.0,0.8552481366157948,-0.06090820073491914,0,0.06090820073491914,2.1078229646849067e-05,0.0002575037283873227,0.018272460220475743,0.4,0.03367447853088379,1.2249808311462402,STABILIZE
0.03,0.0,0.007,-0.1472682367171451,-0.000968361246446218,-0.0,0.0010973402337967903,0.00012897898735057237,0.03,0.0,0.007,-0.11985635220917677,-0.0002248411961907315,-0.0,0.0003301688192875087,0.0001053276230967772,0.3,0,0,-0.16195418001344197,-0.01704896519602943,-0.0,0.0,-0.01704896519602943,0.002,8e-05,0.0,-0.832839471112525,-0.0017192633413118338,-6.6627157689002e-05,-0.0,-0.0017858904990008357,-0.007494706539691051,0.0,0.007494706539691051,-0.032278708214873934,0.0,0.032278708214873934,-0.8596316706559168,0.0,0.8596316706559168,-0.05682988398676478,0,0.05682988398676478,0.00012908339504938494,-0.00010519964110071995,0.01704896519602943,0.4,0.033493757247924805,1.2585043907165527,STABILIZE
0.03,0.0,0.007,-0.1483504294449202,-0.0009703721868347977,-0.0,-1.4024534536474538e-05,-0.0009843967213712722,0.03,0.0,0.007,-0.11990196389619212,-4.089873396700966e-05,-0.0,0.0012828363430518372,0.0012419376090848275,0.3,0,0,-0.16370448901003462,-0.015694535040464634,-0.0,0.0,-0.015694535040464634,0.002,8e-05,0.0,-0.8616875599400851,-0.0017244853788139353,-6.893500479520681e-05,-0.0,-0.001793420383609142,-0.0013632911322336554,0.0,0.0013632911322336554,-0.03234573956115992,0.0,0.03234573956115992,-0.8622426894069676,0.0,0.8622426894069676,-0.05231511680154879,0,0.05231511680154879,-0.0009832623339234151,-0.0012428359153940339,0.015694535040464634,0.4,0.033457040786743164,1.2919421195983887,STABILIZE
0.03,0.0,0.007,-0.1494335154939835,-0.0009711870448161283,-0.0,-5.682996295246522e-06,-0.0009768700411113748,0.03,0.0,0.007,-0.11979264250886291,9.802685131737717e-05,-0.0,0.0009688971631557039,0.001066924014473081,0.3,0,0,-0.16540481020917885,-0.015246525629826405,-0.0,0.0,-0.015246525629826405,0.002,8e-05,0.0,-0.8906309538594764,-0.0017302072001778583,-7.125047630875812e-05,-0.0,-0.0018014576764866165,0.003267561710579239,0.0,-0.003267561710579239,-0.03237290149387095,0.0,0.03237290149387095,-0.8651036000889292,0.0,0.8651036000889292,-0.05082175209942135,0,0.05082175209942135,-0.0009759232879752147,-0.001067790085114083,0.015246525629826405,0.4,0.03345656394958496,1.3254077434539795,STABILIZE
0.03,0.0,0.007,-0.15043365866043576,-0.0008969476323799349,-0.0,0.0005178392588987477,-0.00037910837348118724,0.03,0.0,0.007,-0.11975073108477945,3.7586971407996714e-05,-0.0,-0.0004215839214393394,-0.00038399695003134266,0.3,0,0,-0.16705253589530256,-0.014777120941823011,-0.0,0.0,-0.014777120941823011,0.002,8e-05,0.0,-0.919630882322724,-0.0017338462496701995,-7.357047058581793e-05,-0.0,-0.0018074167202560174,0.0012528990469332238,0.0,-0.0012528990469332238,-0.0298982544126645,0.0,0.0298982544126645,-0.8669231248350997,0.0,0.8669231248350997,-0.049257069806076706,0,0.049257069806076706,-0.00037943835477306423,0.0003836708894404618,0.014777120941823011,0.4,0.03345155715942383,1.358879804611206,STABILIZE
0.03,0.0,0.007,-0.15136161048153682,-0.0008290968036493303,-0.0,0.0004715095566435255,-0.00035758724700580484,0.03,0.0,0.007,-0.11979136944329101,-3.6309140605503715e-05,-0.0,-0.0005135194906978316,-0.0005498286313033353,0.3,0,0,-0.16865951894854914,-0.014357906118277933,-0.0,0.0,-0.014357906118277933,0.002,8e-05,0.0,-0.9486347143974647,-0.0017276029437402426,-7.589077715179719e-05,0.0,-0.0018034937208920398,-0.0012103046868501238,0.0,0.0012103046868501238,-0.027636560121644345,0.0,0.027636560121644345,-0.8638014718701212,0.0,0.8638014718701212,-0.04785968706092644,0,0.04785968706092644,-0.0003580463990698714,0.0005495297436310321,0.014357906118277933,0.4,0.03357696533203125,1.3924360275268555,STABILIZE
0.03,0.0,0.007,-0.1522247589687362,-0.0007742978767333193,-0.0,0.0003823403552525,-0.00039195752148081926,0.03,0.0,0.007,-0.11974872669725445,3.825319537003766e-05,-0.0,0.0005202326328221452,0.0005584858281921829,0.3,0,0,-0.1702878654674145,-0.01460728102802444,-0.0,-0.0,-0.01460728102802444,0.002,8e-05,0.0,-0.9773881884529704,-0.0017195769704409206,-7.819105507623764e-05,0.0,-0.0017977680255171582,0.0012751065123345886,0.0,-0.0012751065123345886,-0.025809929224443976,0.0,0.025809929224443976,-0.8597884852204603,0.0,0.8597884852204603,-0.04869093676008147,0,0.04869093676008147,-0.0003914827691624844,-0.0005588187187145471,0.01460728102802444,0.4,0.03344249725341797,1.4258778095245361,STABILIZE
0.03,0.0,0.007,-0.1530252498959182,-0.0007181874304650677,-0.0,0.0003915440596303689,-0.0003266433708346988,0.03,0.0,0.007,-0.11961665168009027,0.00011849555564569574,-0.0,0.000559938863192236,0.0006784344188379317,0.3,0,0,-0.17194679242678093,-0.014883622659794479,-0.0,-0.0,-0.014883622659794479,0.002,8e-05,0.0,-1.0061644235039182,-0.001721171313579856,-8.049315388031347e-05,-0.0,-0.0018016644674601694,0.003949851854856525,0.0,-0.003949851854856525,-0.023939581015502257,0.0,0.023939581015502257,-0.8605856567899279,0.0,0.8605856567899279,-0.049612075532648264,0,0.049612075532648264,-0.0003260557961160218,-0.0006787170030236195,0.014883622659794479,0.4,0.03343796730041504,1.4593274593353271,STABILIZE
0.03,0.0,0.007,-0.15379697807631867,-0.0006924807123989504,-0.0,0.00017940952130232623,-0.0005130711910966241,0.03,0.0,0.007,-0.11947490990069508,0.00012718655462514756,-0.0,6.065527161157232e-05,0.0001878418262367199,0.3,0,0,-0.17360735379901934,-0.01490041119702425,-0.0,-0.0,-0.01490041119702425,0.002,8e-05,0.0,-1.035170603955725,-0.0017351723066374993,-8.2813648316458e-05,-0.0,-0.0018179859549539573,0.004239551820838253,0.0,-0.004239551820838253,-0.023082690413298346,0.0,0.023082690413298346,-0.8675861533187497,0.0,0.8675861533187497,-0.04966803732341417,0,0.04966803732341417,-0.0005129081637482864,-0.00018828652202857113,0.01490041119702425,0.4,0.03343319892883301,1.4927477836608887,STABILIZE
0.03,0.0,0.007,-0.1544731057692084,-0.0006056951937117338,-0.0,0.0006046836102080702,-1.0115835036635535e-06,0.03,0.0,0.007,-0.11912777605145969,0.0003109727737343547,-0.0,0.0012805421475670276,0.0015915149213013822,0.3,0,0,-0.17514565120562836,-0.013780523346117148,-0.0,0.0,-0.013780523346117148,0.002,8e-05,0.0,-1.0643223634850407,-0.001741000585227892,-8.514578907880326e-05,-0.0,-0.001826146374306695,0.01036575912447849,0.0,-0.01036575912447849,-0.020189839790391125,0.0,0.020189839790391125,-0.8705002926139459,0.0,0.8705002926139459,-0.045935077820390496,0,0.045935077820390496,2.6436340165504136e-07,-0.0015915152208314319,0.013780523346117148,0.4,0.03348851203918457,1.5262525081634521,STABILIZE
0.03,0.0,0.007,-0.15505491180332973,-0.0005224488227238271,-0.0,0.000581415190660821,5.896636793699384e-05,0.03,0.0,0.007,-0.11871527842569612,0.0003704136538941584,-0.0,0.00041515119831685913,0.0007855648522110176,0.3,0,0,-0.1766647456677068,-0.013641128946312323,-0.0,0.0,-0.013641128946312323,0.002,8e-05,0.0,-1.0936913845180904,-0.0017581816577342303,-8.749531076144724e-05,-0.0,-0.0018456769684956776,0.012347121796471947,0.0,-0.012347121796471947,-0.017414960757460903,0.0,0.017414960757460903,-0.8790908288671151,0.0,0.8790908288671151,-0.045470429821041075,0,0.045470429821041075,5.958978041369378e-05,-0.0007855178086124124,0.013641128946312323,0.4,0.033408403396606445,1.5596504211425781,STABILIZE
0.03,0.0,0.007,-0.15556034739841815,-0.0004534233272256664,-0.0,0.0004816184318243636,2.8195104598697227e-05,0.03,0.0,0.007,-0.11826926277427757,0.00040011804199413943,-0.0,0.0002072593715085517,0.0006073774135026912,0.3,0,0,-0.17816616766699156,-0.013469169269061821,-0.0,0.0,-0.013469169269061821,0.002,8e-05,0.0,-1.122895480802299,-0.001746588307126487,-8.983163846418393e-05,0.0,-0.001836419945590671,0.013337268066471314,0.0,-0.013337268066471314,-0.015114110907522214,0.0,0.015114110907522214,-0.8732941535632436,0.0,0.8732941535632436,-0.04489723089687274,0,0.04489723089687274,2.8671039570542047e-05,-0.0006073551332181979,0.013469169269061821,0.4,0.03344130516052246,1.5930914878845215,STABILIZE
0.03,0.0,0.007,-0.1559944501817206,-0.00038918413141599933,-0.0,0.00044793828174610723,5.87541503301079e-05,0.03,0.0,0.007,-0.11783461968760624,0.00038966852706008814,-0.0,-7.286420238677436e-05,0.0003168043246733138,0.3,0,0,-0.17967402664681623,-0.013518337360025822,-0.0,-0.0,-0.013518337360025822,0.002,8e-05,0.0,-1.151906715301731,-0.0017339537292793206,-9.215253722413849e-05,0.0,-0.0018261062665034591,0.012988950902002938,0.0,-0.012988950902002938,-0.01297280438053331,0.0,0.01297280438053331,-0.8669768646396603,0.0,0.8669768646396603,-0.04506112453341941,0,0.04506112453341941,5.9003287643230866e-05,-0.0003167580186199199,0.013518337360025822,0.4,0.0334625244140625,1.6265649795532227,STABILIZE
0.03,0.0,0.007,-0.1564142204414503,-0.0003762783611090546,-0.0,8.997814588049835e-05,-0.0002863002152285563,0.03,0.0,0.007,-0.11745457623454597,0.00034066760174915664,-0.0,-0.00034163109222034346,-9.634904711868148e-07,0.3,0,0,-0.18119096886141137,-0.01359773631349037,-0.0,-0.0,-0.01359773631349037,0.002,8e-05,0.0,-1.180990219266458,-0.0017380131081229347,-9.447921754131665e-05,-0.0,-0.0018324923256642514,0.011355586724971889,0.0,-0.011355586724971889,-0.012542612036968487,0.0,0.012542612036968487,-0.8690065540614673,0.0,0.8690065540614673,-0.04532578771163457,0,0.04532578771163457,-0.0002863008878452217,7.370026075479682e-07,0.01359773631349037,0.4,0.03346753120422363,1.6600544452667236,STABILIZE
0.03,0.0,0.007,-0.15687223250465196,-0.00034060018830440336,-0.0,0.00020636027705065444,-0.00013423991125374892,0.03,0.0,0.007,-0.11701064370076135,0.0003301299610856016,-0.0,-6.0949041832881454e-05,0.0002691809192527201,0.3,0,0,-0.18291929019874692,-0.01285264341799331,-0.0,0.0,-0.01285264341799331,0.002,8e-05,0.0,-1.2160232093566818,-0.001736816411659058,-9.728185674853455e-05,0.0,-0.0018340982684075925,0.01100433203618672,0.0,-0.01100433203618672,-0.011353339610146779,0.0,0.011353339610146779,-0.8684082058295289,0.0,0.8684082058295289,-0.04284214472664437,0,0.04284214472664437,-0.00013403859735093058,-0.00026928122007178465,0.01285264341799331,0.4,0.04034161567687988,1.7003798484802246,STABILIZE
0.03,0.0,0.007,-0.15718681966769663,-0.0002823955104706802,-0.0,0.0004063780213015047,0.0001239825108308245,0.03,0.0,0.007,-0.11653332090578115,0.0004284784319968731,-0.0,0.0006866571295373592,0.0011151355615342323,0.3,0,0,-0.1843108104011038,-0.012491261692678874,-0.0,0.0,-0.012491261692678874,0.002,8e-05,0.0,-1.245249766728678,-0.0017490539046976614,-9.961998133829425e-05,-0.0,-0.0018486738860359557,0.01428261439989577,0.0,-0.01428261439989577,-0.009413183682356007,0.0,0.009413183682356007,-0.8745269523488307,0.0,0.8745269523488307,-0.04163753897559625,0,0.04163753897559625,0.00012479286057999535,-0.0011150451674880463,0.012491261692678874,0.4,0.03341984748840332,1.733790636062622,STABILIZE
0.03,0.0,0.007,-0.1574327168059004,-0.00022015810808808221,-0.0,0.0004333992932831891,0.00021324118519510686,0.03,0.0,0.007,-0.11595219035162102,0.0005203013109085067,-0.0,0.0006394221047801489,0.0011597234156886555,0.3,0,0,-0.18572686559686719,-0.012678310741022625,-0.0,-0.0,-0.012678310741022625,0.002,8e-05,0.0,-1.2744426318601436,-0.0017424754659508615,-0.0001019554105488115,0.0,-0.001844430876499673,0.017343377030283557,0.0,-0.017343377030283557,-0.007338603602936074,0.0,0.007338603602936074,-0.8712377329754307,0.0,0.8712377329754307,-0.04226103580340875,0,0.04226103580340875,0.000214096532399416,-0.0011595658147662519,0.012678310741022625,0.4,0.033507347106933594,1.7673110961914062,STABILIZE
0.03,0.0,0.007,-0.1576655356078424,-0.00020887379303134604,-0.0,7.874022237229162e-05,-0.0001301335706590544,0.03,0.0,0.007,-0.11541418371200023,0.00048267359232280054,-0.0,-0.0002625604579368649,0.00022011313438593562,0.3,0,0,-0.18705172182080937,-0.011885970652185928,-0.0,0.0,-0.011885970652185928,0.002,8e-05,0.0,-1.303253945076191,-0.0017232079836200182,-0.00010426031560609529,0.0,-0.0018274682992261133,0.016089119744093352,0.0,-0.016089119744093352,-0.006962459767711535,0.0,0.006962459767711535,-0.861603991810009,0.0,0.861603991810009,-0.039619902173953093,0,0.039619902173953093,-0.0001299813318227896,-0.00022020306882341564,0.011885970652185928,0.4,0.03343915939331055,1.8007466793060303,STABILIZE
0.03,0.0,0.007,-0.15784209220222362,-0.0001582333397520194,-0.0,0.0003529938723312084,0.00019476053257918901,0.03,0.0,0.007,-0.11464714835589766,0.0006874315090261513,-0.0,0.0014272836285431423,0.0021147151375692937,0.3,0,0,-0.1882954121851861,-0.011146186901852163,-0.0,0.0,-0.011146186901852163,0.002,8e-05,0.0,-1.3322039359568603,-0.0017297017457372419,-0.00010657631487654883,-0.0,-0.0018362780606137907,0.022914383634205043,0.0,-0.022914383634205043,-0.005274444658400647,0.0,0.005274444658400647,-0.864850872868621,0.0,0.864850872868621,-0.03715395633950721,0,0.03715395633950721,0.00019613179731960427,-0.0021145883987659228,0.011146186901852163,0.4,0.033473968505859375,1.8342225551605225,STABILIZE
0.03,0.0,0.007,-0.15793923333455667,-8.71472290353629e-05,-0.0,0.0004960103117953707,0.0004088630827600078,0.03,0.0,0.007,-0.11383756800874224,0.0007262905243289959,-0.0,0.0002711425917399183,0.0009974331160689143,0.3,0,0,-0.18955294853922264,-0.011281607083782487,-0.0,-0.0,-0.011281607083782487,0.002,8e-05,0.0,-1.361218573765926,-0.001735306988087967,-0.00010889748590127409,-0.0,-0.001844204473989241,0.024209684144299862,0.0,-0.024209684144299862,-0.0029049076345120965,0.0,0.0029049076345120965,-0.8676534940439835,0.0,0.8676534940439835,-0.03760535694594162,0,0.03760535694594162,0.00040951764720170513,-0.000997164549161943,0.011281607083782487,0.4,0.033440351486206055,1.8676846027374268,STABILIZE
0.03,0.0,0.007,-0.1579583035204974,-1.7112754882670206e-05,-0.0,0.0004888013591627916,0.0004716886042801214,0.03,0.0,0.007,-0.11298733540584355,0.0007629617336655601,-0.0,0.00025594447852603317,0.0010189062121915933,0.3,0,0,-0.19082726547354392,-0.0114351655551015,-0.0,-0.0,-0.0114351655551015,0.002,8e-05,0.0,-1.3903132428615763,-0.0017405526517459886,-0.00011122505942892612,-0.0,-0.0018517777111749147,0.025432057788852006,0.0,-0.025432057788852006,-0.0005704251627556736,0.0,0.0005704251627556736,-0.8702763258729943,0.0,0.8702763258729943,-0.038117218517005,0,0.038117218517005,0.00047236634856771587,-0.0010185921860053474,0.0114351655551015,0.4,0.0334315299987793,1.9010987281799316,STABILIZE
0.03,0.0,0.007,-0.15790231132484556,4.799613538706805e-05,-0.0,0.0004340848166697254,0.00048208095205679345,0.03,0.0,0.007,-0.1118114878240886,0.0010079286777641336,-0.0,0.0016332090837154988,0.0026411377614796324,0.3,0,0,-0.19193446687389107,-0.009490856304733897,-0.0,0.0,-0.009490856304733897,0.002,8e-05,0.0,-1.4208665330216748,-0.001746005056565226,-0.000113669322641734,-0.0,-0.0018596743792069598,0.03359762259213779,0.0,-0.03359762259213779,0.0015998711795689351,0.0,-0.0015998711795689351,-0.8730025282826129,0.0,0.8730025282826129,-0.031636187682446325,0,0.031636187682446325,0.0004835391976005813,-0.002640871175168038,0.009490856304733897,0.4,0.03499794006347656,1.9360997676849365,STABILIZE
0.03,0.0,0.007,-0.15794608599986015,-3.9243705945350134e-05,-0.0,-0.0006082995286351918,-0.0006475432345805419,0.03,0.0,0.007,-0.11058157078127485,0.001102612475118852,-0.0,0.000660204195933843,0.0017628166710526951,0.3,0,0,-0.19285268041225873,-0.00823172349828569,-0.0,0.0,-0.00823172349828569,0.002,8e-05,0.0,-1.4500574381374736,-0.0017446301943018984,-0.00011600459505099789,0.0,-0.0018606347893528963,0.0367537491706284,0.0,-0.0367537491706284,-0.001308123531511671,0.0,0.001308123531511671,-0.8723150971509492,0.0,0.8723150971509492,-0.02743907832761897,0,0.02743907832761897,-0.0006466989434679763,-0.0017631265788109883,0.00823172349828569,0.4,0.03346371650695801,1.9695863723754883,STABILIZE
0.03,0.0,0.007,-0.1578993829751784,4.187283031011839e-05,-0.0,0.0005656557903858131,0.0006075286206959315,0.03,0.0,0.007,-0.10925361275410671,0.0011906158436093034,-0.0,0.0006136802341177919,0.0018042960777270953,0.3,0,0,-0.19377062402385573,-0.00823006589928123,-0.0,0.0,-0.00823006589928123,0.002,8e-05,0.0,-1.4793113038251726,-0.0017485550628367314,-0.00011834490430601382,-0.0,-0.0018668999671427452,0.039687194786976784,0.0,-0.039687194786976784,0.0013957610103372798,0.0,-0.0013957610103372798,-0.8742775314183657,0.0,0.8742775314183657,-0.027433552997604096,0,0.027433552997604096,0.0006083924584960643,-0.0018040049826736056,0.00823006589928123,0.4,0.03346061706542969,2.0030293464660645,STABILIZE
0.03,0.0,0.007,-0.15784548088588946,4.833526315652708e-05,-0.0,4.507233546937935e-05,9.340759862590644e-05,0.03,0.0,0.007,-0.10780067712118678,0.0013028813371267136,-0.0,0.000782997379735114,0.0020858787168618275,0.3,0,0,-0.19461774898439896,-0.007596367494187673,-0.0,0.0,-0.007596367494187673,0.002,8e-05,0.0,-1.508581823430584,-0.0017498372654564229,-0.00012068654587444672,-0.0,-0.0018705238113308695,0.043429377904223784,0.0,-0.043429377904223784,0.0016111754385509027,0.0,-0.0016111754385509027,-0.8749186327282115,0.0,0.8749186327282115,-0.025321224980625577,0,0.025321224980625577,9.432942009977273e-05,-0.002085837232729784,0.007596367494187673,0.4,0.03345513343811035,2.036489725112915,STABILIZE
0.03,0.0,0.007,-0.157779508700409,5.9161751810096144e-05,-0.0,7.551327561976125e-05,0.00013467502742985738,0.03,0.0,0.007,-0.10617933438246172,0.0014539684566911677,-0.0,0.001053811966865668,0.0025077804235568357,0.3,0,0,-0.19546779884892593,-0.007622976068642258,-0.0,-0.0,-0.007622976068642258,0.002,8e-05,0.0,-1.537765706351482,-0.0017447450271627183,-0.00012302125650811858,0.0,-0.001867766283670837,0.048465615223038924,0.0,-0.048465615223038924,0.0019720583936698715,0.0,-0.0019720583936698715,-0.8723725135813591,0.0,0.8723725135813591,-0.025409920228807528,0,0.025409920228807528,0.00013578718159099583,-0.0025077204503500205,0.007622976068642258,0.4,0.03345346450805664,2.0699827671051025,STABILIZE
0.03,0.0,0.007,-0.15767099280017796,9.732538993762095e-05,-0.0,0.00026621840342744524,0.00036354379336506616,0.03,0.0,0.007,-0.10424176484071107,0.001737761109484066,-0.0,0.0019796547351829926,0.0037174158446670585,0.3,0,0,-0.19631930942634476,-0.007637000550781901,-0.0,-0.0,-0.007637000550781901,0.002,8e-05,0.0,-1.5679969752177323,-0.0018075815153679607,-0.00012543975801741859,-0.0,-0.0019330212733853793,0.05792537031613553,0.0,-0.05792537031613553,0.003244179664587365,0.0,-0.003244179664587365,-0.9037907576839803,0.0,0.9037907576839803,-0.025456668502606337,0,0.025456668502606337,0.0003651954152578109,-0.003717253954271975,0.007637000550781901,0.4,0.033449411392211914,2.1033921241760254,STABILIZE
0.03,0.0,0.007,-0.15731991491246863,0.00026383390665155694,-0.0,0.0009732381267118376,0.0012370720333633946,0.03,0.0,0.007,-0.10177012296470606,0.0018574309428735396,-0.0,0.0006994671910505428,0.0025568981339240825,0.3,0,0,-0.19760619312994898,-0.00967088976020138,-0.0,-0.0,-0.00967088976020138,0.002,8e-05,0.0,-1.6049285261100628,-0.0018502628033529426,-0.00012839428208880502,-0.0,-0.001978657085441748,0.061914364762451324,0.0,-0.061914364762451324,0.008794463555051897,0.0,-0.008794463555051897,-0.9251314016764713,0.0,0.9251314016764713,-0.03223629920067127,0,0.03223629920067127,0.001238510423959988,-0.0025562017159717174,0.00967088976020138,0.4,0.03992033004760742,2.143308401107788,STABILIZE
0.03,0.0,0.007,-0.15737952120835805,-5.3413815693435226e-05,-0.0,-0.0022111362906574537,-0.0022645501063508888,0.03,0.0,0.007,-0.09979740288891839,0.0017677747789989536,-0.0,-0.0006248807592971463,0.0011428940197018072,0.3,0,0,-0.1988739092476877,-0.011360134706259066,-0.0,-0.0,-0.011360134706259066,0.002,8e-05,0.0,-1.6356138203666393,-0.001833160549527992,-0.00013084910562933115,0.0,-0.001964009655157323,0.05892582596663179,0.0,-0.05892582596663179,-0.0017804605231145076,0.0,0.0017804605231145076,-0.916580274763996,0.0,0.916580274763996,-0.03786711568753022,0,0.03786711568753022,-0.002263794266491971,-0.0011443904243928534,0.011360134706259066,0.4,0.0334780216217041,2.1768252849578857,STABILIZE
0.03,0.0,0.007,-0.15715201939718398,0.00020407163519375605,-0.0,0.0017964122625361548,0.0020004838977299108,0.03,0.0,0.007,-0.09790003598568188,0.001701959050381922,-0.0,-0.00045918004900085384,0.0012427790013810683,0.3,0,0,-0.2005976145999959,-0.0154618272277675,-0.0,-0.0,-0.0154618272277675,0.002,8e-05,0.0,-1.6661774417993076,-0.0018277270471003845,-0.0001332941953439446,0.0,-0.0019610212424443292,0.05673196834606407,0.0,-0.05673196834606407,0.006802387839791869,0.0,-0.006802387839791869,-0.9138635235501922,0.0,0.9138635235501922,-0.051539424092558336,0,0.051539424092558336,0.002001601008506707,-0.0012409789982490897,0.0154618272277675,0.4,0.03344440460205078,2.2102410793304443,STABILIZE
0.03,0.0,0.007,-0.156752169098678,0.0003558316149280094,-0.0,0.0010504125394049967,0.001406244154333006,0.03,0.0,0.007,-0.09595991760693584,0.0017265348017499937,-0.0,0.00017010200876098005,0.0018966368105109738,0.3,0,0,-0.20208714030955993,-0.013255469376697708,-0.0,0.0,-0.013255469376697708,0.002,8e-05,0.0,-1.697031239716133,-0.0018304778530744696,-0.00013576249917729064,-0.0,-0.00196624035225176,0.05755116005833313,0.0,-0.05755116005833313,0.011861053830933648,0.0,-0.011861053830933648,-0.9152389265372348,0.0,0.9152389265372348,-0.044184897922325696,0,0.044184897922325696,0.0014077063691415865,-0.0018955517906032537,0.013255469376697708,0.4,0.03371119499206543,2.243962049484253,STABILIZE
0.03,0.0,0.007,-0.15678449902496222,-2.904170717330033e-05,-0.0,-0.00268899978123297,-0.0027180414884062703,0.03,0.0,0.007,-0.09394090208640575,0.0018136650547891373,-0.0,0.0006087541482008925,0.0024224192029900296,0.3,0,0,-0.20333782003149392,-0.01123475319203845,-0.0,0.0,-0.01123475319203845,0.002,8e-05,0.0,-1.7274539568292004,-0.0018218984562410093,-0.00013819631654633603,0.0,-0.0019600947727873453,0.06045550182630458,0.0,-0.06045550182630458,-0.0009680569057766777,0.0,0.0009680569057766777,-0.9109492281205046,0.0,0.9109492281205046,-0.03744917730679483,0,0.03744917730679483,-0.0027164575870161083,-0.0024241952284531965,0.01123475319203845,0.4,0.03339672088623047,2.2773725986480713,STABILIZE
0.03,0.0,0.007,-0.1572458555891028,-0.0004134852630186778,-0.0,-0.0026798559343374933,-0.0030933411973561712,0.03,0.0,0.007,-0.09182163842342717,0.0018993645288757745,-0.0,0.0005973887212016283,0.002496753250077403,0.3,0,0,-0.20436570513074778,-0.009212296380992994,-0.0,0.0,-0.009212296380992994,0.002,8e-05,0.0,-1.7578074736154294,-0.0018135982516798484,-0.00014062459788923438,0.0,-0.001954222849569083,0.06331215096252582,0.0,-0.06331215096252582,-0.013782842100622594,0.0,0.013782842100622594,-0.9067991258399242,0.0,0.9067991258399242,-0.03070765460330998,0,0.03070765460330998,-0.003092002619049992,-0.0024984107666316552,0.009212296380992994,0.4,0.03347325325012207,2.3108930587768555,STABILIZE
0.03,0.0,0.007,-0.15707295147386924,0.0001540535925694968,-0.0,0.003932942811531948,0.004086996404101444,0.03,0.0,0.007,-0.09031042211755086,0.0013464589940808866,-0.0,-0.0038315365144015886,-0.002485077520320702,0.3,0,0,-0.20537624689145792,-0.009003694820600205,-0.0,0.0,-0.009003694820600205,0.002,8e-05,0.0,-1.78795575846611,-0.0017907619240416029,-0.00014303646067728883,0.0,-0.0019337983847188918,0.04488196646936289,0.0,-0.04488196646936289,0.00513511975231656,0.0,-0.00513511975231656,-0.8953809620208014,0.0,0.8953809620208014,-0.030012316068667354,0,0.030012316068667354,0.0040856941257351575,0.002487218004131252,0.009003694820600205,0.4,0.033670902252197266,2.344501495361328,STABILIZE
0.03,0.0,0.007,-0.15703373330386639,3.5169102735741404e-05,-0.0,-0.0008291912157163729,-0.0007940221129806315,0.03,0.0,0.007,-0.08756830492117958,0.0024590081940496136,-0.0,0.007759767695149856,0.01021877588919947,0.3,0,0,-0.20668982651710213,-0.011779595223975809,-0.0,-0.0,-0.011779595223975809,0.002,8e-05,0.0,-1.8175395708919981,-0.0017686294192130895,-0.00014540316567135985,0.0,-0.0019140325848844492,0.08196693980165379,0.0,-0.08196693980165379,0.0011723034245247135,0.0,-0.0011723034245247135,-0.8843147096065447,0.0,0.8843147096065447,-0.0392653174132527,0,0.0392653174132527,-0.0007870189072648039,-0.010219317640096835,0.011779595223975809,0.4,0.033453941345214844,2.37797474861145,STABILIZE
0.03,0.0,0.007,-0.15778562800663257,-0.0006740301982811321,-0.0,-0.0049447707180959016,-0.0056188009163770335,0.03,0.0,0.007,-0.08526269923282545,0.0020668424096647615,-0.0,-0.002734308796532767,-0.0006674663868680053,0.3,0,0,-0.20722107588554958,-0.004762343927068524,-0.0,0.0,-0.004762343927068524,0.002,8e-05,0.0,-1.846979624830434,-0.0017594205962198192,-0.00014775836998643472,0.0,-0.001907178966206254,0.06889474698882539,0.0,-0.06889474698882539,-0.02246767327603774,0.0,0.02246767327603774,-0.8797102981099096,0.0,0.8797102981099096,-0.01587447975689508,0,0.01587447975689508,-0.005618985630246997,0.0006659096053938382,0.004762343927068524,0.4,0.03346562385559082,2.4114346504211426,STABILIZE
0.03,0.0,0.007,-0.1586065829613825,-0.0007365106627582598,-0.0,-0.0004359728958827483,-0.0011724835586410082,0.03,0.0,0.007,-0.08407182367942385,0.0010683808387094759,-0.0,-0.0069670125880124615,-0.005898631749302986,0.3,0,0,-0.20750652336319086,-0.0025608604920875438,-0.0,0.0,-0.0025608604920875438,0.002,8e-05,0.0,-1.8761692764072495,-0.0017458115498409194,-0.00015009354211257997,0.0,-0.0018959050919534993,0.035612694623649195,0.0,-0.035612694623649195,-0.024550355425275328,0.0,0.024550355425275328,-0.8729057749204597,0.0,0.8729057749204597,-0.008536201640291813,0,0.008536201640291813,-0.0011733623522396648,0.005898457001582303,0.0025608604920875438,0.4,0.03343963623046875,2.4450013637542725,STABILIZE
0.03,0.0,0.007,-0.15950824954426376,-0.0008079179139596778,-0.0,-0.0004976443863850995,-0.0013055623003447774,0.03,0.0,0.007,-0.08397756542116486,8.445797685296852e-05,-0.0,-0.00685705836032979,-0.006772600383476822,0.3,0,0,-0.2075444736725772,-0.0003400451494558248,-0.0,0.0,-0.0003400451494558248,0.002,8e-05,0.0,-1.9053206511437946,-0.0017413619264115931,-0.00015242565209150358,0.0,-0.0018937875785030966,0.0028152658950989506,0.0,-0.0028152658950989506,-0.02693059713198926,0.0,0.02693059713198926,-0.8706809632057966,0.0,0.8706809632057966,-0.001133483831519416,0,0.001133483831519416,-0.001305696282611167,0.0067725745541800655,0.0003400451494558248,0.4,0.03348112106323242,2.4783599376678467,STABILIZE
0.03,0.0,0.007,-0.15978013854000778,-0.00024397439185423764,-0.0,0.003935897288136425,0.0036919228962821876,0.03,0.0,0.007,-0.08292080359174232,0.0009482650225053004,-0.0,0.006028716839876178,0.006976981862381479,0.3,0,0,-0.208003772401042,-0.004121429322654001,-0.0,-0.0,-0.004121429322654001,0.002,8e-05,0.0,-1.9343402245220422,-0.0017360106214065532,-0.00015474721796176338,0.0,-0.0018907578393683167,0.031608834083510014,0.0,-0.031608834083510014,-0.008132479728474588,0.0,0.008132479728474588,-0.8680053107032766,0.0,0.8680053107032766,-0.013738097742180004,0,0.013738097742180004,0.003693595696233113,-0.006976096430874577,0.004121429322654001,0.4,0.0334324836730957,2.5118210315704346,STABILIZE
0.03,0.0,0.007,-0.15952388505571724,0.00023014275311524044,-0.0,0.0033118351863003774,0.0035419779394156178,0.03,0.0,0.007,-0.08203731165642396,0.0007934692748167971,-0.0,-0.0010812897388839703,-0.0002878204640671732,0.3,0,0,-0.20905088435605612,-0.009404173715492356,-0.0,-0.0,-0.009404173715492356,0.002,8e-05,0.0,-1.963138739795204,-0.001724274334310462,-0.00015705109918361633,0.0,-0.0018813254334940782,0.02644897582722657,0.0,-0.02644897582722657,0.007671425103841348,0.0,-0.007671425103841348,-0.8621371671552309,0.0,0.8621371671552309,-0.03134724571830785,0,0.03134724571830785,0.003541819939092778,0.0002897582818274221,0.009404173715492356,0.4,0.033403635025024414,2.5452117919921875,STABILIZE
0.03,0.0,0.007,-0.16027951065667465,-0.0006775195383756079,-0.0,-0.0063298728183619245,-0.007007392356737532,0.03,0.0,0.007,-0.08139806921248212,0.0005731664530434378,-0.0,-0.0015363520732597042,-0.0009631856202162664,0.3,0,0,-0.2091077529000177,-0.0005099026502560215,-0.0,0.0,-0.0005099026502560215,0.002,8e-05,0.0,-1.991806129744601,-0.0017136102659253292,-0.0001593444903795681,0.0,-0.0018729547563048974,0.01910554843478126,0.0,-0.01910554843478126,-0.022583984612520265,0.0,0.022583984612520265,-0.8568051329626646,0.0,0.8568051329626646,-0.001699675500853405,0,0.001699675500853405,-0.007007420926491816,0.0009629777459627811,0.0005099026502560215,0.4,0.03345847129821777,2.578674554824829,STABILIZE
0.03,0.0,0.007,-0.16088087736626686,-0.0005391596818263453,-0.0,0.0009648141388482329,0.0004256544570218876,0.03,0.0,0.007,-0.07996488075874242,0.0012849354950816643,-0.0,0.00496332427974466,0.006248259774826324,0.3,0,0,-0.20936672494231806,-0.0023218326139679596,-0.0,-0.0,-0.0023218326139679596,0.002,8e-05,0.0,-2.020429382915333,-0.0017108256716141038,-0.00016163435063322663,0.0,-0.0018724600222473303,0.04283118316938881,0.0,-0.04283118316938881,-0.01797198939421151,0.0,0.01797198939421151,-0.8554128358070519,0.0,0.8554128358070519,-0.007739442046559866,0,0.007739442046559866,0.00042649846023095765,-0.006248202220952514,0.0023218326139679596,0.4,0.03346133232116699,2.6121373176574707,STABILIZE
0.03,0.0,0.007,-0.16132493919957755,-0.00039823184171528886,-0.0,0.0009829804063440839,0.0005847485646287951,0.03,0.0,0.007,-0.07773188706986957,0.002002534607914082,-0.0,0.005005298221900608,0.00700783282981469,0.3,0,0,-0.20983152514305042,-0.0041682987836916255,-0.0,-0.0,-0.0041682987836916255,0.002,8e-05,0.0,-2.049000540835834,-0.0017081622400483155,-0.00016392004326686672,0.0,-0.0018720822833151823,0.06675115359713607,0.0,-0.06675115359713607,-0.013274394723842963,0.0,0.013274394723842963,-0.8540811200241577,0.0,0.8540811200241577,-0.013894329278972085,0,0.013894329278972085,0.0005864479594466462,-0.007007690821185312,0.0041682987836916255,0.4,0.033452510833740234,2.645566940307617,STABILIZE
0.03,0.0,0.007,-0.16111934756445,0.00014543428620596358,-0.0,0.0029912256044031076,0.0031366598906090713,0.03,0.0,0.007,-0.07545677163086842,0.001609402978394781,-0.0,-0.00216299183584448,-0.000553588857449699,0.3,0,0,-0.2105643772040758,-0.0051841514040043895,-0.0,-0.0,-0.0051841514040043895,0.002,8e-05,0.0,-2.084793893216676,-0.0016880001468922536,-0.0001667835114573341,0.0,-0.0018547836583495878,0.0536467659464927,0.0,-0.0536467659464927,0.0048478095401987865,0.0,-0.0048478095401987865,-0.8440000734461268,0.0,0.8440000734461268,-0.017280504680014633,0,0.017280504680014633,0.003136492784608477,0.0005545348542221097,0.0051841514040043895,0.4,0.04240918159484863,2.687976360321045,STABILIZE
0.03,0.0,0.007,-0.15983760208360917,0.0011499119882940234,-0.0,0.007009041604328143,0.008158953592622167,0.03,0.0,0.007,-0.07293697075575967,0.002260627618909588,-0.0,0.004544113413014085,0.006804741031923673,0.3,0,0,-0.21086936428350603,-0.002736177378066748,-0.0,0.0,-0.002736177378066748,0.002,8e-05,0.0,-2.1139702230614086,-0.0017450272285919326,-0.0001691176178449127,-0.0,-0.0019141448464368453,0.07535425396365293,0.0,-0.07535425396365293,0.03833039960980078,0.0,-0.03833039960980078,-0.8725136142959663,0.0,0.8725136142959663,-0.009120591260222494,0,0.009120591260222494,0.008160036697504217,-0.006803442168012623,0.002736177378066748,0.4,0.03343939781188965,2.7214200496673584,STABILIZE
0.03,0.0,0.007,-0.15814784993753317,0.0015147868423933206,-0.0,0.0025440637063273304,0.0040588505487206515,0.03,0.0,0.007,-0.06928286232093474,0.003275743954878414,-0.0,0.007077825723050409,0.010353569677928822,0.3,0,0,-0.21229110204730633,-0.012745239962793607,-0.0,-0.0,-0.012745239962793607,0.002,8e-05,0.0,-2.1439362242437587,-0.001790878203274873,-0.00017151489793950072,-0.0,-0.0019623931012143735,0.1091914651626138,0.0,-0.1091914651626138,0.05049289474644402,0.0,-0.05049289474644402,-0.8954391016374365,0.0,0.8954391016374365,-0.042484133209312026,0,0.042484133209312026,0.004066526479948629,-0.010350557242991979,0.012745239962793607,0.4,0.03346514701843262,2.754901885986328,STABILIZE
0.03,0.0,0.007,-0.1565938107825459,0.0011387206025878724,-0.0,-0.002143261189047153,-0.0010045405864592806,0.03,0.0,0.007,-0.06608570981662308,0.002342710230042347,-0.0,-0.0053175072868752405,-0.0029747970568328934,0.3,0,0,-0.21192601338770276,0.0026751834220367474,-0.0,0.0,0.0026751834220367474,0.002,8e-05,0.0,-2.180133417439264,-0.001768230421363372,-0.00017441067339514114,0.0,-0.001942641094758513,0.07809034100141157,0.0,-0.07809034100141157,0.037957353419595746,0.0,-0.037957353419595746,-0.884115210681686,0.0,0.884115210681686,0.008917278073455825,0,-0.008917278073455825,-0.0010040775891886058,0.002974953363344507,-0.0026751834220367474,0.4,0.040941715240478516,2.7959160804748535,STABILIZE
0.03,0.0,0.007,-0.1554962494292838,0.0009524626493260482,-0.0,-0.0012571569605063925,-0.0003046943111803443,0.03,0.0,0.007,-0.0636400943221962,0.0021223026905343536,-0.0,-0.0014876512255616726,0.000634651464972681,0.3,0,0,-0.21114698997083253,0.006760357453494019,-0.0,0.0,0.006760357453494019,0.002,8e-05,0.0,-2.210321140125943,-0.0017464583789518044,-0.00017682569121007545,0.0,-0.00192328407016188,0.0707434230178118,0.0,-0.0707434230178118,0.03174875497753494,0.0,-0.03174875497753494,-0.8732291894759022,0.0,0.8732291894759022,0.022534524844980065,0,-0.022534524844980065,-0.00030494389707874306,-0.0006345315791133359,-0.006760357453494019,0.4,0.03457021713256836,2.830401659011841,STABILIZE
0.03,0.0,0.007,-0.1544760672536289,0.0009148211985543468,-0.0,-0.00026253086678944477,0.000652290331764902,0.03,0.0,0.007,-0.06086625477522564,0.0024873667463637156,-0.0,0.002546144769813311,0.0050335115161770265,0.3,0,0,-0.21038121870689439,0.006866849884381096,-0.0,0.0,0.006866849884381096,0.002,8e-05,0.0,-2.238597149728257,-0.0016903839080255239,-0.00017908777197826056,0.0,-0.0018694716800037843,0.08291222487879052,0.0,-0.08291222487879052,0.03049403995181156,0.0,-0.03049403995181156,-0.8451919540127619,0.0,0.8451919540127619,0.022889499614603653,0,-0.022889499614603653,0.0006502794063496292,-0.005033771702618057,-0.006866849884381096,0.4,0.03345513343811035,2.8639233112335205,STABILIZE
