E-kp,E-ki,E-kd,E-I-Tot,E-P,E-I,E-D,E-PID,N-kp,N-ki,N-kd,N-I-Tot,N-P,N-I,N-D,N-PID,Y-kp,Y-ki,Y-kd,Y-I-Tot,Y-P,Y-I,Y-D,Y-PID,D-kp,D-ki,D-kd,D-I-Tot,D-P,D-I,D-D,D-PID,errorN,desiredN,actualN,errorE,desiredE,actualE,errorD,desiredD,actualD,errorY,desiredY,actualY,roll,pitch,yaw-rate,thrust,dt,Time,Mode
0.02,0.005,0.01,-0.002921224010587787,-0.0017648543827878138,-1.4606120052938936e-05,-0.02665587251402398,-0.028435333016864732,0.02,0.005,0.01,-0.0028215493853686636,-0.00170463606384578,-1.4107746926843319e-05,-0.025746351678547393,-0.027465095489320017,0.2,0.02,0,-0.002832142332063915,-0.01711035781338856,-5.66428466412783e-05,-0.0,-0.017167000660029838,0.002,8e-05,0,-0.003942395111123808,-0.00023817938183892017,-3.1539160888990465e-07,-0.0,-0.00023849477344781007,-0.085231803192289,0.0,0.085231803192289,-0.08824271913939069,0.0,0.08824271913939069,-0.11908969091946008,0.0,0.11908969091946008,-0.0855517890669428,0,0.0855517890669428,-0.02847631109591866,0.02742260637477634,0.017167000660029838,0.4,0.03310441970825195,0.0333254337310791,STABILIZE
0.02,0.005,0.01,-0.0064171243061192295,-0.002092125188075894,-3.208562153059615e-05,-0.004896388892585595,-0.007020599702192085,0.02,0.005,0.01,-0.0061790656181875715,-0.0020093091010155058,-3.0895328090937856e-05,-0.004558297443473483,-0.006598501872579926,0.2,0.02,0,-0.006206502702331117,-0.02019389492688013,-0.00012413005404662234,-0.0,-0.02031802498092675,0.002,8e-05,0,-0.008963681532630614,-0.0003004994110503052,-7.170945226104492e-07,-0.0,-0.00030121650557291566,-0.1004654550507753,0.0,0.1004654550507753,-0.1046062594037947,0.0,0.1046062594037947,-0.1502497055251526,0.0,0.1502497055251526,-0.10096947463440063,0,0.10096947463440063,-0.007032217003304287,0.006586119582827089,0.02031802498092675,0.4,0.03341960906982422,0.06669974327087402,STABILIZE
0.02,0.005,0.01,-0.010419492981785319,-0.0023690086924240913,-5.2097464908926595e-05,-0.004097195197045157,-0.006518301354378175,0.02,0.005,0.01,-0.01000100716551507,-0.002262213574327656,-5.000503582757535e-05,-0.0037423644857611103,-0.006054583095916341,0.2,0.02,0,-0.010051725418872363,-0.022759937372028274,-0.00020103450837744726,-0.0,-0.02296097188040572,0.002,8e-05,0,-0.015080361839786196,-0.000362047327237271,-1.2064289471828957e-06,-0.0,-0.00036325375618445393,-0.11311067871638279,0.0,0.11311067871638279,-0.11845043462120457,0.0,0.11845043462120457,-0.1810236636186355,0.0,0.1810236636186355,-0.11379968686014136,0,0.11379968686014136,-0.0065303139765783,0.006041624647323796,0.02296097188040572,0.4,0.03378939628601074,0.10048747062683105,STABILIZE
0.02,0.005,0.01,-0.014900354114361063,-0.002606327012641465,-7.450177057180532e-05,-0.003450950220709516,-0.006131779003922786,0.02,0.005,0.01,-0.014240271572772679,-0.002465800436893644,-7.120135786386339e-05,-0.002960446238040668,-0.005497448032798176,0.2,0.02,0,-0.014343396553812327,-0.024962832092807793,-0.00028686793107624654,-0.0,-0.02524970002388404,0.002,8e-05,0,-0.02234268067432163,-0.00042241830739316326,-1.7874144539457305e-06,-0.0,-0.000424205721847109,-0.1232900218446822,0.0,0.1232900218446822,-0.13031635063207325,0.0,0.13031635063207325,-0.21120915369658164,0.0,0.21120915369658164,-0.12481416046403895,0,0.12481416046403895,-0.006143740185303332,0.005484077421203481,0.02524970002388404,0.4,0.03438448905944824,0.1349015235900879,STABILIZE
0.02,0.005,0.01,-0.019483470351875424,-0.0027390579740202378,-9.741735175937713e-05,-0.001983136469396386,-0.004819611795176001,0.02,0.005,0.01,-0.018509173139480344,-0.0025512704174702884,-9.254586569740172e-05,-0.0012770090245669819,-0.003920825307734672,0.2,0.02,0,-0.018739210961857104,-0.02627118729416771,-0.0003747842192371421,-0.0,-0.02664597151340485,0.002,8e-05,0,-0.030206659878284935,-0.0004699836056924253,-2.416532790262795e-06,-0.0,-0.0004724001384826881,-0.1275635208735144,0.0,0.1275635208735144,-0.13695289870101188,0.0,0.13695289870101188,-0.23499180284621266,0.0,0.23499180284621266,-0.13135593647083854,0,0.13135593647083854,-0.004828587980345232,0.0039097656024419,0.02664597151340485,0.4,0.033464908599853516,0.16834330558776855,STABILIZE
0.02,0.005,0.01,-0.024582397416078677,-0.003052612448147071,-0.00012291198708039338,-0.004692949510944528,-0.007868473946171992,0.02,0.005,0.01,-0.02321868380343361,-0.0028194776462666517,-0.00011609341901716806,-0.004014240226412912,-0.006949811291696732,0.2,0.02,0,-0.023554265762997764,-0.028826645369498027,-0.0004710853152599553,-0.0,-0.029297730684757984,0.002,8e-05,0,-0.04007674454099358,-0.0005908996721520638,-3.2061395632794867e-06,-0.0,-0.0005941058117153433,-0.14097388231333258,0.0,0.14097388231333258,-0.15263062240735353,0.0,0.15263062240735353,-0.2954498360760319,0.0,0.2954498360760319,-0.14413322684749014,0,0.14413322684749014,-0.00788593197185632,0.006929995394445594,0.029297730684757984,0.4,0.033406972885131836,0.2017498016357422,STABILIZE
0.02,0.005,0.01,-0.029910795911806,-0.0031839928088476656,-0.00014955397955903,-0.001962663472101136,-0.005296210260507831,0.02,0.005,0.01,-0.028039986111639943,-0.0028809766932632935,-0.00014019993055819973,-0.0009187212796927102,-0.003939897903514203,0.2,0.02,0,-0.028613984821457984,-0.030234429932080004,-0.0005722796964291596,-0.0,-0.030806709628509163,0.002,8e-05,0,-0.05092276682712503,-0.0006481057486848162,-4.073821346170003e-06,-0.0,-0.0006521795700309862,-0.14404883466316468,0.0,0.14404883466316468,-0.15919964044238327,0.0,0.15919964044238327,-0.3240528743424081,0.0,0.3240528743424081,-0.15117214966040002,0,0.15117214966040002,-0.005306587044379346,0.00392591041085368,0.030806709628509163,0.4,0.03346991539001465,0.23528385162353516,STABILIZE
0.02,0.005,0.01,-0.03531265540337136,-0.003231918417338605,-0.00017656327701685682,-0.0007168441579509802,-0.004125325852306442,0.02,0.005,0.01,-0.03285008048129458,-0.002877866891335717,-0.0001642504024064729,4.651465916367903e-05,-0.002995602634578511,0.2,0.02,0,-0.03366590630449737,-0.030225514213166174,-0.0006733181260899474,0.0,-0.03089883233925612,0.002,8e-05,0,-0.06254210602843346,-0.0006951820279785004,-5.003368482274678e-06,-0.0,-0.0007001853964607751,-0.14389334456678585,0.0,0.14389334456678585,-0.16159592086693025,0.0,0.16159592086693025,-0.3475910139892502,0.0,0.3475910139892502,-0.15112757106583086,0,0.15112757106583086,-0.004133212914843071,0.0029847109629872097,0.03089883233925612,0.4,0.033428192138671875,0.2686610221862793,STABILIZE
0.02,0.005,0.01,-0.040852835798076866,-0.003312879699785418,-0.00020426417899038434,-0.0012103170383357892,-0.004727460917111591,0.02,0.005,0.01,-0.037697483388094075,-0.002898617290867204,-0.0001884874169404704,-0.00031020459837371046,-0.0033973093061813848,0.2,0.02,0,-0.03876127607599458,-0.030468948438980743,-0.0007752255215198917,-0.0,-0.031244173960500634,0.002,8e-05,0,-0.0751481099882689,-0.0007538053211022439,-6.011848799061513e-06,-0.0,-0.0007598171699013055,-0.1449308645433602,0.0,0.1449308645433602,-0.16564398498927088,0.0,0.16564398498927088,-0.376902660551122,0.0,0.376902660551122,-0.1523447421949037,0,0.1523447421949037,-0.004736477359933471,0.0033847273839294435,0.031244173960500634,0.4,0.033446311950683594,0.30211710929870605,STABILIZE
0.02,0.005,0.01,-0.04647295238915531,-0.0033544145686717083,-0.00023236476194577656,-0.0006197610273833603,-0.004206540358000845,0.02,0.005,0.01,-0.042593100895109155,-0.0029219911049967115,-0.00021296550447554577,-0.00034877151288065033,-0.0034837281223529075,0.2,0.02,0,-0.04392014773404282,-0.03079116592551668,-0.0008784029546808564,-0.0,-0.031669568880197535,0.002,8e-05,0,-0.08868515123547283,-0.0008079698639778064,-7.094812098837826e-06,-0.0,-0.0008150646760766442,-0.14609955524983556,0.0,0.14609955524983556,-0.1677207284335854,0.0,0.1677207284335854,-0.4039849319889032,0.0,0.4039849319889032,-0.1539558296275834,0,0.1539558296275834,-0.004215886064122186,0.0034724124334967374,0.031669568880197535,0.4,0.0335087776184082,0.3356337547302246,STABILIZE
0.02,0.005,0.01,-0.05211995672553012,-0.0033762762110950777,-0.0002605997836276506,-0.00032677034960838395,-0.003963646344331112,0.02,0.005,0.01,-0.04749179660172166,-0.0029288714501407866,-0.0002374589830086083,-0.00010284189744830943,-0.0032691723305977045,0.2,0.02,0,-0.049094807415884956,-0.03093867003391093,-0.0009818961483176992,-0.0,-0.03192056618222863,0.002,8e-05,0,-0.10307741023949735,-0.0008604959161480226,-8.246192819159789e-06,-0.0,-0.0008687421089671824,-0.14644357250703932,0.0,0.14644357250703932,-0.1688138105547539,0.0,0.1688138105547539,-0.43024795807401134,0.0,0.43024795807401134,-0.15469335016955466,0,0.15469335016955466,-0.003972458352588367,0.0032584589466534523,0.03192056618222863,0.4,0.033451080322265625,0.36907482147216797,STABILIZE
0.02,0.005,0.01,-0.05780687280988399,-0.0034024912993316694,-0.00028903436404942,-0.00039211326628159815,-0.004083638929662688,0.02,0.005,0.01,-0.05226970910430212,-0.0028586329528801323,-0.0002613485455215106,0.0010505952271083118,-0.002069386271293331,0.2,0.02,0,-0.05425242697394491,-0.03085812312202545,-0.0010850485394788983,0.0,-0.03194317166150435,0.002,8e-05,0,-0.11930000446284882,-0.0009706004955726886,-9.544000357027906e-06,-0.0,-0.0009801444959297166,-0.14293164764400662,0.0,0.14293164764400662,-0.17012456496658346,0.0,0.17012456496658346,-0.4853002477863443,0.0,0.4853002477863443,-0.15429061561012725,0,0.15429061561012725,-0.004089196723825996,0.0020583820348819295,0.03194317166150435,0.4,0.03342795372009277,0.40250468254089355,STABILIZE
0.02,0.005,0.01,-0.06350103240357605,-0.003402966011777921,-0.0003175051620178802,-7.09248789651156e-06,-0.0037275636616923126,0.02,0.005,0.01,-0.057013640776296004,-0.0028350870705969606,-0.00028506820388148003,0.000351789565293009,-0.002768365709185432,0.2,0.02,0,-0.05936350027627879,-0.030544996931268567,-0.001187270005525576,0.0,-0.031732266936794144,0.002,8e-05,0,-0.13639223598001265,-0.0010214726503763921,-1.0911378878401013e-05,-0.0,-0.0010323840292547932,-0.14175435352984803,0.0,0.14175435352984803,-0.17014830058889605,0.0,0.17014830058889605,-0.510736325188196,0.0,0.510736325188196,-0.15272498465634282,0,0.15272498465634282,-0.003734929638286829,0.002758419864489338,0.031732266936794144,0.4,0.03346586227416992,0.43598484992980957,STABILIZE
0.02,0.005,0.01,-0.06913177777896828,-0.0033657635336353463,-0.0003456588888948414,0.0005559421353004295,-0.003155480287229758,0.02,0.005,0.01,-0.06162339069695521,-0.0027554661324127754,-0.00030811695348477604,0.0011898302639705852,-0.0018737528219269664,0.2,0.02,0,-0.06436451296104127,-0.029893424410882385,-0.0012872902592208255,0.0,-0.03118071467010321,0.002,8e-05,0,-0.15409081473156955,-0.0010579279826698593,-1.2327265178525566e-05,-0.0,-0.0010702552478483848,-0.13777330662063877,0.0,0.13777330662063877,-0.16828817668176732,0.0,0.16828817668176732,-0.5289639913349297,0.0,0.5289639913349297,-0.14946712205441193,0,0.14946712205441193,-0.0031603575913523394,0.0018655147749499351,0.03118071467010321,0.4,0.03345894813537598,0.4694633483886719,STABILIZE
0.02,0.005,0.01,-0.07472171070247714,-0.003342725694440389,-0.0003736085535123857,0.00034441011222828446,-0.00337192413572449,0.02,0.005,0.01,-0.06611361034455093,-0.002685107817050087,-0.00033056805172275466,0.0010518397617585759,-0.0019638361070142656,0.2,0.02,0,-0.06923621915037545,-0.029132330705373646,-0.0013847243830075091,0.0,-0.030517055088381154,0.002,8e-05,0,-0.1725172131764875,-0.0011018807628045775,-1.3801377054119e-05,-0.0,-0.0011156821398586965,-0.13425539085250435,0.0,0.13425539085250435,-0.16713628472201944,0.0,0.16713628472201944,-0.5509403814022887,0.0,0.5509403814022887,-0.14566165352686822,0,0.14566165352686822,-0.0033769058460208883,0.0019552574100113376,0.030517055088381154,0.4,0.03344535827636719,0.5028882026672363,STABILIZE
0.02,0.005,0.01,-0.08026316741701003,-0.0033109051372638434,-0.00040131583708505016,0.00047530302794805587,-0.0032369179464008377,0.02,0.005,0.01,-0.07047601801720568,-0.0026064478562744355,-0.00035238009008602844,0.001174942265388742,-0.0017838856809717217,0.2,0.02,0,-0.07396821637791325,-0.028272699286966792,-0.001479364327558265,0.0,-0.029752063614525058,0.002,8e-05,0,-0.1916597890461659,-0.0011437290960184556,-1.5332783123693272e-05,-0.0,-0.001159061879142149,-0.13032239281372177,0.0,0.13032239281372177,-0.16554525686319216,0.0,0.16554525686319216,-0.5718645480092278,0.0,0.5718645480092278,-0.14136349643483395,0,0.14136349643483395,-0.0032413093968200824,0.0017758939463249463,0.029752063614525058,0.4,0.033473968505859375,0.5363900661468506,STABILIZE
0.02,0.005,0.01,-0.08570358899721937,-0.0032547578763865376,-0.00042851794498609686,0.0008397590925798626,-0.0028435167287927717,0.02,0.005,0.01,-0.07471965783979184,-0.0025387775438862957,-0.0003735982891989592,0.0010121020907830056,-0.0019002737423022492,0.2,0.02,0,-0.07865219985819213,-0.028022152144899594,-0.0015730439971638427,0.0,-0.029595196142063438,0.002,8e-05,0,-0.2116086161969743,-0.0011934479954634105,-1.6928689295757945e-05,-0.0,-0.0012103766847591684,-0.1269388771943148,0.0,0.1269388771943148,-0.16273789381932688,0.0,0.16273789381932688,-0.5967239977317053,0.0,0.5967239977317053,-0.14011076072449796,0,0.14011076072449796,-0.002848155140301296,0.0018933145484528043,0.029595196142063438,0.4,0.03343057632446289,0.5697979927062988,STABILIZE
0.02,0.005,0.01,-0.09095038533922153,-0.0031371084447423063,-0.0004547519266961077,0.0017585922983881755,-0.0018332680730502385,0.02,0.005,0.01,-0.07858685934965663,-0.00231223583370258,-0.0003929342967482832,0.0033862850098375654,0.0006811148793867024,0.2,0.02,0,-0.08296565332046266,-0.02579054036110745,-0.0016593130664092532,0.0,-0.027449853427516702,0.002,8e-05,0,-0.23276754542874034,-0.0012651121036146124,-1.862140363429923e-05,-0.0,-0.0012837335072489117,-0.11561179168512899,0.0,0.11561179168512899,-0.15685542223711532,0.0,0.15685542223711532,-0.6325560518073062,0.0,0.6325560518073062,-0.12895270180553725,0,0.12895270180553725,-0.0018317304805322084,-0.0006852391942063313,0.027449853427516702,0.4,0.03344988822937012,0.6032865047454834,STABILIZE
0.02,0.005,0.01,-0.09609472515741982,-0.0030759364306394876,-0.0004804736257870991,0.0009144090075893984,-0.0026420010488371884,0.02,0.005,0.01,-0.08224390895007008,-0.0021866463904219695,-0.0004112195447503504,0.001877330996506067,-0.0007205349386662527,0.2,0.02,0,-0.08713321793463948,-0.02491896779143986,-0.0017426643586927896,0.0,-0.026661632150132647,0.002,8e-05,0,-0.25466162565154243,-0.0013091047899756907,-2.0372930052123397e-05,-0.0,-0.0013294777200278142,-0.10933231952109847,0.0,0.10933231952109847,-0.15379682153197438,0.0,0.15379682153197438,-0.6545523949878453,0.0,0.6545523949878453,-0.12459483895719928,0,0.12459483895719928,-0.0026435616689967716,0.0007147879700348818,0.026661632150132647,0.4,0.03344893455505371,0.6367287635803223,STABILIZE
0.02,0.005,0.01,-0.10116915331576244,-0.0030351512067550465,-0.0005058457665788122,0.0006098683320953171,-0.0029311286412385413,0.02,0.005,0.01,-0.08569499238259254,-0.002064185306794063,-0.0004284749619129627,0.0018311812393219946,-0.0006614790293850311,0.2,0.02,0,-0.09106020413314324,-0.023488354800537813,-0.0018212040826628647,0.0,-0.02530955888320068,0.002,8e-05,0,-0.2768674189272734,-0.0013281878894468569,-2.2149393514181873e-05,-0.0,-0.0013503372829610388,-0.10320926533970315,0.0,0.10320926533970315,-0.1517575603377523,0.0,0.1517575603377523,-0.6640939447234284,0.0,0.6640939447234284,-0.11744177400268906,0,0.11744177400268906,-0.0029324783465391473,0.0006554695758645757,0.02530955888320068,0.4,0.03343772888183594,0.6701419353485107,STABILIZE
0.02,0.005,0.01,-0.10613988947860939,-0.0029705885345340283,-0.0005306994473930469,0.0009645911972362097,-0.002536696784690866,0.02,0.005,0.01,-0.08892678193589221,-0.0019313672419017144,-0.00044463390967946104,0.0019843530607055633,-0.00039164809087561224,0.2,0.02,0,-0.09492602331565286,-0.023102731192973958,-0.0018985204663130573,0.0,-0.025001251659287016,0.002,8e-05,0,-0.2994703849381384,-0.0013507880820590886,-2.3957630795051072e-05,-0.0,-0.0013747457128541396,-0.09656836209508572,0.0,0.09656836209508572,-0.1485294267267014,0.0,0.1485294267267014,-0.6753940410295443,0.0,0.6753940410295443,-0.11551365596486979,0,0.11551365596486979,-0.0025374812280065996,0.00038653308016469725,0.025001251659287016,0.4,0.033466339111328125,0.7036235332489014,STABILIZE
0.02,0.005,0.01,-0.11099438055774359,-0.002902669605921448,-0.0005549719027887179,0.0010152774334979651,-0.002442364075212201,0.02,0.005,0.01,-0.09193077932225767,-0.0017961948569953138,-0.00045965389661128833,0.0020206071389964435,-0.00023524161461015852,0.2,0.02,0,-0.09872498028819775,-0.022715289324161433,-0.001974499605763955,0.0,-0.024689788929925387,0.002,8e-05,0,-0.3224000774534821,-0.001371046324989504,-2.579200619627857e-05,-0.0,-0.0013968383311857824,-0.08980974284976569,0.0,0.08980974284976569,-0.1451334802960724,0.0,0.1451334802960724,-0.685523162494752,0.0,0.685523162494752,-0.11357644662080715,0,0.11357644662080715,-0.0024428255917807876,0.00023039969894161948,0.024689788929925387,0.4,0.03344845771789551,0.7370831966400146,STABILIZE
0.02,0.005,0.01,-0.115723150232659,-0.002828060822382837,-0.000578615751163295,0.0011155025103594294,-0.0022911740631867024,0.02,0.005,0.01,-0.09479836715707213,-0.0017149731046110775,-0.0004739918357853607,0.0012143753641757089,-0.0009745895762207292,0.2,0.02,0,-0.10246696267557526,-0.022379084868366327,-0.002049339253511505,0.0,-0.02442842412187783,0.002,8e-05,0,-0.3456897633799652,-0.0013928495753066242,-2.765518107039722e-05,-0.0,-0.0014205047563770215,-0.08574865523055387,0.0,0.08574865523055387,-0.14140304111914184,0.0,0.14140304111914184,-0.6964247876533121,0.0,0.6964247876533121,-0.11189542434183163,0,0.11189542434183163,-0.002293073011171224,0.0009701131868682627,0.02442842412187783,0.4,0.033441781997680664,0.7705066204071045,STABILIZE
0.02,0.005,0.01,-0.12038078312641722,-0.0027860733296949697,-0.0006019039156320861,0.0006278953076958721,-0.002760081937631184,0.02,0.005,0.01,-0.09748990202924297,-0.001610005273998399,-0.00048744951014621486,0.001569724793777963,-0.0005277299903666507,0.2,0.02,0,-0.10603608947677322,-0.021349576529406344,-0.0021207217895354642,0.0,-0.023470298318941808,0.002,8e-05,0,-0.36929432727404304,-0.0014119628451719046,-2.9543546181923444e-05,-0.0,-0.001441506391353828,-0.08050026369991994,0.0,0.08050026369991994,-0.13930366648474848,0.0,0.13930366648474848,-0.7059814225859523,0.0,0.7059814225859523,-0.10674788264703171,0,0.10674788264703171,-0.0027610603615477046,0.0005225867631889973,0.023470298318941808,0.4,0.03343510627746582,0.8039462566375732,STABILIZE
0.02,0.005,0.01,-0.12481925821490542,-0.0026548653148529945,-0.0006240962910745271,0.001962045526278518,-0.0013169160796490035,0.02,0.005,0.01,-0.09994574006354037,-0.0014689547842823844,-0.0004997287003177019,0.002109226960410995,0.00014054347581090882,0.2,0.02,0,-0.10948858849104993,-0.020651056274576154,-0.0021897717698209987,0.0,-0.022840828044397153,0.002,8e-05,0,-0.39422345485052795,-0.0014911309585585162,-3.153787638804224e-05,-0.0,-0.0015226688349465585,-0.07344773921411922,0.0,0.07344773921411922,-0.13274326574264972,0.0,0.13274326574264972,-0.7455654792792581,0.0,0.7455654792792581,-0.10325528137288076,0,0.10325528137288076,-0.0013166606616256476,-0.00014291651954418828,0.022840828044397153,0.4,0.03343653678894043,0.8374660015106201,STABILIZE
0.02,0.005,0.01,-0.12914706230128248,-0.0025859202790340786,-0.0006457353115064124,0.0010298893082063868,-0.002201766282334104,0.02,0.005,0.01,-0.10223084926237792,-0.0013653830208446532,-0.0005111542463118896,0.0015471375209197447,-0.000329399746236798,0.2,0.02,0,-0.11277723186397678,-0.01965007985304087,-0.002255544637279536,0.0,-0.021905624490320408,0.002,8e-05,0,-0.419549849074101,-0.0015132856088311188,-3.356398792592808e-05,-0.0,-0.0015468495967570469,-0.06826915104223266,0.0,0.06826915104223266,-0.12929601395170393,0.0,0.12929601395170393,-0.7566428044155594,0.0,0.7566428044155594,-0.09825039926520435,0,0.09825039926520435,-0.0022023278972602054,0.00032562369046746357,0.021905624490320408,0.4,0.03347206115722656,0.8708662986755371,STABILIZE
0.02,0.005,0.01,-0.13335794447690003,-0.0025173847906500052,-0.0006667897223845002,0.0010243114677777343,-0.002159863045256771,0.02,0.005,0.01,-0.10433610655058105,-0.0012585825147079551,-0.0005216805327529052,0.00159620928922582,-0.0001840537582350403,0.2,0.02,0,-0.11589052948516286,-0.018612176150930387,-0.002317810589703257,0.0,-0.020929986740633646,0.002,8e-05,0,-0.4450250100981558,-0.0015229773768702147,-3.5602000807852465e-05,-0.0,-0.0015585793776780672,-0.06292912573539776,0.0,0.06292912573539776,-0.12586923953250026,0.0,0.12586923953250026,-0.7614886884351073,0.0,0.7614886884351073,-0.09306088075465194,0,0.09306088075465194,-0.002160159139742597,0.0001805454268953356,0.020929986740633646,0.4,0.03345441818237305,0.9043223857879639,STABILIZE
0.02,0.005,0.01,-0.1374428669308071,-0.0024434581804080482,-0.0006872143346540355,0.0011055080150467454,-0.0020251645000153385,0.02,0.005,0.01,-0.10630670889155447,-0.0011787456101589671,-0.0005315335444577723,0.0011938913144611649,-0.0005163878401555745,0.2,0.02,0,-0.1187792344673479,-0.017279225980787998,-0.002375584689346958,0.0,-0.019654810670134956,0.002,8e-05,0,-0.4709950413320136,-0.001553436717094313,-3.767960330656109e-05,-0.0,-0.001591116320400874,-0.05893728050794836,0.0,0.05893728050794836,-0.12217290902040241,0.0,0.12217290902040241,-0.7767183585471565,0.0,0.7767183585471565,-0.08639612990393998,0,0.08639612990393998,-0.002025940856996346,0.0005133335149158177,0.019654810670134956,0.4,0.03343558311462402,0.9377791881561279,STABILIZE
0.02,0.005,0.01,-0.1414811108995541,-0.0024147446742119843,-0.0007074055544977704,0.00042924465870255806,-0.0026929055700071966,0.02,0.005,0.01,-0.10817640220178858,-0.0011180186235004678,-0.0005408820110089429,0.0009078213745221902,-0.0007510792599872205,0.2,0.02,0,-0.12154348175261831,-0.016529341619701113,-0.002430869635052366,0.0,-0.01896021125475348,0.002,8e-05,0,-0.4974008986661434,-0.0015789883884944225,-3.979207189329147e-05,-0.0,-0.001618780460387714,-0.055900931175023386,0.0,0.055900931175023386,-0.1207372337105992,0.0,0.1207372337105992,-0.7894941942472112,0.0,0.7894941942472112,-0.08264670809850556,0,0.08264670809850556,-0.002693986167756472,0.0007471940790019227,0.01896021125475348,0.4,0.033446550369262695,0.9712185859680176,STABILIZE
0.02,0.005,0.01,-0.14557925663249255,-0.0024026598789850173,-0.0007278962831624628,0.00017712676982306507,-0.0029534293923244147,0.02,0.005,0.01,-0.11005704278198103,-0.001102581499848136,-0.0005502852139099052,0.00022626182707632638,-0.0014266048866817147,0.2,0.02,0,-0.12420587242262132,-0.015609057514930358,-0.0024841174484524263,0.0,-0.018093174963382783,0.002,8e-05,0,-0.5246999436872133,-0.0016004877444829313,-4.1975995494977064e-05,-0.0,-0.0016424637399779084,-0.055129074992406796,0.0,0.055129074992406796,-0.12013299394925087,0.0,0.12013299394925087,-0.8002438722414656,0.0,0.8002438722414656,-0.07804528757465179,0,0.07804528757465179,-0.002955369897661061,0.0014225805587553765,0.018093174963382783,0.4,0.034113407135009766,1.0053257942199707,STABILIZE
0.02,0.005,0.01,-0.14934246842740442,-0.0022492097418271326,-0.0007467123421370221,0.00229286552411745,-0.0007030565598467051,0.02,0.005,0.01,-0.11178417265158412,-0.0010322770919681547,-0.0005589208632579206,0.0010504946819020614,-0.0005407032733240138,0.2,0.02,0,-0.1266421301777387,-0.014561111558538268,-0.0025328426035547743,0.0,-0.017093954162093042,0.002,8e-05,0,-0.551994324298398,-0.0016313401985723686,-4.4159545943871845e-05,-0.0,-0.0016754997445162405,-0.05161385459840774,0.0,0.05161385459840774,-0.11246048709135663,0.0,0.11246048709135663,-0.8156700992861843,0.0,0.8156700992861843,-0.07280555779269134,0,0.07280555779269134,-0.0007037430619232775,0.0005398094653872205,0.017093954162093042,0.4,0.0334625244140625,1.0388176441192627,STABILIZE
0.02,0.005,0.01,-0.1529237760279409,-0.0021419995000692446,-0.0007646188801397046,0.0016030756769768834,-0.0013035427032320657,0.02,0.005,0.01,-0.11331888924638034,-0.0009179223192972902,-0.0005665944462319017,0.0017099052442104562,0.0002253884786812643,0.2,0.02,0,-0.1290000231891253,-0.014102685987794607,-0.0025800004637825057,0.0,-0.01668268645157711,0.002,8e-05,0,-0.5795876127679622,-0.0016503695493293828,-4.6367009021436984e-05,-0.0,-0.00169673655835082,-0.04589611596486451,0.0,0.04589611596486451,-0.10709997500346222,0.0,0.10709997500346222,-0.8251847746646914,0.0,0.8251847746646914,-0.07051342993897303,0,0.07051342993897303,-0.001303264332439006,-0.0002269925665393654,0.01668268645157711,0.4,0.033438920974731445,1.0722362995147705,STABILIZE
0.02,0.005,0.01,-0.1564232313137634,-0.0020807444327620036,-0.0007821161565688171,0.0009105427121355977,-0.001952317877195223,0.02,0.005,0.01,-0.11483923996639599,-0.0009039867745516109,-0.00057419619983198,0.00020714871872025398,-0.001271034255663337,0.2,0.02,0,-0.13118701187928786,-0.01300363676599943,-0.0026237402375857573,0.0,-0.015627377003585186,0.002,8e-05,0,-0.6077423591929665,-0.001674055734245064,-4.861938873543732e-05,-0.0,-0.0017226751229805013,-0.04519933872758054,0.0,0.04519933872758054,-0.10403722163810018,0.0,0.10403722163810018,-0.8370278671225321,0.0,0.8370278671225321,-0.06501818382999715,0,0.06501818382999715,-0.0019537589658664128,0.001268817983787399,0.015627377003585186,0.4,0.03363656997680664,1.1058728694915771,STABILIZE
0.02,0.005,0.01,-0.15978143063769487,-0.0020069116689221326,-0.0007989071531884743,0.0011030899375378495,-0.0017027288845727574,0.02,0.005,0.01,-0.1161472509119533,-0.0007816874987169176,-0.0005807362545597665,0.0018271982995788122,0.00046477454630212815,0.2,0.02,0,-0.13329450680856386,-0.0125947144817081,-0.002665890136171277,0.0,-0.015260604617879377,0.002,8e-05,0,-0.6356578614885553,-0.0016682734375412843,-5.085262891908443e-05,0.0,-0.0017191260664603687,-0.03908437493584588,0.0,0.03908437493584588,-0.10034558344610664,0.0,0.10034558344610664,-0.8341367187706421,0.0,0.8341367187706421,-0.0629735724085405,0,0.0629735724085405,-0.0017022170242883665,-0.0004666457280117269,0.015260604617879377,0.4,0.033466339111328125,1.1393914222717285,STABILIZE
0.02,0.005,0.01,-0.16303461168770456,-0.0019428777290018313,-0.0008151730584385228,0.0009560651087266149,-0.0018019856787137392,0.02,0.005,0.01,-0.11746670119293989,-0.0007880073460548497,-0.0005873335059646995,-9.43591092441902e-05,-0.0014696999612637393,0.2,0.02,0,-0.13516475358263133,-0.011169562189176025,-0.0027032950716526266,0.0,-0.013872857260828651,0.002,8e-05,0,-0.6638406963553387,-0.0016831464760513884,-5.31072557084271e-05,-0.0,-0.0017362537317598154,-0.03940036730274248,0.0,0.03940036730274248,-0.09714388645009156,0.0,0.09714388645009156,-0.8415732380256942,0.0,0.8415732380256942,-0.05584781094588012,0,0.05584781094588012,-0.0018034173804280594,0.0014679428171417471,0.013872857260828651,0.4,0.03348827362060547,1.1728417873382568,STABILIZE
0.02,0.005,0.01,-0.16618970702461391,-0.0018873218514607985,-0.0008309485351230696,0.0008308134181690165,-0.0018874569684148518,0.02,0.005,0.01,-0.11874799401256199,-0.000766446550221016,-0.00059373997006281,0.0003224321040005406,-0.0010377544162832853,0.2,0.02,0,-0.13676235604425188,-0.009556573459100713,-0.0027352471208850378,0.0,-0.01229182057998575,0.002,8e-05,0,-0.6920015020857914,-0.0016845292561551734,-5.5360120166863316e-05,-0.0,-0.0017398893763220368,-0.0383223275110508,0.0,0.0383223275110508,-0.09436609257303992,0.0,0.09436609257303992,-0.8422646280775867,0.0,0.8422646280775867,-0.04778286729550356,0,0.04778286729550356,-0.0018883217662973575,0.0010361799761918168,0.01229182057998575,0.4,0.03343462944030762,1.2062721252441406,STABILIZE
0.02,0.005,0.01,-0.1697074976230403,-0.0017628161671386531,-0.0008485374881152015,0.0015597903505251273,-0.0010515633047287272,0.02,0.005,0.01,-0.12022424635839261,-0.0007397715779815631,-0.000601121231791963,0.00033418043944057784,-0.0010067123703329484,0.2,0.02,0,-0.13840047568925404,-0.008208856420302488,-0.002768009513785081,0.0,-0.010976865934087568,0.002,8e-05,0,-0.7257732636585814,-0.0016923522201661829,-5.806186109268652e-05,-0.0,-0.0017504140812588695,-0.03698857889907815,0.0,0.03698857889907815,-0.08814080835693265,0.0,0.08814080835693265,-0.8461761100830915,0.0,0.8461761100830915,-0.04104428210151244,0,0.04104428210151244,-0.0010522842011734795,0.0010059588164502947,0.010976865934087568,0.4,0.03991103172302246,1.2461998462677002,STABILIZE
0.02,0.005,0.01,-0.17253784947115686,-0.0016918355213468594,-0.0008626892473557843,0.0010607124513389305,-0.0014938123173637134,0.02,0.005,0.01,-0.12136231128370109,-0.0006802753754862963,-0.0006068115564185054,0.0008890925419194779,-0.0003979943899853239,0.2,0.02,0,-0.13971579565549486,-0.007862291192890959,-0.002794315913109897,0.0,-0.010656607106000856,0.002,8e-05,0,-0.7541751462027023,-0.001697715207854472,-6.033401169621619e-05,-0.0,-0.0017580492195506882,-0.03401376877431481,0.0,0.03401376877431481,-0.08459177606734297,0.0,0.08459177606734297,-0.848857603927236,0.0,0.848857603927236,-0.039311455964454796,0,0.039311455964454796,-0.001494085035392412,0.00039696937033452926,0.010656607106000856,0.4,0.03345894813537598,1.2796645164489746,STABILIZE
0.02,0.005,0.01,-0.1752726566896229,-0.0016345841944924503,-0.0008763632834481146,0.0008554726760816106,-0.0016554748018589543,0.02,0.005,0.01,-0.12248186111386704,-0.0006691508070402117,-0.0006124093055693352,0.0001662278389289792,-0.0011153322736805677,0.2,0.02,0,-0.1409179488255215,-0.007185225188145932,-0.0028183589765104302,0.0,-0.010003584164656363,0.002,8e-05,0,-0.7825247743688438,-0.0016944468263508851,-6.260198194950751e-05,0.0,-0.0017570488083003925,-0.03345754035201058,0.0,0.03345754035201058,-0.08172920972462251,0.0,0.08172920972462251,-0.8472234131754426,0.0,0.8472234131754426,-0.03592612594072966,0,0.03592612594072966,-0.001656173822262007,0.0011142940234774047,0.010003584164656363,0.4,0.033461809158325195,1.313127040863037,STABILIZE
0.02,0.005,0.01,-0.17794540075939652,-0.0015972389087244069,-0.0008897270037969826,0.0005579410329699424,-0.001929024879551447,0.02,0.005,0.01,-0.12350887510757581,-0.0006137462726444487,-0.000617544375537879,0.0008277473988013409,-0.0004035432493809867,0.2,0.02,0,-0.1419699706708741,-0.006286910307755619,-0.0028393994134174824,0.0,-0.009126309721173101,0.002,8e-05,0,-0.8110193897583423,-0.00170284573461235,-6.48815511806674e-05,-0.0,-0.0017677272857930175,-0.030687313632222435,0.0,0.030687313632222435,-0.07986194543622034,0.0,0.07986194543622034,-0.851422867306175,0.0,0.851422867306175,-0.0314345515387781,0,0.0314345515387781,-0.0019292459877452092,0.000402484855390177,0.009126309721173101,0.4,0.03346705436706543,1.3465964794158936,STABILIZE
0.02,0.005,0.01,-0.1805016112082466,-0.0015297668165473422,-0.000902508056041233,0.0010094686032397022,-0.0014228062693488728,0.02,0.005,0.01,-0.12437523527647308,-0.0005184741491662355,-0.0006218761763823655,0.0014253925484161026,0.0002850422228675017,0.2,0.02,0,-0.14280584733006998,-0.0050023126090401925,-0.0028561169466014,0.0,-0.007858429555641592,0.002,8e-05,0,-0.8396694155999299,-0.0017145637928755308,-6.71735532479944e-05,-0.0,-0.001781737346123525,-0.02592370745831177,0.0,0.02592370745831177,-0.07648834082736711,0.0,0.07648834082736711,-0.8572818964377653,0.0,0.8572818964377653,-0.02501156304520096,0,0.02501156304520096,-0.0014226817031286999,-0.0002856632991802162,0.007858429555641592,0.4,0.03341960906982422,1.3800110816955566,STABILIZE
0.02,0.005,0.01,-0.18295069605058778,-0.0014632564138076312,-0.0009147534802529389,0.000993450407589566,-0.001384559486471004,0.02,0.005,0.01,-0.12521020099170577,-0.0004988675430924565,-0.0006260510049585289,0.00029285931212402706,-0.0008320592359269583,0.2,0.02,0,-0.1435541947159105,-0.004471156299511882,-0.0028710838943182097,0.0,-0.007342240193830092,0.002,8e-05,0,-0.8681479405868942,-0.0017015084011185574,-6.945183524695154e-05,0.0,-0.001770960236365509,-0.024943377154622824,0.0,0.024943377154622824,-0.07316282069038156,0.0,0.07316282069038156,-0.8507542005592788,0.0,0.8507542005592788,-0.02235578149755941,0,0.02235578149755941,-0.0013848840356005137,0.0008315189424222629,0.007342240193830092,0.4,0.03347444534301758,1.4135212898254395,STABILIZE
0.02,0.005,0.01,-0.1853431959991,-0.0014304266537488995,-0.0009267159799955,0.0004907060066332843,-0.0018664366271111152,0.02,0.005,0.01,-0.12599055639260578,-0.0004665584906442482,-0.000629952781963029,0.0004829229965921979,-0.0006135882760150793,0.2,0.02,0,-0.14423932066594897,-0.004096227549427928,-0.0028847864133189796,0.0,-0.006981013962746908,0.002,8e-05,0,-0.8967415356646375,-0.001709552409860723,-7.173932285317101e-05,-0.0,-0.001781291732713894,-0.02332792453221241,0.0,0.02332792453221241,-0.07152133268744497,0.0,0.07152133268744497,-0.8547762049303615,0.0,0.8547762049303615,-0.02048113774713964,0,0.02048113774713964,-0.0018666558431425782,0.0006129210542531101,0.006981013962746908,0.4,0.03345155715942383,1.446948766708374,STABILIZE
0.02,0.005,0.01,-0.18777682485973338,-0.001455722309883194,-0.0009388841242986669,-0.00037827718488104607,-0.002772883619062907,0.02,0.005,0.01,-0.12663683209527338,-0.00038658234783745546,-0.0006331841604763669,0.0011959820294039488,0.00017621552109012653,0.2,0.02,0,-0.14493398637727115,-0.004155277701709154,-0.002898679727545423,-0.0,-0.007053957429254578,0.002,8e-05,0,-0.9252655508879083,-0.0017062193007177152,-7.402124407103267e-05,0.0,-0.001780240544788748,-0.019329117391872774,0.0,0.019329117391872774,-0.0727861154941597,0.0,0.0727861154941597,-0.8531096503588576,0.0,0.8531096503588576,-0.020776388508545768,0,0.020776388508545768,-0.0027728195381247424,-0.0001772210025198976,0.007053957429254578,0.4,0.03343534469604492,1.4803893566131592,STABILIZE
0.02,0.005,0.01,-0.19010052791910628,-0.0013908904401498392,-0.0009505026395955315,0.0009701543777876076,-0.001371238701957763,0.02,0.005,0.01,-0.12724550763087475,-0.0003643326888115821,-0.0006362275381543738,0.00033294742534823547,-0.0006676128016177203,0.2,0.02,0,-0.14557547928893896,-0.0038397606555781883,-0.0029115095857787793,0.0,-0.006751270241356968,0.002,8e-05,0,-0.953675311269262,-0.0017005126348646525,-7.629402490154096e-05,0.0,-0.0017768066597661934,-0.018216634440579103,0.0,0.018216634440579103,-0.06954452200749196,0.0,0.06954452200749196,-0.8502563174323262,0.0,0.8502563174323262,-0.01919880327789094,0,0.01919880327789094,-0.0013714623302249868,0.0006671532862877333,0.006751270241356968,0.4,0.03341317176818848,1.5137922763824463,STABILIZE
0.02,0.005,0.01,-0.19236989003736782,-0.0013563700451115976,-0.0009618494501868392,0.0005158104715694123,-0.0018024090237290244,0.02,0.005,0.01,-0.12780946137809301,-0.00033706827279784485,-0.0006390473068904651,0.00040739021860935153,-0.0005687253610789585,0.2,0.02,0,-0.14616772096534314,-0.003539756228753241,-0.002923354419306863,0.0,-0.006463110648060104,0.002,8e-05,0,-0.9821634147971379,-0.001702699183894439,-7.857307318377104e-05,-0.0,-0.00178127225707821,-0.01685341363989224,0.0,0.01685341363989224,-0.06781850225557988,0.0,0.06781850225557988,-0.8513495919472195,0.0,0.8513495919472195,-0.017698781143766204,0,0.017698781143766204,-0.0018025846181369673,0.0005681685661933523,0.006463110648060104,0.4,0.0334622859954834,1.5472779273986816,STABILIZE
0.02,0.005,0.01,-0.19454412995105255,-0.001302300328727035,-0.0009727206497552628,0.0008096508690071364,-0.0014653701094751613,0.02,0.005,0.01,-0.1282778153983748,-0.0002805291130636685,-0.0006413890769918739,0.0008466288131812504,-7.528937687429206e-05,0.2,0.02,0,-0.14660033683741025,-0.0025912310268038706,-0.002932006736748205,0.0,-0.005523237763552076,0.002,8e-05,0,-1.0105331541868354,-0.0016992568621597222,-8.084265233494684e-05,0.0,-0.0017800995144946691,-0.014026455653183426,0.0,0.014026455653183426,-0.06511501643635174,0.0,0.06511501643635174,-0.8496284310798611,0.0,0.8496284310798611,-0.012956155134019352,0,0.012956155134019352,-0.001465387097013636,7.49580143768105e-05,0.005523237763552076,0.4,0.03339076042175293,1.580653190612793,STABILIZE
0.02,0.005,0.01,-0.19669246159701453,-0.0012837754957628956,-0.0009834623079850726,0.00027674645424465775,-0.0019904913495033105,0.02,0.005,0.01,-0.128551427414211,-0.00016350194437484214,-0.000642757137071055,0.0017482939817929294,0.0009420349003470323,0.2,0.02,0,-0.14689712566704657,-0.0017735168013719793,-0.0029379425133409316,0.0,-0.004711459314712911,0.002,8e-05,0,-1.038756042975311,-0.0016865111638786209,-8.31004834380249e-05,0.0,-0.0017696116473166457,-0.008175097218742107,0.0,0.008175097218742107,-0.06418877478814478,0.0,0.06418877478814478,-0.8432555819393104,0.0,0.8432555819393104,-0.008867584006859896,0,0.008867584006859896,-0.0019903455283005636,-0.0009423429544986818,0.004711459314712911,0.4,0.03346896171569824,1.6141448020935059,STABILIZE
0.02,0.005,0.01,-0.19883615897184115,-0.0012827606659711324,-0.0009941807948592057,1.5181524160268479e-05,-0.0022617599366700695,0.02,0.005,0.01,-0.12873409000571698,-0.00010930292226867146,-0.0006436704500285849,0.0008107997717905373,5.7826399493280983e-05,0.2,0.02,0,-0.1471828322608625,-0.0017096311487777257,-0.0029436566452172505,0.0,-0.004653287793994976,0.002,8e-05,0,-1.0670112593941914,-0.0016907554515978676,-8.536090075153531e-05,-0.0,-0.0017761163523494028,-0.005465146113433573,0.0,0.005465146113433573,-0.06413803329855662,0.0,0.06413803329855662,-0.8453777257989338,0.0,0.8453777257989338,-0.008548155743888628,0,0.008548155743888628,-0.0022617512841774197,-5.816383864521649e-05,0.004653287793994976,0.4,0.03342318534851074,1.6475927829742432,STABILIZE
0.02,0.005,0.01,-0.2008827593766809,-0.0012155804217711078,-0.0010044137968834045,0.0009975443836793558,-0.0012224498349751565,0.02,0.005,0.01,-0.128972641092147,-0.0001416876638795009,-0.0006448632054607351,-0.000480873767213519,-0.001267424636553755,0.2,0.02,0,-0.147474910222893,-0.0017348000686184684,-0.00294949820445786,-0.0,-0.004684298273076329,0.002,8e-05,0,-1.0956919033166685,-0.0017034898045317941,-8.76553522653335e-05,-0.0,-0.0017911451567971276,-0.007084383193975044,0.0,0.007084383193975044,-0.06077902108855539,0.0,0.06077902108855539,-0.851744902265897,0.0,0.851744902265897,-0.008674000343092342,0,0.008674000343092342,-0.0012226416962108396,0.001267239555514618,0.004684298273076329,0.4,0.03367280960083008,1.6812489032745361,STABILIZE
0.02,0.005,0.01,-0.20289991732089183,-0.0012059314168071508,-0.001014499586604459,0.0001442132761636057,-0.002076217727248004,0.02,0.005,0.01,-0.12912568845965897,-9.149736106286379e-05,-0.0006456284422982949,0.0007501403541471828,1.3014550786024097e-05,0.2,0.02,0,-0.14780381219632352,-0.0019662973043238128,-0.0029560762439264704,-0.0,-0.004922373548250283,0.002,8e-05,0,-1.1242031823861334,-0.0017045094193986823,-8.993625459089067e-05,-0.0,-0.001794445673989573,-0.00457486805314319,0.0,0.00457486805314319,-0.060296570840357534,0.0,0.060296570840357534,-0.8522547096993411,0.0,0.8522547096993411,-0.009831486521619063,0,0.009831486521619063,-0.0020762154634918696,-1.3370812550797979e-05,0.004922373548250283,0.4,0.033453941345214844,1.7146985530853271,STABILIZE
0.02,0.005,0.01,-0.2049001709876216,-0.0011951610404118812,-0.001024500854938108,0.00016088377279721488,-0.002058778122552774,0.02,0.005,0.01,-0.1292032103395054,-4.631969040379161e-05,-0.000646016051697527,0.0006748468052624367,-1.7488936838881935e-05,0.2,0.02,0,-0.1481785927796425,-0.0022393317374489875,-0.00296357185559285,-0.0,-0.005202903593041838,0.002,8e-05,0,-1.1526021785583822,-0.0016968534729582235,-9.220817428467058e-05,0.0,-0.001789061647242894,-0.0023159845201895807,0.0,0.0023159845201895807,-0.05975805202059406,0.0,0.05975805202059406,-0.8484267364791117,0.0,0.8484267364791117,-0.011196658687244938,0,0.011196658687244938,-0.002058781500904859,1.7086613052847872e-05,0.005202903593041838,0.4,0.033472537994384766,1.7481689453125,STABILIZE
0.02,0.005,0.01,-0.20688241669113358,-0.0011746206400292637,-0.001034412083455668,0.00030429096404574154,-0.0019047417594391899,0.02,0.005,0.01,-0.12927965436520986,-4.5298486580284845e-05,-0.0006463982718260493,1.5128385530646209e-05,-0.0006765683728756879,0.2,0.02,0,-0.14863396296506004,-0.0026983901021843592,-0.002972679259301201,-0.0,-0.00567106936148556,0.002,8e-05,0,-1.1810268757774949,-0.001684364152284324,-9.44821500621996e-05,0.0,-0.0017788463023465236,-0.0022649243290142423,0.0,0.0022649243290142423,-0.05873103200146318,0.0,0.05873103200146318,-0.842182076142162,0.0,0.842182076142162,-0.013491950510921795,0,0.013491950510921795,-0.0019049010242445192,0.0006761198275153134,0.00567106936148556,0.4,0.03375124931335449,1.781919002532959,STABILIZE
0.02,0.005,0.01,-0.2087290075008132,-0.0011034803734803348,-0.001043645037504066,0.0010627948472585911,-0.0010843305637258096,0.02,0.005,0.01,-0.12919676225562024,4.953442612680721e-05,-0.0006459838112781012,0.001416749414430452,0.0008203000292791579,0.2,0.02,0,-0.1488965695893015,-0.0015692770389485996,-0.0029779313917860303,0.0,-0.00454720843073463,0.002,8e-05,0,-1.2092093694622381,-0.0016841212733124898,-9.673674955697906e-05,0.0,-0.0017808580228694689,0.0024767213063403605,0.0,-0.0024767213063403605,-0.05517401867401674,0.0,0.05517401867401674,-0.8420606366562449,0.0,0.8420606366562449,-0.007846385194742997,0,0.007846385194742997,-0.001084218217360862,-0.0008204485155134076,0.00454720843073463,0.4,0.03346848487854004,1.815394639968872,STABILIZE
0.02,0.005,0.01,-0.2104711261480067,-0.001024900267257405,-0.0010523556307400336,0.0011557302942416974,-0.0009215256037557412,0.02,0.005,0.01,-0.12904929996285502,8.67530713300866e-05,-0.0006452464998142752,0.0005473995625563527,-1.1093865927835943e-05,0.2,0.02,0,-0.1491734665988668,-0.0016290039691810516,-0.002983469331977336,-0.0,-0.004612473301158388,0.002,8e-05,0,-1.2377234056867623,-0.0016775001745249112,-9.901787245494099e-05,0.0,-0.0017765180469798522,0.00433765356650433,0.0,-0.00433765356650433,-0.051245013362870254,0.0,0.051245013362870254,-0.8387500872624556,0.0,0.8387500872624556,-0.008145019845905257,0,0.008145019845905257,-0.0009215271715195957,1.0962864119460847e-05,0.004612473301158388,0.4,0.033995866775512695,1.8493874073028564,STABILIZE
0.02,0.005,0.01,-0.21211709518067723,-0.0009843366765199036,-0.001060585475903386,0.0006064547585911026,-0.001438467393832187,0.02,0.005,0.01,-0.1288650871713382,0.0001101645312730624,-0.0006443254358566911,0.00035001810810738937,-0.00018414279647623933,0.2,0.02,0,-0.1493917027959033,-0.0013051150332926732,-0.002987834055918066,0.0,-0.004292949089210739,0.002,8e-05,0,-1.26574210659177,-0.0016755986523326622,-0.0001012593685273416,0.0,-0.001776858020860004,0.0055082265636531205,0.0,-0.0055082265636531205,-0.049216833825995183,0.0,0.049216833825995183,-0.8377993261663311,0.0,0.8377993261663311,-0.006525575166463366,0,0.006525575166463366,-0.001438488357036135,0.00018397896424302145,0.004292949089210739,0.4,0.03344321250915527,1.882838487625122,STABILIZE
0.02,0.005,0.01,-0.21371688212019743,-0.0009568003136450941,-0.0010685844106009873,0.0004117235861914936,-0.001613661138054588,0.02,0.005,0.01,-0.12862315105575822,0.0001446971128158047,-0.0006431157552787911,0.0005163310193821793,1.7912376919192933e-05,0.2,0.02,0,-0.14952373644634762,-0.0007896666427012833,-0.0029904747289269526,0.0,-0.003780141371628236,0.002,8e-05,0,-1.2937792083765038,-0.0016768425293794467,-0.00010350233667012032,-0.0,-0.001780344866049567,0.007234855640790235,0.0,-0.007234855640790235,-0.047840015682254704,0.0,0.047840015682254704,-0.8384212646897233,0.0,0.8384212646897233,-0.003948333213506417,0,0.003948333213506417,-0.0016136598998558942,-1.802357654818797e-05,0.003780141371628236,0.4,0.033440351486206055,1.916288137435913,STABILIZE
0.02,0.005,0.01,-0.2152811374739384,-0.0009345035447836633,-0.001076405687369692,0.0003330084421382694,-0.001677900790015086,0.02,0.005,0.01,-0.1282815912173397,0.00020405164604008234,-0.0006414079560866985,0.0008864764561044345,0.0004491201460578183,0.2,0.02,0,-0.1496100785910824,-0.0005158175749626087,-0.0029922015718216485,0.0,-0.0035080191467842573,0.002,8e-05,0,-1.3227296657106398,-0.0017295325176389469,-0.00010581837325685119,-0.0,-0.001835350890895798,0.010202582302004116,0.0,-0.010202582302004116,-0.046725177239183166,0.0,0.046725177239183166,-0.8647662588194734,0.0,0.8647662588194734,-0.0025790878748130435,0,0.0025790878748130435,-0.0016778805718117636,-0.00044919567391602904,0.0035080191467842573,0.4,0.033477783203125,1.9497630596160889,STABILIZE
0.02,0.005,0.01,-0.21681028450925896,-0.000915087000982071,-0.0010840514225462948,0.0002904859118585579,-0.0017086525116698078,0.02,0.005,0.01,-0.12794191791033172,0.0002032705950729125,-0.0006397095895516586,-1.168510239127785e-05,-0.000448124096870024,0.2,0.02,0,-0.14957434865035713,0.00021381857694741286,-0.0029914869730071425,0.0,-0.0027776683960597298,0.002,8e-05,0,-1.351558803535009,-0.001725221228779372,-0.00010812470428280074,0.0,-0.0018333459330621728,0.010163529753645624,0.0,-0.010163529753645624,-0.04575435004910355,0.0,0.04575435004910355,-0.862610614389686,0.0,0.862610614389686,0.0010690928847370642,0,-0.0010690928847370642,-0.001708644149739314,0.0004481559788653201,0.0027776683960597298,0.4,0.03342080116271973,1.9831812381744385,STABILIZE
0.02,0.005,0.01,-0.21828799287945544,-0.0008825480047770867,-0.0010914399643972771,0.0004858405548305167,-0.0014881474143438474,0.02,0.005,0.01,-0.12739217109217044,0.00032833133200449644,-0.0006369608554608522,0.0018672849474393773,0.0015586554239830214,0.2,0.02,0,-0.1494611034793563,0.0006763465764502504,-0.0029892220695871257,0.0,-0.0023128754931368753,0.002,8e-05,0,-1.379877699765094,-0.001691320552107846,-0.00011039021598120752,0.0,-0.0018017107680890535,0.01641656660022482,0.0,-0.01641656660022482,-0.044127400238854336,0.0,0.044127400238854336,-0.845660276053923,0.0,0.845660276053923,0.003381732882251252,0,-0.003381732882251252,-0.0014882394072938618,-0.0015585675872760816,0.0023128754931368753,0.4,0.03348731994628906,2.016674280166626,STABILIZE
0.02,0.005,0.01,-0.2197285971572611,-0.0008604491811539536,-0.0010986429857863054,0.00032998157412030904,-0.0016291105928199498,0.02,0.005,0.01,-0.12678264702923756,0.00036405867240870354,-0.0006339132351461878,0.0005334837829725569,0.00026362922023507256,0.2,0.02,0,-0.14927735032086145,0.0010975273168158208,-0.002985547006417229,0.0,-0.0018880196896014082,0.002,8e-05,0,-1.4079641167850971,-0.001677555377193628,-0.00011263712934280778,0.0,-0.0017901925065364358,0.018202933620435176,0.0,-0.018202933620435176,-0.04302245905769768,0.0,0.04302245905769768,-0.838777688596814,0.0,0.838777688596814,0.005487636584079104,0,-0.005487636584079104,-0.0016291358350496673,-0.0002634731871689101,0.0018880196896014082,0.4,0.03348493576049805,2.050168991088867,STABILIZE
0.02,0.005,0.01,-0.22114402747834472,-0.0008465886243153164,-0.0011057201373917236,0.0002072548109836067,-0.0017450539507234332,0.02,0.005,0.01,-0.12621517814879415,0.0003394110551966474,-0.0006310758907439708,-0.0003685520939707946,-0.000660216929518118,0.2,0.02,0,-0.14905023044892637,0.0013584356437198026,-0.0029810046089785275,0.0,-0.001622568965258725,0.002,8e-05,0,-1.436027023662367,-0.0016784816160592129,-0.00011488216189298936,-0.0,-0.0017933637779522023,0.01697055275983237,0.0,-0.01697055275983237,-0.042329431215765816,0.0,0.042329431215765816,-0.8392408080296064,0.0,0.8392408080296064,0.006792178218599012,0,-0.006792178218599012,-0.0017449756724694117,0.0006604237938231168,0.001622568965258725,0.4,0.03343844413757324,2.083616256713867,STABILIZE
0.02,0.005,0.01,-0.22259938782880895,-0.0008337394986537576,-0.0011129969391440449,0.00018402355787331271,-0.0017627128799244897,0.02,0.005,0.01,-0.12566887862084639,0.0003129613187556433,-0.000628344393104232,-0.0003788097908674774,-0.000694192865216066,0.2,0.02,0,-0.1487694812978814,0.001608341579218158,-0.002975389625957628,0.0,-0.00136704804673947,0.002,8e-05,0,-1.4653442180575746,-0.001679508648782322,-0.00011722753744460598,-0.0,-0.0017967361862269281,0.015648065937782164,0.0,-0.015648065937782164,-0.04168697493268788,0.0,0.04168697493268788,-0.839754324391161,0.0,0.839754324391161,0.008041707896090789,0,-0.008041707896090789,-0.0017626154296227173,0.000694440262675274,0.00136704804673947,0.4,0.0349116325378418,2.1185250282287598,STABILIZE
0.02,0.005,0.01,-0.22392826753238626,-0.0007941816215316011,-0.0011196413376619314,0.0005910267669949898,-0.0013227961921985427,0.02,0.005,0.01,-0.12498384991323301,0.00040939537893727523,-0.0006249192495661651,0.0014408030704313767,0.0012252791998024867,0.2,0.02,0,-0.14856985298784897,0.001193043542905969,-0.0029713970597569795,-0.0,-0.0017783535168510104,0.002,8e-05,0,-1.4934845143689137,-0.0016817553985328812,-0.00011947876114951311,-0.0,-0.0018012341596823943,0.02046976894686376,0.0,-0.02046976894686376,-0.039709081076580055,0.0,0.039709081076580055,-0.8408776992664406,0.0,0.8408776992664406,0.005965217714529845,0,-0.005965217714529845,-0.0013229237521422649,-0.001225141473292541,0.0017783535168510104,0.4,0.03346538543701172,2.1519954204559326,STABILIZE
0.02,0.005,0.01,-0.2252476726399043,-0.0007747425619604329,-0.0011262383631995216,0.0002853609313859349,-0.0016156199937740195,0.02,0.005,0.01,-0.12438418237448802,0.00035211927151452784,-0.0006219209118724401,-0.0008408001066346736,-0.0011106017469925857,0.2,0.02,0,-0.14836813283988626,0.001184482183229129,-0.002967362656797725,-0.0,-0.001782880473568596,0.002,8e-05,0,-1.5218056521814214,-0.0016629912027376812,-0.00012174445217451373,0.0,-0.001784735654912195,0.017605963575726392,0.0,-0.017605963575726392,-0.03873712809802164,0.0,0.03873712809802164,-0.8314956013688406,0.0,0.8314956013688406,0.005922410916145645,0,-0.005922410916145645,-0.0016155051871604461,0.0011107687405409994,0.001782880473568596,0.4,0.03406047821044922,2.186046838760376,STABILIZE
0.02,0.005,0.01,-0.22655229023252227,-0.0007800986231547619,-0.0011327614511626113,-8.006667982386e-05,-0.0019929267541412333,0.02,0.005,0.01,-0.12377413965909909,0.00036477622640786975,-0.0006188706982954954,0.00018920626897676738,-6.488820291085829e-05,0.2,0.02,0,-0.14811993931038234,0.0014840780297420359,-0.002962398786207647,0.0,-0.001478320756465611,0.002,8e-05,0,-1.5509869060441248,-0.0017448987419021065,-0.00012407895248353,-0.0,-0.0018689776943856366,0.018238811320393487,0.0,-0.018238811320393487,-0.03900493115773809,0.0,0.03900493115773809,-0.8724493709510532,0.0,0.8724493709510532,0.007420390148710179,0,-0.007420390148710179,-0.00199291833374095,6.514630678794223e-05,0.001478320756465611,0.4,0.0334475040435791,2.219503164291382,STABILIZE
0.02,0.005,0.01,-0.22784096294355302,-0.0007704929518562964,-0.001139204814717765,0.00014357994023548795,-0.0017661178263385733,0.02,0.005,0.01,-0.12311646373660622,0.0003932221568353357,-0.0006155823186830311,0.0004251930826917729,0.00020283292084407754,0.2,0.02,0,-0.14776085988616142,0.0021469234441811543,-0.0029552171977232284,0.0,-0.0008082937535420741,0.002,8e-05,0,-1.5798830070822947,-0.0017276878757081192,-0.0001263906405665836,0.0,-0.0018540785162747028,0.019661107841766785,0.0,-0.019661107841766785,-0.03852464759281482,0.0,0.03852464759281482,-0.8638439378540596,0.0,0.8638439378540596,0.010734617220905771,0,-0.010734617220905771,-0.0017661557969846178,-0.0002025020273149291,0.0008082937535420741,0.4,0.03345060348510742,2.2529680728912354,STABILIZE
0.02,0.005,0.01,-0.22907025840618447,-0.0007347348969507753,-0.0011453512920309224,0.000534303826557869,-0.0013457823624238286,0.02,0.005,0.01,-0.12257027653211654,0.000326449427013688,-0.0006128513826605827,-0.0009977311447081113,-0.001284133100355006,0.2,0.02,0,-0.14729246476852406,0.002799540459970766,-0.0029458492953704815,0.0,-0.0001463088353997155,0.002,8e-05,0,-1.608628881615742,-0.0017181058423400707,-0.00012869031052925936,0.0,-0.00184679615286933,0.0163224713506844,0.0,-0.0163224713506844,-0.03673674484753876,0.0,0.03673674484753876,-0.8590529211700353,0.0,0.8590529211700353,0.013997702299853828,0,-0.013997702299853828,-0.0013454686008531288,0.0012844618447259322,0.0001463088353997155,0.4,0.0334622859954834,2.2864325046539307,STABILIZE
0.02,0.005,0.01,-0.23033212857555535,-0.0007547529178636409,-0.0011516606428777767,-0.0002993307089067151,-0.0022057442696481327,0.02,0.005,0.01,-0.12192317267243072,0.00038704736676848376,-0.0006096158633621536,0.0009061247534930686,0.0006835562568993988,0.2,0.02,0,-0.14691779969362867,0.00224095604573867,-0.0029383559938725733,-0.0,-0.0006973999481339034,0.002,8e-05,0,-1.636981170610634,-0.0016958141468450053,-0.00013095849364885075,0.0,-0.001826772640493856,0.019352368338424186,0.0,-0.019352368338424186,-0.03773764589318204,0.0,0.03773764589318204,-0.8479070734225026,0.0,0.8479070734225026,0.01120478022869335,0,-0.01120478022869335,-0.0022058779039406413,-0.00068312488780481,0.0006973999481339034,0.4,0.03343796730041504,2.3198606967926025,STABILIZE
0.02,0.005,0.01,-0.23159761112303084,-0.0007565467492615495,-0.0011579880556151542,-2.6810273194174e-05,-0.0019413450780708778,0.02,0.005,0.01,-0.12121109673373216,0.00042570222538781434,-0.0006060554836686609,0.0005777283868900165,0.0003973751286091699,0.2,0.02,0,-0.14649094090425846,0.0025519010920852002,-0.0029298188180851693,0.0,-0.0003779177259999691,0.002,8e-05,0,-1.664908328550988,-0.0016695766052275672,-0.00013319266628407907,0.0,-0.0018027692715116461,0.021285111269390717,0.0,-0.021285111269390717,-0.037827337463077475,0.0,0.037827337463077475,-0.8347883026137836,0.0,0.8347883026137836,0.012759505460426,0,-0.012759505460426,-0.0019414335235371067,-0.00039694279017696234,0.0003779177259999691,0.4,0.033454179763793945,2.3533411026000977,STABILIZE
0.02,0.005,0.01,-0.23289580334397764,-0.0007692108473428807,-0.0011644790167198882,-0.0001875947463479171,-0.002121284610410686,0.02,0.005,0.01,-0.12053692318423584,0.0003994644236013116,-0.0006026846159211792,-0.000388663585772584,-0.0005918837780924517,0.2,0.02,0,-0.14607867747772382,0.0024427622854025464,-0.0029215735495544764,-0.0,-0.0004788112641519299,0.002,8e-05,0,-1.6929516001416878,-0.0016616328733518619,-0.00013543612801133502,0.0,-0.001797069001363197,0.01997322118006558,0.0,-0.01997322118006558,-0.03846054236714404,0.0,0.03846054236714404,-0.830816436675931,0.0,0.830816436675931,0.012213811427012732,0,-0.012213811427012732,-0.0021211583896247493,0.0005923359614768899,0.0004788112641519299,0.4,0.03375387191772461,2.387073040008545,STABILIZE
0.02,0.005,0.01,-0.23423322085721965,-0.0007994093892720615,-0.0011711661042860982,-0.00045126143708843554,-0.002421836930646595,0.02,0.005,0.01,-0.11980821307757983,0.0004355690691578791,-0.0005990410653878991,0.0005395172481384522,0.00037604525190843214,0.2,0.02,0,-0.14567132886395157,0.0024348290891385302,-0.002913426577279031,-0.0,-0.000478597488140501,0.002,8e-05,0,-1.7207517349428654,-0.0016616866881919714,-0.00013766013879542923,-0.0,-0.0017993468269874007,0.021778453457893955,0.0,-0.021778453457893955,-0.039970469463603074,0.0,0.039970469463603074,-0.8308433440959857,0.0,0.8308433440959857,0.01217414544569265,0,-0.01217414544569265,-0.002421916777665919,-0.00037553065412417036,0.000478597488140501,0.4,0.033460140228271484,2.4205453395843506,STABILIZE
0.02,0.005,0.01,-0.2354903396852373,-0.0007517020028555231,-0.0011774516984261866,0.0007131731925625591,-0.0012159805087191505,0.02,0.005,0.01,-0.11907267487431458,0.0004398196322006502,-0.0005953633743715729,6.35412635882863e-05,-9.200247858263642e-05,0.2,0.02,0,-0.1451638896881438,0.003034264035195006,-0.0029032777937628763,0.0,0.00013098624143212953,0.002,8e-05,0,-1.7483945655691482,-0.0016529202079599145,-0.00013987156524553187,0.0,-0.0017927917732054465,0.02199098161003251,0.0,-0.02199098161003251,-0.037585100142776155,0.0,0.037585100142776155,-0.8264601039799572,0.0,0.8264601039799572,0.015171320175975028,0,-0.015171320175975028,-0.0012159561048018415,9.23244542110381e-05,-0.00013098624143212953,0.4,0.033447265625,2.4539926052093506,STABILIZE
0.02,0.005,0.01,-0.2366652551662453,-0.0007023727687768473,-0.0011833262758312265,0.0007372341092092038,-0.0011484649353988702,0.02,0.005,0.01,-0.11833600825815262,0.00044038450358595125,-0.000591680041290763,8.442102545034433e-06,-0.00014285343515977738,0.2,0.02,0,-0.14456395858422377,0.0035864304909334318,-0.0028912791716844753,0.0,0.0006951513192489565,0.002,8e-05,0,-1.7757812415737326,-0.0016371948249785443,-0.00014206249932589862,0.0,-0.001779257324304443,0.022019225179297563,0.0,-0.022019225179297563,-0.035118638438842366,0.0,0.035118638438842366,-0.8185974124892721,0.0,0.8185974124892721,0.017932152454667158,0,-0.017932152454667158,-0.0011484201695830861,0.00014321286908806696,-0.0006951513192489565,0.4,0.033455610275268555,2.487450361251831,STABILIZE
0.02,0.005,0.01,-0.23781553269894654,-0.0006851635870680356,-0.0011890776634947327,0.00025626651688192176,-0.0016179747336808464,0.02,0.005,0.01,-0.11758185021499808,0.0004492147463321639,-0.0005879092510749904,0.00013149350097425554,-7.20100376857096e-06,0.2,0.02,0,-0.14394479976691055,0.003688023665374943,-0.002878895995338211,0.0,0.000809127670036732,0.002,8e-05,0,-1.8030552261820991,-0.0016245767301064384,-0.00014424441809456794,0.0,-0.0017688211482010064,0.022460737316608196,0.0,-0.022460737316608196,-0.03425817935340178,0.0,0.03425817935340178,-0.8122883650532192,0.0,0.8122883650532192,0.018440118326874713,0,-0.018440118326874713,-0.0016179723323081082,7.721733635748911e-06,-0.000809127670036732,0.4,0.03357672691345215,2.521038293838501,STABILIZE
0.02,0.005,0.01,-0.23889910362684147,-0.0006480064841846716,-0.0011944955181342075,0.0005555253233102526,-0.0012869766790086267,0.02,0.005,0.01,-0.11671708515998279,0.0005171542983668515,-0.000583585425799914,0.0010157450038044155,0.0009493138763713531,0.2,0.02,0,-0.14337737786462557,0.0033933456729353176,-0.0028675475572925114,-0.0,0.0005257981156428062,0.002,8e-05,0,-1.8299797763064876,-0.0016101652983855949,-0.000146398382104519,0.0,-0.001756563680490114,0.025857714918342576,0.0,-0.025857714918342576,-0.03240032420923358,0.0,0.03240032420923358,-0.8050826491927974,0.0,0.8050826491927974,0.016966728364676588,0,-0.016966728364676588,-0.0012872577384079572,-0.0009489327284334277,-0.0005257981156428062,0.4,0.03344321250915527,2.55448055267334,STABILIZE
0.02,0.005,0.01,-0.23974541208089967,-0.0005027832570718555,-0.0011987270604044984,0.002156891106905027,0.0004553807894286733,0.02,0.005,0.01,-0.11559673776860124,0.0006655870064746289,-0.0005779836888430062,0.0022045591084598657,0.0022921624260914884,0.2,0.02,0,-0.14273025548365573,0.003844488340721774,-0.0028546051096731144,0.0,0.0009898832310486594,0.002,8e-05,0,-1.8576491337319165,-0.0016438084224177836,-0.00014861193069855334,-0.0,-0.0017924203531163368,0.033279350323731444,0.0,-0.033279350323731444,-0.025139162853592772,0.0,0.025139162853592772,-0.8219042112088918,0.0,0.8219042112088918,0.01922244170360887,0,-0.01922244170360887,0.00045461175501564896,-0.0022923150750208602,-0.0009898832310486594,0.4,0.03366494178771973,2.588139533996582,STABILIZE
0.02,0.005,0.01,-0.24060618280994436,-0.0005137802920044288,-0.0012030309140497219,-0.0001640988601317489,-0.0018809100661858996,0.02,0.005,0.01,-0.11436828162447295,0.000733245840208035,-0.0005718414081223648,0.0010096119146270103,0.0011710163467126805,0.2,0.02,0,-0.14214399939210914,0.003499268919593266,-0.002842879987842183,-0.0,0.0006563889317510829,0.002,8e-05,0,-1.8850246844265235,-0.0016340028715040988,-0.0001508019747541219,0.0,-0.0017848048462582207,0.03666229201040175,0.0,-0.03666229201040175,-0.025689014600221438,0.0,0.025689014600221438,-0.8170014357520494,0.0,0.8170014357520494,0.01749634459796633,0,-0.01749634459796633,-0.0018812675703631467,-0.0011704419208349044,-0.0006563889317510829,0.4,0.033507347106933594,2.6216580867767334,STABILIZE
