Mode,Time,Freq,North-Vision,East-Vision,Down-Vision,Yaw-Vision,North-Desired,East-Desired,Down-Desired,Roll-UAV,Pitch-UAV,Yaw-UAV,Roll-Control,Pitch-Control,Yaw-Control,Thrust-Control,northVraw,eastVraw,downVraw,N-Velocity,E-Velocity,D-Velocity,N-Acceleration,E-Acceleration,D-Acceleration,yawVraw,yawRate,Landing-State,Q-Size
GUIDED_NOGPS,0.03414583206176758,29.298220859324246,-17.101710008038776,28.166066548924274,28.29649039179314,-5.959111993692473,-16.905783323783872,28.156410192618733,28.059701604174318,0.6294055605546716,-0.4345532835823131,3.4298279433763277,-0.05031663467004853,-0.36560501097069076,-2.9795559968462366,0.49952579187832596,-17.56895104722873,28.888835246794546,29.49963053281387,-7.646755874156952,-2.198401279747486,10.851457715034485,-19.444580376148224,-34.52010452747345,13.285672664642334,-5.626105316856608,-1.725855614573407,False,0
GUIDED_NOGPS,0.09599590301513672,16.16906512260845,-17.37516169078931,28.176699280838047,28.583339619787488,-5.9182662403263295,-16.905783323783872,28.156410192618733,28.059701604174318,0.8566773304224955,-0.17371647002916554,3.4525139898177017,-0.038976046476554935,-0.2996156703576971,-2.9591331201631648,0.49894949406887756,-17.661272967578725,28.90109358757918,29.737351533513518,-7.284592092037201,-3.2165449112653732,12.092205137014389,89.69594240188599,-20.90752124786377,47.140997648239136,-5.665725248220074,1.2071941008910874,False,0
GUIDED_NOGPS,0.11524319648742676,51.96694378709222,-17.973658610286776,28.244591487397535,28.965263263873357,-5.9468930729643,-16.905783323783872,28.156410192618733,28.059701604174318,0.7699365960059782,-0.29675581790289257,3.4254337838624824,-0.3476041458389205,-1.929580153545092,-2.97344653648215,0.49818425536537336,-18.322347681000185,28.822963699160297,30.407510728328873,-10.03166288137436,-1.8496619537472725,9.342719614505768,-48.270946741104126,17.753784358501434,-41.131848096847534,-5.762454941925106,-4.166133221517692,False,0
GUIDED_NOGPS,0.1429586410522461,36.08717423662316,-18.250491784953127,28.225763703457453,29.202374588732486,-5.952382334507085,-16.905783323783872,28.156410192618733,28.059701604174318,0.43867380864253486,-0.35029148094768725,3.481227464758201,-0.04976988237016357,-0.7057531550607499,-2.9761911672535426,0.49770749931483244,-18.44952031354608,28.790839166732834,30.551121140262836,-16.735129058361053,-2.7702270075678825,11.004579812288284,-108.9765191078186,16.748373210430145,74.69859719276428,-5.771626621273865,-0.852824249956962,False,0
GUIDED_NOGPS,0.17672443389892578,29.61995423858083,-18.471054317458147,28.220892111494177,29.4916637598949,-5.921280546270571,-16.905783323783872,28.156410192618733,28.059701604174318,0.1592014642692422,-0.40968082955459434,3.5286195860879808,-0.05083744080747979,-0.514503206911177,-2.9606402731352857,0.49712504852281725,-18.946279197995782,28.59479684432428,31.20263236898593,-6.683984398841858,-2.1224984899163246,10.810361802577972,48.31826984882355,-23.224957287311554,90.76880812644958,-5.814631339059935,1.424113224967876,False,0
GUIDED_NOGPS,0.21115708351135254,29.043409618114463,-18.750241012780094,28.215839742624333,29.813884552407035,-5.8885155445840835,-16.905783323783872,28.156410192618733,28.059701604174318,-0.18573509500830213,-0.5488915040619728,3.572517425327064,-0.0623179438733964,-0.6321931021052636,-2.9442577722920418,0.4964757826067932,-19.230601133762455,28.47555379022451,31.491587603748194,-6.683984398841858,-2.1224984899163246,10.810361802577972,48.31826984882355,-23.224957287311554,90.76880812644958,-5.823063772031494,1.424113224967876,False,0
GUIDED_NOGPS,0.24486684799194336,29.670871032321504,-19.023149680006295,28.16800355929734,30.205647577054023,-5.9161673734478715,-16.905783323783872,28.156410192618733,28.059701604174318,-0.5772699795680237,-0.8242711777402527,3.599846079413343,-0.01174714368080041,-0.6575124885000703,-2.9580836867239357,0.49568646368053854,-19.519518919278205,28.40077051842602,31.724626865290702,-6.509209424257278,-4.5509640127420425,15.273140370845795,18.628649413585663,-52.797091007232666,-94.34283971786499,-5.839510760803595,-2.4476845202123405,False,0
GUIDED_NOGPS,0.279998779296875,28.466259001106263,-19.337052099251064,28.088841492158725,30.572078052456263,-5.882907706186457,-16.905783323783872,28.156410192618733,28.059701604174318,-0.6411310743688794,-0.9690827140887475,3.6524709794209986,0.017970034278184402,-0.736139787388846,-2.9414538530932286,0.4949465295309264,-19.652347542520438,28.3646043713984,31.875864604203432,-10.16995832324028,-6.325384229421616,13.97646814584732,-30.0296813249588,-48.49116504192352,101.63636207580566,-5.8469489049991585,1.6513530850456715,False,0
GUIDED_NOGPS,0.3120896816253662,31.165415880281166,-19.588292506229894,27.980169197185283,30.958059501537836,-5.889391776037979,-16.905783323783872,28.156410192618733,28.059701604174318,-0.5999853744784879,-1.1016761092291472,3.666399442685947,0.07323067857240972,-0.6966763770709664,-2.9446958880189893,0.49416712951830916,-19.729969876167637,28.267747789386164,32.090014391089625,-6.859034299850464,-7.872552424669266,15.353357791900635,125.0206470489502,-35.093289613723755,-53.15706729888916,-5.893280582383502,-0.7815213438902603,False,0
GUIDED_NOGPS,0.3450155258178711,30.37567804404661,-19.828475870739872,27.849985592126455,31.32215540763194,-5.910056440881106,-16.905783323783872,28.156410192618733,28.059701604174318,-0.6013739305924103,-1.1885516331600665,3.6674931267267956,0.10349770414472441,-0.6875557755430861,-2.955028220440553,0.49343035693887694,-20.399202894654508,27.962619957853803,32.945498636038764,-6.0544900596141815,-8.40609073638916,12.898416817188263,41.03346765041351,-29.767677187919617,-8.620545268058777,-5.972152630090731,-1.4190960241356787,False,0
GUIDED_NOGPS,0.37892699241638184,29.49269767605386,-20.07461760333962,27.71462826659545,31.696529305317853,-5.931172413352537,-16.905783323783872,28.156410192618733,28.059701604174318,-0.4701814179229508,-1.1311080346929667,3.7080550588865626,0.10955896641911549,-0.7055109425063694,-2.9655862066762686,0.4926717448116257,-20.487510518413416,27.85305302079795,33.17929327637875,-6.0544900596141815,-8.40609073638916,12.898416817188263,41.03346765041351,-29.767677187919617,-8.620545268058777,-5.985978356838257,-1.4190960241356787,False,0
GUIDED_NOGPS,0.4127237796783447,29.593621675015875,-20.32126855672042,27.545588320379085,32.119430159990465,-5.947943401073592,-16.905783323783872,28.156410192618733,28.059701604174318,-0.5416332541300707,-1.0676062718754773,3.7691348793130475,0.15565824541135798,-0.7326475676887229,-2.973971700536796,0.49181496431669774,-20.730509494200426,27.52638592102064,33.84187261757678,-5.919186398386955,-9.673435240983963,14.678338170051575,122.51360416412354,-34.491851925849915,98.83229732513428,-6.0281658407061585,-0.9973484914734931,False,0
GUIDED_NOGPS,0.44598865509033203,30.065402204923085,-20.545326773370228,27.35367712841369,32.54043640637199,-5.921922326455719,-16.905783323783872,28.156410192618733,28.059701604174318,-0.5101721755133755,-1.1605472172327795,3.795706876505336,0.19836693921660747,-0.722584936664348,-2.9609611632278594,0.49096106243521176,-20.730509494200426,27.52638592102064,33.84187261757678,-5.224021524190903,-11.203151196241379,15.271681547164917,13.287553191184998,-39.9601548910141,140.51945209503174,-6.0281658407061585,1.8209664256526576,False,0
GUIDED_NOGPS,0.4809443950653076,28.612874177968184,-20.781465665522898,27.147372085575665,32.962074440355956,-5.958806497200781,-16.905783323783872,28.156410192618733,28.059701604174318,-0.532210047674686,-1.157851000057917,3.8157274416231126,0.2105934525830797,-0.7426180634612344,-2.9794032486003905,0.49010405370529875,-20.730509494200426,27.52638592102064,33.84187261757678,-7.087787985801697,-12.275229394435883,16.352877020835876,-68.63080859184265,-53.61799597740173,86.96072101593018,-6.0281658407061585,-2.2998354706738944,False,0
GUIDED_NOGPS,0.5164635181427002,28.15630517235592,-20.98686005012835,26.88686175751009,33.44080165484899,-5.988290349023889,-16.905783323783872,28.156410192618733,28.059701604174318,-0.5931330939153784,-1.2413466475667378,3.790633753499309,0.2853760467298197,-0.7099425843530325,-2.9941451745119445,0.48913133099199874,-21.17947093542668,26.809327949126704,34.87960178404683,-4.338718205690384,-13.847000896930695,17.719072103500366,-0.945889949798584,-45.44084966182709,71.3256299495697,-6.048857968775874,-1.7399276185326316,False,0
GUIDED_NOGPS,0.5480048656463623,31.70920967083478,-21.216024192233487,26.58852814406591,33.923723960538446,-6.013615195073214,-16.905783323783872,28.156410192618733,28.059701604174318,-0.46733418953440753,-1.090654318342862,3.7938149141052424,0.37249662349065393,-0.8263446190877819,-3.006807597536607,0.48815066940289653,-21.350061175990287,26.451699755221114,35.28990508590198,-5.3451064974069595,-15.117163956165314,16.682279109954834,-87.36932277679443,-44.15343105792999,29.91551160812378,-6.124322157026813,-1.2382027328361223,False,0
GUIDED_NOGPS,0.5825512409210205,28.95379050406594,-21.400640237405433,26.283093451002383,34.327619135670176,-5.999764038210524,-16.905783323783872,28.156410192618733,28.059701604174318,-0.40465263638670135,-0.9479334602106261,3.7314941336839307,0.37507168977599015,-0.7269038185508642,-2.999882019105262,0.4873255865925473,-21.370565891077955,26.22921777289074,35.551583934970736,-5.216355994343758,-16.127844154834747,14.19290155172348,-29.645144939422607,-38.76543641090393,-10.596659034490585,-6.156571642262995,1.383986930811109,False,0
GUIDED_NOGPS,0.6194968223571777,27.070329996579343,-21.599162280924233,25.946542266463815,34.70410707623654,-5.989245485157923,-16.905783323783872,28.156410192618733,28.059701604174318,-0.35555947778847113,-0.8081617496959546,3.634809817774638,0.4008891416284617,-0.7474414612373272,-2.9946227425789615,0.4865529956429533,-21.51388519731002,25.808886118551055,35.97442644066965,-5.223524197936058,-16.715626418590546,10.69108098745346,-37.39013373851776,-34.31122004985809,-66.30852222442627,-6.186342775095181,1.2368264497183645,False,0
GUIDED_NOGPS,0.6563229560852051,27.15621135505759,-21.746159700895813,25.552737068371517,35.22261197914797,-5.977591249505611,-16.905783323783872,28.156410192618733,28.059701604174318,-0.31513121456519544,-0.5006443284254721,3.5532287576675365,0.4903532433633572,-0.6847565605381694,-2.9887956247528056,0.4854948485515974,-21.568393455018317,25.39748402197339,37.08450597030187,-0.6085392087697983,-18.32612454891205,15.33561795949936,32.85209536552429,-44.28117573261261,36.734843254089355,-5.999415761521213,0.7484587459957557,False,0
GUIDED_NOGPS,0.693065881729126,27.21912598803328,-21.881640138325547,25.138597721471616,35.71460596786719,-5.972383476185659,-16.905783323783872,28.156410192618733,28.059701604174318,-0.32572569174153143,-0.4913672239853023,3.412310856032772,0.5347011196961091,-0.6820550545773377,-2.9861917380928293,0.48448829991728004,-21.748575570202675,24.7753503511845,36.9882441273227,-0.6085392087697983,-18.32612454891205,15.33561795949936,32.85209536552429,-44.28117573261261,36.734843254089355,-6.1517226690739335,0.7484587459957557,False,0
GUIDED_NOGPS,0.7241218090057373,32.20516443099887,-21.991888408320694,24.68780348743104,36.144300780513944,-5.943100276685678,-16.905783323783872,28.156410192618733,28.059701604174318,-0.20585437770392673,-0.39251389612770776,3.298288318358814,0.6892142368707403,-0.6997897883000908,-2.971550138342839,0.48360886810728376,-21.68112229652462,24.19493901667815,37.49280503201105,-0.6508109625428915,-20.005087554454803,11.957234144210815,32.15154409408569,-34.748563170433044,-67.06092953681946,-6.0869157481264295,2.0992934326795036,False,0
GUIDED_NOGPS,0.7575445175170898,29.92511415525114,-21.976657166390698,24.267074727626632,36.47644099388795,-5.901274693226095,-16.905783323783872,28.156410192618733,28.059701604174318,-0.237297847239168,-0.4706521140062999,3.15778428349907,0.6584777634734144,-0.4530588664871267,-2.9506373466130476,0.4829221013240615,-21.7955087701571,23.984817275057118,37.62455217090007,5.22853322327137,-20.165421068668365,9.545966237783432,41.23895764350891,-18.31333488225937,-69.64300870895386,-6.043546989701447,2.8424760709848362,False,0
GUIDED_NOGPS,0.7910807132720947,29.82086029150373,-21.960445400356534,23.834304169446952,36.85487180835105,-5.852825791614072,-16.905783323783872,28.156410192618733,28.059701604174318,-0.2527536581964077,-0.5229059426429535,3.007282132354897,0.6927684890013402,-0.45340356465414644,-2.926412895807036,0.4821416138141143,-21.5941135185192,23.854942388938774,38.46790626298616,5.22853322327137,-20.165421068668365,9.545966237783432,41.23895764350891,-18.31333488225937,-69.64300870895386,-5.8976964165542185,2.8424760709848362,False,0
GUIDED_NOGPS,0.8277058601379395,27.30648889004629,-22.05718891327998,23.335842186616073,37.279360006278026,-5.758308733552365,-16.905783323783872,28.156410192618733,28.059701604174318,-0.06780867733685854,-0.5674327996159129,2.830493357859695,0.7277334840037349,-0.6521644470473403,-2.8791543667761825,0.4812656048947579,-21.58210219900603,23.113806759065305,38.80756662717393,-2.521943859755993,-22.91843891143799,12.510824203491211,-154.02969121932983,-57.099729776382446,-58.721667528152466,-5.782708529957193,5.528317548167886,False,0
GUIDED_NOGPS,0.8720428943634033,22.55620627161211,-22.13909378320944,22.797235950006083,37.751092353288044,-5.670961358642269,-16.905783323783872,28.156410192618733,28.059701604174318,0.09115058202111266,-0.5221229254876351,2.6435455307477453,0.7024219124791541,-0.6076647949092563,-2.8354806793211345,0.4802877474534045,-21.65108223720157,22.21057984383968,39.37684400263776,-1.7830250784754753,-23.730449378490448,15.03622680902481,-11.779715120792389,-20.516280829906464,57.89002180099487,-5.6035830719521265,4.600723217366794,False,0
GUIDED_NOGPS,0.8953216075897217,42.97222478356642,-22.177137115052574,22.257754553088347,38.14451634107335,-5.58743204457313,-16.905783323783872,28.156410192618733,28.059701604174318,0.06008549429371952,-0.5363058132991665,2.5077120646198208,1.1755825189143299,-0.6438692979028319,-2.793716022286565,0.47948221550271614,-21.568649057394644,21.55757856626687,39.846762610710215,-0.5079577211290598,-24.867431819438934,11.933843791484833,18.999457359313965,-14.821994304656982,-124.88805055618286,-5.493317209421243,4.323683060668261,False,0
GUIDED_NOGPS,0.926469087600708,32.107292129154736,-22.188767585767202,21.7479801322406,38.477005921102986,-5.536213632081096,-16.905783323783872,28.156410192618733,28.059701604174318,0.18557069022054581,-0.40458252022600294,2.3461970872126483,0.9320850438601687,-0.543854399726294,-2.768106816040548,0.47879121394476726,-21.66505753153515,20.092639032846012,40.5581219192926,-1.0083913803100586,-25.567233562469482,12.69644945859909,4.266190528869629,-48.0181097984314,52.20744013786316,-5.258716428715644,2.2452227721743534,False,0
GUIDED_NOGPS,0.965259313583374,25.783017882060772,-22.246508555275696,21.10481833525543,38.90421509879887,-5.402873842392246,-16.905783323783872,28.156410192618733,28.059701604174318,0.11990834646951089,-0.36499292952761075,2.26480214976043,0.9702986801249278,-0.617564103355392,-2.701436921196123,0.47790316772700947,-21.547938434047,19.042150208869877,41.23325846216022,-1.8693922087550163,-26.280736923217773,11.469743400812149,-103.64599227905273,-36.956435441970825,-29.182815551757812,-4.963768691535687,6.441291005276919,False,0
GUIDED_NOGPS,0.9926283359527588,36.542752095349286,-22.341005629688585,20.35759454693067,39.39540088835523,-5.322366253902154,-16.905783323783872,28.156410192618733,28.059701604174318,0.15891769125356933,-0.27893297287227325,2.2061995535685432,1.4250406234785846,-0.7848562307163582,-2.661183126951077,0.47689599887329,-21.704733089051555,18.608918596259024,41.33829648859604,-2.086726576089859,-26.867803931236267,10.874810069799423,-31.569737195968628,-7.315052300691605,24.898773431777954,-4.953001454792803,2.226142638727923,False,0
GUIDED_NOGPS,1.0275352001190186,28.65314041343881,-22.468483076672154,19.728058352393056,39.741227182519324,-5.1938439255578706,-16.905783323783872,28.156410192618733,28.059701604174318,0.14636689848855355,-0.2165312973979789,2.0200374116545565,1.0876806416849256,-0.7734450919711722,-2.5969219627789353,0.47617175000526324,-21.59389749698252,17.596111885585437,41.851588520651035,-8.453099429607391,-27.74384617805481,10.139691084623337,-112.5594973564148,-23.530665040016174,-10.011562705039978,-4.708014959648828,6.164370803775683,False,0
GUIDED_NOGPS,1.0596396923065186,31.15453579837925,-22.55514652680083,18.991345043684234,40.1818922500922,-5.090043594732684,-16.905783323783872,28.156410192618733,28.059701604174318,0.31267858968377904,0.10675137441565648,1.4339097439500843,1.332689378204252,-0.7440578232483123,-2.545021797366342,0.47525949659386957,-21.666487519021384,17.048423991480625,41.96794908320634,-3.584105893969536,-27.97372341156006,11.57303974032402,-70.07154822349548,-36.49894297122955,37.73757815361023,-4.604341403494759,3.5532727270103184,False,0
GUIDED_NOGPS,1.093306303024292,29.70449217781744,-22.62991564222459,18.264591056862788,40.55888566504873,-4.8845276021540665,-16.905783323783872,28.156410192618733,28.059701604174318,0.3063133869858561,0.22325673921376718,1.161223299238905,1.306867783206822,-0.7121151418958315,-2.4422638010770332,0.47447154281740345,-21.54091439429497,16.264620011378444,42.34204806686826,-4.080386459827423,-28.47118377685547,9.036701172590256,-77.45264768600464,-3.582362085580826,-25.395649671554565,-4.370558133838981,10.234214579695475,False,0
GUIDED_NOGPS,1.1313846111297607,26.265124521732595,-22.724990972017103,17.502825112367063,40.83839668115616,-4.724813732136975,-16.905783323783872,28.156410192618733,28.059701604174318,0.42629174289435956,0.14593430205416846,0.9075305433924734,1.2925541502264128,-0.7333180067183093,-2.3624068660684876,0.47387367466163294,-21.315917413444055,15.645637844656498,42.6289958405112,-5.906575918197632,-28.766822814941406,1.5197448432445526,-37.130752205848694,-4.300146922469139,-91.84578657150269,-4.100696457781913,6.293845150342914,False,0
GUIDED_NOGPS,1.1618194580078125,32.861964680257614,-22.80510779546563,16.64973036113979,41.21851697384879,-4.5615545953287135,-16.905783323783872,28.156410192618733,28.059701604174318,0.5610747472722772,-0.057543276540299615,0.6111207172597243,1.6558298003322156,-0.7731020390134059,-2.2807772976643568,0.47308139866756066,-21.297948183328845,15.233384362405449,42.756486708845856,-3.9298944175243378,-29.99398708343506,5.813892185688019,-43.6921089887619,-23.415513336658478,-66.17307662963867,-3.9966636527657236,5.6305714564585,False,0
GUIDED_NOGPS,1.2034308910369873,24.034886452847704,-22.824768023603085,15.951653780453912,41.465165228316565,-4.383243645900831,-16.905783323783872,28.156410192618733,28.059701604174318,0.7048146909730205,-0.2060753449957472,0.4615205246119631,1.2591673878702592,-0.6095746624106637,-2.1916218229504154,0.472543699219535,-21.297948183328845,15.233384362405449,42.756486708845856,-2.4028483778238297,-30.019253492355347,3.9246581494808197,-84.797203540802,-16.78462326526642,160.6576681137085,-3.9966636527657236,8.312800403900848,False,0
GUIDED_NOGPS,1.2278077602386475,41.02851441371822,-22.90567819557674,15.018612328345535,41.83319829956239,-4.166386500244923,-16.905783323783872,28.156410192618733,28.059701604174318,0.696949621422045,-0.45651148799025787,0.28652005906011446,2.134057945263246,-0.84406180363925,-2.0831932501224615,0.47178047294833825,-21.216312340868154,13.91593297267232,43.256273588582474,-4.068880155682564,-30.47308921813965,4.0299877524375916,-113.68863582611084,-5.073969438672066,59.48497653007507,-3.5471281628101563,7.601682942427786,False,0
GUIDED_NOGPS,1.2611491680145264,29.99616671911205,-22.897801037039763,14.338561132359537,42.051800566892595,-4.041461606750513,-16.905783323783872,28.156410192618733,28.059701604174318,1.0508561934313732,-0.7228460702167367,0.049092471577249275,1.489451670051518,-0.5818599410173861,-2.0207308033752565,0.4713059212243288,-21.272097909463096,11.859312747111991,43.87959240345327,-2.6085462421178818,-29.80271577835083,4.983337223529816,-19.849887490272522,-7.062971591949463,-21.561788022518158,-2.9194342953921426,3.6182278260171397,False,0
GUIDED_NOGPS,1.3014328479766846,24.82762213132706,-22.908320189426348,13.507893141825827,42.352738464433614,-3.8825442688518033,-16.905783323783872,28.156410192618733,28.059701604174318,1.2820119930594072,-1.0141788246403451,-0.15072082391931935,1.54932071844393,-0.6130420704291082,-1.9412721344259016,0.47065837781774994,-21.272097909463096,11.859312747111991,43.87959240345327,-1.6479704529047012,-30.538204312324524,5.338381975889206,8.966654539108276,-21.260686218738556,2.725100517272949,-2.9194342953921426,4.2939559429662495,False,0
GUIDED_NOGPS,1.3287956714630127,36.55262446948504,-22.91969634027621,12.549386888055116,42.689396156649224,-3.7012193183828264,-16.905783323783872,28.156410192618733,28.059701604174318,1.3605245906818806,-1.0130917573452551,-0.22388023409936886,2.1536568781175154,-0.6572510286081421,-1.8506096591914132,0.46995270113197235,-21.003692214704593,10.854463252974021,44.26396500489038,-1.2914016842842102,-29.68381643295288,3.67138534784317,0.3587678074836731,12.534564733505249,-83.55688452720642,-2.7109842026710487,4.119876619137427,False,0
GUIDED_NOGPS,1.3725929260253906,22.833848699969515,-22.875534074750714,11.785881314549721,42.93544988009756,-3.5540207741215175,-16.905783323783872,28.156410192618733,28.059701604174318,1.4276094280492764,-1.071441636537851,-0.36051147165843617,1.5129651161430755,-0.5235257478757989,-1.7770103870607588,0.4694084101929604,-20.76041381406617,8.888161631095507,45.34774409357539,-1.2914016842842102,-29.68381643295288,3.67138534784317,0.3587678074836731,12.534564733505249,-83.55688452720642,-2.352047935131062,4.119876619137427,False,0
GUIDED_NOGPS,1.396672248840332,41.53763270480114,-22.81283858408581,10.872636348408843,43.24483671221185,-3.4027120539754634,-16.905783323783872,28.156410192618733,28.059701604174318,1.475238898452714,-0.8866963319898189,-0.4174409649883602,2.3882870388932216,-0.4706240162665078,-1.7013560269877317,0.4687604154082589,-20.78435610335861,7.518382791613698,45.213997246451825,1.2965301051735878,-29.45844829082489,5.387278273701668,56.67492151260376,6.056603044271469,-10.162722319364548,-2.27021543072144,3.131423168397406,False,0
GUIDED_NOGPS,1.4384942054748535,23.91265728245563,-22.69151413008751,10.207881482219607,43.45285513553858,-3.306019770450469,-16.905783323783872,28.156410192618733,28.059701604174318,1.4785440696807655,-0.7540341013491901,-0.4605943402883388,1.544983308320445,-0.3910134137930343,-1.6530098852252344,0.46829284187911757,-20.78435610335861,7.518382791613698,45.213997246451825,3.49494069814682,-28.910455107688904,5.550656095147133,49.04000759124756,6.309351325035095,1.7194755375385284,-2.27021543072144,2.2030136972075556,False,0
GUIDED_NOGPS,1.4758939743041992,26.741031182857398,-22.57994452867636,9.330304840127939,43.76711566440622,-3.1740881532307217,-16.905783323783872,28.156410192618733,28.059701604174318,1.4349418495666966,-0.7420924760807749,-0.5028133403737743,1.896701369337595,-0.39320775964148214,-1.5870440766153608,0.4676173586828483,-20.37134749622441,6.8457101106161735,45.869382825418526,3.49494069814682,-28.910455107688904,5.550656095147133,49.04000759124756,6.309351325035095,1.7194755375385284,-2.145918019401359,2.2030136972075556,False,0
GUIDED_NOGPS,1.4976332187652588,46.01287916186715,-22.456412873286403,8.62310798367837,44.04342199174576,-3.0860925848796468,-16.905783323783872,28.156410192618733,28.059701604174318,1.4506700676779436,-0.6898779210318489,-0.5174201801615226,2.309989142316705,-0.2395267728020984,-1.5430462924398234,0.46703705359116127,-20.393046911383934,6.194404545176324,45.91830722764796,3.4144625067710876,-28.918641805648804,8.448980748653412,4.5190319418907166,-3.5134773701429367,50.730109214782715,-2.1507584985802772,1.3939228283410676,False,0
GUIDED_NOGPS,1.5299429893493652,30.953587743444796,-22.250699583208156,7.994023685511426,44.3151567731431,-3.0186738788850134,-16.905783323783872,28.156410192618733,28.059701604174318,1.5579783159543676,-0.6957988412686037,-0.5801979962878436,1.8185965327869726,-0.15587630713116346,-1.5093369394425067,0.46645146211984617,-19.945202039302387,5.012288385688862,46.30512063318798,7.917622476816177,-29.372456669807434,10.812380164861679,48.47860336303711,4.360898956656456,61.559975147247314,-1.902059316651145,0.5940164294741315,False,0
GUIDED_NOGPS,1.5645332336425781,28.9138713101984,-22.15075990147203,7.0644167704545175,44.61437318689329,-2.873665178621704,-16.905783323783872,28.156410192618733,28.059701604174318,1.5441535861874387,-0.6689389089141169,-0.6105484754733241,2.1563642086678523,-0.36848187304426927,-1.436832589310852,0.4658072327748399,-20.180543812911495,3.306397301341245,46.268555115159835,2.4469049647450447,-28.693953156471252,6.0237642377614975,7.552184164524078,-4.5154813677072525,-18.632115423679352,-1.871158090345519,3.5144217572376397,False,0
GUIDED_NOGPS,1.5973429679870605,30.48518370461896,-22.0466605388206,6.106567080249553,44.946347271856,-2.7015925910715017,-16.905783323783872,28.156410192618733,28.059701604174318,1.6455844566830669,-0.6656705566745601,-0.6178993598458447,2.304320991672418,-0.34352824831506323,-1.3507962955357509,0.4650990594549332,-19.919115391866008,2.4458195071603654,46.50793396344747,2.052513137459755,-28.033724427223206,7.704701274633408,-5.5837929248809814,7.615402340888977,29.681408405303955,-1.7322944995200817,5.0471768249173845,False,0
GUIDED_NOGPS,1.6309387683868408,29.769639156233143,-21.94454486365167,5.183422236891719,45.25055369838588,-2.539990798774532,-16.905783323783872,28.156410192618733,28.059701604174318,1.5773903539057785,-0.6435910096871418,-0.6596661267030313,2.2837915891049194,-0.3365797156757245,-1.269995399387266,0.4644444650077265,-19.988113295858838,1.7037000641534736,46.465714528500996,2.052513137459755,-28.033724427223206,7.704701274633408,-5.5837929248809814,7.615402340888977,29.681408405303955,-1.7503967232454283,5.0471768249173845,False,0
GUIDED_NOGPS,1.6653988361358643,29.022709973844087,-21.807781903151916,4.272251858223454,45.54260285227274,-2.4477792545283035,-16.905783323783872,28.156410192618733,28.059701604174318,1.529644556843039,-0.5647837534350058,-0.6558228646344297,2.292407879164644,-0.26728151849531284,-1.2238896272641517,0.46381209638186294,-19.724733519025428,1.4125229575587905,46.72310617230411,3.7897665053606033,-27.199244499206543,6.482747197151184,-19.23600435256958,2.0426493138074875,-0.8184328675270081,-1.7974879179491712,0.4528794281773978,False,0
GUIDED_NOGPS,1.7034027576446533,26.315055085702813,-21.66653474132066,3.2988174937119616,45.828917611534465,-2.360025574698555,-16.905783323783872,28.156410192618733,28.059701604174318,1.4518254368647334,-0.55468916072855,-0.7034935829771519,2.313108644800624,-0.26854335544337454,-1.1800127873492774,0.463185416775197,-19.60718624993854,-0.6454579715679967,46.81438938805273,3.7897665053606033,-27.199244499206543,6.482747197151184,-19.23600435256958,2.0426493138074875,-0.8184328675270081,-1.7961268420915348,0.4528794281773978,False,0
GUIDED_NOGPS,1.7324280738830566,34.457777084035065,-21.53797782969361,2.211256104747639,46.13319021410908,-2.2589546551115234,-16.905783323783872,28.156410192618733,28.059701604174318,1.4929986709552165,-0.4782143073562676,-0.69966563547333,2.8478556151988372,-0.23253485964806525,-1.1294773275557617,0.4625349186059549,-19.54696116218866,-1.8725738084727963,46.94437143616324,2.6996664702892303,-27.42288112640381,5.955289304256439,49.97203350067139,-6.996501982212067,-11.011629551649094,-1.695169553013291,0.6292193845389358,False,0
GUIDED_NOGPS,1.766791582107544,29.1044742977684,-21.41032749567776,1.3763224443822883,46.331523190049175,-2.238529688602292,-16.905783323783872,28.156410192618733,28.059701604174318,1.5837326114369585,-0.3129969405321251,-0.6683171482562342,2.364625947675005,-0.2458009723456222,-1.119264844301146,0.4620880003353123,-19.54349398997546,-2.262135599848352,47.010460275176314,2.943836897611618,-27.627012133598328,5.103929340839386,13.907898962497711,4.758303984999657,32.2363942861557,-1.663038616077205,-2.5162523624032755,False,0
GUIDED_NOGPS,1.799769401550293,30.326700601573346,-21.306121863193614,0.4491504515941086,46.57896349038262,-2.153771743811607,-16.905783323783872,28.156410192618733,28.059701604174318,1.750719210699546,-0.1361418918576329,-0.6691895448401447,2.567927282873178,-0.27495229196721166,-1.0768858719058034,0.46154429989317364,-19.744166120653603,-2.342724938682477,47.01208670303829,1.943010650575161,-27.81468629837036,6.389763206243515,-15.062296390533447,-11.495418846607208,109.54817533493042,-1.5729350485546436,0.9480669690645587,False,0
GUIDED_NOGPS,1.8408269882202148,24.359005035223333,-21.18744422288116,-0.46266233791061284,46.80850543559625,-2.0802625347421957,-16.905783323783872,28.156410192618733,28.059701604174318,1.7935220852373117,-0.0861625162145935,-0.6824445407807593,2.3807979067747134,-0.272112894641932,-1.0401312673710978,0.46102360029441514,-19.32642207811508,-3.379604436810561,47.05329037793382,1.943010650575161,-27.81468629837036,6.389763206243515,-15.062296390533447,-11.495418846607208,109.54817533493042,-1.666792478655104,0.9480669690645587,False,0
GUIDED_NOGPS,1.8681108951568604,36.65644718672983,-21.122294023673867,-1.367916671408462,46.98683978381588,-2.02256007062794,-16.905783323783872,28.156410192618733,28.059701604174318,1.9569260368368158,-0.03177713494836698,-0.6682100530244826,2.868053990173837,-0.311972102300208,-1.01128003531397,0.4606256306480506,-19.309184838631065,-4.1134153501718185,47.07434406672694,-1.589493453502655,-26.83437466621399,3.3227290958166122,-88.2497787475586,2.9252562671899796,21.498528122901917,-1.605406919371522,-0.10319967604724985,False,0
GUIDED_NOGPS,1.9296095371246338,16.261845589575184,-21.020386026370026,-2.0725231843839795,47.10031747289373,-2.044523615773508,-16.905783323783872,28.156410192618733,28.059701604174318,1.9253857173535778,-0.047861483391806535,-0.6779836802008006,2.040585894261063,-0.3198009925811076,-1.022261807886754,0.46030499641892964,-19.25518944889263,-4.919664113988693,47.120888548244885,1.432872749865055,-26.403260231018066,3.5510439425706863,-3.8642466068267822,-11.122853308916092,51.44299268722534,-1.586710773078259,-4.062309223491621,False,1
GUIDED_NOGPS,1.9604699611663818,32.4102215387944,-20.897310291471857,-3.0224843730976705,47.25175015909103,-1.9810851498595947,-16.905783323783872,28.156410192618733,28.059701604174318,1.946661970061579,-0.1173510809555758,-0.6816846288747426,2.874734890519263,-0.1959047261782031,-0.9905425749297974,0.4599549309974643,-18.673421400471653,-6.8672386171473505,47.43049192797698,1.0267486795783043,-25.889068841934204,1.5032006427645683,-59.10770893096924,14.728210866451263,-14.04426395893097,-1.6205866275318166,0.7917052626644551,False,0
GUIDED_NOGPS,1.9741737842559814,72.99138576127247,-20.776476425585162,-3.907609818034781,47.3694360907559,-1.931392390713824,-16.905783323783872,28.156410192618733,28.059701604174318,1.946661970061579,-0.1173510809555758,-0.6816846288747426,4.004420620384037,0.06366567499693457,-0.965696195356912,0.45969825275023773,-18.57361145803312,-7.918076365686954,47.36764506367436,1.0267486795783043,-25.889068841934204,1.5032006427645683,-59.10770893096924,14.728210866451263,-14.04426395893097,-1.7186811991192554,0.7917052626644551,False,0
GUIDED_NOGPS,2.000471830368042,38.0408133650166,-20.625593730389774,-4.330923176777342,47.3507406295917,-1.9175257775408125,-16.905783323783872,28.156410192618733,28.059701604174318,2.0615508745430713,-0.2077057324949704,-0.667733700690727,2.3596148044249112,-0.04900227322032418,-0.9587628887704063,0.4596951665183855,-18.67436664030923,-8.36944693293068,47.34796442743834,5.279147997498512,-25.828394293785095,0.8431286551058292,38.55088949203491,-1.106107234954834,22.36972749233246,-1.5835620842985945,0.6671674886807035,False,0
GUIDED_NOGPS,2.037278652191162,27.170284574175202,-20.52665707982688,-5.076794468001248,47.38097008380021,-1.8987429176774349,-16.905783323783872,28.156410192618733,28.059701604174318,2.0272270395296412,-0.37110765638206467,-0.652502699006716,2.559903053587999,-0.23139056703510358,-0.9493714588387174,0.45957774854822736,-18.427962957170728,-8.829330757325387,47.46074010611269,0.11922011617571115,-25.134944915771484,-2.640635147690773,-22.520315647125244,8.456766605377197,-24.03707206249237,-1.6501410824046263,-0.7972464670720394,False,0
GUIDED_NOGPS,2.072603464126587,28.31196252345659,-20.3722733439897,-6.104039321044824,47.44530726281389,-1.8857702361392497,-16.905783323783872,78.15641019261874,28.059701604174318,2.094852955945349,-0.5696094955270313,-0.6610469454932846,3.9967313446553843,-0.16510816659965039,-0.9428851180696248,0.45939422975133937,-18.41080857086348,-9.879602513860663,47.310031421921636,3.3380508422851562,-24.80025142431259,-4.099444672465324,12.527061998844147,6.385035812854767,-53.84631156921387,-1.55635561019399,-2.839534393886676,False,0
GUIDED_NOGPS,2.1070556640625,29.030745165353895,-20.210278320717926,-7.011552874954508,47.51431380280186,-1.8697635505786365,-16.905783323783872,78.15641019261874,28.059701604174318,1.9845219220743713,-0.6939149897181495,-0.6574069349133438,3.997878359675168,-0.13026389501259786,-0.9348817752893183,0.4592027525555568,-17.959763561183344,-10.390144454901456,47.60932313798776,3.172392025589943,-24.680256843566895,-2.0191198214888573,47.258758544921875,-5.178558453917503,-69.5031225681305,-1.7311130257571032,-1.2569904488087116,False,0
GUIDED_NOGPS,2.137277841567993,33.09220014832815,-20.06468206762625,-7.948258360219397,47.562017608724226,-1.8514774903750473,-16.905783323783872,78.15641019261874,28.059701604174318,2.01381852441526,-0.7560975655304745,-0.5948045692713274,3.998461726226852,-0.11222119486654358,-0.9257387451875236,0.45906006404313093,-18.339501476836393,-11.22695055983425,47.15257904196942,3.172392025589943,-24.680256843566895,-2.0191198214888573,47.258758544921875,-5.178558453917503,-69.5031225681305,-1.6430483556046855,-1.2569904488087116,False,0
GUIDED_NOGPS,2.1714372634887695,29.278995902354577,-19.950236530859097,-8.783552766747157,47.60110646607122,-1.8078674754939226,-16.905783323783872,78.15641019261874,28.059701604174318,2.1821333820280033,-0.8992094519926939,-0.5371513160132201,3.9960936372403633,-0.18687289833861048,-0.9039337377469613,0.45892863357003616,-18.322834890547387,-12.081454883618228,47.05353499106731,1.5866640955209732,-23.954027891159058,-0.5134517792612314,-145.34704685211182,-0.39482004940509796,6.553758680820465,-1.6496806127907848,1.1452767285176293,False,0
GUIDED_NOGPS,2.210646152496338,25.507212532535455,-19.842745321103077,-9.657563025470573,47.66747681769912,-1.7742379730546167,-16.905783323783872,78.15641019261874,28.059701604174318,2.184431100353478,-0.9205226304108955,-0.5236425892171099,3.9953019160455643,-0.21360509398527877,-0.8871189865273084,0.458734251312401,-18.322834890547387,-12.081454883618228,47.05353499106731,0.9463710710406303,-23.28016608953476,0.7814386859536171,-81.27160668373108,4.5877013355493546,2.352716214954853,-1.6496806127907848,0.24411693735177947,False,0
GUIDED_NOGPS,2.2407729625701904,33.37686706720248,-19.70203222107996,-10.693655491323257,47.7418893042486,-1.733320476744183,-16.905783323783872,78.15641019261874,28.059701604174318,2.3553736598059722,-1.0011786267722835,-0.4828460293871825,3.9993695601282857,-0.08134206250780796,-0.8666602383720915,0.45853836895427313,-17.829856326441373,-13.869664054152569,47.29903960889024,1.4752529561519623,-23.14170151948929,-0.37829685024917126,-65.21143913269043,10.813906788825989,-46.80410027503967,-1.719249943609733,0.6331692082307602,False,0
GUIDED_NOGPS,2.2744269371032715,29.579221292110663,-19.501069638246243,-11.46146676707308,47.75182008430533,-1.7352840050125882,-16.905783323783872,78.15641019261874,28.059701604174318,2.566441232754764,-1.0950642726691633,-0.4174705002204352,4.002073750828944,0.007872904686848939,-0.8676420025062941,0.45846514853185955,-17.529445368584803,-14.413811799865254,47.51564918764423,6.394562125205994,-22.941170632839203,-2.0391255617141724,24.019816517829895,10.829214006662369,-49.813225865364075,-1.7368259209064836,-1.2076687990384032,False,0
GUIDED_NOGPS,2.3068044185638428,30.888393021526046,-19.256639171275754,-12.2937874753566,47.76526941558196,-1.7361242149651437,-16.905783323783872,78.15641019261874,28.059701604174318,2.877959757496699,-0.8938804103362029,-0.2894108032241901,4.005590946967148,0.12384982332665709,-0.8680621074825718,0.4583871765892079,-16.958675585587162,-14.847953540392307,47.629121629213586,7.555113732814789,-22.01894223690033,-2.7927372604608536,82.75231122970581,20.316602289676666,-58.244431018829346,-1.9125009763711813,-0.8420856984778211,False,0
GUIDED_NOGPS,2.340757369995117,29.45645059344055,-19.006958014367157,-13.101638785448507,47.841681360835786,-1.7075025046818355,-16.905783323783872,78.15641019261874,28.059701604174318,2.997888487812014,-0.7540236426220236,-0.24047481901814952,4.005773257486123,0.13405860986102516,-0.8537512523409178,0.45818060017336887,-16.81344335396751,-15.632885540931621,47.66374436937105,7.811032980680466,-20.72104960680008,1.8822742626070976,27.874749898910522,12.328217923641205,-37.34876811504364,-1.936470872319656,1.381331481327855,False,0
GUIDED_NOGPS,2.373889207839966,30.184838147876274,-18.746696044928374,-13.933235330389481,47.91598604439354,-1.682641190594184,-16.905783323783872,78.15641019261874,28.059701604174318,3.011601800118107,-0.38157833637969424,-0.17404689377047813,4.0072088603260525,0.18665955433566356,-0.841320595297092,0.45797935245852284,-16.505894591923376,-16.57766483569672,47.65804547559756,7.811032980680466,-20.72104960680008,1.8822742626070976,27.874749898910522,12.328217923641205,-37.34876811504364,-2.0224183713331163,1.381331481327855,False,0
GUIDED_NOGPS,2.407621145248413,29.649267658202795,-18.38803537857012,-14.721912945896106,47.9891922645393,-1.7335578430403833,-16.905783323783872,78.15641019261874,28.059701604174318,3.0821717415095016,-0.011529572762393086,-0.08050149001184298,4.013286712462367,0.37848760980455637,-0.8667789215201916,0.4577791736364533,-16.396154433430397,-16.994102976359635,47.596171430419666,14.619225263595581,-19.745847582817078,2.3867372423410416,86.97418570518494,10.280250012874603,-29.89787757396698,-2.07142960406129,-3.5353387846839808,False,0
GUIDED_NOGPS,2.4415431022644043,29.483161231820386,-18.127580224464428,-15.469051118104511,48.100493825256486,-1.7402298409929333,-16.905783323783872,78.15641019261874,28.059701604174318,3.155202258549394,0.4239973863026171,0.003468886076655195,4.008568919772741,0.22128843099192247,-0.8701149204964667,0.45750217168721136,-16.396154433430397,-16.994102976359635,47.596171430419666,8.102686703205109,-18.47311407327652,5.134494602680206,26.95956826210022,29.04876470565796,7.724633067846298,-2.07142960406129,-0.4352042326267271,False,0
GUIDED_NOGPS,2.4755144119262695,29.446937571962145,-17.880290317212946,-16.181948438353075,48.23474218988079,-1.7892121648164276,-16.905783323783872,78.15641019261874,28.059701604174318,3.133588978694535,0.6896080218379276,0.045318611967938724,4.008756225571845,0.21784830664249505,-0.8946060824082138,0.4571793527160964,-16.391548179589485,-17.24756934564656,47.63919385088974,7.681240886449814,-18.315164744853973,6.866438686847687,44.18661892414093,17.82534271478653,65.29611349105835,-2.1116804339823503,-3.0825629832828967,False,0
GUIDED_NOGPS,2.5088906288146973,29.962952644249658,-17.68002109249828,-16.826242130505975,48.40697307132722,-1.8144510864861845,-16.905783323783872,78.15641019261874,28.059701604174318,3.185262774860266,1.0220766577549953,0.05873566481878252,4.006703098579015,0.14825456405521056,-0.9072255432430922,0.4567801038073406,-16.346087439298092,-17.476368474002943,47.59065539705944,4.955609887838364,-16.077902913093567,9.87943559885025,-35.04883050918579,34.159108996391296,34.275078773498535,-2.0967194872821153,-1.4246573989456557,False,0
GUIDED_NOGPS,2.5420339107513428,30.17506600766912,-17.510173301636613,-17.451129086128123,48.48849288133221,-1.8000416385817846,-16.905783323783872,78.15641019261874,28.059701604174318,3.2290255044198304,1.2898802642615559,0.10193808541267428,4.005526798129206,0.11302302212750645,-0.9000208192908923,0.45656285008547937,-16.301739830339887,-17.993070347719055,47.43726102975194,3.2707635313272476,-15.58855026960373,4.43778932094574,-35.83788275718689,34.6284955739975,21.748429536819458,-2.1673286778698975,1.4745183134952777,False,0
GUIDED_NOGPS,2.575840711593628,29.582767911300447,-17.3396891808912,-18.03975024485336,48.58215290719621,-1.7831387442775875,-16.905783323783872,78.15641019261874,28.059701604174318,3.2225662798991137,1.5099198242936884,0.07368903665530978,4.005763685453104,0.12289052488889049,-0.8915693721387937,0.4563199737075826,-16.119294697147637,-17.87128459143924,47.81420477908098,3.2707635313272476,-15.58855026960373,4.43778932094574,-35.83788275718689,34.6284955739975,21.748429536819458,-2.1053591221633168,1.4745183134952777,False,0
GUIDED_NOGPS,2.6090004444122314,30.16096185928781,-17.191714696328624,-18.624821954417087,48.672320020300766,-1.804214334265138,-16.905783323783872,78.15641019261874,28.059701604174318,3.3314787688568446,1.4499992150354013,0.06583932835986024,4.005093159237237,0.09870397905133821,-0.902107167132569,0.4560849579815148,-15.974299829139177,-18.73824516083175,47.553289691688335,1.7734231427311897,-14.623655378818512,5.136067047715187,47.17370271682739,3.0934475362300873,-135.01957654953003,-2.1440322023858274,-0.9411699721067267,False,0
GUIDED_NOGPS,2.6477434635162354,25.814755319214413,-17.040119950677497,-19.156377840877365,48.72222678123928,-1.8157317553255417,-16.905783323783872,78.15641019261874,28.059701604174318,3.2796393406037403,1.2063205837292663,-0.02938174958683582,4.004482002552365,0.07799684032705026,-0.9078658776627708,0.45592135912839127,-15.974299829139177,-18.73824516083175,47.553289691688335,2.6408638805150986,-13.835331797599792,2.8192589059472084,11.18532195687294,17.026668787002563,22.490790486335754,-2.1440322023858274,-0.25817709520166227,False,0
GUIDED_NOGPS,2.6767780780792236,34.44589167659015,-16.88107535204226,-19.77750947557337,48.70877313605584,-1.77491385168982,-16.905783323783872,78.15641019261874,28.059701604174318,3.3557728979609336,0.9174496856146245,-0.12414992062451524,4.007677405109203,0.1857929677503665,-0.88745692584491,0.455900203748122,-15.878310147401663,-19.07810595737403,47.40967476021122,1.8304374068975449,-13.152097165584564,-1.934756152331829,45.85457742214203,32.20197856426239,-53.978896141052246,-2.2212731580481506,3.2715404437953977,False,0
GUIDED_NOGPS,2.712075710296631,28.3370198966321,-16.78015160132365,-20.131494339396863,48.664539950104604,-1.8008700035904739,-16.905783323783872,78.15641019261874,28.059701604174318,3.4089002437594087,0.8626527854509046,-0.12461362643613565,4.0031045804330505,0.03587419681241161,-0.9004350017952369,0.45593054412446093,-15.729386243566495,-19.281072151769155,47.53015109471919,0.8223108947277069,-11.128821969032288,-1.7993619665503502,138.30809593200684,10.295089334249496,-52.41966247558594,-2.2518776570796097,-0.7367054845380447,False,0
GUIDED_NOGPS,2.7488958835601807,27.160959436357043,-16.69587687306912,-20.539449395889264,48.68123393939177,-1.8169760890264706,-16.905783323783872,78.15641019261874,28.059701604174318,3.3312068419505136,0.3736876002584783,-0.28456110210921665,4.002228026485414,0.006804374616549508,-0.9084880445132353,0.4558362710842533,-15.729386243566495,-19.281072151769155,47.53015109471919,-1.0989487171173096,-9.94616225361824,1.4205634593963623,1.612401008605957,42.81308650970459,101.16724967956543,-2.2518776570796097,-0.23472436002595412,False,0
GUIDED_NOGPS,2.778311014175415,34.001345687719386,-16.6198870248736,-21.007533403488843,48.64205131672437,-1.8097684171930144,-16.905783323783872,78.15641019261874,28.059701604174318,3.454600612609141,0.1646329587632833,-0.3446299744972607,4.0029990202386605,0.03173684780658434,-0.9048842085965072,0.45586631165078145,-15.591454661540624,-19.82334996714294,47.50680353592341,-2.3477189242839813,-10.017115622758865,-2.5727367028594017,129.6245574951172,8.610253036022186,-11.678504198789597,-2.196987377951986,1.0771784618321327,False,0
GUIDED_NOGPS,2.8150999546051025,27.185605765989994,-16.579882180909124,-21.28706002601137,48.57915694409224,-1.8060132882705555,-16.905783323783872,78.15641019261874,28.059701604174318,3.6118714812207964,-0.252325757517077,-0.5203898717074501,4.000258737932938,-0.054841233295085764,-0.9030066441352778,0.4559317104485664,-15.591454661540624,-19.82334996714294,47.50680353592341,-2.3477189242839813,-10.017115622758865,-2.5727367028594017,129.6245574951172,8.610253036022186,-11.678504198789597,-2.196987377951986,1.0771784618321327,False,0
GUIDED_NOGPS,2.8498401641845703,28.79062073131388,-16.547179332662584,-21.706525278099758,48.58826470517567,-1.8107069404759966,-16.905783323783872,78.15641019261874,28.059701604174318,3.7290006877500526,-0.4484324414191906,-0.5948046226321804,4.000084241767401,-0.06054610159331206,-0.9053534702379983,0.45585718358929217,-15.880200976378317,-20.251889264636926,47.49945021845702,-3.644373267889023,-8.022582530975342,0.9271735325455666,-2.4986237287521362,35.931628942489624,107.84730911254883,-1.9827353331875863,-0.32947391813113464,False,0
GUIDED_NOGPS,2.878528594970703,34.86276172189944,-16.504443806112647,-22.02122564169333,48.55741991003267,-1.7731156680489086,-16.905783323783872,78.15641019261874,28.059701604174318,3.827829256171906,-0.6842974430365368,-0.6980917037564652,4.00121581771617,-0.02262342829974573,-0.8865578340244543,0.4558716816057518,-15.811110881814205,-20.255469186976903,47.58464824923628,-2.1274829283356667,-6.628355383872986,-1.3377332128584385,-83.41012597084045,39.091819524765015,49.40507113933563,-2.0372248944017555,2.7103232230459025,False,0
GUIDED_NOGPS,2.9119865894317627,29.890139961802685,-16.50159225342241,-22.202182085393737,48.50566057306241,-1.7448019669063826,-16.905783323783872,78.15641019261874,28.059701604174318,3.949585915863846,-0.7464322075246718,-0.7362701667001622,3.9986754633063084,-0.10439145449158435,-0.8724009834531913,0.45591988339389944,-15.811110881814205,-20.255469186976903,47.58464824923628,-3.5206004977226257,-5.3410593420267105,-1.974579319357872,12.276460975408554,31.8252295255661,34.25242900848389,-2.0372248944017555,2.289352410958394,False,0
GUIDED_NOGPS,2.945141553878784,30.165517142179038,-16.463372337670418,-22.410372835479787,48.50082511921421,-1.68406329740682,-16.905783323783872,78.15641019261874,28.059701604174318,3.8790445758896004,-0.8320052997582343,-0.8037402160645761,4.000760195210797,-0.03293295722148283,-0.84203164870341,0.4558753792109078,-15.735576752327422,-20.47514809844522,47.4899991931746,-1.8983926624059677,-2.5532718747854233,0.9176350198686123,-1.73751562833786,42.13861525058746,139.8276448249817,-2.0115566382741443,4.221356581617714,False,0
GUIDED_NOGPS,2.9806275367736816,28.188095190091197,-16.420277787697902,-22.582816468229066,48.46160745364889,-1.6713900285116419,-16.905783323783872,78.15641019261874,28.059701604174318,3.9303333201408726,-0.8365539923020513,-0.8352446770546715,4.000980762556021,-0.02473534199327733,-0.8356950142558209,0.45589604660290645,-15.735576752327422,-20.47514809844522,47.4899991931746,-1.2225911021232605,-2.0493367686867714,-1.2407573871314526,-102.61900424957275,39.576879143714905,64.36362266540527,-2.0115566382741443,1.0731681802939832,False,0
GUIDED_NOGPS,3.0130069255828857,30.88611845448052,-16.418268192563886,-22.72589551529333,48.454707102500535,-1.6013590620606704,-16.905783323783872,78.15641019261874,28.059701604174318,3.930519442795755,-0.8836043907299188,-0.9024441868949296,3.9990753738384077,-0.08897563528257962,-0.8006795310303352,0.4558567408874399,-15.735576752327422,-20.47514809844522,47.4899991931746,-3.844428062438965,-0.12142810737714171,0.8495485410094261,20.929938554763794,49.240487813949585,89.28602337837219,-2.0115566382741443,4.827880795009432,False,0
GUIDED_NOGPS,3.0467987060546875,29.598424919023053,-16.393829906858866,-22.806390012269357,48.440153104894115,-1.5500220394656767,-16.905783323783872,78.15641019261874,28.059701604174318,3.980660715266465,-0.9026066173311289,-0.9179698472086032,4.000285242813404,-0.04356799247138704,-0.7750110197328384,0.4558309591794036,-15.735576752327422,-20.47514809844522,47.4899991931746,-1.8870774656534195,1.108845230191946,0.5484249908477068,-116.00886583328247,45.35481333732605,-22.219854593276978,-2.0115566382741443,3.7132583823736427,False,0
GUIDED_NOGPS,3.08125638961792,29.022709973844087,-16.33910458412094,-22.867549225693207,48.43441529818524,-1.5412153311131682,-16.905783323783872,78.15641019261874,28.059701604174318,4.007768882308599,-0.8830791064940625,-0.941120986843773,4.001791297372388,0.0127748873256915,-0.7706076655565841,0.4557860293926519,-15.735576752327422,-20.47514809844522,47.4899991931746,0.2107097301632166,2.255062013864517,1.080251857638359,85.42063236236572,34.66266393661499,21.038812398910522,-2.0115566382741443,0.8722639288301705,False,0
GUIDED_NOGPS,3.123140811920166,23.87835106716082,-16.27219252314124,-22.89056959472057,48.40614951379922,-1.4955780152795641,-16.905783323783872,78.15641019261874,28.059701604174318,3.960422010982071,-0.6525626766053652,-0.9371616115592812,4.001952417744621,0.022571892100039098,-0.7477890076397821,0.4557745546140493,-15.735576752327422,-20.47514809844522,47.4899991931746,1.227736659348011,3.5792581737041473,-0.35606599412858486,50.72476863861084,37.18022704124451,-52.75239944458008,-2.0115566382741443,3.3638084020760424,False,0
GUIDED_NOGPS,3.147831916809082,40.50941191241947,-16.20322947701671,-22.95121451849108,48.43642391161124,-1.4945255428575335,-16.905783323783872,78.15641019261874,28.059701604174318,3.9111968376337893,-0.5879533559252758,-0.9643962438227667,4.0039479962327436,0.09914866810549244,-0.7472627714287667,0.45567363232306973,-15.735576752327422,-20.47514809844522,47.4899991931746,0.7764407433569431,5.292504653334618,3.0055074021220207,-83.10750126838684,36.02970838546753,30.376335978507996,-2.0115566382741443,-0.027811356361528327,False,0
GUIDED_NOGPS,3.1839396953582764,27.6977897524285,-16.10592987501082,-22.808934915211076,48.419496837261256,-1.457909241479932,-16.905783323783872,78.15641019261874,28.059701604174318,3.94917951960823,-0.24362580406177325,-0.9221126771053333,4.003953124553108,0.1044307395249422,-0.728954620739966,0.4556487725732966,-15.735576752327422,-20.47514809844522,47.4899991931746,4.547104239463806,6.3723936676979065,1.116314623504877,68.81542205810547,36.237671971321106,-9.76107120513916,-2.0115566382741443,3.4960084210089315,False,0
GUIDED_NOGPS,3.214630365371704,32.58673627944558,-15.997504686741449,-22.74701033750864,48.412238861487666,-1.4128813201719985,-16.905783323783872,78.15641019261874,28.059701604174318,3.7751539835191212,-0.037598590555333475,-0.911546161015912,4.005318541596643,0.16631473800520008,-0.7064406600859993,0.45561331943722716,-15.735576752327422,-20.47514809844522,47.4899991931746,4.547104239463806,6.3723936676979065,1.116314623504877,68.81542205810547,36.237671971321106,-9.76107120513916,-2.0115566382741443,3.4960084210089315,False,0
GUIDED_NOGPS,3.250075578689575,28.2154009673535,-15.878716563495269,-22.632270400404206,48.41693783851372,-1.443158973756787,-16.905783323783872,78.15641019261874,28.059701604174318,3.672073622338935,0.2548125867051963,-0.8588513582909695,4.005365399144674,0.16259168627203358,-0.7215794868783935,0.4555461142288924,-15.735576752327422,-20.47514809844522,47.4899991931746,5.7100046426057816,8.012665808200836,2.081463113427162,110.49587726593018,44.363051652908325,11.920154094696045,-2.0115566382741443,-1.284487296303302,False,0
GUIDED_NOGPS,3.281935691833496,31.39073164890432,-15.754982352472032,-22.50649129760055,48.4654468960968,-1.4447876490375682,-16.905783323783872,78.15641019261874,28.059701604174318,3.565061846961172,0.5634740646616558,-0.8217297603996262,4.006430083709236,0.20450777311387142,-0.7223938245187841,0.45539705112584866,-15.735576752327422,-20.47514809844522,47.4899991931746,5.545791611075401,10.594073683023453,4.654949903488159,83.37429761886597,23.627346754074097,42.06764996051788,-2.0115566382741443,0.3346784155569785,False,0
GUIDED_NOGPS,3.315324306488037,29.955034995000712,-15.705240414994362,-22.320983821546644,48.47549159105295,-1.4676586273449488,-16.905783323783872,78.15641019261874,28.059701604174318,3.3799735388507584,0.7652275007383716,-0.7649383916374097,4.002945004147224,0.06371082552337194,-0.7338293136724744,0.455322536036037,-15.735576752327422,-20.47514809844522,47.4899991931746,1.3785561546683311,12.176623940467834,2.403809502720833,-3.104017674922943,29.440537095069885,-10.973838716745377,-2.0115566382741443,-0.7617688636974065,False,0
GUIDED_NOGPS,3.3565239906311035,24.27343542021135,-15.663325121064911,-22.13319625048443,48.50262923020121,-1.4559911834053159,-16.905783323783872,78.15641019261874,28.059701604174318,3.385001411853534,0.8457495079981512,-0.7575304645131491,4.0022925078893605,0.03936832840214784,-0.7279955917026579,0.4552007694784108,-15.90590460284899,-20.451153042990896,47.55704951404448,1.2879259884357452,12.498532980680466,3.2339438796043396,30.177438259124756,24.996334314346313,54.97126579284668,-1.9068928724874663,1.172760769407526,False,0
GUIDED_NOGPS,3.384476900100708,35.78818751173228,-15.594036709401664,-21.960137489216827,48.57046726056334,-1.475500981525915,-16.905783323783872,78.15641019261874,28.059701604174318,3.292450641052569,0.8780081179221512,-0.7251076098839515,4.004730723643808,0.13215249842634869,-0.7377504907629575,0.455019465210846,-15.878051464246003,-20.223105277618046,47.47596677312922,2.1025260910391808,12.419429421424866,5.466108024120331,-10.150296986103058,15.978747606277466,31.331950426101685,-1.8549279714563613,-1.394847571921664,False,0
GUIDED_NOGPS,3.416454553604126,31.27393654699325,-15.606079397468084,-21.69334034043156,48.55860266699266,-1.5020068313364467,-16.905783323783872,78.15641019261874,28.059701604174318,3.334215113393081,0.7625892868106013,-0.6961651101628455,4.000257712648224,-0.04260443845313665,-0.7510034156682234,0.45499071788688955,-16.14653180097264,-19.985786828615094,47.32875209688976,-0.33017839305102825,13.973861932754517,1.9629644230008125,-76.39886736869812,23.170040547847748,-102.21918821334839,-1.762262674441145,-1.33116630319505,False,0
GUIDED_NOGPS,3.4498350620269775,29.963808857042842,-15.655991808770622,-21.42852131366667,48.56128893601054,-1.4750548047347836,-16.905783323783872,78.15641019261874,28.059701604174318,3.4058684935415693,0.5982134739973985,-0.7001053822620025,3.998443985125198,-0.11191914034948824,-0.7375274023673918,0.45493070382919637,-16.14653180097264,-19.985786828615094,47.32875209688976,-3.4109339118003845,14.995193481445312,2.468767762184143,-13.294465839862823,26.905378699302673,11.46174669265747,-1.762262674441145,2.0027630094699482,False,0
GUIDED_NOGPS,3.48341965675354,29.77661349292555,-15.665284642694859,-21.157212842530967,48.533084484522135,-1.5003969460402133,-16.905783323783872,78.15641019261874,28.059701604174318,3.539508828615685,0.2856779447602195,-0.7063033520469659,4.00029755330775,-0.041016631967820655,-0.7501984730201067,0.4549318825360275,-16.14653180097264,-19.985786828615094,47.32875209688976,-0.7822200655937195,15.55214375257492,0.2791527658700943,79.58322763442993,27.050238847732544,-45.98149061203003,-1.762262674441145,-1.5106407294162423,False,0
GUIDED_NOGPS,3.516106605529785,30.597267309109213,-15.679172603237125,-20.85552416219211,48.50802722869762,-1.5257735035476911,-16.905783323783872,78.15641019261874,28.059701604174318,3.5822028470135536,-0.15132828386862734,-0.7713006594884237,4.000014004230694,-0.05273692823049392,-0.7628867517738456,0.45492844913380825,-16.21712674965397,-19.308166190522815,47.409829715813956,-0.7822200655937195,15.55214375257492,0.2791527658700943,79.58322763442993,27.050238847732544,-45.98149061203003,-1.7481087361526892,-1.5106407294162423,False,0
GUIDED_NOGPS,3.5539932250976562,26.39786516288203,-15.688401456639717,-20.535115356834037,48.39826843473976,-1.5572763516406893,-16.905783323783872,78.15641019261874,28.059701604174318,3.7258741686574792,-0.36404822898803335,-0.7627405114676937,4.000260732277315,-0.044771968062160536,-0.7786381758203447,0.4550864336812831,-16.146453801945338,-19.062478765868153,47.37585866345244,-0.5583678837865591,16.12147092819214,-5.202802270650864,59.74159836769104,36.1606240272522,-123.47137928009033,-1.8734140004695141,-1.520867550316161,False,0
GUIDED_NOGPS,3.584404468536377,32.886442578348586,-15.718130788615376,-20.197275133410386,48.337059890295315,-1.5698109694037659,-16.905783323783872,78.15641019261874,28.059701604174318,3.805462947961053,-0.4290236051189531,-0.7374720131898199,3.9989842607634074,-0.09186387164565862,-0.7849054847018829,0.4551594468320168,-16.146453801945338,-19.062478765868153,47.37585866345244,-1.8934857100248337,17.289376258850098,-1.986728236079216,68.36702823638916,23.462356626987457,5.066628009080887,-1.8734140004695141,-0.26216058959166066,False,0
GUIDED_NOGPS,3.6167941093444824,30.88043350217929,-15.724135631183911,-19.84473699509892,48.30686166298308,-1.6254720983239725,-16.905783323783872,78.15641019261874,28.059701604174318,3.7608805957010873,-0.6063012717483398,-0.7905151022015803,4.000227509232415,-0.04872623264292085,-0.8127360491619863,0.4551673852200651,-16.146453801945338,-19.062478765868153,47.37585866345244,0.04600072279572487,19.064535200595856,0.2328767441213131,178.9254665374756,22.09373116493225,-100.25677680969238,-1.8734140004695141,-3.0695156144208795,False,0
GUIDED_NOGPS,3.6671080589294434,19.87680496647158,-15.789353697955292,-19.454167703948,48.28407645625746,-1.6035152086291284,-16.905783323783872,78.15641019261874,28.059701604174318,3.881052651505584,-0.5848447660792737,-0.7757882538556807,3.998238330449101,-0.11890730773748401,-0.8017576043145642,0.45513153822115127,-16.245057222928654,-18.9547646920268,47.27282414715803,-3.8066834211349487,21.14209681749344,0.8576085790991783,-40.33491015434265,26.320567727088928,41.62270724773407,-1.8306230719071763,1.9481108239392682,False,0
GUIDED_NOGPS,3.6934590339660645,37.96506091710567,-15.78830379206867,-19.019162361165034,48.246240387100165,-1.5862778632390049,-16.905783323783872,78.15641019261874,28.059701604174318,3.8284081147040645,-0.6208982397783034,-0.8235641464394506,4.000497139155381,-0.037423182905828425,-0.7931389316195024,0.45516495703776905,-16.41394474964451,-18.250003162674385,47.51844916814832,1.1023052968084812,22.02843725681305,-0.9194847196340561,90.3878390789032,33.991068601608276,-1.2590698897838593,-1.8421417381758651,1.634236310820502,False,0
GUIDED_NOGPS,3.7361507415771484,23.423491042308896,-15.79898927323459,-18.612520014515177,48.19996064698205,-1.5734314347556233,-16.905783323783872,78.15641019261874,28.059701604174318,3.8284081147040645,-0.6208982397783034,-0.8235641464394506,4.000007479159745,-0.054654288389038366,-0.7867157173778117,0.45518849911457576,-16.537784363547214,-17.66389955130131,47.39225507589654,1.1023052968084812,22.02843725681305,-0.9194847196340561,90.3878390789032,33.991068601608276,-1.2590698897838593,-1.8884803002885087,1.634236310820502,False,0
