E-kp,E-ki,E-kd,E-I-Tot,E-P,E-I,E-D,E-PID,N-kp,N-ki,N-kd,N-I-Tot,N-P,N-I,N-D,N-PID,D-kp,D-ki,D-kd,D-I-Tot,D-P,D-I,D-D,D-PID,Y-kp,Y-ki,Y-kd,Y-I-Tot,Y-P,Y-I,Y-D,Y-PID,errorN,desiredN,actualN,errorE,desiredE,actualE,errorD,desiredD,actualD,errorY,desiredY,actualY,roll,pitch,yaw-rate,thrust,dt,Time,Mode
0.16,0.015,0.11,-0.0006570951365104614,-0.003190318992855065,-9.85642704765692e-06,-0.06655683870535577,-0.06975701412525849,0.16,0.015,0.11,-0.0009625803319876983,-0.004673506383866221,-1.4438704979815474e-05,-0.0974992818197994,-0.10218722690864544,0.002,8e-05,0,-0.019040225578826658,-0.0011555479168313782,-1.5232180463061326e-06,-0.0,-0.0011570711348776843,0.2,0.02,0.0,1.8885594000778492e-05,0.00011461633537572617,3.7771188001556984e-07,0.0,0.00011499404725574175,-0.029209414899163882,0.0,0.029209414899163882,-0.019939493705344154,0.0,0.019939493705344154,-0.5777739584156891,0.0,0.5777739584156891,0.0005730816768786309,0,-0.0005730816768786309,-0.06975599202855652,0.10218792462449984,-0.00011499404725574175,0.4,0.03295445442199707,0.03335309028625488,STABILIZE
0.16,0.015,0.11,-0.0011203047810874568,-0.0022158168524549983,-1.6804571716311852e-05,-0.023263169475555,-0.025495790899726308,0.16,0.015,0.11,-0.001663129648952297,-0.0033511585967160753,-2.4946944734284453e-05,-0.035159477313817446,-0.03853558285526781,0.002,8e-05,0,-0.03847326734597335,-0.0011620025064846204,-3.0778613876778686e-06,-0.0,-0.0011650803678722984,0.2,0.02,0.0,-7.906584688461531e-05,-0.0005857025430523715,-1.5813169376923062e-06,-0.0,-0.0005872838599900638,-0.02094474122947547,0.0,0.02094474122947547,-0.013848855327843738,0.0,0.013848855327843738,-0.5810012532423102,0.0,0.5810012532423102,-0.0029285127152618574,0,0.0029285127152618574,-0.025497760504418873,0.03853427965924722,0.0005872838599900638,0.4,0.0334475040435791,0.06664395332336426,STABILIZE
0.16,0.015,0.11,-0.0013809520677758437,-0.001243291466592269,-2.0714281016637655e-05,-0.008864434931954221,-0.010128440679563129,0.16,0.015,0.11,-0.0020885257574180575,-0.0020291458173103774,-3.132788636127086e-05,-0.01440759052263628,-0.01646806422630793,0.002,8e-05,0,-0.057979388920962174,-0.001163056155725919,-4.6383511136769745e-06,-0.0,-0.0011676945068395958,0.2,0.02,0.0,-0.000291264584019988,-0.0012652389482643877,-5.82529168039976e-06,-0.0,-0.0012710642399447875,-0.012682161358189859,0.0,0.012682161358189859,-0.007770571666201681,0.0,0.007770571666201681,-0.5815280778629595,0.0,0.5815280778629595,-0.006326194741321938,0,0.006326194741321938,-0.010130258905000605,0.01646694581514399,0.0012710642399447875,0.4,0.03354287147521973,0.10019278526306152,STABILIZE
0.16,0.015,0.11,-0.0018061985222868966,-0.0020335777388258243,-2.7092977834303448e-05,-0.010708057071305607,-0.012768727787965735,0.16,0.015,0.11,-0.002661171444392712,-0.0027384579199025644,-3.9917571665890675e-05,-0.014449456351108685,-0.01722783184267714,0.002,8e-05,0,-0.07721715836928442,-0.0011499654870654192,-6.1773726695427535e-06,-0.0,-0.001156142859734962,0.2,0.02,0.0,-0.0002925008310111989,-7.389845154345647e-06,-5.850016620223978e-06,-0.0,-1.3239861774569626e-05,-0.017115361999391027,0.0,0.017115361999391027,-0.012709860867661401,0.0,0.012709860867661401,-0.5749827435327096,0.0,0.5749827435327096,-3.694922577172823e-05,0,3.694922577172823e-05,-0.012768738897944542,0.01722782360830429,1.3239861774569626e-05,0.4,0.03345799446105957,0.13364839553833008,STABILIZE
0.16,0.015,0.11,-0.0020746634073233027,-0.0012838758806997764,-3.111995110984954e-05,-0.005485338133439016,-0.006800333965248642,0.16,0.015,0.11,-0.0032955406823858883,-0.003033735171759571,-4.9433110235788324e-05,-0.012773088766849601,-0.01585625704884496,0.002,8e-05,0,-0.09620399167769728,-0.0011350058561770892,-7.696319334215782e-06,-0.0,-0.001142702175511305,0.2,0.02,0.0,-0.00096551031900652,-0.004023154876484704,-1.9310206380130402e-05,-0.0,-0.004042465082864835,-0.01896084482349732,0.0,0.01896084482349732,-0.008024224254373602,0.0,0.008024224254373602,-0.5675029280885446,0.0,0.5675029280885446,-0.02011577438242352,0,0.02011577438242352,-0.006805900463727975,0.0158538685662455,0.004042465082864835,0.4,0.03345680236816406,0.16711735725402832,STABILIZE
0.16,0.015,0.11,-0.0023101753714238273,-0.0011269923252420844,-3.465263057135741e-05,0.008471190632134295,0.007309545676320852,0.16,0.015,0.11,-0.004259923969040977,-0.004614850743583099,-6.389885953561466e-05,0.0002246575499608572,-0.004454092053157856,0.002,8e-05,0,-0.11521611066425064,-0.0011372305578119894,-9.217288853140051e-06,0.0,-0.0011464478466651296,0.2,0.02,0.0,-0.0016903435445968986,-0.004335668707111562,-3.380687089193797e-05,-0.0,-0.0043694755780035,-0.028842817147394367,0.0,0.028842817147394367,-0.007043702032763027,0.0,0.007043702032763027,-0.5686152789059947,0.0,0.5686152789059947,-0.02167834353555781,0,0.02167834353555781,0.007307859909702322,0.004456857362805143,0.0043694755780035,0.4,0.033435821533203125,0.20055079460144043,STABILIZE
0.16,0.015,0.11,-0.002591002929588631,-0.0013433997981504861,-3.8865043943829466e-05,0.0035754379342411,0.0021931730921467846,0.16,0.015,0.11,-0.005403342261750382,-0.005469790478062504,-8.105013392625572e-05,-0.008726071560269746,-0.014276912172258505,0.002,8e-05,0,-0.13473787569295906,-0.0011673326938820962,-1.0779030055436726e-05,-0.0,-0.0011781117239375329,0.2,0.02,0.0,-0.0026447895625145313,-0.005707250546363854,-5.2895791250290624e-05,-0.0,-0.005760146337614145,-0.03418619048789065,0.0,0.03418619048789065,-0.008396248738440538,0.0,0.008396248738440538,-0.5836663469410481,0.0,0.5836663469410481,-0.02853625273181927,0,0.02853625273181927,0.002186062181956533,0.014278002714774892,0.005760146337614145,0.4,0.0334467887878418,0.23402190208435059,STABILIZE
0.16,0.015,0.11,-0.002925811012678122,-0.0016020842030541587,-4.3887165190171826e-05,-0.0014749257398267083,-0.003120897108071039,0.16,0.015,0.11,-0.006674368279201067,-0.006081963987961128,-0.00010011552418801599,-0.016662675852387673,-0.02284475536453682,0.002,8e-05,0,-0.15417468565157907,-0.0011625841700537592,-1.2333974852126327e-05,0.0,-0.0011749181449058855,0.2,0.02,0.0,-0.00375815464394102,-0.006659429309195908,-7.51630928788204e-05,-0.0,-0.006734592402074729,-0.03801227492475705,0.0,0.03801227492475705,-0.010013026269088492,0.0,0.010013026269088492,-0.5812920850268796,0.0,0.5812920850268796,-0.03329714654597954,0,0.03329714654597954,-0.0031341726919870555,0.022842937813720515,0.006734592402074729,0.4,0.033437252044677734,0.2674429416656494,STABILIZE
0.16,0.015,0.11,-0.0034367187926637247,-0.0024409067477963154,-5.155078188995587e-05,-0.0016711278698814665,-0.004163585399567737,0.16,0.015,0.11,-0.007519469957717219,-0.0040375474214195736,-0.00011279204936575828,-0.005353823300431171,-0.009504162771216504,0.002,8e-05,0,-0.17363011647660787,-0.001161875348214395,-1.389040931812863e-05,-0.0,-0.0011757657575325235,0.2,0.02,0.0,-0.004868118878852879,-0.006628689405760469,-9.736237757705757e-05,-0.0,-0.006726051783337526,-0.025234671383872333,0.0,0.025234671383872333,-0.01525566717372697,0.0,0.01525566717372697,-0.5809376741071974,0.0,0.5809376741071974,-0.03314344702880234,0,0.03314344702880234,-0.0041690825022837625,0.009501752704129002,0.006726051783337526,0.4,0.03348970413208008,0.30097055435180664,STABILIZE
0.16,0.015,0.11,-0.004156101183661399,-0.003441886672996995,-6.234151775492099e-05,-0.008867946160588563,-0.012372174351340479,0.16,0.015,0.11,-0.008774137014490365,-0.006002957364256385,-0.00013161205521735548,-0.012221439565282552,-0.018356008984756294,0.002,8e-05,0,-0.1928158039618888,-0.0011474245633169647,-1.5425264316951104e-05,-0.0,-0.0011628498276339157,0.2,0.02,0.0,-0.0058875433996823726,-0.006096798650268751,-0.00011775086799364746,-0.0,-0.006214549518262398,-0.037518483526602406,0.0,0.037518483526602406,-0.021511791706231218,0.0,0.021511791706231218,-0.5737122816584823,0.0,0.5737122816584823,-0.030483993251343752,0,0.030483993251343752,-0.012381938841865149,0.018349423820510878,0.006214549518262398,0.4,0.03344130516052246,0.33438587188720703,STABILIZE
0.16,0.015,0.11,-0.005322419263040291,-0.0055639875007840334,-7.983628894560437e-05,-0.018213079451827704,-0.023856903241557342,0.16,0.015,0.11,-0.010204066494191887,-0.00682156085267821,-0.00015306099741287828,-0.009075356504914334,-0.01604997835500542,0.002,8e-05,0,-0.21266749402198143,-0.0011837953697697045,-1.7013399521758515e-05,-0.0,-0.001200808769291463,0.2,0.02,0.0,-0.007257650980592017,-0.008170221303362616,-0.00014515301961184036,-0.0,-0.008315374322974457,-0.04263475532923881,0.0,0.04263475532923881,-0.03477492187990021,0.0,0.03477492187990021,-0.5918976848848523,0.0,0.5918976848848523,-0.040851106516813084,0,0.040851106516813084,-0.023868340591637695,0.016032964631494454,0.008315374322974457,0.4,0.0335390567779541,0.367905855178833,STABILIZE
0.16,0.015,0.11,-0.006248307383121962,-0.004409104128421253,-9.372461074682943e-05,-0.012597220262475551,-0.017100049001643636,0.16,0.015,0.11,-0.011568692690643378,-0.006498386647401132,-0.00017353039035965066,-0.004238145424850252,-0.010910062462611034,0.002,8e-05,0,-0.2325113601822396,-0.0011812128041360382,-1.860090881457917e-05,-0.0,-0.0011998137129506175,0.2,0.02,0.0,-0.008411698312194578,-0.0068695055371721745,-0.00016823396624389157,-0.0,-0.007037739503416066,-0.040614916546257075,0.0,0.040614916546257075,-0.02755690080263283,0.0,0.02755690080263283,-0.5906064020680191,0.0,0.5906064020680191,-0.03434752768586087,0,0.03434752768586087,-0.01710658626500526,0.010899809409096167,0.007037739503416066,0.4,0.033599138259887695,0.4015364646911621,STABILIZE
0.16,0.015,0.11,-0.007475654568859436,-0.005875512741622777,-0.00011213481853289154,-0.0175662235785186,-0.02355387113867427,0.16,0.015,0.11,-0.013245910706791346,-0.008029118361024629,-0.00019868866060187017,-0.0080181611704325,-0.016245968192059,0.002,8e-05,0,-0.2518599021453877,-0.0011578081385340785,-2.014879217163102e-05,0.0,-0.0011779569307057095,0.2,0.02,0.0,-0.009575457627463408,-0.006963883940606078,-0.00019150915254926817,-0.0,-0.007155393093155346,-0.05018198975640393,0.0,0.05018198975640393,-0.036721954635142356,0.0,0.036721954635142356,-0.5789040692670392,0.0,0.5789040692670392,-0.03481941970303039,0,0.03481941970303039,-0.02356373968313367,0.016231651187115156,0.007155393093155346,0.4,0.03342270851135254,0.43495988845825195,STABILIZE
0.16,0.015,0.11,-0.008502013333626315,-0.004909180833044563,-0.0001275302000043947,-0.010150148670044502,-0.015186859703093459,0.16,0.015,0.11,-0.0146768157526389,-0.006844167815507561,-0.00022015223628958348,-0.011541287317832865,-0.01860560736963001,0.002,8e-05,0,-0.2711638161571545,-0.0011541578822444039,-2.1693105292572364e-05,0.0,-0.0011758509875369762,0.2,0.02,0.0,-0.010930490095309026,-0.008101576719145201,-0.00021860980190618052,-0.0,-0.008320186521051381,-0.04277604884692225,0.0,0.04277604884692225,-0.03068238020652852,0.0,0.03068238020652852,-0.5770789411222019,0.0,0.5770789411222019,-0.040507883595726005,0,0.040507883595726005,-0.015200009995377352,0.018594865672402778,0.008320186521051381,0.4,0.033451080322265625,0.4684164524078369,STABILIZE
0.16,0.015,0.11,-0.009668577379392619,-0.005562867306749804,-0.0001450286606908893,-0.008713250469602469,-0.014421146437043161,0.16,0.015,0.11,-0.015778830936341828,-0.005255060156543672,-0.0002366824640451274,0.0030520289404979586,-0.0024397136800908405,0.002,8e-05,0,-0.29024710546748933,-0.001137505122361024,-2.3219768437399147e-05,0.0,-0.001160724890798423,0.2,0.02,0.0,-0.012006467701893191,-0.006413621986920283,-0.00024012935403786384,-0.0,-0.0066537513409581465,-0.03284412597839795,0.0,0.03284412597839795,-0.03476792066718628,0.0,0.03476792066718628,-0.568752561180512,0.0,0.568752561180512,-0.032068109934601415,0,0.032068109934601415,-0.014422509671566231,0.0024316418677600435,0.0066537513409581465,0.4,0.03355288505554199,0.5019800662994385,STABILIZE
0.16,0.015,0.11,-0.010668020039660829,-0.004779893212923142,-0.00016002030059491244,0.0032047542506309003,-0.001735159262887154,0.16,0.015,0.11,-0.017115431433869517,-0.006392370368508984,-0.00025673147150804274,0.0017336979879123097,-0.004915403852104718,0.002,8e-05,0,-0.3091781015223703,-0.001131732503947711,-2.4734248121789625e-05,0.0,-0.0011564667520695005,0.2,0.02,0.0,-0.013383967454140135,-0.0082349668199093,-0.0002676793490828027,-0.0,-0.008502646168992102,-0.03995231480318115,0.0,0.03995231480318115,-0.029874332580769637,0.0,0.029874332580769637,-0.5658662519738554,0.0,0.5658662519738554,-0.041174834099546496,0,0.041174834099546496,-0.0017386912027785612,0.0049141556343129215,0.008502646168992102,0.4,0.03345489501953125,0.535414457321167,STABILIZE
0.16,0.015,0.11,-0.011848566865705469,-0.005646879620999535,-0.00017772850298558202,-0.005085309574191074,-0.010909917698176192,0.16,0.015,0.11,-0.018037706956281485,-0.004411497060141108,-0.00027056560434422224,0.008553781073144352,0.0038717184086590212,0.002,8e-05,0,-0.32765575681673875,-0.0011047962353515097,-2.62124605453391e-05,0.0,-0.0011310086958968488,0.2,0.02,0.0,-0.01463769440577345,-0.007496150319166086,-0.000292753888115469,-0.0,-0.007788904207281555,-0.02757185662588192,0.0,0.02757185662588192,-0.035292997631247096,0.0,0.035292997631247096,-0.5523981176757549,0.0,0.5523981176757549,-0.037480751595830426,0,0.037480751595830426,-0.010907382630947357,-0.0038788544390109744,0.007788904207281555,0.4,0.03344988822937012,0.5688629150390625,STABILIZE
0.16,0.015,0.11,-0.012716613868934419,-0.004153676274924006,-0.00019074920803401627,0.007087771560142139,0.0027433460771841174,0.16,0.015,0.11,-0.01901546713891174,-0.004678662858174142,-0.0002852320070836761,0.013752530640457302,0.008788635775199484,0.002,8e-05,0,-0.34598284108961463,-0.001096207562056107,-2.7678627287169174e-05,0.0,-0.0011238861893432762,0.2,0.02,0.0,-0.016059659702776664,-0.008505276062178989,-0.0003211931940555333,-0.0,-0.008826469256234521,-0.029241642863588387,0.0,0.029241642863588387,-0.025960476718275033,0.0,0.025960476718275033,-0.5481037810280535,0.0,0.5481037810280535,-0.042526380310894944,0,0.042526380310894944,0.002749868469244187,-0.008786597173546443,0.008826469256234521,0.4,0.033437252044677734,0.6023430824279785,STABILIZE
0.16,0.015,0.11,-0.013285605981277464,-0.002722324636706652,-0.00019928408971916196,0.009000903753274883,0.006079295026849068,0.16,0.015,0.11,-0.020050846612638888,-0.004953740110844308,-0.00030076269918958334,0.007750792981071452,0.002496290171037561,0.002,8e-05,0,-0.36426653913492224,-0.0010934721360609414,-2.914132313079378e-05,0.0,-0.0011226134591917352,0.2,0.02,0.0,-0.017657728088491254,-0.009557384107791386,-0.0003531545617698251,-0.0,-0.00991053866956121,-0.03096087569277692,0.0,0.03096087569277692,-0.017014528979416577,0.0,0.017014528979416577,-0.5467360680304707,0.0,0.5467360680304707,-0.047786920538956924,0,0.047786920538956924,0.006081374915779049,-0.002491218933619429,0.00991053866956121,0.4,0.03344154357910156,0.6357636451721191,STABILIZE
0.16,0.015,0.11,-0.014008801249639035,-0.0034584034339692083,-0.0002101320187445855,0.008654704323432514,0.00498616887071872,0.16,0.015,0.11,-0.021225505404176333,-0.005617354227992757,-0.00031838258106264497,-0.0014885922514785003,-0.007424329060533903,0.002,8e-05,0,-0.38250230514664213,-0.0010900692827206825,-3.0600184411731374e-05,0.0,-0.0011206694671324138,0.2,0.02,0.0,-0.01878145867005704,-0.006717262045539825,-0.00037562917340114077,-0.0,-0.007092891218940966,-0.03510846392495473,0.0,0.03510846392495473,-0.02161502146230755,0.0,0.02161502146230755,-0.5450346413603413,0.0,0.5450346413603413,-0.033586310227699125,0,0.033586310227699125,0.004981815934240959,0.007427250635582154,0.007092891218940966,0.4,0.03345799446105957,0.6692450046539307,STABILIZE
0.16,0.015,0.11,-0.014688238969472396,-0.0032505395576316975,-0.00022032358454208593,0.006291281022067794,0.0028204178798940105,0.16,0.015,0.11,-0.022331809899537133,-0.005292739010483589,-0.00033497714849305696,0.004520384962254702,-0.0011073311967219439,0.002,8e-05,0,-0.4007163285641775,-0.001089235295121117,-3.20573062851342e-05,0.0,-0.0011212926014062513,0.2,0.02,0.0,-0.020034010227868812,-0.0074905106601215535,-0.00040068020455737624,0.0,-0.00789119086467893,-0.03307961881552243,0.0,0.03307961881552243,-0.02031587223519811,0.0,0.02031587223519811,-0.5446176475605585,0.0,0.5446176475605585,-0.03745255330060777,0,0.03745255330060777,0.0028196934477932485,0.001109174583612202,0.00789119086467893,0.4,0.03344368934631348,0.7026662826538086,STABILIZE
0.16,0.015,0.11,-0.015360994870798759,-0.003217609256837,-0.00023041492306198136,0.009990487139195594,0.0065424629592966115,0.16,0.015,0.11,-0.02356670090299208,-0.00590614919329234,-0.0003535005135448812,-0.006143458214968748,-0.012403107921805968,0.002,8e-05,0,-0.4187563829417549,-0.0010785086731438603,-3.3500510635340396e-05,0.0,-0.0011120091837792006,0.2,0.02,0.0,-0.021212291291912055,-0.007044248982704392,-0.0004242458258382411,0.0,-0.007468494808542633,-0.03691343245807712,0.0,0.03691343245807712,-0.02011005785523125,0.0,0.02011005785523125,-0.5392543365719301,0.0,0.5392543365719301,-0.03522124491352196,0,0.03522124491352196,0.006534837202131426,0.012407127404656295,0.007468494808542633,0.4,0.03345370292663574,0.7361187934875488,STABILIZE
0.16,0.015,0.11,-0.015960990015363673,-0.0028702893141862263,-0.0002394148502304551,0.005278041770927789,0.002168337606511108,0.16,0.015,0.11,-0.024289937918320098,-0.003459860459746364,-0.0003643490687748015,0.0050121737635933595,0.001187964235072194,0.002,8e-05,0,-0.43657394619967627,-0.0010654578184364752,-3.4925915695974106e-05,0.0,-0.0011003837341324492,0.2,0.02,0.0,-0.022382036444811352,-0.006994862881604383,-0.00044764072889622703,0.0,-0.007442503610500611,-0.021624127873414774,0.0,0.021624127873414774,-0.017939308213663914,0.0,0.017939308213663914,-0.5327289092182376,0.0,0.5327289092182376,-0.034974314408021914,0,0.034974314408021914,0.0021690623559884655,-0.0011866404238246528,0.007442503610500611,0.4,0.03344583511352539,0.769587516784668,STABILIZE
0.16,0.015,0.11,-0.016344042463935532,-0.0015479144141672696,-0.00024516063695903295,0.003985076695292177,0.002192001644165874,0.16,0.015,0.11,-0.025035766837850224,-0.003013893630879402,-0.00037553650256775335,0.0076919195916552874,0.0043024894582081325,0.002,8e-05,0,-0.4574876266116926,-0.001056401919754824,-3.659901012893541e-05,0.0,-0.0010930009298837594,0.2,0.02,0.0,-0.02395073980224205,-0.007923910118486182,-0.000479014796044841,0.0,-0.008402924914531023,-0.01883683519299626,0.0,0.01883683519299626,-0.009674465088545435,0.0,0.009674465088545435,-0.528200959877412,0.0,0.528200959877412,-0.039619550592430906,0,0.039619550592430906,0.002194976255209588,-0.004300972678951134,0.008402924914531023,0.4,0.039594173431396484,0.8092279434204102,STABILIZE
0.16,0.015,0.11,-0.016889531473960377,-0.0026099120066198907,-0.00025334297210940566,0.002643461571640573,-0.00021979340708872322,0.16,0.015,0.11,-0.025786079905552983,-0.003589900159550509,-0.0003867911985832947,0.008050756170690895,0.004074064812557091,0.002,8e-05,0,-0.47514429984134793,-0.0010559874399885378,-3.8011543987307835e-05,0.0,-0.0010939989839758456,0.2,0.02,0.0,-0.024850286169280478,-0.005379890384358911,-0.0004970057233856096,0.0,-0.00587689610774452,-0.022436875997190683,0.0,0.022436875997190683,-0.016311950041374316,0.0,0.016311950041374316,-0.5279937199942689,0.0,0.5279937199942689,-0.026899451921794555,0,0.026899451921794555,-0.00021788067467933063,-0.004074167553048941,0.00587689610774452,0.4,0.03344106674194336,0.8426153659820557,STABILIZE
0.16,0.015,0.11,-0.017537454659091466,-0.0030845521167246525,-0.000263061819886372,-0.00015299786567724342,-0.0035006118022882678,0.16,0.015,0.11,-0.025780149877922244,2.8230938019194185e-05,-0.0003867022481688336,0.02151865517086707,0.021160183860717434,0.002,8e-05,0,-0.4930677437058341,-0.001066596279850882,-3.944541949646673e-05,0.0,-0.0011060416993473488,0.2,0.02,0.0,-0.026230212094979808,-0.008211724654863833,-0.0005246042418995962,-0.0,-0.008736328896763429,0.00017644336261996366,0.0,-0.00017644336261996366,-0.01927845072952908,0.0,0.01927845072952908,-0.533298139925441,0.0,0.533298139925441,-0.04105862327431917,0,0.04105862327431917,-0.0034854473442823162,-0.021162686994328526,0.008736328896763429,0.4,0.03360867500305176,0.8762173652648926,STABILIZE
0.16,0.015,0.11,-0.018278000836150637,-0.003540645807411103,-0.00027417001254225956,-0.002162335954909099,-0.0059771517748624615,0.16,0.015,0.11,-0.025036862422295924,0.0035537522101803084,-0.00037555293633443883,0.03852546471423137,0.04170366398807724,0.002,8e-05,0,-0.5109173744985828,-0.0010667670428256767,-4.087338995988663e-05,0.0,-0.0011076404327855635,0.2,0.02,0.0,-0.02806170971319283,-0.010945779892080976,-0.0005612341942638566,-0.0,-0.011507014086344833,0.022210951313626926,0.0,-0.022210951313626926,-0.022129036296319394,0.0,0.022129036296319394,-0.5333835214128384,0.0,0.5333835214128384,-0.05472889946040488,0,0.05472889946040488,-0.005937313735487246,-0.041709354334208845,0.011507014086344833,0.4,0.033464908599853516,0.9096765518188477,STABILIZE
0.16,0.015,0.11,-0.01889140133815696,-0.0029340002898514657,-0.0002833710200723544,-0.0010965716877749168,-0.004313942997698737,0.16,0.015,0.11,-0.024295380635990176,0.003546635141029321,-0.0003644307095398526,0.02843921160597043,0.031621416037459896,0.002,8e-05,0,-0.5285537011781795,-0.0010544698655406053,-4.228429609425436e-05,0.0,-0.0010967541616348597,0.2,0.02,0.0,-0.02971939732857267,-0.00991125685441139,-0.0005943879465714534,-0.0,-0.010505644800982844,0.022166469631433254,0.0,-0.022166469631433254,-0.01833750181157166,0.0,0.01833750181157166,-0.5272349327703026,0.0,0.5272349327703026,-0.04955628427205695,0,0.04955628427205695,-0.004286591382051059,-0.031625135426189804,0.010505644800982844,0.4,0.03345060348510742,0.9431345462799072,STABILIZE
0.16,0.015,0.11,-0.01998302731372056,-0.00522728453622783,-0.0002997454097058084,-0.015126020878188682,-0.020653050824122318,0.16,0.015,0.11,-0.02379144668306081,0.0024131032225280366,-0.0003568717002459121,0.022225841178787405,0.02428207270106953,0.002,8e-05,0,-0.5458565682932264,-0.001035691387521634,-4.3668525463458115e-05,0.0,-0.001079359912985092,0.2,0.02,0.0,-0.031022239521748915,-0.007798374857765739,-0.0006204447904349783,0.0,-0.008418819648200716,0.015081895140800227,0.0,-0.015081895140800227,-0.032670528351423936,0.0,0.032670528351423936,-0.517845693760817,0.0,0.517845693760817,-0.03899187428882869,0,0.03899187428882869,-0.020636521203971577,-0.024296122233842938,0.008418819648200716,0.4,0.03341317176818848,0.9765384197235107,STABILIZE
0.16,0.015,0.11,-0.02096601198678051,-0.004700210527931429,-0.00031449017980170765,-0.008593561187600884,-0.013608261895334022,0.16,0.015,0.11,-0.024742819659536317,-0.004549056971661362,-0.00037114229489304475,-0.0040144316973419365,-0.008934630963896344,0.002,8e-05,0,-0.5630234500094423,-0.0010260581927887128,-4.504187600075539e-05,0.0,-0.0010711000687894682,0.2,0.02,0.0,-0.03166972767871191,-0.0038700128489729323,-0.0006333945535742382,0.0,-0.00450340740254717,-0.02843160607288351,0.0,0.02843160607288351,-0.02937631579957143,0.0,0.02937631579957143,-0.5130290963943563,0.0,0.5130290963943563,-0.01935006424486466,0,0.01935006424486466,-0.013611278543622795,0.00893003464052234,0.00450340740254717,0.4,0.033461809158325195,1.010024070739746,STABILIZE
0.16,0.015,0.11,-0.021845631228227587,-0.004208750288476421,-0.0003276844684234138,-0.004630882013627614,-0.00916731677052745,0.16,0.015,0.11,-0.0271549163977881,-0.011541258267894587,-0.0004073237459668215,-0.04756809043303748,-0.059516672446898886,0.002,8e-05,0,-0.580107651878518,-0.0010217935237889523,-4.640861215028144e-05,0.0,-0.0010682021359392337,0.2,0.02,0.0,-0.03165998584223242,5.826520607072477e-05,-0.0006331997168446484,0.0,-0.0005749345107739236,-0.07213286417434117,0.0,0.07213286417434117,-0.02630468930297763,0.0,0.02630468930297763,-0.5108967618944762,0.0,0.5108967618944762,0.00029132603035362387,0,-0.00029132603035362387,-0.009167014152029878,0.05951671905825397,0.0005749345107739236,0.4,0.03343963623046875,1.0434513092041016,STABILIZE
0.16,0.015,0.11,-0.02319578630253183,-0.006457472045582996,-0.00034793679453797743,-0.011999559932759156,-0.01880496877288013,0.16,0.015,0.11,-0.029519702600813425,-0.011310212501097752,-0.00044279553901220136,-0.06110404595053972,-0.07285705399064968,0.002,8e-05,0,-0.5974581530992596,-0.001037291740983248,-4.779665224794078e-05,0.0,-0.0010850883932311886,0.2,0.02,0.0,-0.030423196742769498,0.00739408678682629,-0.00060846393485539,0.0,0.0067856228519709,-0.07068882813186095,0.0,0.07068882813186095,-0.040359200284893725,0.0,0.040359200284893725,-0.5186458704916239,0.0,0.5186458704916239,0.03697043393413145,0,-0.03697043393413145,-0.018757953424855,0.07286917283773989,-0.0067856228519709,0.4,0.03345346450805664,1.0769047737121582,STABILIZE
0.16,0.015,0.11,-0.024982513036552557,-0.00854768398455647,-0.00037473769554828833,-0.02308656684069152,-0.032008988520796276,0.16,0.015,0.11,-0.031771279027279976,-0.010771520565544836,-0.00047656918540919964,-0.05886009807215319,-0.07010818782310722,0.002,8e-05,0,-0.6148935800707838,-0.0010426364945090706,-4.9191486405662706e-05,0.0,-0.0010918279809147334,0.2,0.02,0.0,-0.02804427124816554,0.014225946645545794,-0.0005608854249633108,0.0,0.013665061220582482,-0.06732200353465523,0.0,0.06732200353465523,-0.05342302490347794,0.0,0.05342302490347794,-0.5213182472545353,0.0,0.5213182472545353,0.07112973322772896,0,-0.07112973322772896,-0.03192192820471429,0.07014787128386445,-0.013665061220582482,0.4,0.033444881439208984,1.1103498935699463,STABILIZE
0.16,0.015,0.11,-0.026370277192586382,-0.006638293584283619,-0.00039555415788879573,-0.005800302171058251,-0.012834149913230666,0.16,0.015,0.11,-0.03513665732669899,-0.01609810217145863,-0.0005270498599004848,-0.07609181978241147,-0.09271697181377059,0.002,8e-05,0,-0.6322043929138117,-0.0010350665253077633,-5.057635143310494e-05,0.0,-0.0010856428767408682,0.2,0.02,0.0,-0.026400746910718285,0.009827135447919893,-0.0005280149382143657,0.0,0.009299120509705527,-0.10061313857161645,0.0,0.10061313857161645,-0.04148933490177262,0.0,0.04148933490177262,-0.5175332626538817,0.0,0.5175332626538817,0.04913567723959946,0,-0.04913567723959946,-0.012754633043349239,0.09272794402034541,-0.009299120509705527,0.4,0.03344869613647461,1.1438052654266357,STABILIZE
0.16,0.015,0.11,-0.027846352162502596,-0.007059113379552713,-0.00041769528243753895,-0.009695634946046498,-0.01717244360803675,0.16,0.015,0.11,-0.038533610941941965,-0.016245435498742144,-0.0005780041641291295,-0.04808869032389431,-0.06491212998676558,0.002,8e-05,0,-0.6496024286870811,-0.0010400446251723418,-5.196819429496649e-05,-0.0,-0.0010920128194673083,0.2,0.02,0.0,-0.023606746536039006,0.016702374396075997,-0.00047213493072078015,0.0,0.016230239465355217,-0.10153397186713839,0.0,0.10153397186713839,-0.044119458622204455,0.0,0.044119458622204455,-0.5200223125861709,0.0,0.5200223125861709,0.08351187198037999,0,-0.08351187198037999,-0.017077812262423744,0.06493709084351842,-0.016230239465355217,0.4,0.03345632553100586,1.177335500717163,STABILIZE
0.16,0.015,0.11,-0.02956505374744148,-0.008225184051704939,-0.0004434758062116222,-0.016512171871869593,-0.025180831729786156,0.16,0.015,0.11,-0.041552467532743345,-0.014447331231108883,-0.0006232870129911502,-0.011942472279834903,-0.027013090523934934,0.002,8e-05,0,-0.6668025699902448,-0.0010289331869302138,-5.3344205599219584e-05,-0.0,-0.0010822773925294334,0.2,0.02,0.0,-0.020710029489365716,0.017328510562412604,-0.00041420058978731435,0.0,0.01691430997262529,-0.09029582019443051,0.0,0.09029582019443051,-0.05140740032315587,0.0,0.05140740032315587,-0.5144665934651069,0.0,0.5144665934651069,0.08664255281206303,0,-0.08664255281206303,-0.025139953817752254,0.027051138022260588,-0.01691430997262529,0.4,0.033432960510253906,1.2107386589050293,STABILIZE
0.16,0.015,0.11,-0.031040502231218733,-0.007060947845454883,-0.000465607533468281,-0.0024814094735913423,-0.010007964852514506,0.16,0.015,0.11,-0.04543542414750769,-0.018582386606155667,-0.0006815313622126153,-0.029898145881258695,-0.04916206384962698,0.002,8e-05,0,-0.6842277350496149,-0.0010423795123607805,-5.4738218803969196e-05,-0.0,-0.0010971177311647497,0.2,0.02,0.0,-0.017336024410325043,0.020183417241732306,-0.00034672048820650085,0.0,0.019836696753525805,-0.11613991628847291,0.0,0.11613991628847291,-0.044130924034093015,0.0,0.044130924034093015,-0.5211897561803902,0.0,0.5211897561803902,0.10091708620866152,0,-0.10091708620866152,-0.009921358488756518,0.049179614965771584,-0.019836696753525805,0.4,0.03343343734741211,1.2441363334655762,STABILIZE
0.16,0.015,0.11,-0.031370415793596076,-0.0015787310602778616,-0.00047055623690394114,0.02865678443736753,0.026607497140185725,0.16,0.015,0.11,-0.049077052584939856,-0.017426236989886486,-0.0007361557887740979,-0.027358340004989903,-0.045520732783650486,0.002,8e-05,0,-0.7009350430005624,-0.000999365781059486,-5.6074803440044996e-05,0.0,-0.0010554405844995312,0.2,0.02,0.0,-0.014461904941441044,0.017191857936135244,-0.00028923809882882087,0.0,0.016902619837306423,-0.10891398118679053,0.0,0.10891398118679053,-0.009867069126736634,0.0,0.009867069126736634,-0.4996828905297431,0.0,0.4996828905297431,0.08595928968067622,0,-0.08595928968067622,0.02667576067963955,0.04548076306954513,-0.016902619837306423,0.4,0.033435821533203125,1.2775812149047852,STABILIZE
0.16,0.015,0.11,-0.030523275736699492,0.004014759955031301,-0.00045784913605049235,0.04358856909736694,0.04714547991634775,0.16,0.015,0.11,-0.052494176431072695,-0.01619440831200288,-0.0007874126464660904,-0.00044504917653156675,-0.017426870135000536,0.002,8e-05,0,-0.7170609943596562,-0.000955299882619879,-5.73648795487725e-05,0.0,-0.0010126647621686515,0.2,0.02,0.0,-0.01208949415648734,0.014054139777088873,-0.0002417898831297468,0.0,0.013812349893959125,-0.10121505195001798,0.0,0.10121505195001798,0.02509224971894563,0.0,-0.02509224971894563,-0.4776499413099395,0.0,0.4776499413099395,0.07027069888544436,0,-0.07027069888544436,0.04716681772617986,0.017369035230266772,-0.013812349893959125,0.4,0.033761024475097656,1.311335563659668,STABILIZE
0.16,0.015,0.11,-0.030626740411670208,-0.0004935315592953238,-0.0004594011061750531,0.02683740673219501,0.025884474066724634,0.16,0.015,0.11,-0.05550880269715453,-0.014379914712080204,-0.000832632040457318,0.0075985490288492,-0.007613997723688322,0.002,8e-05,0,-0.7337178158079757,-0.0009931731608662062,-5.8697425264638056e-05,0.0,-0.0010518705861308443,0.2,0.02,0.0,-0.008714526995517764,0.020123448002847915,-0.0001742905399103553,0.0,0.01994915746293756,-0.08987446695050127,0.0,0.08987446695050127,-0.0030845722455957736,0.0,0.0030845722455957736,-0.49658658043310305,0.0,0.49658658043310305,0.10061724001423956,0,-0.10061724001423956,0.025897805104930133,0.007568530226822495,-0.01994915746293756,0.4,0.033542633056640625,1.3449337482452393,STABILIZE
0.16,0.015,0.11,-0.031777497774884624,-0.004606465930494129,-0.00047666246662326936,0.0174843477219961,0.0124012193248787,0.16,0.015,0.11,-0.05882358416067877,-0.013269024702223653,-0.0008823537624101814,0.0040250067650146595,-0.010126371699619174,0.002,8e-05,0,-0.7536552873457133,-0.0009976178114803028,-6.029242298765707e-05,0.0,-0.0010579102344679598,0.2,0.02,0.0,-0.00681611086193092,0.00949916715809747,-0.0001363222172386184,-0.0,0.009362844940858851,-0.08293140438889783,0.0,0.08293140438889783,-0.02879041206558831,0.0,0.02879041206558831,-0.4988089057401514,0.0,0.4988089057401514,0.04749583579048735,0,-0.04749583579048735,0.012409609407105886,0.010116088122671835,-0.009362844940858851,0.4,0.03997015953063965,1.3848483562469482,STABILIZE
0.16,0.015,0.11,-0.031771926794370874,2.666539521728982e-05,-0.0004765789019155631,0.03175409413053708,0.03130418062383881,0.16,0.015,0.11,-0.06053904959775867,-0.008211043594286658,-0.00090808574396638,0.041836450236668155,0.032717320898415114,0.002,8e-05,0,-0.7685985564827048,-0.0008940710176435968,-6.14878845186164e-05,0.0,-0.0009555589021622132,0.2,0.02,0.0,-0.004840469658245241,0.01182046261286496,-9.680939316490482e-05,-0.0,0.011723653219700056,-0.051319022464291604,0.0,0.051319022464291604,0.00016665872010806137,0.0,-0.00016665872010806137,-0.44703550882179843,0.0,0.44703550882179843,0.0591023130643248,0,-0.0591023130643248,0.031270415078486095,-0.03274959468633139,-0.011723653219700056,0.4,0.03342747688293457,1.418278455734253,STABILIZE
0.16,0.015,0.11,-0.03061305984294346,0.005544443428421287,-0.00045919589764415185,0.03189596683645109,0.03698121436722822,0.16,0.015,0.11,-0.05877181951730111,0.008455075187045833,-0.0008815772927595165,0.1056057716986463,0.1131792695929326,0.002,8e-05,0,-0.7826397664588562,-0.0008397285629237393,-6.26111813167085e-05,0.0,-0.0009023397442404477,0.2,0.02,0.0,-0.008517833031133498,-0.02199231452067657,-0.00017035666062266996,-0.0,-0.02216267118129924,0.052844219919036456,0.0,-0.052844219919036456,0.03465277142763304,0.0,-0.03465277142763304,-0.41986428146186966,0.0,0.41986428146186966,-0.10996157260338284,0,0.10996157260338284,0.03719835881886826,-0.11310808716819205,0.02216267118129924,0.4,0.03344225883483887,1.45172119140625,STABILIZE
0.16,0.015,0.11,-0.029475564164397863,0.005438240836089465,-0.0004421334624659679,0.008678770004973739,0.013674877378597235,0.16,0.015,0.11,-0.06206841629597785,-0.01576066402717519,-0.0009310262444396677,0.0010966277763158239,-0.015595062495299034,0.002,8e-05,0,-0.797085470067868,-0.0008632913596320033,-6.376683760542945e-05,0.0,-0.0009270581972374327,0.2,0.02,0.0,-0.006910519662389134,0.009605483962666911,-0.0001382103932477827,-0.0,0.009467273569419128,-0.09850415016984494,0.0,0.09850415016984494,0.03398900522555915,0.0,-0.03398900522555915,-0.43164567981600166,0.0,0.43164567981600166,0.048027419813334554,0,-0.048027419813334554,0.013687944925076273,0.015583594234964911,-0.009467273569419128,0.4,0.03346657752990723,1.4852309226989746,STABILIZE
0.16,0.015,0.11,-0.02907338788317074,0.0019240898654682749,-0.0004361008182475611,0.012711289663116866,0.01419927871033758,0.16,0.015,0.11,-0.0660584539332458,-0.019089119222246567,-0.000990876808998687,-0.020026124656935616,-0.04010612068818087,0.002,8e-05,0,-0.8107801304126229,-0.0008189741168964122,-6.486241043300983e-05,0.0,-0.000883836527329422,0.2,0.02,0.0,-0.005462958363906575,0.008656769910560327,-0.00010925916727813151,-0.0,0.008547510743282196,-0.11930699513904103,0.0,0.11930699513904103,0.012025561659176717,0.0,-0.012025561659176717,-0.4094870584482061,0.0,0.4094870584482061,0.04328384955280163,0,-0.04328384955280163,0.014229572651626254,0.040095382461087285,-0.008547510743282196,0.4,0.033443450927734375,1.5186564922332764,STABILIZE
0.16,0.015,0.11,-0.029423105492712747,-0.0016741795722134338,-0.0004413465823906912,0.012056675161678989,0.009941149007074865,0.16,0.015,0.11,-0.07069718337224298,-0.022206677204401268,-0.0010604577505836446,-0.036673381092567375,-0.05994051604755229,0.002,8e-05,0,-0.8236914242600086,-0.0007726170994951647,-6.58953139408007e-05,0.0,-0.0008385124134359654,0.2,0.02,0.0,-0.004190123177794483,0.007616697762853836,-8.380246355588966e-05,-0.0,0.007532895299297946,-0.13879173252750793,0.0,0.13879173252750793,-0.01046362232633396,0.0,0.01046362232633396,-0.38630854974758233,0.0,0.38630854974758233,0.03808348881426918,0,-0.03808348881426918,0.009980988206427685,0.05993389510161083,-0.007532895299297946,0.4,0.033422231674194336,1.5520529747009277,STABILIZE
0.16,0.015,0.11,-0.029062712125882486,0.0017220438628887834,-0.0004359406818882373,0.006944728603775352,0.008230831784775898,0.16,0.015,0.11,-0.07109201002898487,-0.0018865741817814551,-0.001066380150434773,0.025961543130323495,0.023008588798107268,0.002,8e-05,0,-0.8359031242160753,-0.0007293795093171094,-6.687224993728603e-05,0.0,-0.0007962517592543955,0.2,0.02,0.0,-0.0072097596126315154,-0.01803566210340229,-0.0001441951922526303,-0.0,-0.01817985729565492,-0.011791088636134095,0.0,0.011791088636134095,0.010762774143054895,0.0,-0.010762774143054895,-0.3646897546585547,0.0,0.3646897546585547,-0.09017831051701145,0,0.09017831051701145,0.00826703498709606,-0.022995605729612647,0.01817985729565492,0.4,0.03348517417907715,1.5855650901794434,STABILIZE
0.16,0.015,0.11,-0.029542393588908655,-0.0022856670831412134,-0.0004431359038336298,-0.03215312586732643,-0.034881928854301275,0.16,0.015,0.11,-0.07631090508346351,-0.024867870776443878,-0.0011446635762519526,-0.1366682700256788,-0.16268080437837462,0.002,8e-05,0,-0.8468265619178755,-0.0006506229632117967,-6.774612495343005e-05,0.0,-0.0007183690881652267,0.2,0.02,0.0,-0.012149848004574311,-0.02942420724900842,-0.00024299696009148623,-0.0,-0.029667204209099907,-0.15542419235277424,0.0,0.15542419235277424,-0.014285419269632584,0.0,0.014285419269632584,-0.32531148160589834,0.0,0.32531148160589834,-0.14712103624504208,0,0.14712103624504208,-0.03529953646447729,0.16259070022355082,0.029667204209099907,0.4,0.03357839584350586,1.6191530227661133,STABILIZE
0.16,0.015,0.11,-0.030396904808332997,-0.004086604468970058,-0.00045595357212499494,-0.039118393823713446,-0.0436609518648085,0.16,0.015,0.11,-0.08249109935679863,-0.02955608886391056,-0.0012373664903519795,-0.05644399182570415,-0.08723744717996669,0.002,8e-05,0,-0.8565356163553792,-0.0005804058558836939,-6.852284930843034e-05,0.0,-0.0006489287051921242,0.2,0.02,0.0,-0.019983470349665234,-0.04682927993800711,-0.0003996694069933047,-0.0,-0.047228949345000416,-0.184725555399441,0.0,0.184725555399441,-0.02554127793106286,0.0,0.02554127793106286,-0.29020292794184693,0.0,0.29020292794184693,-0.23414639969003553,0,0.23414639969003553,-0.04401709307842515,0.08705829325884962,0.047228949345000416,0.4,0.03345608711242676,1.6525859832763672,STABILIZE
0.16,0.015,0.11,-0.030107265501660055,0.0013849603722634657,-0.0004516089825249008,-0.0021862231077848958,-0.0012528717180463307,0.16,0.015,0.11,-0.08476700189341567,-0.010882621079837555,-0.001271505028401235,0.033974625590951706,0.021820499482712915,0.002,8e-05,0,-0.8654600806948256,-0.0005334233462556412,-6.923680645558605e-05,0.0,-0.0006026601527112273,0.2,0.02,0.0,-0.029145172380232648,-0.05476032587122828,-0.000582903447604653,-0.0,-0.05534322931883293,-0.06801638174898472,0.0,0.06801638174898472,0.00865600232664666,0.0,-0.00865600232664666,-0.2667116731278206,0.0,0.2667116731278206,-0.2738016293561414,0,0.2738016293561414,-0.0011485833172745006,-0.02182623745816566,0.05534322931883293,0.4,0.03346109390258789,1.6860480308532715,STABILIZE
0.16,0.015,0.11,-0.031745464621608904,-0.007834448494617306,-0.00047618196932413355,-0.02527309696152583,-0.033583727425467266,0.16,0.015,0.11,-0.08952041069226878,-0.02273248468698861,-0.0013428061603840316,-0.0019006454105036606,-0.0259759362578763,0.002,8e-05,0,-0.8739058597323791,-0.0005048838390651333,-6.991246877859033e-05,0.0,-0.0005747963078437236,0.2,0.02,0.0,-0.03642776629713276,-0.04353492980064967,-0.0007285553259426552,-0.0,-0.044263485126592325,-0.1420780292936788,0.0,0.1420780292936788,-0.04896530309135816,0.0,0.04896530309135816,-0.2524419195325666,0.0,0.2524419195325666,-0.21767464900324834,0,0.21767464900324834,-0.03368217102457028,0.025848159844231333,0.044263485126592325,0.4,0.03345632553100586,1.719545602798462,STABILIZE
0.16,0.015,0.11,-0.03200968227861174,-0.0012629254346684749,-0.0004801452341791761,-0.012225154728023116,-0.013968225396870766,0.16,0.015,0.11,-0.09599960000792288,-0.03096966749154078,-0.001439994000118843,-0.11917684654321178,-0.1515865080348714,0.002,8e-05,0,-0.881730520986321,-0.0004675105662583539,-7.053844167890568e-05,0.0,-0.0005380490079372595,0.2,0.02,0.0,-0.04622784853324395,-0.058553870217380635,-0.0009245569706648791,-0.0,-0.05947842718804552,-0.19356042182212987,0.0,0.19356042182212987,-0.007893283966677968,0.0,0.007893283966677968,-0.23375528312917693,0.0,0.23375528312917693,-0.29276935108690316,0,0.29276935108690316,-0.014742614762101668,0.1515131547058544,0.05947842718804552,0.4,0.03347373008728027,1.7529900074005127,STABILIZE
0.16,0.015,0.11,-0.0326360807380817,-0.00299852267079281,-0.0004895412110712254,-0.0029538372351900146,-0.00644190111705405,0.16,0.015,0.11,-0.09836954065278453,-0.011344728973414507,-0.0014755431097917679,0.055661511586096356,0.04284123950289008,0.002,8e-05,0,-0.8882415822264494,-0.0003895995520959209,-7.105932657811596e-05,0.0,-0.00046065887867403687,0.2,0.02,0.0,-0.054543590230130196,-0.04975854351491779,-0.001090871804602604,-0.0,-0.0508494153195204,-0.07090455608384066,0.0,0.07090455608384066,-0.018740766692455064,0.0,0.018740766692455064,-0.19479977604796045,0.0,0.19479977604796045,-0.24879271757458896,0,0.24879271757458896,-0.0062558135090309145,-0.04286880788505924,0.0508494153195204,0.4,0.03342437744140625,1.7864186763763428,STABILIZE
0.16,0.015,0.11,-0.033633052912684945,-0.004769165579182381,-0.0005044957936902742,-0.0028312503101730687,-0.008104911683045724,0.16,0.015,0.11,-0.09662195264256548,0.008359848747278461,-0.001449329289638482,0.15593396701803572,0.1628444864756757,0.002,8e-05,0,-0.8934368803790644,-0.0003106560763957809,-7.147495043032515e-05,0.0,-0.0003821310268261061,0.2,0.02,0.0,-0.06146831368239232,-0.04140681351892799,-0.0012293662736478463,0.0,-0.042636179792575835,0.052249054670490375,0.0,-0.052249054670490375,-0.029807284869889886,0.0,0.029807284869889886,-0.15532803819789046,0.0,0.15532803819789046,-0.20703406759463994,0,0.20703406759463994,-0.007516433526572633,-0.16287270979497182,0.042636179792575835,0.4,0.033447265625,1.8198730945587158,STABILIZE
0.16,0.015,0.11,-0.033266186595123745,0.0017405676864568898,-0.0004989927989268562,0.0012264371293378184,0.002468012016867852,0.16,0.015,0.11,-0.09578463141723582,0.00397260309336019,-0.0014367694712585373,0.061312186082724714,0.06384801970482637,0.002,8e-05,0,-0.8991850264910062,-0.00034089520148608343,-7.19348021192805e-05,0.0,-0.00041283000360536394,0.2,0.02,0.0,-0.06916937875288108,-0.04567135347182185,-0.0013833875750576216,0.0,-0.04705474104687947,0.024828769333501186,0.0,-0.024828769333501186,0.010878548040355561,0.0,-0.010878548040355561,-0.17044760074304172,0.0,0.17044760074304172,-0.22835676735910923,0,0.22835676735910923,0.002722462969393646,-0.06383767617107927,0.04705474104687947,0.4,0.03372383117675781,1.8535916805267334,STABILIZE
0.16,0.015,0.11,-0.03308578109899911,0.0008610755189707408,-0.0004962867164849867,0.03550919394740521,0.03587398274989097,0.16,0.015,0.11,-0.0921087930649329,0.017544778207173557,-0.0013816318959739935,0.1656834892275327,0.18184663553873226,0.002,8e-05,0,-0.9055582787453158,-0.0003802442005854842,-7.244466229962527e-05,0.0,-0.0004526888628851095,0.2,0.02,0.0,-0.07534757540342718,-0.036860669446408055,-0.0015069515080685437,0.0,-0.0383676209544766,0.10965486379483472,0.0,-0.10965486379483472,0.00538172199356713,0.0,-0.00538172199356713,-0.1901221002927421,0.0,0.1901221002927421,-0.18430334723204028,0,0.18430334723204028,0.03645874225903121,-0.1817302990917737,0.0383676209544766,0.4,0.03352189064025879,1.8871047496795654,STABILIZE
0.16,0.015,0.11,-0.03245677383287081,0.003010495455412804,-0.0004868516074930621,0.01735604958121561,0.01987969342913535,0.16,0.015,0.11,-0.09057827987553473,0.007325198370908357,-0.0013586741981330209,0.1574856114112944,0.16345213558406974,0.002,8e-05,0,-0.9124150437408101,-0.0004102150517439054,-7.299320349926481e-05,0.0,-0.0004832082552431702,0.2,0.02,0.0,-0.08091506927689077,-0.03330826984572921,-0.0016183013855378154,0.0,-0.03492657123126702,0.04578248981817723,0.0,-0.04578248981817723,0.018815596596330024,0.0,-0.018815596596330024,-0.2051075258719527,0.0,0.2051075258719527,-0.16654134922864605,0,0.16654134922864605,0.02035471426605727,-0.16339366096938,0.03492657123126702,0.4,0.03343009948730469,1.920553207397461,STABILIZE
0.16,0.015,0.11,-0.03137650276966272,0.005168411947497758,-0.0004706475415449408,0.03336829954659285,0.038066063952545665,0.16,0.015,0.11,-0.09122592230222468,-0.0030985582876489784,-0.00136838883453337,0.03389529969248284,0.029428352570300492,0.002,8e-05,0,-0.9197936683415727,-0.00044127549141961147,-7.358349346732583e-05,-0.0,-0.0005148589848869373,0.2,0.02,0.0,-0.08588384662882585,-0.029715560641249562,-0.001717676932576517,0.0,-0.03143323757382608,-0.019365989297806113,0.0,0.019365989297806113,0.032302574671860984,0.0,-0.032302574671860984,-0.22063774570980574,0.0,0.22063774570980574,-0.1485778032062478,0,0.1485778032062478,0.03814224865450933,-0.029329541889003122,0.03143323757382608,0.4,0.03344225883483887,1.9539883136749268,STABILIZE
0.16,0.015,0.11,-0.031240021556578332,0.0006524225469374101,-0.00046860032334867494,0.02209528015969923,0.022279102383287966,0.16,0.015,0.11,-0.09000133469432506,0.0058539087398045775,-0.001350020020414876,-0.010331769348924814,-0.005827880629535112,0.002,8e-05,0,-0.9278864830944027,-0.00048357707020719575,-7.423091864755222e-05,-0.0,-0.000557807988854748,0.2,0.02,0.0,-0.0886647502203445,-0.016616977558333426,-0.0017732950044068898,0.0,-0.018390272562740315,0.03658692962377861,0.0,-0.03658692962377861,0.004077640918358813,0.0,-0.004077640918358813,-0.24178853510359788,0.0,0.24178853510359788,-0.08308488779166713,0,0.08308488779166713,0.02227062792399052,0.005860181525201395,0.018390272562740315,0.4,0.03347063064575195,1.987490177154541,STABILIZE
0.16,0.015,0.11,-0.029498287568036956,0.00833202333543863,-0.00044247431352055435,0.027124686504194185,0.035014235526112256,0.16,0.015,0.11,-0.08786015671904102,0.010242864279369305,-0.001317902350785615,0.025599221976515592,0.03452418390509928,0.002,8e-05,0,-0.9364193535075587,-0.000510239191722305,-7.49135482806047e-05,-0.0,-0.0005851527400029097,0.2,0.02,0.0,-0.09314855153983553,-0.02681174153978906,-0.0018629710307967106,0.0,-0.02867471257058577,0.06401790174605815,0.0,-0.06401790174605815,0.05207514584649143,0.0,-0.05207514584649143,-0.2551195958611525,0.0,0.2551195958611525,-0.1340587076989453,0,0.1340587076989453,0.0350949181158287,-0.034442164366288844,0.02867471257058577,0.4,0.033446550369262695,2.020920515060425,STABILIZE
0.16,0.015,0.11,-0.028852507681076278,0.0030881061023094103,-0.00043278761521614416,0.009182236278496554,0.01183755476558982,0.16,0.015,0.11,-0.08860321983193085,-0.0035533124825484807,-0.0013290482974789627,-0.08676666409012822,-0.09164902487015567,0.002,8e-05,0,-0.9456083336109358,-0.0005492689170142593,-7.564866668887487e-05,-0.0,-0.0006249175837031342,0.2,0.02,0.0,-0.09632067160051608,-0.01896126589422984,-0.0019264134320103217,0.0,-0.020887679326240163,-0.022208203015928005,0.0,0.022208203015928005,0.019300663139433814,0.0,-0.019300663139433814,-0.27463445850712964,0.0,0.27463445850712964,-0.0948063294711492,0,0.0948063294711492,0.011685888582482776,0.09166848679080804,0.020887679326240163,0.4,0.03345894813537598,2.054399251937866,STABILIZE
0.16,0.015,0.11,-0.02727427272090717,0.007552899564429196,-0.00040911409081360753,0.018703803725505536,0.025847589199121123,0.16,0.015,0.11,-0.08666068640158452,0.009296309022567785,-0.0012999102960237676,0.008113442127721878,0.016109840854265894,0.002,8e-05,0,-0.9552800920251393,-0.0005785721213690124,-7.642240736201116e-05,-0.0,-0.0006549945287310235,0.2,0.02,0.0,-0.10002049204353071,-0.022132614057602962,-0.0020004098408706143,0.0,-0.024133023898473577,0.058101931391048654,0.0,-0.058101931391048654,0.04720562227768248,0.0,-0.04720562227768248,-0.2892860606845062,0.0,0.2892860606845062,-0.11066307028801481,0,0.11066307028801481,0.02587865607779214,-0.016059887900095986,0.024133023898473577,0.4,0.03343319892883301,2.087804079055786,STABILIZE
0.16,0.015,0.11,-0.026704443562760038,0.0026600852464457626,-0.00040056665344140053,-0.009797344951178047,-0.007537826358173685,0.16,0.015,0.11,-0.08703434878198966,-0.0017443364753386393,-0.0013055152317298449,0.006679105545567652,0.003629253838499168,0.002,8e-05,0,-0.9656835084625387,-0.0006070673591832051,-7.72546806770031e-05,-0.0,-0.0006843220398602081,0.2,0.02,0.0,-0.10314862538364858,-0.018253500255277645,-0.0020629725076729715,0.0,-0.020316472762950618,-0.010902102970866495,0.0,0.010902102970866495,0.016625532790286016,0.0,-0.016625532790286016,-0.30353367959160255,0.0,0.30353367959160255,-0.09126750127638822,0,0.09126750127638822,-0.00753203569221364,-0.00364125637128982,0.020316472762950618,0.4,0.03427433967590332,2.1220755577087402,STABILIZE
0.16,0.015,0.11,-0.024778706252448882,0.009201820174403826,-0.0003716805937867332,0.03561756354228703,0.04444770312290412,0.16,0.015,0.11,-0.08719413903187787,-0.0007635315248976785,-0.001307912085478168,-0.026070777222223313,-0.02814222083259916,0.002,8e-05,0,-0.9760764464954729,-0.0006207618917616688,-7.808611571963784e-05,-0.0,-0.0006988480074813067,0.2,0.02,0.0,-0.10679798255091728,-0.0217973190226764,-0.0021359596510183458,-0.0,-0.023933278673694748,-0.00477207203061049,0.0,0.00477207203061049,0.05751137609002391,0.0,-0.05751137609002391,-0.31038094588083437,0.0,0.31038094588083437,-0.108986595113382,0,0.108986595113382,0.04439409131651805,0.028226717174925878,0.023933278673694748,0.4,0.033484458923339844,2.155574083328247,STABILIZE
0.16,0.015,0.11,-0.02355554023466102,0.0058487379094064856,-0.0003533331035199153,-0.009732113155942322,-0.004236708350055752,0.16,0.015,0.11,-0.08623956201271425,0.0045644423718765965,-0.0012935934301907138,-0.022220114320083625,-0.018949265378397744,0.002,8e-05,0,-0.9866240119599903,-0.0006304330839716892,-7.892992095679923e-05,-0.0,-0.0007093630049284885,0.2,0.02,0.0,-0.10956476895002407,-0.016537215987401516,-0.0021912953790004814,0.0,-0.018728511366401995,0.028527764824228728,0.0,-0.028527764824228728,0.03655461193379053,0.0,-0.03655461193379053,-0.3152165419858446,0.0,0.3152165419858446,-0.08268607993700758,0,0.08268607993700758,-0.00426405045382776,0.018943131466354415,0.018728511366401995,0.4,0.03346133232116699,2.1890275478363037,STABILIZE
0.16,0.015,0.11,-0.021959205623747348,0.007624403218508581,-0.0003293880843562102,0.019106127446940208,0.02640114258109258,0.16,0.015,0.11,-0.08621896559984568,9.837245618258495e-05,-0.0012932844839976853,0.016144291807504617,0.014949379779689517,0.002,8e-05,0,-0.9974571392298008,-0.0006467639198086315,-7.979657113838407e-05,-0.0,-0.0007265604909470155,0.2,0.02,0.0,-0.11253388018787111,-0.017726312769252486,-0.002250677603757422,0.0,-0.019976990373009908,0.0006148278511411559,0.0,-0.0006148278511411559,0.04765252011567863,0.0,-0.04765252011567863,-0.32338195990431573,0.0,0.32338195990431573,-0.08863156384626243,0,0.08863156384626243,0.02642423636781654,-0.014908521649121728,0.019976990373009908,0.4,0.03349947929382324,2.222637176513672,STABILIZE
0.16,0.015,0.11,-0.020029136572450847,0.009224620507796056,-0.0003004370485867627,0.007316469174249316,0.01624065263345861,0.16,0.015,0.11,-0.08714214155665277,-0.004412250358476281,-0.0013071321233497914,-0.055228635262074555,-0.06094801774390063,0.002,8e-05,0,-1.00840021656971,-0.0006537702341550524,-8.06720173255768e-05,-0.0,-0.0007344422514806292,0.2,0.02,0.0,-0.11570949241538643,-0.018972001065886663,-0.0023141898483077287,0.0,-0.02128619091419439,-0.027576564740476758,0.0,0.027576564740476758,0.05765387817372535,0.0,-0.05765387817372535,-0.32688511707752615,0.0,0.32688511707752615,-0.09486000532943331,0,0.09486000532943331,0.01613972369925746,0.06097482253998874,0.02128619091419439,0.4,0.033476829528808594,2.2560505867004395,STABILIZE
0.16,0.015,0.11,-0.017816593794020907,0.010551162367158423,-0.0002672489069103136,0.03238161655235701,0.04266553001260512,0.16,0.015,0.11,-0.08715334389632613,-5.342165852698866e-05,-0.001307300158444892,0.006926925432281388,0.005566203615309508,0.002,8e-05,0,-1.019803239584535,-0.0006797334523812094,-8.15842591667628e-05,-0.0,-0.0007613177115479722,0.2,0.02,0.0,-0.11799990370854037,-0.013653126663380012,-0.0023599980741708074,0.0,-0.01601312473755082,-0.0003338853657936791,0.0,0.0003338853657936791,0.06594476479474014,0.0,-0.06594476479474014,-0.3398667261906047,0.0,0.3398667261906047,-0.06826563331690005,0,0.06826563331690005,0.04267213163686942,-0.005515365401247724,0.01601312473755082,0.4,0.03355145454406738,2.2895548343658447,STABILIZE
0.16,0.015,0.11,-0.014528364856373866,0.015720546311706187,-0.000217925472845608,0.026757408990183845,0.04226002982904442,0.16,0.015,0.11,-0.08820053888334439,-0.005006487566096073,-0.0013230080832501657,-0.017450541073207,-0.023780036722553237,0.002,8e-05,0,-1.0315495366390106,-0.000701966812292873,-8.252396293112085e-05,-0.0,-0.0007844907752239938,0.2,0.02,0.0,-0.12115536037476045,-0.01885722663952918,-0.002423107207495209,0.0,-0.02128033384702439,-0.031290547288100455,0.0,0.031290547288100455,0.09825341444816367,0.0,-0.09825341444816367,-0.35098340614643647,0.0,0.35098340614643647,-0.0942861331976459,0,0.0942861331976459,0.0422208401156241,0.023849547744320243,0.02128033384702439,0.4,0.03346681594848633,2.3230557441711426,STABILIZE
0.16,0.015,0.11,-0.011478470944051937,0.014582347694925855,-0.00017217706416077904,0.035859221313515946,0.050269391944281025,0.16,0.015,0.11,-0.08966923308975606,-0.007022214605200158,-0.001345038496346341,-0.04762677994754737,-0.055994033049093866,0.002,8e-05,0,-1.0432577794103162,-0.0006997524827748805,-8.34606223528253e-05,-0.0,-0.0007832131051277059,0.2,0.02,0.0,-0.12327695090456872,-0.012679855292234053,-0.0024655390180913744,0.0,-0.015145394310325428,-0.043888841282500986,0.0,0.043888841282500986,0.09113967309328659,0.0,-0.09113967309328659,-0.3498762413874402,0.0,0.3498762413874402,-0.06339927646117026,0,0.06339927646117026,0.050207402322004685,0.05604962315330157,0.015145394310325428,0.4,0.03346395492553711,2.3565773963928223,STABILIZE
0.16,0.015,0.11,-0.008549362761680874,0.014015223997321065,-0.00012824044142521312,0.026238947801177002,0.040125931357072854,0.16,0.015,0.11,-0.08968478863011835,-7.443029379686217e-05,-0.0013452718294517752,-0.0007267008069650674,-0.0021464029302137046,0.002,8e-05,0,-1.055379075882971,-0.0007249761472819595,-8.44303260706377e-05,-0.0,-0.0008094064733525973,0.2,0.02,0.0,-0.1251342341781446,-0.011108432791210737,-0.002502684683562892,0.0,-0.013611117474773629,-0.00046518933623038855,0.0,0.00046518933623038855,0.08759514998325665,0.0,-0.08759514998325665,-0.36248807364097974,0.0,0.36248807364097974,-0.055542163956053686,0,0.055542163956053686,0.04012383179441138,0.0021852997380529707,0.013611117474773629,0.4,0.03343915939331055,2.3899481296539307,STABILIZE
0.16,0.015,0.11,-0.005709897096733307,0.01357256012576112,-8.56484564509996e-05,0.017847977088108678,0.0313348887574188,0.16,0.015,0.11,-0.08824694846250765,0.0068728325779882395,-0.0013237042269376147,0.04633773651904081,0.051886864870091434,0.002,8e-05,0,-1.0680134584378156,-0.0007548995881266491,-8.544107667502525e-05,-0.0,-0.0008403406648016744,0.2,0.02,0.0,-0.1267274410009474,-0.009519350622110526,-0.0025345488200189483,0.0,-0.012053899442129474,0.042955203612426496,0.0,-0.042955203612426496,0.084828500786007,0.0,-0.084828500786007,-0.3774497940633246,0.0,0.3774497940633246,-0.04759675311055262,0,0.04759675311055262,0.03137798139966475,-0.051860816449119204,0.012053899442129474,0.4,0.03347301483154297,2.4235026836395264,STABILIZE
0.16,0.015,0.11,-0.0022356110055783557,0.01646821864742718,-3.3534165083675335e-05,0.024206923295417043,0.04064160777776055,0.16,0.015,0.11,-0.08732104732949908,0.004388798706906964,-0.001309815709942486,0.0183558391764207,0.021434822173385177,0.002,8e-05,0,-1.0809290735272055,-0.0007652549605787334,-8.647432588217644e-05,-0.0,-0.0008517292864609098,0.2,0.02,0.0,-0.12911965347298865,-0.014173947181902003,-0.002582393069459773,-0.0,-0.016756340251361777,0.02742999191816852,0.0,-0.02742999191816852,0.10292636654641987,0.0,-0.10292636654641987,-0.38262748028936666,0.0,0.38262748028936666,-0.07086973590951001,0,0.07086973590951001,0.040668089632112235,-0.02138453576864498,0.016756340251361777,0.4,0.03375506401062012,2.4572012424468994,STABILIZE
0.16,0.015,0.11,0.0006579739036353541,0.013768484368875691,9.869608554530312e-06,-0.008071343440409398,0.005707010537020824,0.16,0.015,0.11,-0.08725115305706485,0.00033257645020897455,-0.0013087672958559727,0.022119260132054216,0.021143069286407218,0.002,8e-05,0,-1.0939870587150897,-0.000776669212193815,-8.751896469720718e-05,-0.0,-0.0008641881768910222,0.2,0.02,0.0,-0.1298833311098716,-0.004542239097944746,-0.0025976666221974322,0.0,-0.007139905720142179,0.002078602813806091,0.0,-0.002078602813806091,0.08605302730547307,0.0,-0.08605302730547307,-0.3883346060969075,0.0,0.3883346060969075,-0.02271119548972373,0,0.02271119548972373,0.005715390886899696,-0.021140805451293168,0.007139905720142179,0.4,0.03362560272216797,2.4908030033111572,STABILIZE
0.16,0.015,0.11,0.0035373139045626794,0.013768061543043034,5.305970856844019e-05,-0.003396338150915051,0.010424783100696423,0.16,0.015,0.11,-0.08681134359970274,0.0021030248856417433,-0.0013021701539955412,0.03767689351594469,0.0384777482475909,0.002,8e-05,0,-1.107206601733786,-0.0007901441033088196,-8.85765281387029e-05,-0.0,-0.0008787206314475225,0.2,0.02,0.0,-0.12962716690900702,0.0015311167148947217,-0.0025925433381801407,0.0,-0.001061426623285419,0.013143905535260896,0.0,-0.013143905535260896,0.08605038464401896,0.0,-0.08605038464401896,-0.3950720516544098,0.0,0.3950720516544098,0.007655583574473608,0,-0.007655583574473608,0.010419641797953726,-0.038479140812963664,0.001061426623285419,0.4,0.03346109390258789,2.5242912769317627,STABILIZE
0.16,0.015,0.11,0.006250386085371061,0.012959818349056018,9.375579128056592e-05,-0.004382249138017855,0.008671325002318729,0.16,0.015,0.11,-0.08726213199894288,-0.0021533285436855336,-0.001308931979984143,-0.008364633995084783,-0.01182689451875446,0.002,8e-05,0,-1.1206522868148934,-0.0008028427950719071,-8.965218294519148e-05,-0.0,-0.0008924949780170986,0.2,0.02,0.0,-0.12837738164685292,0.007462476527264162,-0.0025675476329370586,0.0,0.0048949288943271035,-0.013458303398034584,0.0,0.013458303398034584,0.08099886468160011,0.0,-0.08099886468160011,-0.4014213975359535,0.0,0.4014213975359535,0.03731238263632081,0,-0.03731238263632081,0.008679025119765623,0.011821245036968802,-0.0048949288943271035,0.4,0.033495187759399414,2.557760715484619,STABILIZE
0.16,0.015,0.11,0.009791221667295118,0.01692906631474836,0.00014686832500942676,0.01374477629243947,0.030820710932197258,0.16,0.015,0.11,-0.08674969703510645,0.0024499995224485293,-0.0013012454555265966,-0.0179885721462784,-0.01683981807935647,0.002,8e-05,0,-1.1349668961538406,-0.0008554935874665494,-9.079735169230725e-05,-0.0,-0.0009462909391588566,0.2,0.02,0.0,-0.1276335692699376,0.0044452957371178435,-0.0025526713853987523,0.0,0.0018926243517190912,0.015312497015303309,0.0,-0.015312497015303309,0.10580666446717724,0.0,-0.10580666446717724,-0.4277467937332747,0.0,0.4277467937332747,0.022226478685589218,0,-0.022226478685589218,0.030827241203363002,0.01682786068107182,-0.0018926243517190912,0.4,0.03346514701843262,2.591254234313965,STABILIZE
0.16,0.015,0.11,0.012467848603932592,0.012777268289648803,0.00018701772905898887,-0.01508271667524653,-0.0021184306565387376,0.16,0.015,0.11,-0.08580042049782399,0.0045315097266278095,-0.0012870063074673598,0.0006691344267895447,0.003913637845949994,0.002,8e-05,0,-1.1495935203764072,-0.0008727789970722824,-9.196748163011258e-05,-0.0,-0.000964746478702395,0.2,0.02,0.0,-0.1263882327311818,0.007430994047388131,-0.002527764654623636,0.0,0.004903229392764495,0.028321935791423808,0.0,-0.028321935791423808,0.07985792681030501,0.0,-0.07985792681030501,-0.43638949853614123,0.0,0.43638949853614123,0.03715497023694066,0,-0.03715497023694066,-0.002120968113361218,-0.003912263270527715,-0.004903229392764495,0.4,0.03351736068725586,2.624756097793579,STABILIZE
