Mode,Time,Freq,North-Vision,East-Vision,Down-Vision,Yaw-Vision,North-Desired,East-Desired,Down-Desired,Roll-UAV,Pitch-UAV,Yaw-UAV,Roll-Control,Pitch-Control,Yaw-Control,Thrust-Control,zGyro
GUIDED_NOGPS,0.046001434326171875,21.75040189174333,241.66284666042324,-76.21189351320874,-33.009120450840015,0.005113636879530366,300,0,50,-0.8003996132302053,1.2215812540474846,106.9750170071975,-1.7077970523518937,1.3072502718839087,-0.0010227273759060732,0.5102629786222418,0.9167324722093172
GUIDED_NOGPS,0.08382177352905273,26.444633591203417,241.77298616333516,-76.57591240227893,-32.94079284073872,0.03128056151574632,300,0,50,-0.9018603124425992,1.3695281673901325,106.97391051655195,-1.5578779391495032,1.1836430820410901,-0.006256112303149264,0.5084993288182258,0.0
GUIDED_NOGPS,0.12054443359375,27.234856011168468,242.25493647386222,-77.35217933619364,-32.74654979040389,0.021902284051295698,300,0,50,-1.1116629130127635,1.473666567561436,106.95285987352997,-1.5859290639711088,1.1814612705481486,-0.00438045681025914,0.5085675576901187,-0.8594366926962349
GUIDED_NOGPS,0.16760993003845215,21.250324254215304,242.33775051378797,-78.37298240530812,-32.40096469520113,-0.04101544135251732,300,0,50,-1.6957336265600045,1.7006676911833982,106.84557126204741,-1.6211445234356503,1.1917880700986088,0.008203088270503464,0.5086471924536057,-2.7501974166279517
GUIDED_NOGPS,0.20725083351135254,25.230717405166086,242.0288785477635,-79.11526666454984,-31.96796565060284,-0.14950816081142587,300,0,50,-2.3342107455495107,1.9983818700042082,106.69106555283255,-1.6482495106066644,1.2081228624794595,0.029901632162285176,0.5086979250983893,-3.6096341093241864
GUIDED_NOGPS,0.2456672191619873,26.036699525736847,241.68298134657903,-79.17219272757254,-31.60087924112879,-0.28225235835646106,300,0,50,-2.865071830863119,2.3213618790602473,106.51574142702749,-1.6597998015259725,1.2241027044144936,0.05645047167129222,0.5087563382448689,-4.354479242994256
GUIDED_NOGPS,0.2879469394683838,23.65667037039126,241.42873298852092,-79.16343095670851,-31.311206760114374,-0.41497382680014205,300,0,50,-3.2818625671785795,2.799024328475919,106.33842971617396,-1.672856677969857,1.2388010095764581,0.08299476536002842,0.5088333449796443,-4.1252961249419275
GUIDED_NOGPS,0.3277926445007324,25.100862966642328,241.40740244157058,-79.15601218989627,-30.83900608853743,-0.5753309462560896,300,0,50,-3.5865549581753213,3.3005715225323025,106.15753898619535,-1.685319539779942,1.2480139468699398,0.11506618925121792,0.5088776915788658,-4.5263665815335035
GUIDED_NOGPS,0.35571932792663574,35.8211973695448,242.14285837035231,-79.28636903591767,-30.18622662199772,-0.7386251396725722,300,0,50,-3.697132732630066,3.4912341187790927,106.05721716766621,-1.6972797260640162,1.2370924964913275,0.14772502793451445,0.5088681928903426,-4.755549699585833
GUIDED_NOGPS,0.4013710021972656,21.9118678069346,243.16530922167414,-79.14930796196099,-28.87681791220213,-0.8688343483223075,300,0,50,-3.8852724277521826,3.976176696076352,105.74491359805654,-1.7082170400299879,1.227405277489552,0.17376686966446153,0.5088398634435133,-5.213915935690491
GUIDED_NOGPS,0.44080162048339844,25.36238246409675,244.7485545461017,-79.03777685053929,-27.201909224198022,-1.094999173641283,300,0,50,-3.8991739971472743,3.986564986917118,105.54512373464449,-1.7184410115128934,1.2026514661660062,0.2189998347282566,0.508749613003159,-5.901465289847479
GUIDED_NOGPS,0.47997546195983887,25.52848160974808,246.24993382124597,-78.61856578452324,-25.160662138648608,-1.2906359676984436,300,0,50,-3.840211962250316,3.8195301494435174,105.34057322938095,-1.7216471612907067,1.181290963339446,0.2581271935396887,0.508624890890488,-5.557690612768986
GUIDED_NOGPS,0.5144400596618652,29.02311162777824,247.13639038621028,-78.13406551763507,-23.19386122261793,-1.4816239676142124,300,0,50,-3.760355098021819,3.575071275746414,105.19796570970026,-1.7223140596444384,1.1720333749616196,0.2963247935228425,0.5084978934741512,-5.328507494716656
GUIDED_NOGPS,0.5550191402435303,24.653089053857865,247.60770088826712,-77.5259891525102,-21.546382055446088,-1.6577977163089654,300,0,50,-3.6312346406309595,3.115491325271528,104.99329226103166,-1.722499183007169,1.1724326509444154,0.3315595432617931,0.5084356715465994,-5.557690612768986
GUIDED_NOGPS,0.590904951095581,27.871166663344166,248.1539352959634,-76.86734290949477,-20.353585832245624,-1.846139387124977,300,0,50,-3.4752361081956304,2.8264919342231254,104.84763164679197,-1.7201772066916141,1.1686980065462673,0.3692278774249954,0.5084011021440826,-4.870141258611998
GUIDED_NOGPS,0.6331782341003418,23.660406947554872,248.1544680639725,-75.7571819081561,-19.859696389940655,-2.018884317570677,300,0,50,-3.2575526432620348,2.4223001221619884,104.67020382272254,-1.7099019183889117,1.1789180340302068,0.40377686351413544,0.5084610455115027,-5.099324376664327
GUIDED_NOGPS,0.6618189811706543,34.92633857939878,248.69894240972212,-74.77233208689923,-19.954499303305827,-2.213319739237337,300,0,50,-3.0642213640404736,2.1556734426267856,104.55446626723668,-1.698084478348401,1.1720796128226258,0.44266394784746743,0.5085462195021536,-4.698253920072751
GUIDED_NOGPS,0.703481912612915,24.007509673283423,249.2087602464384,-73.60330643997752,-20.314139484445754,-2.324943423242905,300,0,50,-2.770086737953279,1.8991648345733105,104.40354640733608,-1.6875649562638824,1.1710036598342255,0.464988684648581,0.508675392474624,-4.068000345428845
GUIDED_NOGPS,0.7453837394714355,23.868024059773855,249.9803002516084,-73.07239188023901,-20.692718296422516,-2.4801393962190383,300,0,50,-2.5063306588601857,1.6461685445788086,104.2588146988235,-1.6907834567431659,1.1633767285732266,0.4960278792438077,0.5088028067638541,-3.495042550298022
GUIDED_NOGPS,0.7822117805480957,27.186486819333805,251.14985043499874,-72.40611329886929,-20.840504858048057,-2.6142560006965603,300,0,50,-2.2655536840125428,1.457730455567327,104.17425695689874,-1.6875108491673407,1.1457854131441667,0.5228512001393121,0.5088904678551042,-2.807493196141034
GUIDED_NOGPS,0.8235630989074707,24.167141062723992,252.85389266461553,-71.65677175015378,-20.70311741828411,-2.7063062855953786,300,0,50,-2.0301260279454887,1.2854208977854782,104.06778113792743,-1.6844077303955702,1.118596058598513,0.5412612571190757,0.5089572460248737,-2.3491269600363753
GUIDED_NOGPS,0.8672041893005371,22.919067785033196,253.89714582506025,-70.63579159316275,-20.211737060026397,-2.78333147630362,300,0,50,-1.8775953106178218,1.0605677619357792,104.01172577540912,-1.6757725364560636,1.1074908622797275,0.5566662952607241,0.5089919795818766,-1.432394487827058
GUIDED_NOGPS,0.902468204498291,28.361162763964867,255.29378557717305,-69.5544895191316,-19.63515957930498,-2.8577496916521476,300,0,50,-1.753139658986669,0.897904138809281,103.98209641478961,-1.6632451599982592,1.0843061846561315,0.5715499383304296,0.5090029948171556,-1.3178029288008934
GUIDED_NOGPS,0.9449973106384277,23.52003319706834,256.39643028861434,-68.7713936830337,-19.015443844131273,-2.8897198345667734,300,0,50,-1.6343914841807083,0.7482979163851431,103.95439999770521,-1.6604795564067902,1.0710166783930926,0.5779439669133547,0.5090306524753887,-0.6875493541569879
GUIDED_NOGPS,0.9837381839752197,25.813802059292357,257.3839736787642,-68.26590372911524,-18.549415201188157,-2.9158410134821464,300,0,50,-1.5292336782757805,0.5708084071697801,103.95421558259761,-1.661552356596554,1.0579673274570773,0.5831682026964293,0.5090667820969579,-0.2291831180523293
GUIDED_NOGPS,1.024808645248413,24.35561026879816,258.23540170128547,-67.77456169006935,-18.083445801266333,-2.9242796783249685,300,0,50,-1.4212498816017598,0.515113657295321,103.9770420748038,-1.6629048288653683,1.0482214788662865,0.5848559356649937,0.5091042562879803,0.057295779513082325
GUIDED_NOGPS,1.062018632888794,26.8767437538848,259.31265886043036,-67.12440678691677,-17.594272708453783,-2.908187660811814,300,0,50,-1.2821196752605406,0.4787606157681628,104.00482045415824,-1.6594071353652222,1.0319655047076077,0.5816375321623628,0.5091294990234989,0.8594366926962349
GUIDED_NOGPS,1.1070644855499268,22.207124401711212,260.21203143126695,-66.37491363187154,-17.024470137102373,-2.88407573966744,300,0,50,-1.195209146610125,0.36263181850890197,104.0576519673883,-1.6563979886349323,1.0219949649334263,0.576815147933488,0.5091631188949491,0.8594366926962349
GUIDED_NOGPS,1.1429963111877441,27.829927278517967,261.43280906761754,-65.81020559394518,-16.318858825114933,-2.8451477956060787,300,0,50,-1.1380339532330654,0.33984107807415614,104.1034552159624,-1.6547113672322835,1.0017700280953,0.5690295591212158,0.5091575213656676,1.1459155902616465
GUIDED_NOGPS,1.1832249164581299,24.866628723202428,262.5872692987694,-65.54375438823315,-15.71287030455452,-2.7808800118476027,300,0,50,-1.0731264521070227,0.337634926972242,104.18908529758684,-1.6605150154470443,0.9849605810070275,0.5561760023695206,0.5091780420453241,2.0053522829578814
GUIDED_NOGPS,1.2178611755371094,28.876447504302927,263.3408137138238,-65.15218708714207,-14.883499901409834,-2.718691927011692,300,0,50,-1.0380607945167062,0.2555775145313849,104.24987398119995,-1.6615401865192927,0.9759442534840049,0.5437383854023384,0.5091565791571774,1.776169164905552
GUIDED_NOGPS,1.2556126117706299,26.494580185461253,263.9315378886781,-64.7646041947916,-14.278848122399944,-2.648625221492056,300,0,50,-0.9920697157404254,0.27100008167727363,104.34920542229945,-1.6636562884657555,0.9701381506699176,0.5297250442984112,0.5091763174106392,2.119943841984046
GUIDED_NOGPS,1.29176664352417,27.664723108988735,264.93000946573744,-64.4994498159031,-13.513134526918515,-2.5683526870649045,300,0,50,-0.9678659799211331,0.144916390424425,104.43619471156873,-1.667984904452032,0.9540508292598938,0.513670537412981,0.5091635585272009,2.4064227395494577
GUIDED_NOGPS,1.3272807598114014,28.16197670124551,266.1183235365132,-64.72071700394127,-13.085564067703197,-2.4871256302787605,300,0,50,-0.9235668670683114,0.13137127152664346,104.5385382660922,-1.682974477034042,0.9345239707589098,0.4974251260557521,0.5091972641844658,2.3491269600363753
GUIDED_NOGPS,1.359511375427246,31.035354357509657,266.4176711855865,-64.67636375413433,-12.489744553001048,-2.3988512316189134,300,0,50,-0.8952789982904689,0.06824127377124364,104.59018815659584,-1.6896257425673014,0.9352530491950638,0.47977024632378273,0.5091912617169939,2.635605857601787
GUIDED_NOGPS,1.3989827632904053,25.342154712489503,267.43284250522515,-64.79823629419487,-12.22678878341011,-2.310975372263972,300,0,50,-0.8526379672195206,0.08021443530371733,104.74523345075514,-1.7027524973927985,0.9184617852928089,0.46219507445279445,0.5092506576792437,2.9220847551671985
GUIDED_NOGPS,1.4407541751861572,23.94528493623046,267.8345553393459,-64.4124914839078,-11.9488820329505,-2.2112998186273094,300,0,50,-0.8450334053523576,0.0844786611407738,104.85773349657441,-1.704576739502817,0.91741380640928,0.4422599637254619,0.5093005609656028,2.5783100780887045
GUIDED_NOGPS,1.474738597869873,29.43144038004084,267.9147948625497,-64.33337775227811,-11.777167017807349,-2.099024066951801,300,0,50,-0.8294143635461252,0.1451481899693823,104.97878493923454,-1.7124016310363643,0.9208810630895946,0.41980481339036024,0.5093477552817344,2.807493196141034
GUIDED_NOGPS,1.5100529193878174,28.322477395655373,268.244939076591,-64.39005777541114,-11.48169444477287,-2.011565879334945,300,0,50,-0.8111443545682816,0.17240720814263874,105.05478445412928,-1.7230519713307695,0.9180822480343157,0.402313175866989,0.5093802685031084,2.46371851906254
GUIDED_NOGPS,1.5490896701812744,25.623145908169,268.9509097632564,-64.69109225721905,-11.228208018689955,-1.9176407841386782,300,0,50,-0.8220548347154365,0.2106702480381675,105.16307027323066,-1.7397730429903366,0.9079259993116547,0.38352815682773567,0.5094283711656354,2.635605857601787
GUIDED_NOGPS,1.58463454246521,28.13779408706386,269.33505789945025,-65.00276830663152,-10.816514665005984,-1.8221154152563694,300,0,50,-0.8964322330431432,0.22540840888487987,105.26573484664513,-1.7553693709981075,0.9053434759149297,0.3644230830512739,0.5094471194683163,2.2345354010102105
GUIDED_NOGPS,1.6275012493133545,23.33513591703664,270.6021306257339,-65.10771126540114,-10.272230112042003,-1.7348890436699973,300,0,50,-0.9360916197371164,0.32643805912762264,105.33948039911375,-1.7679772694648779,0.8831477153111268,0.34697780873399947,0.509468862458168,2.291831180523293
GUIDED_NOGPS,1.6759920120239258,20.62562821483718,271.73565290511664,-65.28622278519964,-9.65141383810735,-1.6252800115564512,300,0,50,-1.0537434424595844,0.2955068537801323,105.49005191936668,-1.7842964563596273,0.8665608580639517,0.3250560023112903,0.5094931806588153,2.521014298575622
GUIDED_NOGPS,1.7165229320526123,24.676295646955694,272.37397915814483,-65.58113952842267,-9.16857642495893,-1.5131084790149103,300,0,50,-1.1162368986008506,0.35761194963405996,105.59653456852719,-1.8012190042225493,0.8590633951968875,0.3026216958029821,0.5095180541519198,2.291831180523293
GUIDED_NOGPS,1.7688179016113281,19.126309309377778,272.9070169409814,-65.61446597198267,-8.933062970419192,-1.4139995880179608,300,0,50,-1.202130476116875,0.4112870979483109,105.72412933241219,-1.8149305625770464,0.8546110714494815,0.2827999176035922,0.5095941958522855,2.4064227395494577
GUIDED_NOGPS,1.807720422744751,25.70952912186929,273.5426028475953,-65.79572873553057,-8.681578076307245,-1.2939804060346665,300,0,50,-1.266469897603043,0.4561103210982254,105.81801028255401,-1.829213313251,0.8454132256181722,0.2587960812069333,0.5096357079767536,2.0626480624709638
GUIDED_NOGPS,1.8462269306182861,25.999417318051364,273.941515349669,-65.83730822565674,-8.610469541965484,-1.2155447874474994,300,0,50,-1.3598771100929046,0.48322158306982743,105.8850690798252,-1.8398077827768085,0.8420332870157966,0.2431089574894999,0.5097007673478313,1.8334649444186344
GUIDED_NOGPS,1.8881416320800781,23.87930268836182,274.7582916041687,-66.18941744999644,-8.504285884143648,-1.1380486849357119,300,0,50,-1.4399241524011035,0.5521121516990454,105.98183236979678,-1.858664013370245,0.8290101142231782,0.22760973698714237,0.5097629201269757,1.8907607239317168
GUIDED_NOGPS,1.9283485412597656,24.86530196050533,275.29344204589825,-66.50395889332431,-8.539704067971165,-1.064566435220821,300,0,50,-1.4809132915491137,0.6782390652427356,106.05345373343353,-1.8756483975848128,0.8229315113752889,0.21291328704416423,0.5098408907796574,1.604281826366305
GUIDED_NOGPS,1.9682002067565918,25.096807778608827,276.38957177638474,-66.79178753227957,-8.33004129476815,-1.001414825381906,300,0,50,-1.5275193007941072,0.7530012486806373,106.11265098297002,-1.8919886516393587,0.8033403477278888,0.20028296507638121,0.5098834652453971,1.3178029288008934
GUIDED_NOGPS,2.004528522491455,27.537399959294348,277.14706503293036,-66.89341891055753,-8.075837927257611,-0.9403715402805594,300,0,50,-1.5447441841072331,0.7854967274306193,106.15582460871367,-1.9032532507197506,0.7921527769699453,0.1880743080561119,0.5099192678789525,1.3178029288008934
GUIDED_NOGPS,2.0424652099609375,26.364678668409937,278.1109077672284,-66.97726362420075,-7.865187716109706,-0.9014256633451524,300,0,50,-1.582496453918892,0.846395120957276,106.19658034749115,-1.9150523110407132,0.7757630912728638,0.18028513266903048,0.5099656720118928,0.8021409131831525
GUIDED_NOGPS,2.076908826828003,29.038181679716978,279.6186554373959,-67.44885174475893,-7.768753526126076,-0.8544363836974137,300,0,50,-1.6163008743902834,0.9162567503873994,106.24353106784581,-1.9349396845978741,0.7465875930069962,0.17088727673948276,0.5100185769240293,1.1459155902616465
GUIDED_NOGPS,2.114130973815918,26.868995912928725,280.27630088818427,-67.62837845345598,-7.690836144408542,-0.8192023601484891,300,0,50,-1.6351528368297532,0.873490267951305,106.28975778814846,-1.947729672105092,0.7389812746744753,0.16384047202969784,0.5100760101487413,0.9167324722093172
GUIDED_NOGPS,2.164483070373535,19.86343810529606,280.598589388705,-67.55412699337161,-7.582854003202627,-0.7784601384575959,300,0,50,-1.6588341698992453,0.9618459152197073,106.34768462249933,-1.9591979999698717,0.7375593451737628,0.15569202769151919,0.5101519872330026,0.9167324722093172
GUIDED_NOGPS,2.2086572647094727,22.643028353019933,282.01809243921855,-67.39919121317759,-7.380192918634502,-0.7232235315861522,300,0,50,-1.6861922791763198,0.9499849715608628,106.39686198452343,-1.9678066747752425,0.7097749973207157,0.14464470631723045,0.5102053311238799,1.088619810748564
GUIDED_NOGPS,2.2428226470947266,29.276747822202367,282.95649391760406,-67.31955644631664,-7.253319353991054,-0.6759480846066066,300,0,50,-1.7095621983083416,0.9795500857134978,106.42922342081094,-1.9755015054627525,0.6937864090942816,0.13518961692132134,0.5102520010012326,0.9167324722093172
GUIDED_NOGPS,2.279806137084961,27.04362515635679,282.73814974589607,-67.31968327654748,-7.179576568017399,-0.6393756914730214,300,0,50,-1.755626274731377,0.9676055789590263,106.48291553787642,-1.9857117215161462,0.7040556076432241,0.12787513829460428,0.5103098953604129,0.9740282517223995
GUIDED_NOGPS,2.3164491653442383,27.3031115740138,283.86711790929513,-67.16754477141946,-7.251158329897872,-0.5996625824697557,300,0,50,-1.7916360992527418,0.9979044048389087,106.52285848414266,-1.9921016449080549,0.680172139589099,0.11993251649395115,0.5103839535510752,0.9740282517223995
GUIDED_NOGPS,2.3714559078216553,18.181086798210632,286.9364292414826,-67.90357323817337,-7.37675318319306,-0.5692731861336848,300,0,50,-1.8214938443226296,0.9969624790636816,106.5912013569778,-2.0235427882726094,0.6191770083265982,0.11385463722673697,0.5104917089276009,0.6302535746439055
GUIDED_NOGPS,2.4111814498901367,25.178161299036528,287.3996887241517,-67.97486673156341,-7.54111303678497,-0.5125546110129561,300,0,50,-1.8336157225521097,0.9993075818265232,106.63146532213503,-2.034488162728154,0.6162790634460972,0.10251092220259123,0.5105778158727465,1.0313240312354819
GUIDED_NOGPS,2.4504551887512207,25.466790530489323,288.5324567981875,-67.9179769485876,-7.696800560740399,-0.48156392160626493,300,0,50,-1.8457698307367358,1.0372552590814679,106.67097113629438,-2.0437749309595965,0.5937561838606895,0.096312784321253,0.5106616233404084,0.5729577951308232
GUIDED_NOGPS,2.4900739192962646,25.245600096304322,290.47520266706135,-67.38072487814648,-7.8005123137393255,-0.448486255624841,300,0,50,-1.829470224612735,1.0923737117447072,106.71863219632273,-2.0424833751005878,0.5543632208359224,0.08969725112496821,0.5107393092284125,0.7448451336700702
GUIDED_NOGPS,2.528146982192993,26.272527968129488,291.41557230891806,-67.26864956675571,-7.80638721908268,-0.41219196918473777,300,0,50,-1.8386147806943243,1.044633144045551,106.75317246295548,-2.051563833086252,0.5393070694571509,0.08243839383694757,0.5108035464941609,0.8021409131831525
GUIDED_NOGPS,2.577274799346924,20.357141470422643,290.83105745513984,-67.0978401060821,-7.8630453409565115,-0.3792995436499111,300,0,50,-1.85642279140784,1.1366067638616502,106.79480246594672,-2.061295762508342,0.5564562331068709,0.07585990872998222,0.5108955937051984,0.6302535746439055
GUIDED_NOGPS,2.6160762310028076,25.77747185210679,292.2044598531949,-66.8815134044059,-7.977821166295274,-0.3378629891481908,300,0,50,-1.8293018177610119,1.1311358890581757,106.83049020436003,-2.0671420523728363,0.5254713505635318,0.06757259782963816,0.510976381965202,0.8021409131831525
GUIDED_NOGPS,2.6614909172058105,22.02266164008107,293.44873189594193,-66.9746734668921,-7.975401412734243,-0.29401239369831833,300,0,50,-1.8232150519934727,1.1453480186170912,106.90196130383504,-2.0819246987139657,0.5025717420143598,0.05880247873966367,0.5110520539568926,1.0313240312354819
GUIDED_NOGPS,2.701763868331909,24.83703137860996,293.7737055215449,-66.77885248468608,-8.005303787160242,-0.24649916663624677,300,0,50,-1.8080516051492213,1.1415270613849982,106.94518274090288,-2.087954469449586,0.49899098155769706,0.049299833327249354,0.5111251829665908,1.0313240312354819
GUIDED_NOGPS,2.7449166774749756,23.177304023960303,295.17821967062616,-66.65797171216786,-7.968866450488186,-0.20131810988515403,300,0,50,-1.7881951780149363,1.055037229698773,107.02036946328639,-2.0973803464113407,0.46933727532407665,0.04026362197703081,0.5111958028600304,1.2032113697747289
GUIDED_NOGPS,2.7922415733337402,21.134040773548588,296.7822543247495,-66.59709343647019,-8.109549317923717,-0.14280705777432753,300,0,50,-1.810639819957833,0.9885181240937245,107.0824080715176,-2.108896988413704,0.4376899008430504,0.02856141155486551,0.5112960483228366,1.432394487827058
GUIDED_NOGPS,2.827972412109375,27.993192420895262,297.14334241322774,-66.39737155853017,-8.285084953152676,-0.06700283498363345,300,0,50,-1.8245625202506692,0.9416789279215985,107.16214369988833,-2.1139700880535974,0.43326199741592686,0.01340056699672669,0.5113780595454901,1.8334649444186344
GUIDED_NOGPS,2.8637468814849854,27.95829889348087,297.52001628334773,-66.0032279448684,-8.58196446159174,0.002491863601585237,300,0,50,-1.8258081760005505,0.8599575287713942,107.22963279907724,-2.1149709175308673,0.4260378661583279,-0.0004983727203170474,0.5114739163590662,2.0053522829578814
GUIDED_NOGPS,2.90521502494812,24.124189735596417,298.57704427202526,-65.64945034209073,-8.898523738902304,0.07870996946221041,300,0,50,-1.8184038240534335,0.7944015865610233,107.34851907177047,-2.119048132663171,0.4036420749332132,-0.015741993892442085,0.5115782373418913,2.3491269600363753
GUIDED_NOGPS,2.9465079307556152,24.221989939998036,299.3088881769726,-65.79245306014971,-9.24801089000835,0.18037206527291155,300,0,50,-1.8152179676924456,0.6906511197902354,107.45819824946254,-2.1339623267796326,0.3898912060945324,-0.03607441305458231,0.5116873494085493,2.6929016371148693
GUIDED_NOGPS,2.9863674640655518,25.09185321671712,298.82437738677146,-65.63436861386295,-9.630153102604194,0.29583166605879324,300,0,50,-1.8425485427694286,0.6163825242415729,107.60192592016712,-2.1405357380122148,0.4027573542716166,-0.059166333211758654,0.511798061222788,3.151267873219528
GUIDED_NOGPS,3.0353968143463135,20.398029403325502,301.51330623065735,-66.20645311108008,-10.171157236505108,0.41509802823214487,300,0,50,-1.8450080512008677,0.5075127239661547,107.77998212164017,-2.1665432666918027,0.3419918454490703,-0.08301960564642898,0.511942247890925,3.20856365273261
GUIDED_NOGPS,3.075756072998047,24.783904038762667,302.68193852304864,-66.3179896685035,-10.662523168374499,0.582867399402841,300,0,50,-1.8671675327459163,0.4323794691572508,107.94496534104184,-2.1785689466349325,0.3207609796456159,-0.11657347988056821,0.5120658584526264,4.068000345428845
GUIDED_NOGPS,3.1194894313812256,22.867959915818858,303.88953279094267,-66.88461171072238,-11.134510710225127,0.7369954887135831,300,0,50,-1.9017285033895925,0.37025729783039807,108.12606780688472,-2.202643504005351,0.29607388816697283,-0.14739909774271662,0.5121920109441842,4.1252961249419275
GUIDED_NOGPS,3.160656452178955,24.294243712567912,304.50894683710055,-66.58133088931459,-11.491738473066434,0.8993404792362627,300,0,50,-1.9086993517678252,0.2890422931741268,108.30906223512771,-2.2055129166082517,0.28419368780186993,-0.17986809584725255,0.5123015895907592,3.8388172273765155
GUIDED_NOGPS,3.2046658992767334,22.72855060447927,306.50564705429144,-67.06063619628084,-11.904337193628722,1.0667901910574324,300,0,50,-1.909652590043865,0.17431368469471856,108.51192568366626,-2.2286846122698494,0.2400675615680044,-0.2133580382114865,0.5124249725798703,4.297183463481175
GUIDED_NOGPS,3.2433340549468994,25.8668146777675,306.06879095261337,-67.50138205521948,-12.404153304633352,1.2521220380975788,300,0,50,-1.8737678433616758,0.13573853717063192,108.68016007311284,-2.248004758838025,0.2535479329845082,-0.2504244076195158,0.5125509749398572,4.583662361046586
GUIDED_NOGPS,3.2939553260803223,19.75798458668576,306.9835416708764,-68.0587650328323,-12.897813479259732,1.4229758532959225,300,0,50,-1.7769087172983136,0.04241819614927661,108.94899631884454,-2.272891104196634,0.23090411816448986,-0.2845951706591845,0.5126926731387136,4.583662361046586
GUIDED_NOGPS,3.3269476890563965,30.316179021626,308.143776889499,-68.79446027801943,-13.601660397769038,1.6448204792201873,300,0,50,-1.7197829360710308,-0.01356080698853141,109.09374851792462,-2.297766359115961,0.2048993720264697,-0.32896409584403746,0.5128373085619893,4.640958140559668
GUIDED_NOGPS,3.3578410148620605,32.38194648178744,308.4093069788672,-69.06086575354779,-14.174902835308336,1.7961096578736997,300,0,50,-1.6844437507487964,-0.0966936273781218,109.1845900338858,-2.3102851277027376,0.20122952863134264,-0.35922193157473997,0.5129513975148298,4.755549699585833
GUIDED_NOGPS,3.40037202835083,23.515945279210584,309.4221548534103,-69.92138843057525,-14.73000309904265,1.9230406783487826,300,0,50,-1.5908352611218313,-0.2001684853437291,109.44147344856997,-2.340528833102561,0.1778411677064683,-0.38460813566975655,0.5130838959513603,4.1252961249419275
GUIDED_NOGPS,3.4430758953094482,23.42074433928023,310.5057667605285,-70.4134521360748,-14.989931470275051,2.100796156389258,300,0,50,-1.4969960391669666,-0.23205815833084265,109.6544319167018,-2.361588065049369,0.1542294108950806,-0.4201592312778516,0.5131866218256673,4.18259190445501
GUIDED_NOGPS,3.4869868755340576,22.786833055354844,310.98251511117945,-71.20137908386542,-15.22146880855914,2.2815906385673963,300,0,50,-1.4209007949021486,-0.23341392420066373,109.851134534609,-2.3903159863207364,0.14421605696942771,-0.4563181277134793,0.5132935152701051,4.18259190445501
GUIDED_NOGPS,3.5247509479522705,26.477520358563222,311.17684069639546,-71.74547585910905,-15.384993985567483,2.441793733639542,300,0,50,-1.3857413289324503,-0.32443569312289816,109.98356507242637,-2.411701513711863,0.13922515364739635,-0.48835874672790847,0.513383288828328,3.495042550298022
GUIDED_NOGPS,3.5636348724365234,25.72640230625326,312.4592770525533,-72.16060490235617,-15.549301973858414,2.5683120163931226,300,0,50,-1.364474787899675,-0.28580275579513087,110.1286246300191,-2.4309996787341395,0.10887001297125407,-0.5136624032786246,0.5134770795407675,3.151267873219528
GUIDED_NOGPS,3.6022565364837646,25.89923863980191,313.2820934490736,-73.0907979578694,-15.656907937137719,2.6905512499190567,300,0,50,-1.390778913610452,-0.25591576897785917,110.22760773147093,-2.462220436281843,0.09148519654455908,-0.5381102499838114,0.5135622847495923,3.0366763141933633
GUIDED_NOGPS,3.644688844680786,23.583644460438126,313.5274883017654,-73.45794214078381,-15.648413229067486,2.7948090381897215,300,0,50,-1.4371158774351704,-0.33244211557318115,110.33629653173334,-2.4803898419264203,0.08585389949720064,-0.5589618076379443,0.5136413570081808,2.291831180523293
GUIDED_NOGPS,3.6856868267059326,24.3842124539995,314.51516016707785,-73.96215033721853,-15.517364275419881,2.8949456461749796,300,0,50,-1.4206904464200534,-0.4309984369235859,110.43180306689763,-2.503096908128841,0.06189385726763421,-0.5789891292349959,0.5137068824107517,1.8907607239317168
GUIDED_NOGPS,3.7264509201049805,24.536990019773253,315.12397886483717,-73.97185482768226,-15.449770106065275,2.9802072637492807,300,0,50,-1.3934906054326528,-0.5150004789263398,110.517269223982,-2.514117600498099,0.04814089428208577,-0.5960414527498562,0.5137813628504143,1.604281826366305
GUIDED_NOGPS,3.769103765487671,23.450469087208848,315.3421091973404,-74.02899192003112,-15.539201967577023,3.0446821184064623,300,0,50,-1.3983154937510323,-0.5431730349010855,110.58479930430592,-2.527993680250198,0.0421495113053644,-0.6089364236812925,0.513877884803459,1.1459155902616465
GUIDED_NOGPS,3.8107261657714844,24.03006691722431,317.1632478238863,-74.83683770356294,-15.874422794410933,3.0952384108270703,300,0,50,-1.4066720167571312,-0.6613127359015333,110.61425108000701,-2.558394304384198,-0.000997751111829686,-0.6190476821654141,0.5139994581894345,0.6875493541569879
GUIDED_NOGPS,3.8652760982513428,18.333831641707537,317.46704408292584,-74.85898871262343,-15.99310301024118,3.129142538083097,300,0,50,-1.448322403594163,-0.7654181057048973,110.66453493267664,-2.5733162592041237,-0.007066878202206614,-0.6258285076166195,0.5141137477441551,0.34377467707849396
GUIDED_NOGPS,3.9010307788848877,27.976201275312825,317.8477470069994,-74.99332385955098,-16.37446159551385,3.1619668023735548,300,0,50,-1.4982436159075516,-0.8686668203759538,110.66924093301478,-2.587026791763533,-0.017737741119224566,-0.632393360474711,0.5142313610352758,0.0
GUIDED_NOGPS,3.9423017501831055,24.231785592549585,318.66579241960164,-74.20426199895938,-16.58080129264212,3.180817475366627,300,0,50,-1.540262512794647,-0.8617776141026439,110.68427417937798,-2.581259263138896,-0.03809775822964444,-0.6361634950733255,0.5143290147799268,0.34377467707849396
GUIDED_NOGPS,3.985774517059326,23.007196770229946,320.3036531439546,-74.30203843047072,-17.150023601506685,3.1877334339720176,300,0,50,-1.6128507750857806,-0.9021213537349407,110.68523723605095,-2.5982393528696375,-0.0761788714675178,-0.6375466867944035,0.514481475356774,-0.17188733853924698
GUIDED_NOGPS,4.023668050765991,26.397699022588096,318.57474002351603,-73.82765776110301,-17.440529567565036,3.188950787404533,300,0,50,-1.6456551064522942,-0.8716438757195802,110.67754644304551,-2.598302592898242,-0.035981454334404625,-0.6377901574809066,0.5145808415325811,-0.2864788975654116
GUIDED_NOGPS,4.0618367195129395,26.204900723487736,320.1482231075862,-73.67005476724583,-17.779409356573797,3.1753245086685453,300,0,50,-1.7623085476171765,-0.8974412867713067,110.65714466799469,-2.6073933573444252,-0.07926048492916196,-0.6350649017337091,0.5146942775384465,-0.6875493541569879
GUIDED_NOGPS,4.100009202957153,26.205064445791187,321.007904383565,-73.12611204726133,-17.887723713422115,3.1557230038494977,300,0,50,-1.8174300952098834,-0.8538852771558413,110.64954266744847,-2.6066583852403182,-0.09783994747850981,-0.6311446007698995,0.5147768879629685,-0.7448451336700702
GUIDED_NOGPS,4.143811225891113,22.831984235423484,322.06801804789603,-73.21889910272354,-17.953800869315735,3.1232482205727403,300,0,50,-1.878683658573381,-0.801002750950429,110.59850749397013,-2.6229964195545876,-0.12307788551252456,-0.6246496441145482,0.514871575262765,-1.260507149287811
GUIDED_NOGPS,4.1844213008880615,24.629202926634488,323.5358120742465,-73.12762647034248,-17.76652685621515,3.0941433500062936,300,0,50,-1.998804274515691,-0.6703178067136661,110.56109854788598,-2.6326233352852904,-0.15745436661129805,-0.6188286700012587,0.5149293604985649,-0.9167324722093172
GUIDED_NOGPS,4.225857257843018,24.13987913669065,325.44214644322204,-73.0344153204111,-17.69573376896263,3.060509295804445,300,0,50,-2.058490736351494,-0.6576209652942885,110.51927729959799,-2.642864799416473,-0.2007871428508866,-0.6121018591608891,0.5150093390143756,-1.0313240312354819
GUIDED_NOGPS,4.262895107269287,27.003579614225746,326.2043400778319,-72.65823867338295,-17.483154748358004,3.0274073794722804,300,0,50,-2.137562982599085,-0.5795325330914434,110.49466812801843,-2.6452964592505235,-0.217367962952612,-0.6054814758944561,0.515058906076762,-0.9740282517223995
GUIDED_NOGPS,4.307231664657593,22.593142826362143,327.2920350107441,-71.71886277888684,-17.14811015867271,3.005963345485848,300,0,50,-2.302865086457618,-0.45567158816575787,110.46209495586663,-2.637986142994072,-0.24433182433971282,-0.6011926690971696,0.5151119908555079,-0.6302535746439055
GUIDED_NOGPS,4.351729393005371,22.46342861121376,328.37026608641355,-71.06343381280249,-16.63436252970295,2.965105735625014,300,0,50,-2.3756249572516484,-0.4631023537350557,110.42534853813197,-2.6383213944667068,-0.27091679340290736,-0.5930211471250029,0.5151465711528819,-1.1459155902616465
GUIDED_NOGPS,4.402062177658081,19.87096651932707,327.83949069888206,-69.99730148019795,-16.027656454647502,2.9309588240969937,300,0,50,-2.5104200211823193,-0.3816281220554413,110.37776261018449,-2.630320127412517,-0.26240428556153,-0.5861917648193987,0.5151842114117047,-0.8021409131831525
GUIDED_NOGPS,4.440858364105225,25.780957649517486,328.1455217748386,-69.3078912028151,-15.631959047235895,2.893795763838408,300,0,50,-2.5617098326506493,-0.30013420022111015,110.35559181613863,-2.6277645605496818,-0.2747781002005899,-0.5787591527676816,0.5152238056939834,-0.6875493541569879
GUIDED_NOGPS,4.479666709899902,25.769553089787543,327.9314085530832,-68.24461798675962,-15.257536365872378,2.855970866526446,300,0,50,-2.557730180242059,-0.2500218493326671,110.32470570071183,-2.616152808644462,-0.2735133058474402,-0.5711941733052892,0.5152630481980243,-1.2032113697747289
GUIDED_NOGPS,4.524744510650635,22.18856266201132,328.5881866627927,-67.67934589242837,-14.81561467637925,2.819757610973184,300,0,50,-2.577324712310356,-0.18814695219810998,110.28381335815097,-2.6184734159375314,-0.2937956326112454,-0.5639515221946368,0.5153059260990087,-1.088619810748564
GUIDED_NOGPS,4.558031797409058,30.050108542238334,328.123555874471,-66.775769467849,-14.393290964101752,2.792854932428088,300,0,50,-2.5504637127388117,-0.12876107204664078,110.26666275314506,-2.607832939985489,-0.2853867635049964,-0.5585709864856175,0.515325123119826,-0.5156620156177409
GUIDED_NOGPS,4.596874475479126,25.749619370364915,328.8206698269672,-66.19489933119877,-13.87567736443823,2.7715064172984687,300,0,50,-2.590031852374342,-0.09978780979384336,110.23344754321128,-2.607731564574165,-0.30700057044721146,-0.5543012834596938,0.5153472442946706,-0.7448451336700702
GUIDED_NOGPS,4.637418746948242,24.67063501399901,329.1154502353327,-65.74286576446359,-13.644243486352678,2.737613306662254,300,0,50,-2.586809497189977,-0.1055042512423209,110.21198025864994,-2.6096620113449935,-0.31652837876071926,-0.5475226613324508,0.5154086244525599,-1.0313240312354819
GUIDED_NOGPS,4.680123329162598,23.419436611854042,329.4476436768621,-65.09217786093753,-13.18169958379733,2.7199839016740786,300,0,50,-2.6098902004993305,-0.12669651396787218,110.19883897468684,-2.6074237621570315,-0.3282686987394994,-0.5439967803348157,0.5154386516077687,-0.34377467707849396
GUIDED_NOGPS,4.722354888916016,23.681781481669688,329.15600504107044,-64.3544854391905,-12.729247850555474,2.7145338138123263,300,0,50,-2.5852904204298834,-0.1348906865790512,110.19689920096255,-2.6033565844424085,-0.3259165926529862,-0.5429067627624653,0.5154732748603347,0.0
GUIDED_NOGPS,4.764570713043213,23.693687790218164,330.0290057769094,-63.38163820641983,-12.269351552491445,2.707382903163941,300,0,50,-2.5266686143309567,-0.16504877320943426,110.2129911266471,-2.5939409542773824,-0.35118106062499466,-0.5414765806327883,0.5155052560433754,-0.11459155902616465
GUIDED_NOGPS,4.800799131393433,27.60700063845612,329.91745367849046,-62.60549261932834,-12.002026437770246,2.700613886689881,300,0,50,-2.5240522249920185,-0.15879437432253887,110.2125813152969,-2.587743628427373,-0.3509245483197685,-0.5401227773379762,0.5155499995581709,-0.17188733853924698
GUIDED_NOGPS,4.842792272567749,23.819633588133073,329.7019764430844,-61.701971401737836,-11.868358836242061,2.701464380474019,300,0,50,-2.5203156846291983,-0.11886306072223447,110.2289122976024,-2.579818049674398,-0.351310766891499,-0.5402928760948038,0.515617452962408,0.0
GUIDED_NOGPS,4.8777501583099365,28.608190325484955,330.9801181259778,-61.23824117456878,-11.805498788072434,2.6931842208584333,300,0,50,-2.548246249136085,-0.10069321006526673,110.22091414608431,-2.580180178940777,-0.3853994938407846,-0.5386368441716867,0.5156788681334097,-0.2291831180523293
GUIDED_NOGPS,4.913711786270142,27.81350256298035,332.77432886965073,-60.94470069482612,-11.728648016921392,2.682712209435362,300,0,50,-2.5613360932370024,-0.13556500767703128,110.20900912636098,-2.5835151927149584,-0.42741034401823585,-0.5365424418870725,0.5157370941725342,-0.4583662361046586
GUIDED_NOGPS,4.957031726837158,23.090665859230917,333.9190645173832,-60.9313031992725,-11.672476718918423,2.6716534351919377,300,0,50,-2.582726111283367,-0.16338858367387157,110.19672161604413,-2.5945815275607895,-0.4538094634432539,-0.5343306870383876,0.5158123773842449,-0.4583662361046586
GUIDED_NOGPS,5.0004963874816895,23.010352262191475,334.3007810839973,-59.888174494003515,-11.3424359745449,2.6444937082167,300,0,50,-2.6043148451458964,-0.14915897843563428,110.16334931175945,-2.5817828440333597,-0.46564803150318107,-0.52889874164334,0.5158532072634304,-0.9167324722093172
GUIDED_NOGPS,5.04321551322937,23.412769472943857,335.27928687478317,-58.91578899150526,-10.991607198854433,2.610833006135477,300,0,50,-2.6007904675341695,-0.2049182415812383,110.13467617762373,-2.5725211133004335,-0.49265995136331614,-0.5221666012270955,0.5158956499857709,-0.9740282517223995
GUIDED_NOGPS,5.076659202575684,29.908256619057465,334.9400289691686,-57.580135190663526,-10.59853295347873,2.5712910672893856,300,0,50,-2.5866957318516137,-0.2831010424524206,110.1015907412842,-2.551801348644259,-0.48724750934634437,-0.5142582134578771,0.5159136502457908,-1.260507149287811
GUIDED_NOGPS,5.117324590682983,24.59814794179916,334.5389103234862,-56.971736592049346,-10.393825481036862,2.5284125902884687,300,0,50,-2.627423082655342,-0.2618814589701893,110.05634756822202,-2.5514167037774165,-0.48488368232513124,-0.5056825180576937,0.5159737246460596,-1.4896902673401404
GUIDED_NOGPS,5.159753084182739,23.572775810712077,333.19732780064294,-55.92466421324727,-10.28081362973319,2.4870918862736753,300,0,50,-2.6365503498205944,-0.31286308483264874,110.01130930083497,-2.538966346952693,-0.4614898428168797,-0.4974183772547351,0.5160413439734096,-1.0313240312354819
GUIDED_NOGPS,5.199192047119141,25.364836507235772,334.5991448520246,-54.9820944423883,-10.095001545008422,2.431743024098223,300,0,50,-2.691941689885517,-0.41996461316497413,109.95060257949189,-2.5288489738815603,-0.5017035923342881,-0.4863486048196446,0.5160916664073618,-1.6615776058793874
GUIDED_NOGPS,5.243356227874756,22.644984342943527,334.4240582264691,-53.41528286781045,-9.927951350219407,2.3747310461040585,300,0,50,-2.7193710892620535,-0.48236599515457756,109.88665151829306,-2.505782298342826,-0.5003180066454757,-0.4749462092208117,0.5161552116485485,-1.776169164905552
GUIDED_NOGPS,5.280854225158691,26.67182174289057,335.0170192563706,-52.19927993069709,-9.831981506496723,2.308684705145242,300,0,50,-2.774573958794566,-0.5464577689224798,109.83511774100532,-2.4896536283092,-0.5194254091161089,-0.46173694102904844,0.5162144858873514,-1.8334649444186344
GUIDED_NOGPS,5.321843862533569,24.40222943647386,334.5159273249575,-50.84196401677096,-9.818454474398001,2.2434129113940715,300,0,50,-2.7852516789014117,-0.5433927215324366,109.75290958415505,-2.4707308768784304,-0.5122497993730659,-0.4486825822788143,0.5162887286851549,-1.8907607239317168
GUIDED_NOGPS,5.360682010650635,25.750567895777312,334.78943595695836,-49.2344126865756,-9.711631998644577,2.158523239138833,300,0,50,-2.734440407561806,-0.550365650983932,109.68167754130099,-2.4454475436211505,-0.5250697365943674,-0.43170464782776663,0.5163454369740087,-2.635605857601787
GUIDED_NOGPS,5.39906907081604,26.05708037722252,333.7067674496428,-47.51055755958645,-9.56729178689402,2.0757495212104047,300,0,50,-2.705365999812354,-0.4775899853774461,109.60076029020384,-2.417762423040077,-0.5049760557742108,-0.415149904242081,0.5163977386073563,-2.521014298575622
GUIDED_NOGPS,5.434229850769043,28.479789234958208,334.650969472591,-45.945328890329584,-9.490427551135808,1.99182991291834,300,0,50,-2.634405030090976,-0.4300901551661065,109.50325250961274,-2.3929608639420263,-0.534262433977019,-0.39836598258366807,0.5164541199230492,-2.4064227395494577
GUIDED_NOGPS,5.478399038314819,22.642294943911207,334.88463867383257,-44.81220350563348,-9.194173383745524,1.8966911374541937,300,0,50,-2.5278805460218106,-0.321407251277938,109.3704258208235,-2.3802299760543586,-0.5429880725270377,-0.3793382274908388,0.5164992933041722,-3.151267873219528
GUIDED_NOGPS,5.519563913345337,24.297058380545224,335.2171517583854,-43.504261212137955,-8.676009658373806,1.7764670467759123,300,0,50,-2.4813635426794387,-0.1682923926936763,109.2565870579269,-2.3605929035718427,-0.5557195101011662,-0.3552934093551825,0.5165139602119377,-3.0366763141933633
GUIDED_NOGPS,5.557387590408325,26.441132713014095,336.04215446662516,-41.415236714522514,-7.643358426456241,1.6600871866458484,300,0,50,-2.533924196220214,0.023791416509005587,109.13956542687707,-2.322781399940304,-0.5790589840335914,-0.3320174373291697,0.5164617691742662,-3.20856365273261
GUIDED_NOGPS,5.595254182815552,26.412660029345272,336.58591947641423,-39.269551745514036,-6.600609823064903,1.5310021904642432,300,0,50,-2.5566932721486864,0.2069694060859313,108.99158937850873,-2.2856500494783765,-0.5947394468447614,-0.3062004380928487,0.516421446556096,-3.896113006889598
GUIDED_NOGPS,5.62733793258667,31.178621074149785,336.3822108302324,-37.13160238241355,-5.313135476330213,1.3871807942513548,300,0,50,-2.559839641478535,0.28770042780648375,108.90387608918743,-2.2466015456384216,-0.5932367945026487,-0.27743615885027095,0.5163328775373003,-4.354479242994256
GUIDED_NOGPS,5.669991970062256,23.449026941504677,336.37066184709045,-35.40457413177534,-3.975200648895637,1.2545212466253903,300,0,50,-2.546657589823822,0.4658674597710002,108.649191995416,-2.2207660097703767,-0.5998322231246122,-0.2509042493250781,0.5162772757971312,-4.640958140559668
GUIDED_NOGPS,5.7034735679626465,29.874598460081057,336.52700820615047,-33.65549298454499,-2.498624676278857,1.0749544510992428,300,0,50,-2.5723813628985592,0.49515306977619344,108.51621504246502,-2.1891019693259475,-0.6083413263324268,-0.21499089021984857,0.5161694843708642,-4.8128454790989155
GUIDED_NOGPS,5.741626501083374,26.215383076865383,337.3014310646309,-31.8650798596202,-1.029572848922049,0.9300811799553117,300,0,50,-2.530671105184584,0.5412315536295093,108.31731310364508,-2.1586048861992366,-0.6310516222165587,-0.18601623599106235,0.5160857344415181,-4.755549699585833
GUIDED_NOGPS,5.782791614532471,24.29818443036068,337.1371477658755,-29.834799612830242,0.23321056273581467,0.767654795837441,300,0,50,-2.524026184895808,0.4971590109580616,108.15190641251489,-2.1227791853525035,-0.6314755176849268,-0.1535309591674882,0.5160296925463119,-4.755549699585833
GUIDED_NOGPS,5.817915201187134,28.477855556988928,337.54798989200356,-27.843704396576157,1.37041992826702,0.5842838201137904,300,0,50,-2.521365185883853,0.4879967390733126,107.96245745550624,-2.0861101288020243,-0.6465379078038193,-0.11685676402275809,0.5159653969222935,-4.8128454790989155
GUIDED_NOGPS,5.854884624481201,27.052520913553014,337.1007283785159,-25.626702993820373,2.2040643069854995,0.4110331992128055,300,0,50,-2.54792330925439,0.46389652330862835,107.83697322007477,-2.0452603797643603,-0.6407241561324646,-0.0822066398425611,0.5159451029070324,-5.156620156177409
GUIDED_NOGPS,5.8988542556762695,22.747163589821465,336.836729853592,-23.51875463452481,2.8982944752456477,0.24352855613690882,300,0,50,-2.5992319037429374,0.4467523216050732,107.60305973156935,-2.0084022880432233,-0.6425144050137986,-0.048705711227381765,0.5159443417847529,-4.698253920072751
GUIDED_NOGPS,5.930146217346191,31.968780487804878,336.59788869881385,-20.58266574683042,3.4560721194497894,0.04417617435183618,300,0,50,-2.6253610058562327,0.4204398182403925,107.46215975918115,-1.9476707745258655,-0.6421538409548456,-0.008835234870367236,0.5159302184064245,-4.698253920072751
GUIDED_NOGPS,5.981130361557007,19.61935411443326,336.53066793970146,-17.60557510950929,3.948635446145508,-0.10614183862075927,300,0,50,-2.6779257148218276,0.3901229030313802,107.20749615597722,-1.8952611553766372,-0.648885567079988,0.021228367724151855,0.5159595128206104,-4.92743703812508
GUIDED_NOGPS,6.0179078578948975,27.19336099585062,334.7524846814371,-13.86813993506046,4.471835288674209,-0.3381388353397608,300,0,50,-2.6990077340253067,0.4434594233731866,107.05413791854292,-1.8182790859901452,-0.613768191799951,0.06762776706795216,0.5159531066460635,-4.354479242994256
GUIDED_NOGPS,6.057292461395264,25.402319595433486,334.6384337268049,-10.67089588290637,5.001313964555384,-0.47707683488485525,300,0,50,-2.6966585758376453,0.4530260638011415,106.90907153076103,-1.757937296549917,-0.6214222424568301,0.09541536697697106,0.5159534836923894,-3.8388172273765155
GUIDED_NOGPS,6.094660758972168,26.765604160684088,335.0658066338275,-7.525178381262587,5.661591589882103,-0.6263909583522355,300,0,50,-2.70582981234568,0.4271580563410405,106.78024733282541,-1.695878258293631,-0.6366299424906166,0.1252781916704471,0.5159327732540016,-4.068000345428845
GUIDED_NOGPS,6.130575895309448,27.850994037105405,333.95501755639793,-5.067623266274545,6.237698099317847,-0.7453515896593971,300,0,50,-2.7331166315232927,0.4347456494569842,106.69107238302173,-1.649131561651384,-0.6151206833600998,0.14907031793187941,0.5159245702860654,-3.323155211758775
GUIDED_NOGPS,6.166942358016968,27.502190049046607,332.90049714840336,-2.7412042192417836,6.814209178159204,-0.8351575054087522,300,0,50,-2.7126484755714686,0.4307648231096303,106.60884373560394,-1.6033768100548922,-0.5989698541991545,0.16703150108175047,0.5159139804868229,-2.3491269600363753
GUIDED_NOGPS,6.202950954437256,27.800413595630733,333.7095880116501,-0.4325464232760445,7.375995495081163,-0.9219297189326856,300,0,50,-2.7330346692532523,0.37727574408940934,106.50921859637013,-1.557298183935995,-0.6251730584282358,0.18438594378653714,0.5159044687870841,-2.291831180523293
GUIDED_NOGPS,6.23631477355957,29.95460713316479,333.31830583922266,1.7291191377134305,7.941898324528059,-0.9946099222239013,300,0,50,-2.704028136508678,0.2995355448125291,106.44425666717414,-1.5137138550357034,-0.618371575654855,0.19892198444478026,0.5158883688150382,-1.8907607239317168
GUIDED_NOGPS,6.274441957473755,26.231942611621523,331.4125262616697,3.7425952415097368,8.437900136041156,-1.0399554776506506,300,0,50,-2.6818596903403433,0.23032502450937833,106.39551643725693,-1.4740421839221562,-0.5811270436711784,0.20799109553013012,0.5158897075123408,-1.3178029288008934
GUIDED_NOGPS,6.314310073852539,25.090052042830653,331.8736405988758,5.695508422671442,8.924101760798836,-1.0909241970446133,300,0,50,-2.6923926958141493,0.077773016201408,106.36819568057689,-1.4345051926984715,-0.6016316999990062,0.21818483940892267,0.5158910736099094,-1.088619810748564
GUIDED_NOGPS,6.350033521652222,27.99842461867094,331.8713148044892,7.677808305271445,9.294787418098396,-1.115400665981367,300,0,50,-2.698425460398563,-0.013251047237500754,106.3701491146795,-1.3931750598557233,-0.6050336853336173,0.2230801331962734,0.5159001618618295,-0.2291831180523293
GUIDED_NOGPS,6.3894805908203125,25.35517645778675,329.6294257793841,9.573491416542916,9.49197212330259,-1.1064275985056766,300,0,50,-2.7057826413517247,-0.13543947627060585,106.39655462601078,-1.3544156664446896,-0.5591702779929323,0.22128551970113533,0.5159335040876523,0.6875493541569879
GUIDED_NOGPS,6.423176527023315,29.68073934642003,328.70655162526305,11.385095557013978,9.581618783667606,-1.0759133225927149,300,0,50,-2.676648682890447,-0.2463742081507629,106.472533650338,-1.3161028509125554,-0.5475626422269286,0.21518266451854298,0.5159678993820478,1.432394487827058
GUIDED_NOGPS,6.463356018066406,24.89452348308138,328.6761714836089,13.658348680922137,9.532807682089794,-1.0145306603927888,300,0,50,-2.56264407446306,-0.24926492563441213,106.56772599680046,-1.2681267513151475,-0.5541963390709519,0.2029061320785578,0.5160252102903056,2.3491269600363753
GUIDED_NOGPS,6.501923322677612,25.93575275632424,326.8512266388214,15.908374782536972,9.518155264786934,-0.9292682730100913,300,0,50,-2.456817336906294,-0.25424973642890497,106.69907736472898,-1.2205323698918789,-0.5172126755512998,0.18585365460201828,0.5160728244536223,2.9220847551671985
GUIDED_NOGPS,6.538888692855835,27.05688371672967,326.8356254881661,18.0948876185425,9.447859554945053,-0.8309567082975438,300,0,50,-2.278952380729992,-0.14452023945256426,106.81564820329359,-1.174008446114582,-0.5255205884435703,0.16619134165950877,0.5161261080780153,3.0939720937064457
GUIDED_NOGPS,6.579140901565552,24.848655757906087,327.3838846370969,19.37627677603897,9.576078836892071,-0.7174381325584451,300,0,50,-2.08916767723496,-0.04230592491479453,106.95313308109678,-1.148025863805646,-0.5423124291447474,0.14348762651168903,0.516157226250518,3.6096341093241864
GUIDED_NOGPS,6.6134302616119385,29.173099260640036,327.41213417391975,21.031966821249267,10.174804353194999,-0.5889106319464134,300,0,50,-1.959695251658433,-0.04502089842944815,107.01358708544056,-1.1103671297073767,-0.5453606121161805,0.11778212638928268,0.5161239884396515,3.6096341093241864
GUIDED_NOGPS,6.651724815368652,26.11808954480354,327.4944119109274,22.138319198669034,10.725041272712827,-0.46536585779103185,300,0,50,-1.6518321587829243,0.0690527322611529,107.18476528641942,-1.0867924501769957,-0.5513472582254869,0.09307317155820638,0.5161171480867309,3.9534087864026803
GUIDED_NOGPS,6.688554286956787,27.15832140845253,327.58717981035676,23.65036429491475,11.919470689232151,-0.32983049945661996,300,0,50,-1.2642164687854678,0.003591932451486237,107.3911736031372,-1.0518535854578412,-0.5573070325291632,0.065966099891324,0.5160217947056346,3.7815214478634336
GUIDED_NOGPS,6.723509311676025,28.61521667940181,327.26069095744805,24.657969554208623,12.94349942083408,-0.18848302926131982,300,0,50,-1.0601878326631973,-0.06838420081571145,107.52404127306146,-1.0294740300634277,-0.5533947468037699,0.03769660585226397,0.515961236575199,4.1252961249419275
GUIDED_NOGPS,6.763752222061157,24.85454567002856,327.1808846486073,25.960041433630042,14.134183865560807,-0.041576392641242486,300,0,50,-0.7540188935061163,-0.24776665960694638,107.73486189198307,-0.9989054299253142,-0.556913757172796,0.008315278528248498,0.5158852671193509,4.5263665815335035
GUIDED_NOGPS,6.792776107788086,34.457777084035065,326.26238988828317,26.876614052799436,14.723790918004369,0.12200348239317517,300,0,50,-0.6257443657161331,-0.42367727454612564,107.8439605035957,-0.9775296670329882,-0.5386609579714694,-0.024400696478635034,0.5158665632910787,4.239887683968092
GUIDED_NOGPS,6.8289854526519775,27.623910008166707,325.691442960904,27.814002507576472,15.01270409227567,0.2520166245447349,300,0,50,-0.46504031319034106,-0.7069432553948315,108.04534180108435,-0.9553102454208158,-0.5325141629985766,-0.05040332490894698,0.5158877342471418,4.583662361046586
GUIDED_NOGPS,6.865652322769165,27.279848586350656,323.8734266580862,28.548396497192545,14.890219639498449,0.4119786844190059,300,0,50,-0.35283738059995656,-0.9075199779436011,108.22238713456025,-0.9370313837960116,-0.4962764828707886,-0.0823957368838012,0.5159499390236877,4.583662361046586
GUIDED_NOGPS,6.905078887939453,25.36943911836399,322.8205552491945,29.37863877261368,14.529962835420674,0.5591822656588438,300,0,50,-0.2897169877980771,-1.2032153022561434,108.43279794213166,-0.9156815601638718,-0.4811313069452661,-0.11183645313176876,0.5160338388204233,3.9534087864026803
GUIDED_NOGPS,6.944279909133911,25.516057403926293,322.37445925332634,30.0968131751242,13.820047265755045,0.7248391576519081,300,0,50,-0.29118932045103796,-1.3292069993986084,108.57781651858937,-0.8969081528316908,-0.4771691126649643,-0.14496783153038162,0.5161560176174549,4.18259190445501
GUIDED_NOGPS,6.983534574508667,25.479321572629637,322.24802549213393,30.937533969514323,13.114825182540201,0.8689141349740143,300,0,50,-0.29619056638822117,-1.408166334081483,108.76354985268952,-0.8749253664133922,-0.4790080388075565,-0.17378282699480285,0.5162698269995513,3.7815214478634336
GUIDED_NOGPS,7.0258402824401855,23.6430685283623,321.9436030104842,31.912688165197654,12.111805408635753,1.0068974246861186,300,0,50,-0.28152860483943676,-1.3139515584439734,108.90360288162064,-0.8498326144029394,-0.47623684517119685,-0.20137948493722374,0.5164241755458987,3.151267873219528
GUIDED_NOGPS,7.063323497772217,26.684208852102326,322.330588421689,32.834056653340944,11.461451650828517,1.1360897637104408,300,0,50,-0.2513161701803845,-1.2800731798304754,109.00557760592893,-0.8263270978545879,-0.48907557107478855,-0.22721795274208817,0.5165262113842135,2.635605857601787
GUIDED_NOGPS,7.092715263366699,34.027827131047125,321.95582675657806,33.767049871733384,11.049970297878936,1.2277846361803395,300,0,50,-0.18263580329091628,-1.124160131481477,109.07941195085677,-0.802978355019019,-0.48186853650239353,-0.24555692723606792,0.5165984279057958,2.0053522829578814
GUIDED_NOGPS,7.1306517124176025,26.36915397237538,322.35348983516525,34.64738237232581,11.40576992201745,1.272195453983029,300,0,50,-0.09096207146806295,-1.0125896317195535,109.12170448219749,-0.7809729488320779,-0.49551877122178317,-0.2544390907966058,0.5165831358253886,1.2032113697747289
GUIDED_NOGPS,7.164628267288208,29.436604297966117,322.7832670533563,35.635882270658804,12.169319035821642,1.305727706104693,300,0,50,0.018066637427263863,-0.8583561695761435,109.13515312467324,-0.7557782813277376,-0.5074271935144447,-0.26114554122093864,0.5165324991674857,0.057295779513082325
GUIDED_NOGPS,7.198747634887695,29.317471079579214,321.9088648962153,36.54057454810215,13.22521744227736,1.30243572394439,300,0,50,0.06193188652544437,-0.7506119097707493,109.12731889769523,-0.7329520195138455,-0.48909102180577385,-0.260487144788878,0.5164558246825068,-0.9167324722093172
GUIDED_NOGPS,7.234786748886108,27.755525556526113,322.854982573809,37.6268919543483,14.473851516587052,1.2695388987144147,300,0,50,0.05174475275986291,-0.6804920138126348,109.07437127124929,-0.7054463293864102,-0.5165026684994183,-0.253907779742883,0.5163657356584814,-1.8907607239317168
GUIDED_NOGPS,7.27044415473938,28.049353654377295,322.5137229308058,38.581819196047284,15.645189567524591,1.1906622192777778,300,0,50,-0.03523119629619681,-0.5513590699821986,108.93409284607557,-0.6811775672417628,-0.5093119112525536,-0.23813244385555557,0.5162872612318629,-3.552338329811104
GUIDED_NOGPS,7.3162548542022705,21.833279543585313,321.3384690977804,39.89300064244292,16.87620597785224,1.0679364627929322,300,0,50,-0.18930761744954935,-0.4841035846072582,108.75013536115962,-0.6474517327993687,-0.48811291288604175,-0.21358729255858644,0.5162156759454792,-4.92743703812508
GUIDED_NOGPS,7.360617160797119,22.546021404804524,320.64607473536205,41.85731373688155,18.39316937362489,0.8683886011178924,300,0,50,-0.3202718390501291,-0.31736548683658294,108.49080673875258,-0.5991702447601719,-0.47893000754275894,-0.1736777202235785,0.5160986819024639,-6.64631042351755
GUIDED_NOGPS,7.406232118606567,21.94649294927138,321.05157315257276,44.24208836932464,19.873275930040773,0.5861180334048655,300,0,50,-0.47467194713711686,-0.18006091535531404,108.10811806974593,-0.5426250819508477,-0.49330794794969524,-0.11722360668097309,0.5159930711698016,-8.823550045014677
GUIDED_NOGPS,7.441582202911377,28.29267371346469,320.5624270818422,47.044966842835834,21.54504128690873,0.24416704202672695,300,0,50,-0.606726984632702,-0.07681444184007903,107.76007212020959,-0.4772660925703302,-0.48418898085431367,-0.04883340840534539,0.5158421350592577,-9.912169855763242
GUIDED_NOGPS,7.4738383293151855,31.00896784734698,320.24147153805313,49.1104498355677,22.621489667454757,-0.0964476149534137,300,0,50,-0.6930945666049546,-0.021281455391158128,107.43268066272337,-0.43107918513729276,-0.4807623315625775,0.01928952299068274,0.5157745692293846,-11.115381225537972
GUIDED_NOGPS,7.5118324756622314,26.32661720583989,320.90471817070585,51.66131674348343,23.88118674376363,-0.4520098416365679,300,0,50,-0.826314631601703,0.09334792858229982,106.92969870205447,-0.3718949706364756,-0.49994209107012205,0.09040196832731358,0.5156784712114051,-12.433184154338864
GUIDED_NOGPS,7.546428203582764,28.911678947840052,321.3238086051822,54.48862876068802,25.070051963302074,-0.880874669167735,300,0,50,-0.9888786300158542,0.13177222497526436,106.47744455635124,-0.306357857894119,-0.510736266383227,0.17617493383354701,0.5155842247133102,-13.06343772898277
GUIDED_NOGPS,7.586358308792114,25.046602173653408,320.2668308551839,57.34566585714065,26.15349387386377,-1.2925265158545056,300,0,50,-1.11341186832711,0.17753198445426394,105.98456444546478,-0.24107666707424585,-0.48899618419263097,0.25850530317090115,0.5155119268189252,-13.2926208470351
GUIDED_NOGPS,7.631702661514282,22.05613020271869,318.87239231484654,61.44687291601658,27.571856360850074,-1.7843446089113504,300,0,50,-1.2736937831456836,0.22500820248819944,105.39724330892454,-0.14598898699864768,-0.4640983013031922,0.3568689217822701,0.5153964085801613,-13.922874421679005
STABILIZE,7.668677091598511,27.052520913553014,317.74022894885815,65.36873254050026,28.66595424977051,-2.3624431314632113,300,0,50,-1.3820953952978385,0.3596232269012171,104.83833575933157,-0.05630921265569804,-0.4440661319287353,0.47248862629264227,0.5153121079867458,-14.2666490987575
STABILIZE,7.7001566886901855,31.77238260447993,316.0829223648253,70.13091700453721,30.13596833560378,-2.8447045186304187,300,0,50,-1.4097402657983478,0.4732213323512825,104.42123659728641,1.426556514808087,-0.3184426773584461,0.5689409037260837,0.5019586788245056,-14.03746598070517
STABILIZE,7.736387729644775,27.605001974463605,315.18158009754586,74.22080893372852,31.35469424858748,-3.249321586633692,300,0,50,-1.388584928782997,0.5889961337124663,103.91050237190953,1.5064608271678765,-0.3033449425785713,0.6498643173267384,0.5018511697624101,-13.636395524113594
STABILIZE,7.770585536956787,29.25020572687839,314.49361975540705,78.13581282950634,32.68494033703586,-3.7307540812014723,300,0,50,-1.246605359619119,0.7095078847064655,103.43585203591783,1.5848557171897897,-0.28982808029866886,0.7461508162402946,0.5017101556406197,-14.094761760218251
STABILIZE,7.805034399032593,29.036573461913893,313.86453532914203,82.01541126614313,33.91871965957565,-4.188765137134687,300,0,50,-0.8567629745913852,0.7790000435911735,102.8920596949581,1.6628714699649343,-0.2773738208589729,0.8377530274269374,0.5015889156221635,-14.32394487827058
STABILIZE,7.842785358428955,26.495082277881306,313.3393880397785,85.19680972863482,34.89786823331064,-4.634278071980778,300,0,50,-0.030067853428144845,0.9102849238969869,102.40768316958831,1.7251787961789662,-0.2673717346393619,0.9268556143961556,0.5015008826369098,-13.636395524113594
STABILIZE,7.8752830028533936,30.775976813295667,313.53383479764506,89.55113700382829,36.284529386710176,-5.1192975778213965,300,0,50,0.39846491188549293,0.9175697475336286,102.18242353076128,1.8160349176154518,-0.2730555297085195,1.0238595155642793,0.5013432504535958,-13.750987083139758
STABILIZE,7.9104650020599365,28.43075504822846,312.7943339488912,92.52211479401736,37.25945724985554,-5.552089569909566,300,0,50,1.322725790206501,0.930249139954111,101.77913501121789,1.8718822393558125,-0.25556357275517533,1.1104179139819133,0.5012595614122194,-13.693691303626675
STABILIZE,7.943358898162842,30.418635684551006,313.354246842687,94.53344695017272,37.92590398002691,-5.997031446197897,300,0,50,2.996520742430719,1.04451553672578,101.21281670637545,1.9092358019627267,-0.270544337633913,1.1994062892395794,0.5011991348233631,-13.235325067522018
STABILIZE,7.983175277709961,25.12025585587744,310.45615240788857,97.19263873971836,37.46814361064697,-6.36112190896487,300,0,50,5.322868019254841,1.1958767976014937,100.68450840426414,1.9660054758233434,-0.20350423845714874,1.2722243817929741,0.5012796495022501,-11.058085446024888
STABILIZE,8.010374546051025,36.77794535442461,308.3222617049156,99.85183052926402,37.01038324126703,-6.776755437936328,300,0,50,6.559153176481482,1.2684237585924898,100.44189325475611,2.0176755725215276,-0.1594944467514461,1.3553510875872656,0.5013263985225993,-9.969465635276325
STABILIZE,8.048285722732544,26.382257110867897,304.97040093516716,102.51102231880968,36.55262287188709,-7.013020631319603,300,0,50,8.388604404630588,1.4826920222193731,100.06748960521269,2.072787377982563,-0.09132872177129797,1.4026041262639206,0.5013721092420389,-9.11002894258009
STABILIZE,8.082583665847778,29.162551712150183,300.7437692830598,106.54421046098223,34.86155502299706,-7.329752413156164,300,0,50,9.568031225224635,1.680264422028689,99.81678751172737,2.1572624217204717,-0.0026626033010313296,1.465950482631233,0.5015787032954323,-7.563042895726867
