Mode,Time,Freq,North-Vision,East-Vision,Down-Vision,Yaw-Vision,North-Desired,East-Desired,Down-Desired,Roll-UAV,Pitch-UAV,Yaw-UAV,Roll-Control,Pitch-Control,Yaw-Control,Thrust-Control,northVraw,eastVraw,downVraw,yawVraw,zGyro
GUIDED_NOGPS,0.009060144424438477,110.66765171503958,215.66287277697182,36.53832804561144,-8.393142871409513,-0.0024414831350268525,216.04106112756963,36.76171412044418,50,-1.3268688335466428,1.5373017325111522,76.91193937538637,-0.45658479263339613,0.9662366474911114,0.00976593254010741,0.5145982857178524,215.66287277697182,36.53832804561144,-8.393142871409513,-6.106149320702158,-0.2864788975654116
GUIDED_NOGPS,0.0455474853515625,27.411064274744305,215.68497972586687,36.646908700787904,-7.763301891051999,-0.0065323690797509494,216.04101312197022,36.76160410477204,50,-1.306107406347331,1.486831970630047,76.90861307326058,0.042613094248878484,0.0058199028562867,0.026129476319003798,0.514440825472763,215.70708667476194,36.75548935596437,-7.133460910694484,-3.6489692218550687,-0.5729577951308232
GUIDED_NOGPS,0.08006644248962402,28.975793080579198,215.32849899818862,36.68306915555956,-7.1609435445235645,-0.026413797887948433,216.04068095675484,36.76084287316824,50,-1.218677036268054,1.4262503271261497,76.90970590352778,0.013968298296147959,0.2419170848860132,0.10565519155179373,0.5142902358861309,214.6155375428322,36.75539006510285,-5.956226851466695,-7.64145192072327,-0.5729577951308232
GUIDED_NOGPS,0.11589789390563965,27.911971198317683,215.22733513095437,36.77098662756313,-6.663763682268943,-0.05041172777053477,216.0397910549843,36.758803462294914,50,-1.0647953288668996,1.233736109284051,76.89136001541712,0.0406110355196001,0.09676684182848383,0.20164691108213909,0.5141659409205672,214.92384352925154,37.03473904357386,-5.1722240955050784,-8.43941072097141,-0.8021409131831525
GUIDED_NOGPS,0.1549215316772461,25.645392846224397,215.23724356841367,36.91065576335031,-6.200777247157867,-0.07864219154433229,216.03808124148892,36.75488503854373,50,-0.7633222514859084,0.9799659802009281,76.88090299579784,0.06546125948173545,0.0343534061842961,0.31456876617732915,0.5140501943117894,215.27687731825094,37.46933230649904,-4.348831506713562,-1.9785184223849797,-0.9740282517223995
GUIDED_NOGPS,0.19644761085510254,24.071716348526763,215.06002218438854,37.11480997065409,-5.289502616173147,-0.1061089422816021,216.0353005856026,36.748512537625814,50,-0.49525995156453356,0.7633182494219416,76.86399144741289,0.09536610506589283,0.13275527003168877,0.4244357691264084,0.5138223756540433,214.1739152642629,37.55909908213033,-3.8367697164859127,-7.431038038763035,-0.6302535746439055
GUIDED_NOGPS,0.23402714729309082,26.616981850488642,215.1858716677807,37.41500787441191,-4.522573373514865,-0.1370138235885933,216.0312092438972,36.739136304161704,50,-0.2269294066356771,0.48945028870605595,76.85587035248975,0.1594065590096629,-0.026617112298486796,0.5480552943543732,0.5136306433433787,215.94096856813366,38.25647887475347,-3.2988146974030745,-4.769946701673007,-0.7448451336700702
GUIDED_NOGPS,0.27264976501464844,25.89620043712878,215.17833319408513,37.84242354585726,-3.845937373273588,-0.1643257000958452,216.02557830291653,36.72623173127128,50,-0.003890313000637946,0.2395886820146197,76.8477014462424,0.22702437283151677,0.04396698017609446,0.6573028003833808,0.5134614843433184,215.12556387821616,38.89246842232958,-2.5730468502603134,-3.078527235310318,-0.7448451336700702
GUIDED_NOGPS,0.3023991584777832,33.62706646356129,215.17693325167326,38.30286155408305,-3.26469473119797,-0.19577387352974326,216.0181896219108,36.70929890016369,50,0.06605841468161633,0.13341066996327405,76.84542016305961,0.32131176033247,0.038721688948495814,0.7830954941189731,0.5133161736827995,215.651673237677,39.33692908470283,-2.2660108851269873,-3.2676607781225044,-0.8594366926962349
GUIDED_NOGPS,0.3433990478515625,24.392721097534736,215.21522534966772,38.74740237535301,-2.854143242315015,-0.21115831924746392,216.0088356755707,36.68786221972732,50,0.36010544892879065,-0.09915951243148152,76.84689548392033,0.2640339463339154,0.017319787595574444,0.8446332769898557,0.5132135358105787,216.0134234587177,39.69203641284882,-2.2960740622987843,-13.015613472499865,-0.2864788975654116
GUIDED_NOGPS,0.381256103515625,26.421644776213423,215.2795415026749,39.2482341535097,-2.488732935865806,-0.2291063066502476,215.9973193967617,36.661470066119705,50,0.5506670864419116,-0.31179597449654,76.8616418623384,0.3276513786822602,-0.0034102530388350483,0.9164252266009904,0.5131221832339664,215.13006676688985,40.0632579729138,-2.0097181842398677,-2.9236552987455156,-0.2864788975654116
GUIDED_NOGPS,0.41927266120910645,26.315715504693067,215.5906505730662,39.7793191019351,-2.1779940884166784,-0.23370475713491698,215.98345401925815,36.62969442235747,50,0.6793743173879857,-0.3411090119801191,76.88580024143273,0.3650747644151824,-0.15124904060522726,0.9348190285396679,0.5130444985221042,217.412716092382,40.91190361688046,-1.7451204601574353,-6.937141911671574,0.17188733853924698
GUIDED_NOGPS,0.45497703552246094,28.006650596617277,215.6937083512419,40.15211041880843,-1.9098058754980847,-0.2339298731587745,215.96706292047756,36.592130517906256,50,0.825151951978067,-0.4946742094823521,76.91007473374296,0.32671143620687493,-0.0519619333804627,0.935719492635098,0.5129774514688745,216.1013395436564,40.756425006696226,-1.2321057856673445,-13.728364641055578,0.34377467707849396
GUIDED_NOGPS,0.4924135208129883,26.718205155972303,216.02859328756384,40.56521269951271,-1.5916889430698737,-0.2332484381740661,215.94797946421482,36.548396468270695,50,0.9576189886188214,-0.6224928755060898,76.9377848112057,0.3578083254626751,-0.19237878808598283,0.9329937526962644,0.5128979222357675,216.85299475483845,41.40244048822424,-0.6754262229859317,-6.462606019479409,0.17188733853924698
GUIDED_NOGPS,0.5329432487487793,24.67687637157364,216.45317527459355,41.02507893368757,-1.1464766330174236,-0.22545566477190385,215.92604684337647,36.498132914584325,50,1.0911357399576422,-0.7125248006072012,76.98285722953861,0.38436364782560706,-0.24555972793856928,0.9018226590876154,0.5127866191582544,219.33762446437146,41.99136758372308,-0.07001251203653368,-11.986659158003903,0.5156620156177409
GUIDED_NOGPS,0.5681130886077881,28.438272944239532,216.73530510449902,41.40913527033897,-0.6322467366896605,-0.2186981618762432,215.90111792271475,36.441002663199505,50,1.124220215801832,-0.8006993411408925,77.01830591133098,0.40162300685512264,-0.2152130596534449,0.8747926475049728,0.5126580616841724,217.38260251745982,41.98353965617081,0.561431297398948,-6.017862757788038,0.2864788975654116
GUIDED_NOGPS,0.6078839302062988,25.14887365915373,216.79791237088708,41.57887760393476,-0.028728293773134926,-0.22043563583305434,215.873055081562,36.376690325277394,50,1.2221482664703014,-0.9651977238331854,77.05275055531536,0.3053166675332419,-0.09116937875311482,0.8817425433322174,0.5125071820734433,216.1525313687815,41.7606152848594,1.2724717544251922,-19.387416978856592,0.17188733853924698
GUIDED_NOGPS,0.6454410552978516,26.633207182951917,216.87638325244566,41.89156392942632,0.7479312671300538,-0.22015359611272534,215.8417300565647,36.30490195637786,50,1.2112426955216125,-0.9869421646644498,77.07651278343783,0.3912385461271754,-0.10979259965349782,0.8806143844509013,0.5123130171832175,216.64119051118632,42.31985663415404,2.651192018848599,-5.478054423706425,0.0
GUIDED_NOGPS,0.6829297542572021,26.67708061695023,217.01071555809403,42.065291452038494,1.4964060652158302,-0.22770527073697022,215.80702378441788,36.225364696049425,50,1.2724751279873652,-1.0985349692628816,77.07655376457285,0.34551537364285195,-0.14972555901957701,0.9108210829478809,0.512125898483696,216.20472521207685,42.2710781012851,3.066947767442951,-11.717532365460869,-0.17188733853924698
GUIDED_NOGPS,0.7190775871276855,27.670015766939564,217.12680137061756,42.19363665384832,2.2668944084306384,-0.2586439336990008,215.76882624459915,36.13782640741922,50,1.2801072240546199,-1.152465822784185,77.07220976426072,0.3427140920353856,-0.15326714637423255,1.0345757347960032,0.5119332763978923,218.34140259257015,42.63309359277223,3.782429204037508,-17.032519173675055,-0.9740282517223995
GUIDED_NOGPS,0.7529942989349365,29.49249029645047,217.06247407867178,42.28510871022265,3.0182796202895465,-0.30014815071035605,215.72703630210304,36.04205531678287,50,1.243182154184473,-1.0989081750679994,77.03396753509782,0.34327405009053114,-0.05332634487660828,1.2005926028414242,0.5117454300949276,215.58672120809035,42.44089993804247,4.31835735669349,-7.509098349734302,-1.432394487827058
GUIDED_NOGPS,0.7892868518829346,27.561285574414676,216.9038829906864,42.48050675849905,3.7410209764432003,-0.35836668494479906,215.68156155017516,35.937839653194516,50,1.2665522867599064,-1.0247629498112203,76.97733160650007,0.4000476055948112,0.0014951837462965287,1.4334667397791963,0.5115647447558892,215.5842660509554,42.73760552624136,4.886178535193463,-2.3948547157583135,-2.119943841984046
GUIDED_NOGPS,0.8255431652069092,27.584305575650756,216.60630883991476,42.62725003003985,4.353438221842483,-0.444974874096176,215.6323181530464,35.824987288056676,50,1.2235316999423465,-0.9214598604310682,76.90310794078955,0.3921716048341934,0.08727856597453587,1.779899496384704,0.5114116404445394,216.9570312581982,43.05357299185806,5.713278245845011,-3.7769169532623295,-3.0366763141933633
GUIDED_NOGPS,0.8639590740203857,26.046238969652183,216.58473361470135,42.8562554929823,5.053938740737452,-0.5539088962707033,215.5792306886672,35.703325374710204,50,1.1570881533049913,-0.8182027681061079,76.77188634645526,0.4398944707734884,-0.06698384853534906,2.215635585082813,0.5112365153148156,217.21000071575264,43.4161054159973,6.569450361917801,-7.3207297193905845,-3.6096341093241864
GUIDED_NOGPS,0.8928284645080566,34.63819174326322,216.6708446566439,43.13815038210887,6.029870463480345,-0.6783250364340042,215.52223199144169,35.572699988024254,50,1.095247940724813,-0.6978456568637861,76.67657105658773,0.5377422696057825,-0.1564685761720186,2.713300145736017,0.5109925323841299,216.84141970432185,44.0425680384051,8.662087817751972,-7.547404994185001,-3.896113006889598
GUIDED_NOGPS,0.9296729564666748,27.147774419251906,216.69587330578585,43.45848400218139,6.898616555692041,-0.7905742081560198,215.461262994962,35.43297576398619,50,1.0470899844343458,-0.5443270167057003,76.55095021737286,0.5286774780895657,-0.10879244678588276,3.162296832624079,0.510775345861077,216.84141970432185,44.0425680384051,8.662087817751972,-7.547404994185001,-4.18259190445501
GUIDED_NOGPS,0.962059736251831,30.883844222400576,216.745377738836,43.78145873766667,7.898820537641012,-0.9495081486022878,215.3962725747424,35.28403553929154,50,0.9690439741095488,-0.4673478499127475,76.38580990362028,0.5817994213041913,-0.13872000523228334,3.7980325944091513,0.5105252948655897,216.60076067647822,44.352479203667734,9.887198444938324,-12.069110406987662,-5.099324376664327
GUIDED_NOGPS,0.9918713569641113,33.554432,216.5561674325779,44.16153685320851,8.96987354542137,-1.1014997425720843,215.3272173909535,35.1257799909339,50,0.9149464212838148,-0.28313906206010525,76.27751725432974,0.6608530002282669,0.01875465388433952,4.405998970288337,0.5102575316136446,216.82772014250529,44.95396356956724,11.068543284746802,-5.056369933203882,-5.213915935690491
GUIDED_NOGPS,1.0292682647705078,26.745976278535903,216.50126513858976,44.50819210798923,10.075365290258208,-1.2511498516525947,215.25406173115655,34.95812727579492,50,0.8140499597298873,-0.11474413648759944,76.06659418257057,0.6122046264517393,-0.07294571730794058,5.004599406610379,0.5099811586774354,215.14750285618527,45.14938168990088,12.096909086101997,-3.3024955381852976,-5.500394833255903
GUIDED_NOGPS,1.0678379535675049,25.929820223052005,216.60231499374842,44.85995995718433,11.029385357379335,-1.4338877866686814,215.17677735303764,34.78101267023422,50,0.7247602307316329,0.008565697549430679,75.91829711531126,0.6332133830640654,-0.16448818561022394,5.735551146674726,0.5097426536606552,216.39266489222481,45.80140728438059,13.4321881533576,-14.321515527754116,-5.328507494716656
GUIDED_NOGPS,1.1058306694030762,26.355070187123772,216.38653511348394,45.44117449196652,12.504199945832244,-1.6228200236682695,215.09534332714176,34.59438820967931,50,0.6004201587078415,0.13482142419199902,75.71455940255895,0.7722420119460516,0.005621948603896282,6.491280094673078,0.5093739500135419,215.23079221608245,46.94864071231605,16.036160760016532,-5.2285596932389495,-5.213915935690491
GUIDED_NOGPS,1.1489896774291992,23.17282224960083,215.9795533888444,46.03080538131194,13.91057755624198,-1.7936711756918038,215.00974587960724,34.39822232821555,50,0.4396926274067775,0.3453177158497428,75.5188949734056,0.7686799324689484,0.09845536872298968,7.174684702767215,0.5090223556109396,213.9541469186363,47.300633650394865,16.919086496987006,-9.956466035815751,-4.640958140559668
GUIDED_NOGPS,1.1856260299682617,27.301512084307,215.88112222946867,46.711808112571916,15.39209621799804,-1.9774532740633926,214.91997823489982,34.19249949817608,50,0.323948935422829,0.422670675417195,75.39902515347187,0.9029770412305169,-0.044697545121488644,7.90981309625357,0.5086519759455005,216.05397042931594,48.358977225867086,18.476136593527105,-9.60009489628412,-3.9534087864026803
GUIDED_NOGPS,1.2195186614990234,29.50825946250176,215.6224313168105,47.40946283227888,16.888273202805692,-2.112561941102453,214.8260404585469,33.97721986973177,50,0.2562195256329396,0.4636092284766647,75.30380548625273,0.9827050123052183,0.055669838199277774,8.450247764409813,0.5082779316992986,214.77189240305637,48.63765528843568,19.577794010140266,-5.930565333750394,-3.495042550298022
GUIDED_NOGPS,1.251976490020752,30.818036870219473,215.13359516802888,47.97915201721716,18.244708484262134,-2.2143436500168034,214.72793929987182,33.752398910481126,50,0.16935076519012415,0.5088928490653204,75.20351098848026,0.9784298606287353,0.21956649038307277,8.857374600067214,0.5079388228789344,212.6900714862252,48.649853209072006,20.214364560639815,-8.3030897306068,-2.6929016371148693
GUIDED_NOGPS,1.2862107753753662,29.219232859153163,214.47867849933257,48.36063493796189,19.223961635033906,-2.2793535402036382,214.6256880347279,33.51806704504026,50,0.08400127494049354,0.6430548398372958,75.1571954757184,0.8999330204417546,0.3292315651011418,9.117414160814553,0.5076940095912416,211.58838679293493,48.85605531603968,20.93242651387538,-8.056918007082245,-1.5469860468532228
GUIDED_NOGPS,1.3204526901245117,29.210075840407825,214.07106458243135,48.76178057138224,20.199250064749037,-2.334077340278088,214.51930630823284,33.2742692946328,50,0.06293553746725278,0.6315345518633056,75.14714826744931,0.9391107968187518,0.1963332709400159,9.336309361112352,0.5074501874838128,211.88659152097537,49.30636181749665,21.795528645562666,-5.154682298602609,-1.088619810748564
GUIDED_NOGPS,1.3590950965881348,25.88373528177532,213.55595624042718,48.946575159991724,20.99788373008797,-2.357480383997918,214.4088199775029,33.02106491667987,50,-0.00362623013968175,0.7871505937051143,75.15962019287375,0.8397467347696214,0.25146558033329686,9.429921535991673,0.507250529067478,212.27179815619144,49.28295016891446,22.469304920221774,-23.804412382471554,0.34377467707849396
GUIDED_NOGPS,1.3995368480682373,24.732170128958835,212.85786893432376,49.03302234625515,21.691916240107716,-2.3437815084471465,214.294260954387,32.75852704438997,50,-0.03248642074520371,0.9572529331679911,75.23483423601394,0.8113955925218302,0.3593105233918469,9.375126033788586,0.5070770209399731,209.64609376725508,49.069891219752826,23.04795656023898,-9.044022522347575,1.604281826366305
GUIDED_NOGPS,1.4393229484558105,25.139226698153355,212.32347653524445,49.10434638012103,22.45434069186836,-2.2739364035568896,214.17566704820103,32.48674232634897,50,-0.08911559919505876,1.1485772039906263,75.371069189199,0.8264907193898324,0.30054516193396796,9.095745614227559,0.5068864148270329,209.67900772600174,49.00647337840135,24.02648681944304,-9.912588293885179,3.380450991271857
GUIDED_NOGPS,1.4729077816009521,29.77978472636392,211.59702694598423,49.1088874354436,23.247726377433764,-2.1629221770204974,214.05308180846208,32.20581056610999,50,-0.15479595223394432,1.2040611784961672,75.53398286128215,0.8367788492028607,0.4800979875519384,8.65168870808199,0.5066880684056415,210.2423737152342,48.87876059265254,24.899354941702384,-8.13515237454449,4.239887683968092
GUIDED_NOGPS,1.5030410289764404,33.19092498951483,211.0604257990771,48.95210811925378,24.064361749892406,-2.024339704579033,213.92655436762263,31.915844361783396,50,-0.22078331693993664,1.3592500133497327,75.66415943667343,0.7787072035454945,0.4151984913217115,8.097358818316131,0.5064839095625269,210.4790832277996,48.52246523654753,25.87870550785588,-9.02947432134782,5.156620156177409
GUIDED_NOGPS,1.5439772605895996,24.434784128445177,210.7840522667739,48.8000111327804,24.746241867419226,-1.8742134103724701,213.79613928380465,31.616968745626693,50,-0.3706978450318639,1.4751098719104243,75.9256190781015,0.7731014941626423,0.22213788542114488,7.4968536414898805,0.5063134395331452,210.4790832277996,48.52246523654753,25.87870550785588,-9.02947432134782,5.901465289847479
GUIDED_NOGPS,1.5865919589996338,23.470809107849337,210.62080532436977,48.4336469184294,25.559941517231785,-1.6484476086883637,213.66189638353407,31.309320823634494,50,-0.5152769948660195,1.589093562883478,76.27981219789086,0.6927901961818843,0.16602984892065206,6.593790434753455,0.506110014620692,210.28241125370195,47.23807014799786,27.11645480930178,-7.846526024917466,7.16197243913529
GUIDED_NOGPS,1.6182830333709717,31.561986891512593,210.3457419987043,47.86255833521547,26.344136169463205,-1.3887950308633445,213.52389060447473,30.993049415128425,50,-0.5962210864721647,1.6298364950562503,76.51124632772758,0.5777105542021193,0.24578296445202474,5.555180123453378,0.5059139659576342,209.6860849156517,46.15103046233168,27.94746008060017,-6.830987588125296,7.448451336700702
GUIDED_NOGPS,1.650496482849121,31.051667592078473,210.12632052597536,47.14629143242165,27.072919297775776,-1.1641485689118687,213.38219183816278,30.668314692347096,50,-0.7036394181881023,1.619604017905925,76.8141515570393,0.4969718657242743,0.21203027523894524,4.656594275647475,0.505731770175556,210.51642637435975,45.297426078683465,28.54327058326521,-7.647398565422762,7.906817572805361
GUIDED_NOGPS,1.6839091777801514,29.937502676621317,210.09558190804853,46.236120521556884,27.724285109689834,-0.9159878708806647,213.23687477274078,30.335287820036015,50,-0.7709752650074961,1.6366118292694913,77.10152493617842,0.394298105326337,0.0899539921326005,3.6639514835226588,0.5055689287225775,209.40018482384045,43.97161068222371,29.135534567426156,-8.158377069009603,8.651662706475431
GUIDED_NOGPS,1.7180352210998535,29.308661989546355,209.99510962937222,45.076526964807705,28.444543612354295,-0.6480687365067359,213.08801873569197,29.99415059503753,50,-0.8531962284624633,1.5727098600553215,77.4186506193421,0.25427404766792083,0.12784175288048555,2.5922749460269436,0.5053888640969114,208.87522949659143,42.724497452801664,29.47999802117817,-8.388259118156682,8.995437383553925
GUIDED_NOGPS,1.7488458156585693,32.4689307085517,209.8157589915189,43.91581485389271,28.987278748963128,-0.35826220155193095,212.9357075365745,29.645095085880783,50,-0.8985556748230767,1.5255802741217641,77.71919943339019,0.18468121310432367,0.1754401790082799,1.4330488062077238,0.5052531803127592,208.80756861240758,41.43450959342287,29.830130492345948,-6.437677866764702,9.453803619658583
GUIDED_NOGPS,1.7842304706573486,28.26674214701145,209.72619726049413,42.744492565547056,29.393641986045026,-0.08603323633400119,212.7800293097556,29.28832327237162,50,-0.9050982489960084,1.4395506264308686,78.08556395028049,0.20750485290284038,0.11754577250590957,0.34413294533600475,0.5051515895034887,209.76258937960162,40.29441902060342,29.979276266009656,-12.6843410918042,9.797578296737077
GUIDED_NOGPS,1.8179774284362793,29.639629708147833,209.8001015572903,41.5263966788995,29.732636911472365,0.23487700754922317,212.6210763571458,28.92404668518255,50,-0.9324305316202839,1.3907943882577902,78.2685515483343,0.13462849134318966,0.004539284670968147,-0.9395080301968927,0.5050668407721319,211.07031760216907,39.20694664544568,30.23824521040191,-5.558508281656344,10.026761414789407
GUIDED_NOGPS,1.853315830230713,28.30088256727214,209.91808694117134,40.30664266215569,29.91671075634588,0.5395045110839287,212.45894499093316,28.552486045442674,50,-0.9941950785110629,1.2957999038378414,78.79776143541606,0.12531766048401966,-0.028761854324957564,-2.158018044335715,0.5050208223109135,211.22629432475006,37.87284059850465,30.055903791793735,-4.652221270238925,9.912169855763242
GUIDED_NOGPS,1.889664649963379,27.518249037193527,209.9400306606582,38.94591799919937,29.95724074897789,0.8545710923946781,212.2937353763175,28.173870904327625,50,-1.0124274147267658,1.139797422699398,79.14106723366841,0.03637305845223704,0.01714409651132931,-3.4182843695787124,0.5050106898127555,209.86163467154654,35.92087413802006,29.682647984338214,-18.088857169582397,9.625690958197831
GUIDED_NOGPS,1.9198193550109863,33.17123786023853,209.605136934895,37.53759512632406,29.843001521710846,1.1792047429922032,212.12555137424457,27.788439282649506,50,-0.9813527220458522,1.0289032183870115,79.50006197644429,-0.10570672131295356,0.23854898626617033,-4.716818971968813,0.5050392496195723,207.83727656825403,34.392895229046296,29.25893435601073,0.45029826723514077,9.281916281119337
GUIDED_NOGPS,1.9594051837921143,25.26704377737215,209.40450843470907,36.09959805682646,29.650737640092597,1.438266709224562,211.95450038414032,27.39643731044682,50,-0.9486290722889096,0.887825767802104,79.8443991332613,-0.03232222275671737,0.14594834329286763,-5.753066836898248,0.5050873155899769,207.79515682235296,33.10443367311542,29.017956857918428,1.8120501908981765,8.708958485988513
GUIDED_NOGPS,1.9927163124084473,30.027304682745932,209.51419849186078,34.650650126546886,29.39716799828679,1.7621535457013162,211.78069318664507,26.998118866574416,50,-0.8719069980851843,0.7998056535766785,80.09953401951796,-0.15569972560855372,-0.0529497207406391,-7.048614182805265,0.5051507080004283,209.75274995380502,31.962206994047794,28.970397001372874,4.0050212498620255,7.906817572805361
GUIDED_NOGPS,2.02264666557312,33.42101530689487,209.9956530646981,33.2217961995667,29.177944696485334,1.9973137277607498,211.60424378634778,26.593745218293435,50,-0.8294704991633662,0.7260408912010102,80.26821920144977,-0.24293733558660846,-0.3578384069636146,-7.989254911042999,0.5052055138258786,212.659205195106,30.72857096360371,28.959787282786436,-14.380061324722377,7.39115555718762
GUIDED_NOGPS,2.0565590858459473,29.49373461781872,210.08517640452288,31.872087781150118,28.867608301261736,2.1679794154611023,211.42526925452012,26.18358466086121,50,-0.7541178245273757,0.5613516900987802,80.5458868817783,-0.17132704823056366,-0.08688621031249032,-8.67191766184441,0.5052830979246846,210.4787760982,29.172332045937125,28.130966008220238,-12.438132581279433,6.016056848873644
GUIDED_NOGPS,2.093195676803589,27.31822711433875,209.85980456749596,30.57715376379798,28.548553780537283,2.33253018162896,211.2438895718509,25.76791215712126,50,-0.6608232567979666,0.3314391983431,80.74899621712697,-0.1481842196334091,0.09742035936724168,-9.33012072651584,0.5053628615548656,209.2673429059536,27.91822514228563,27.663661752388464,-12.584645797301775,4.18259190445501
GUIDED_NOGPS,2.1322989463806152,25.57128225137785,210.04917560457937,29.458919127639412,28.26765647283824,2.4807838998789165,211.06022747118016,25.347008977093182,50,-0.5977030774394987,0.12553071273434208,80.91170498353502,-0.07677218292974769,-0.13590994450206428,-9.923135599515666,0.5054330858817905,212.74126262141746,27.51326049232257,27.61347031942321,-8.42913409866864,3.0939720937064457
GUIDED_NOGPS,2.1660678386688232,29.61995423858083,209.90830024907132,28.153015044302492,27.711999475742413,2.602300793841994,210.8744082802333,24.921162337562606,50,-0.5969146174771853,0.03303372967309065,80.98718540405282,-0.2449945342620472,0.025988442731882576,-10.409203175367976,0.5055720001310644,208.73463182748222,25.4326865773632,26.192112015893734,-10.163940372911213,2.0053522829578814
GUIDED_NOGPS,2.19742488861084,31.90021447802741,210.02046965647483,27.09383816705439,27.158464422363874,2.6542973127160754,210.68655976435554,24.490665041671125,50,-0.5200641037005522,-0.09611628963027061,81.00599574502704,-0.17547041992411055,-0.1555603795307499,-10.617189250864302,0.505710383894409,208.73463182748222,25.4326865773632,26.192112015893734,-10.163940372911213,0.8594366926962349
GUIDED_NOGPS,2.2339470386505127,27.38725938308042,210.41418764940934,26.260021190175213,26.712187433673233,2.6623169414017673,210.49681196924584,24.055815118506246,50,-0.40308729576715197,-0.2544203310755966,81.03169774687379,-0.04611802525486239,-0.31856488673521643,-10.64926776560707,0.5058219531415817,210.94490076582903,25.003247161541235,25.89958106476704,-16.13865096046733,-0.2291831180523293
GUIDED_NOGPS,2.278320074081421,22.543961300725613,210.56399887658048,25.6849695578969,26.24549072142757,2.6486946466646373,210.3052970636914,23.616915462691324,50,-0.27051673907178947,-0.3864328933322808,80.99261540444299,0.0693225756471614,-0.19109300779769134,-10.594778586658549,0.5059386273196431,210.9512397711741,25.042966980894054,25.330178191160144,0.8616782612703275,-1.604281826366305
GUIDED_NOGPS,2.301891803741455,42.428850336351225,210.32606463728317,25.148729024046794,25.594109774236557,2.6074414597568416,210.11214918230164,23.174273473975482,50,-0.18119983605920045,-0.4372512083044682,80.96384664765888,0.07698523715266667,0.021849528697924083,-10.429765839027366,0.5061014725564409,210.75573128072756,24.832057823072066,24.35656558346814,-0.43866699702577705,-2.3491269600363753
GUIDED_NOGPS,2.343567132949829,24.00009155308362,210.20293571803785,25.055903849605194,25.103269629041897,2.5275827383838743,209.91750426824254,22.728200696823567,50,0.020309554156819693,-0.6433437354948461,80.83372471378098,0.27428800428780126,-0.04428064079099682,-10.110330953535497,0.5062241825927395,209.49374474423726,24.96856070515518,23.73791128992046,-0.5069025054511656,-3.4377467707849396
GUIDED_NOGPS,2.371079921722412,36.35839112343967,210.316517110327,25.047029732422867,24.579544785613518,2.4116982706619865,209.72149991597087,22.279012460006083,50,0.18829726972070315,-0.8659996848659167,80.6897238355096,0.411918337333566,-0.2501927705055683,-9.646793082647946,0.5063551138035967,210.17599404426682,25.38831599145159,23.57348779875183,-1.0083762048246285,-4.297183463481175
GUIDED_NOGPS,2.399918794631958,34.68459483820818,209.99585853818317,25.124043498404937,24.11432613241048,2.290502090899146,209.52427521396828,21.827027516189126,50,0.29592048043131475,-0.9421442345588056,80.5779546199315,0.470842221834184,0.06626498243433107,-9.162008363596584,0.5064714184668974,210.17599404426682,25.38831599145159,23.57348779875183,-1.0083762048246285,-4.92743703812508
GUIDED_NOGPS,2.437197208404541,26.830838514879353,210.10531561613274,25.29429806945591,23.598722890825865,2.1466265470170707,209.32597058747567,21.372567681524348,50,0.45720597949063063,-1.147501129031232,80.35755124560437,0.4710443398512857,-0.19988857979113023,-8.586506188068283,0.5066003192772935,209.61028845107884,25.894239836148913,22.752161983237063,3.5940083020844327,-5.7868737308213145
GUIDED_NOGPS,2.472919225692749,28.000480660106547,210.43377918789267,25.821835971104314,23.10105698717205,1.9571992067873025,209.12672764122726,20.91595747523882,50,0.5475077504248106,-1.2048824020221554,80.19110636572033,0.6927552427547213,-0.36295525919015936,-7.82879682714921,0.506724735753207,211.3623404015616,27.46974733131409,21.86823606519905,1.5696877211811824,-6.302535746439056
GUIDED_NOGPS,2.503019332885742,33.230106163840915,210.3253253704097,26.439158309525027,22.62555083756806,1.7526862703392736,208.92668900218496,20.457523759225058,50,0.6333362277003082,-1.2597445091481076,80.0265261274797,0.8446230964327649,-0.12542010889853447,-7.010745081357094,0.506843612290608,210.0772702259654,28.055172397258723,21.360380541900515,2.180167943404257,-6.932789321082962
GUIDED_NOGPS,2.5392370223999023,27.61681646090535,210.31572517147245,27.191221508272655,22.067004355099627,1.5318203081503121,208.72599816227245,19.99759537763089,50,0.7589038661448506,-1.3432797504097735,79.71485776546285,0.8698020663686801,-0.18106675866362965,-6.1272812326012485,0.5069832489112251,210.8744381796762,29.148631985189713,20.780755386409666,2.9015910845324413,-8.193296470370772
GUIDED_NOGPS,2.58083176612854,24.052252799871546,210.33056353384103,27.94328470702028,21.508457872631194,1.2447578257896679,208.5247993211094,19.53650279644947,50,0.8997148859912748,-1.353891516502446,79.3418952858343,0.8524269793530006,-0.19087684397856333,-4.9790313031586715,0.5071228855318421,210.8744381796762,29.148631985189713,20.780755386409666,2.9015910845324413,-9.396507840145501
GUIDED_NOGPS,2.61614990234375,28.319800141791298,210.7368880699855,29.055226930862396,21.035233988010923,0.8901069401911343,208.32323722874585,19.07457774310913,50,0.9805008693903047,-1.4348528436640748,78.99641065723671,1.1615520808440702,-0.46169519608735676,-3.5604277607645374,0.5072411915029973,212.74434103339314,31.45395095535952,20.386042560135703,-0.28326164341326887,-10.141352973815572
GUIDED_NOGPS,2.6484532356262207,30.963184975749478,210.72995195897516,30.051785631127423,20.633834352327796,0.5541044429416847,208.12145702839615,18.61215284606338,50,1.047824763378651,-1.4691835088666747,78.59620938319816,1.2365054331358585,-0.24905562842996382,-2.216417771766739,0.507341541411918,210.1205051561842,32.45254083263921,19.86123788678341,0.9388955633796598,-11.000789666511807
GUIDED_NOGPS,2.6839523315429688,28.17749054436256,211.05008038791354,31.256250726777115,20.376188841416074,0.21614095801618188,207.91960409917348,18.149561274380833,50,1.0259639958880846,-1.399427960812098,78.19777029796546,1.319937791365755,-0.445205709307427,-0.8645638320647275,0.507405952789646,212.73702147577396,34.07749787550718,20.0721529873419,-3.3751074157293175,-11.860226359208042
GUIDED_NOGPS,2.7167246341705322,30.51845599738058,211.04394871882286,32.46518522421511,20.13737090794459,-0.18648945343477796,207.71782389882378,17.68713637733508,50,1.0716720487006333,-1.4194582376051008,77.83357778123121,1.4587347741222654,-0.28322157654836044,0.7459578137391119,0.5074656572730138,209.56123509835334,35.1933044723797,19.586665719052252,3.668905819741397,-12.605071492878112
GUIDED_NOGPS,2.7518198490142822,28.50165805925523,211.21622084404765,34.03041152673923,19.96925121056388,-0.5615883472313867,207.51626180646022,17.225211323994735,50,1.075986913987083,-1.335886390798352,77.38103676758286,1.6520920194570472,-0.3964958857442049,2.246353388925547,0.5075076871973591,212.74051740335992,36.974763497810336,19.94015689950612,-2.7666043633380184,-12.662367272391194
GUIDED_NOGPS,2.789691209793091,26.463988491460082,211.44965633395654,35.4388102474057,19.878372565898516,-0.9796523283728624,207.3150629652972,16.764118742813324,50,1.1628006460503548,-1.2423697885600646,76.95255168019126,1.6039627861056123,-0.43813933971108265,3.9186093134914497,0.5075304068585254,211.9447541452363,38.49594455869187,19.931649336808892,-3.452890377696008,-12.83425461093044
GUIDED_NOGPS,2.821706771850586,31.1967094840346,211.58344582965154,36.64749099261623,19.892454855903612,-1.421279769503351,207.11437212538468,16.304190361219163,50,1.1725513814207826,-1.1845977006825696,76.74662830690455,1.6869813371471638,-0.42688442844265206,5.685119078013404,0.507526886286024,211.9447541452363,38.49594455869187,19.931649336808892,-3.452890377696008,-12.83425461093044
GUIDED_NOGPS,2.855846881866455,29.29883483751991,211.69321379136454,38.184371731601665,19.923785959113616,-1.8092792237704094,206.91433348634237,15.845756645205384,50,1.2316872659764588,-0.9890583493683902,76.15678000037143,1.8906444345171107,-0.4204423713611018,7.237116895081638,0.5075190535102216,211.75258187338014,41.76190157043434,20.228808503391924,-10.287569824631106,-12.261296815799618
GUIDED_NOGPS,2.89631986618042,24.712352334659005,211.34756394914803,39.81677138735067,20.044418081223224,-2.1883223339435083,206.71509054009397,15.389146438919859,50,1.1842373014821457,-0.745761141438718,75.70914989273629,1.8635815333759587,-0.1592910296736951,8.753289335774033,0.5074888954796942,209.97914229566092,43.35530275112476,20.189826329600294,-0.3850277830593001,-11.459155902616464
GUIDED_NOGPS,2.9297187328338623,29.94797683734015,211.37714247445854,41.789505818346164,20.311684172039705,-2.632822663255942,206.51678591360135,14.934686604255077,50,1.1312760146578669,-0.5245349427600016,75.38702451110015,2.301156028206028,-0.38002498150948105,10.531290653023769,0.5074220789569901,210.3571333586683,46.83843565278777,21.276487353588518,-5.659666024258797,-10.943493886998723
GUIDED_NOGPS,2.961754083633423,31.223649046013207,210.95164340664937,43.74921259168705,20.664621950842612,-2.9647243231330282,206.31956121159877,14.482701660438117,50,1.0807115906237335,-0.237740982441999,75.02156840936945,2.4421335241245847,-0.0898276149017593,11.858897292532113,0.5073338445122894,209.33302893330045,48.294478425396264,21.69633823082343,-6.510565776323062,-9.969465635276325
GUIDED_NOGPS,3.003797769546509,23.796794417179655,210.92311763601776,45.70891936502793,21.01755972964552,-3.2450250488418333,206.1235568593271,14.033513423620647,50,1.0026991976362576,0.08439760600523279,74.6852772153947,2.25303972487403,-0.32118821559694616,12.980100195367333,0.5072456100675886,209.33302893330045,48.294478425396264,21.69633823082343,-6.510565776323062,-8.537071147449266
GUIDED_NOGPS,3.040494203567505,27.25148949717694,210.5536019212484,47.62123263736255,21.692922031021425,-3.588696507287582,205.928911945268,13.587440646468735,50,0.9333928412413152,0.44607869419818075,74.43659002771454,2.4605738719217705,-0.13801878320822722,14.354786029150327,0.5070767694922447,209.78439168520512,51.32346793210748,23.605620010271448,-12.483596348123484,-6.990085100596044
GUIDED_NOGPS,3.0789544582366943,26.00328582322271,209.95466335932917,49.36733750097906,22.548815106036027,-3.829166839000756,205.73576406387824,13.14479865775288,50,0.8458443835945909,0.7228527936842011,74.2426536364212,2.4327550578270305,-0.002857271206605866,15.0,0.506862796223491,207.15324564988234,52.085827069207305,24.469291704673314,-11.338867832534703,-5.500394833255903
GUIDED_NOGPS,3.1177618503570557,25.77161149991705,209.25830123729492,50.56450881808424,23.40137407903226,-4.025892481993914,205.5442491583238,12.705899001937965,50,0.7335084757588027,1.0655152734941014,74.09921966385093,2.267345941519954,0.07145602139696267,15.0,0.506649656480242,206.37385716896225,52.824292238313674,25.539282218569674,-16.19819355158033,-3.666929888837269
GUIDED_NOGPS,3.1534030437469482,28.072444950137207,208.3894214172283,51.60487187357309,24.382036616829836,-4.158330953671964,205.3545013632141,12.271049078773075,50,0.5993952034455164,1.394694212830456,74.04136113139175,2.3209035307871795,0.22796541713855728,15.0,0.5064044908457925,204.8015433128474,53.4962937028405,26.59965091981133,-13.890509745527083,-1.776169164905552
GUIDED_NOGPS,3.194344997406006,24.429233744146494,207.74165593836946,52.773404615551655,25.59366234879986,-4.223651359649267,205.16665284733634,11.840551782881604,50,0.4278170628742409,1.7030362727215116,74.0329463383343,2.3483477518529012,0.09237239684350243,15.0,0.5061015844128001,204.7970184647901,54.137142135289125,27.754466890673566,-15.278459391380437,-0.5156620156177409
GUIDED_NOGPS,3.226656913757324,30.951988783115638,206.9474256790297,53.426798596986615,26.633014871181683,-4.249716119037444,204.98083365638948,11.414705143351014,50,0.2952203060001091,1.9507058689370498,74.07631803956387,2.301433309264942,0.2725170361142107,15.0,0.5058417462822046,204.00329128395015,54.59043783928224,28.80238262218055,-10.603528995214077,1.0313240312354819
GUIDED_NOGPS,3.258452892303467,31.46042604260426,205.93362299167393,53.825035476096694,27.838673969654497,-4.202753125455854,204.7971715557187,10.993801963322923,50,0.14179728849040346,2.211617387684244,74.16892174433092,2.220484190415635,0.46456803504093575,15.0,0.5055403315075864,201.22260743445437,54.07701146475772,30.497587197037376,-12.867781248255298,2.635605857601787
GUIDED_NOGPS,3.2928543090820312,29.07521992000388,204.91982030431816,54.07557932138551,28.830334965348037,-4.105875208409906,204.61579187304952,10.578129459582996,50,0.004579188271243978,2.4835878364713357,74.30706232029442,2.145214429279473,0.46369814744140675,15.0,0.505292416258663,201.22260743445437,54.07701146475772,30.497587197037376,-12.867781248255298,4.354479242994256
GUIDED_NOGPS,3.3299641609191895,26.948926682900815,203.72629285470066,54.115791434227766,29.778195346121304,-3.957252705684547,204.43681734122185,10.16796890215079,50,-0.09000701892302476,2.723297594261165,74.48191516304675,2.0519398027602676,0.5777351295981941,15.0,0.5050554511634697,200.23617208826494,53.697354267051765,31.33895282367767,-13.108818074870285,6.187944187412891
GUIDED_NOGPS,3.3659346103668213,27.809076744571524,203.04513419602182,53.92775516135415,31.01529804096328,-3.719402434428552,204.26036794092454,9.76359525386978,50,-0.2876742809885673,3.1454715868596526,74.92455240239859,1.9669402551614588,0.33835456915405,14.877609737714208,0.5047461754897592,201.70397638045162,53.19696077092107,33.939980364883446,-10.647717660146085,8.995437383553925
GUIDED_NOGPS,3.3979666233062744,31.224578826297023,202.46139909745798,53.64905974768192,32.042817589503855,-3.417205510357816,204.0865607434293,9.365276809997383,50,-0.3244967912994581,3.2783793841452846,75.25787246408439,1.9384934675583225,0.3339765879630344,13.668822041431264,0.504489295602624,201.70397638045162,53.19696077092107,33.939980364883446,-10.647717660146085,11.058085446024888
GUIDED_NOGPS,3.435411214828491,26.712079429877914,201.9554706962663,53.239934737165996,32.922359664595746,-3.0576278759649442,203.91550975332507,8.97327483779469,50,-0.29487191299158555,3.3874686042477897,75.81309171152556,1.8746540954843403,0.2734494713927531,12.230511503859777,0.5042694100838511,200.75411610331398,52.031386412178115,34.895297572496816,-9.967625460103633,13.521803965087429
GUIDED_NOGPS,3.4689340591430664,29.835496973275195,201.64430612717416,52.39708475404799,34.19011230913742,-2.5895373019673764,203.74732575125213,8.587843216116582,50,-0.21355831081938542,3.3848381276436883,76.28694974557352,1.6467710827106272,0.1881595537353194,10.358149207869506,0.5039524719227156,202.30770191205318,49.86276154916774,36.836350419745756,-9.846701392550244,15.584452027558392
GUIDED_NOGPS,3.5040924549102783,28.450232659096766,201.43235745568705,51.63016621047118,35.28959182835104,-2.0925818762020927,203.58211613663647,8.209228075001533,50,-0.128535235576994,3.2994799729255697,76.96510556788576,1.6802708404375026,0.13095189833551965,8.37032750480837,0.5036776020429122,202.30770191205318,49.86276154916774,36.836350419745756,-9.846701392550244,17.647100090029355
GUIDED_NOGPS,3.5441970825195312,24.939671062802507,201.57145201112894,50.26395137862089,35.926682772508556,-1.5020743056075574,203.41998477042384,7.837667435261665,50,-0.07406162214051265,3.2009510790535507,77.64090497493433,1.421214951099899,-0.061041235814794856,6.00829722243023,0.5035183293068729,202.33536387798947,46.36588661166964,37.12543508567103,-10.187130464024321,19.48056503444799
GUIDED_NOGPS,3.577556848526001,29.995094148019422,201.63845043655937,48.50781146292358,36.48183054950117,-0.7824911685098069,203.26103181781403,7.473390848072597,50,-0.05804490857811209,3.066541067037339,78.43764654161632,1.0922041293213915,-0.058331706660259816,3.1299646740392277,0.5033795423626247,201.75859483789793,44.41626119243448,36.715719249846494,-3.2726364649880253,21.25673419935354
GUIDED_NOGPS,3.614467144012451,27.09393692750927,201.67776302885986,46.44790811305559,36.67726512306225,-0.11476712016562762,203.1053535909951,7.116619034563399,50,-0.06869512116529249,2.86120295558513,79.3490464938953,0.9721939475685697,-0.03548051358434387,0.4590684806625105,0.5033306837192344,200.550672826669,41.731869662838136,35.872470440302216,2.770122835624562,22.803720246206765
GUIDED_NOGPS,3.6468231678009033,30.912979709760393,201.54156072064154,44.30136382182535,36.31738018227627,0.6614207349040329,202.95304239187766,6.767563525406672,50,-0.07052956056596982,2.6839697919070544,80.06637345109755,0.7473739007289282,0.05845061217043162,-2.6456829396161314,0.5034206549544309,200.6143579147051,39.130040093016554,35.03692571581586,2.457127960354512,23.605861159389917
GUIDED_NOGPS,3.684844493865967,26.30762765550419,201.80440036991388,41.598837572041845,35.926560850457975,1.3861057803869834,202.80418635482886,6.426426300408195,50,-0.03775895325848332,2.403853061874253,81.01683525523984,0.5423811834240907,-0.17001442596151786,-5.544423121547934,0.5035183597873855,203.80669357463037,36.35013030025024,34.882253760654294,-22.628816206020545,24.751776749651565
GUIDED_NOGPS,3.7156262397766113,32.49433675761942,202.1911487720225,38.98685262820853,35.2812933318673,2.2393499321910935,202.65886928940685,6.093399428097101,50,-0.026066483152428075,2.1620891246915432,81.91255992337366,0.27679701308965643,-0.32209362844855566,-8.957399728764374,0.5036796766670332,203.84810332018276,33.30596189250308,33.89909749271765,-23.62906772125139,25.496621883321634
GUIDED_NOGPS,3.7461307048797607,32.792594445834375,202.38369894803867,36.76479276822225,34.71796898044153,2.9831450248851357,202.5171705230949,5.768664705315786,50,0.01863950620368546,1.9028787499345048,82.71294198088326,0.3836430341598771,-0.21476123369671002,-11.932580099540543,0.5038205077548896,203.84810332018276,33.30596189250308,33.89909749271765,-23.62906772125139,26.241467016991706
GUIDED_NOGPS,3.77982497215271,29.878641952442692,202.57624912405487,35.07961121415524,34.32329439092462,3.7148712690239627,202.37916474403556,5.452393296809689,50,0.06261215735852177,1.5859151770418949,83.52476460525264,0.6632536905495532,-0.21242419061783055,-14.85948507609585,0.5039191764022688,203.84810332018276,33.30596189250308,33.89909749271765,-23.62906772125139,26.413354355530952
GUIDED_NOGPS,3.811399221420288,31.492788118603727,202.76534155432904,33.91479557405255,34.09572874630498,4.497722473905748,202.24492184376498,5.144745374817518,50,0.06239536555343998,1.3127171084731994,84.24003567551472,0.8710312390583383,-0.2282764285909014,-15.0,0.5039760678134237,203.84810332018276,33.30596189250308,33.89909749271765,-23.62906772125139,26.184171237478623
GUIDED_NOGPS,3.851360559463501,25.030459276234126,203.02653011461467,33.305961892503106,33.89909749271765,5.278516303066461,202.114506759947,4.845869758660811,50,0.1809685434423456,0.7355493682993143,85.42915111944643,1.1616356669688248,-0.24398897730272245,-15.0,0.5040252256268206,203.84810332018276,33.30596189250308,33.89909749271765,-23.62906772125139,25.89769233991321
GUIDED_NOGPS,3.8852224349975586,29.5379761544258,203.77900761775717,30.018814565602735,32.762463779653636,6.206720733165335,201.98797931910752,4.5559035543341935,50,0.3566305101472673,0.23178150898903066,86.32100990051,-0.24486198713052776,-0.6099069036757747,-15.0,0.5043093840550866,206.570492851809,16.87022525800124,28.215928927397577,-19.847845829091355,24.980959867703895
GUIDED_NOGPS,3.9165217876434326,31.95854985446732,204.52352448489515,26.731667238702368,31.62583006658962,7.000096632555451,201.86539407936857,4.274971794095222,50,0.5772691257943775,-0.21924205540525418,87.06511119925871,-0.4895121214832332,-0.6904214964064825,-15.0,0.5045935424833526,206.570492851809,16.87022525800124,28.215928927397577,-19.847845829091355,24.522593631599236
GUIDED_NOGPS,3.9526689052581787,27.66764294572416,204.88194597482402,22.049693739631877,29.785957489210062,7.694799287402668,201.74680017318263,4.003187076054218,50,0.8908642948482606,-0.8038311963187549,87.97341024565452,-1.0726328430424033,-0.4230125205816596,-15.0,0.5050535106276974,206.6740654940614,9.896094397150627,24.69973460581985,-17.736239738588367,23.20479070279834
GUIDED_NOGPS,3.987346649169922,28.845863937718356,205.49274646682744,16.706290615464404,27.621352844633197,8.483427661163743,201.63224115006673,3.740649203764349,50,1.1737109127540981,-1.4539360720399732,88.75895030209767,-1.6942257966162293,-0.6187484995027364,-15.0,0.5055946617888417,208.7345072562101,6.588946271665707,23.076074269833327,-15.910842558343958,22.001579333023614
GUIDED_NOGPS,4.018070936203003,32.55688892338741,205.79790619447198,10.682080138890976,24.992944385943474,9.17943726143972,201.52175481933676,3.48744482581138,50,1.3351351767113564,-1.9763267622874139,89.27554482978242,-2.5434706482403984,-0.4863745855999334,-15.0,0.5062517639035141,206.28938114133913,3.184909509635949,20.75705519926904,-20.110614475304985,20.91295952227505
GUIDED_NOGPS,4.050171613693237,31.15939617259004,206.55927552700297,7.296789666308234,23.11046471102266,9.7602003879929,201.41537309284172,3.2436470754038993,50,1.4374875891364074,-2.35061942125682,89.70719912494889,-1.2490416790816825,-0.8021227317590554,-15.0,0.5067223838222443,209.9390579804308,-0.05622710491246623,18.803530552793514,-16.84825520401742,19.7670439320134
GUIDED_NOGPS,4.087078094482422,27.10076437483443,206.65040594776423,3.3261567321852326,20.694488910567202,10.314242066937705,201.31312182769784,3.009315209963077,50,1.4335198895588646,-3.2857197030689327,90.7007047812406,-1.4514811027247476,-0.3764602238823267,-15.0,0.5073263777723582,204.57714668627264,-2.982939412613769,16.136049925120297,-17.0923960252822,17.131438074411616
GUIDED_NOGPS,4.1219165325164795,28.709035777599812,206.7415363685255,0.7503499702323534,18.98175197442729,10.912213893844726,201.21502066902272,2.7844942507124273,50,1.2854420286832229,-3.745720563951421,91.24125961253375,-1.0070390372790368,-0.39044759628156844,-15.0,0.5077545620063931,204.57714668627264,-2.982939412613769,16.136049925120297,-17.0923960252822,15.2406773504799
GUIDED_NOGPS,4.159150838851929,26.863833166807574,206.94779487953974,-2.2907341167886908,16.718124234087536,11.409548976996332,201.12108289266985,2.5692146222681487,50,1.1127567037753177,-4.048331241355189,91.65975896335877,-1.2540654772964563,-0.4586055495753988,-15.0,0.5083204689414781,208.22056093992305,-8.616474163439515,11.757935568134574,-15.462115228023094,13.2926208470351
GUIDED_NOGPS,4.1960248947143555,27.127231334402648,207.26527869544046,-5.206678342092623,14.456591167769863,11.861419509322529,201.0313152479624,2.363491792228629,50,1.0014498066266742,-4.307773842544008,92.10454088211,-1.328843041310007,-0.5400188641156662,-15.0,0.5088858522080575,209.11036337901456,-11.39481161688371,9.449389867680686,-14.27309041625611,10.943493886998723
GUIDED_NOGPS,4.227727174758911,31.55011621696843,207.55997147174014,-7.85122241452536,12.182241810478223,12.243326797404077,200.94571780042787,2.1673259107648875,50,0.9508449350660497,-4.403898082941359,92.44768275582227,-1.47973587372752,-0.5772557374119996,-15.0,0.5094544395473805,209.03160770445876,-13.27894746707615,7.431783766335311,21.377662796805694,8.938141604040842
GUIDED_NOGPS,4.266148328781128,26.03395216902842,208.0996078597041,-10.876707415887344,9.98615545029583,12.48300082331615,200.864283774532,1.9807014502099918,50,0.9910936390193482,-4.40230707575157,92.71392352966937,-1.5470915576851696,-0.6938740416341016,-15.0,0.510003461137426,213.05159835992154,-18.11036441942369,5.155618124208325,-4.639680500845557,6.589014644004467
GUIDED_NOGPS,4.299956560134888,29.582976562444898,208.9448850120269,-13.902192417249328,7.790069090113436,12.74422725825155,200.78699939641308,1.8035868446492742,50,1.071217414234004,-4.318369600380814,92.85535625681283,-1.8186819212600145,-0.9597563142277808,-15.0,0.5105524827274717,213.05159835992154,-18.11036441942369,5.155618124208325,-4.639680500845557,4.870141258611998
GUIDED_NOGPS,4.337111711502075,26.92367044323908,209.5564437014366,-16.16980509834796,6.372853409150658,12.90811377035199,200.71384373661613,1.6359341295102894,50,1.2431984826054576,-4.1887087042718765,92.98798487011614,-1.4859777962874223,-0.8281220379353927,-15.0,0.5109067866477124,214.83152749570831,-19.954537568932697,4.671857163320687,1.6546603710759484,3.4377467707849396
GUIDED_NOGPS,4.367431879043579,32.98835188170986,210.9058350870457,-18.16949442578677,5.409775093824869,12.9962230028346,200.64478855282724,1.477678581152631,50,1.4140592932313232,-3.988381817236341,93.05125974258713,-1.5915591737491415,-1.441542116862566,-15.0,0.5111475562265437,215.3722777711454,-21.39325825407775,4.633998291051742,4.221413341743045,0.17188733853924698
GUIDED_NOGPS,4.404068470001221,27.298313667041985,212.24750247625352,-20.02856495141071,4.910575032670943,12.967300694352144,200.5797981326076,1.3287383564579471,50,1.6561106319677026,-3.7473154131226187,92.99246547421167,-1.453033429895862,-1.3606965025695668,-15.0,0.5112723562418323,215.31048579993532,-22.57430009519586,4.935783460565681,4.140598009713443,-2.291831180523293
GUIDED_NOGPS,4.442333936691284,26.140715857177582,212.8145428139833,-21.133271852087585,5.122394485501422,12.867874429442688,200.51882913612792,1.1890141324198993,50,1.7257166629124794,-3.464553265446907,92.83444221757425,-1.15573136451744,-0.9588494253118098,-15.0,0.5112194013786246,212.75688364176122,-23.633898922808054,6.214715388360718,10.266965351222524,-5.901465289847479
GUIDED_NOGPS,4.478346824645996,27.77942325778549,213.12784356560653,-22.360241616657476,5.526962836586826,12.683549780954781,200.46183043890244,1.0583887457339785,50,1.8141930124301207,-3.3003000225127943,92.60186744614614,-1.282586095959731,-0.8540026760508843,-15.0,0.5111182592908533,211.6167693920005,-24.245213242273145,7.178459879635338,2.7699134590309455,-7.906817572805361
GUIDED_NOGPS,4.512320518493652,29.439290251486245,213.41203864515813,-23.22931684155926,6.291420790382565,12.408014648067422,200.4087429745232,0.9367268323875493,50,1.7339810850864892,-3.0701059988972625,92.21896704127523,-1.1783025477131244,-0.8645056472628343,-15.0,0.5109271448024043,211.3051683408716,-24.299913693441624,8.494146932299385,-0.07806760570912274,-10.59971920992023
GUIDED_NOGPS,4.552729606628418,24.749536791172478,213.1825210378589,-23.761329257272486,7.292112018036593,12.037416234017606,200.35949957739447,0.8238744672496949,50,1.7050950411477417,-2.883761789753213,91.74560761103666,-1.0121332811823458,-0.5700442494618103,-15.0,0.5106769719954909,211.21545750152765,-24.053320332643864,9.637454429321878,4.7132095180531905,-13.750987083139758
GUIDED_NOGPS,4.594189643859863,24.125022288432447,213.1463167172625,-24.017920394215487,8.411150099010353,11.520135027262722,200.31402482546656,0.7196588036613178,50,1.7167449959942562,-2.617765622055767,91.10742888593653,-0.9140353620992488,-0.6656250575668566,-15.0,0.5103972124752474,212.7619637951504,-23.85725577991088,10.53097386543448,2.172005744068713,-16.73036761782004
GUIDED_NOGPS,4.632145166397095,26.352089668518005,213.0582135485605,-23.725833003379087,9.549051968314034,10.890929750620405,200.27223488297045,0.6238877130249847,50,1.5839793520207253,-2.2426428816587927,90.36364177588965,-0.6783551053039498,-0.6358907676758456,-15.0,0.5101127370079215,214.12670214609236,-22.173461968626057,11.904224734879115,3.7394096834966035,-19.136790357369495
GUIDED_NOGPS,4.669542074203491,26.747852482956972,212.81325939527002,-23.004554380476826,10.705747849747306,10.199924623350583,200.23403734315175,0.5363494243947713,50,1.5864301092722903,-1.9435664002636823,89.73077693796377,-0.4584947424326563,-0.5385347747625332,-15.0,0.5098235630375632,213.41264454482175,-20.63882012776183,12.961939286801705,7.377695843471415,-21.543213096918954
GUIDED_NOGPS,4.698632478713989,34.382359209771295,212.5760292383808,-22.272335667340865,11.59930632064777,9.492120027390419,200.19933107100493,0.45681216406633496,50,1.4576451849244074,-1.608307845514076,89.06923896590219,-0.345063213699967,-0.5064689116181833,-15.0,0.5096001734198381,213.41264454482175,-20.63882012776183,12.961939286801705,7.377695843471415,-23.319382261824508
GUIDED_NOGPS,4.7401392459869385,24.100486111909166,212.65842693355424,-21.292793376022367,12.438269189362453,8.780082086980553,200.16800604600763,0.38502379516675944,50,1.314636925238502,-1.1843426358057518,88.00341526667837,-0.3292869504526415,-0.7051556701783681,-15.0,0.5093904327026594,213.41606520314875,-19.155608876051357,13.832268772895294,-0.325914246571557,-26.069579678452456
GUIDED_NOGPS,4.774895668029785,28.77718849270331,212.9888001685842,-19.49884930355587,13.62100734205005,7.804120038814482,200.1399432048549,0.3207114572445988,50,1.1267581646870206,-0.8768407959043136,87.05455855699104,0.17205896532672482,-0.8713744037484159,-15.0,0.5090947481644875,214.2597552722403,-14.887535417578391,16.444664628872456,13.119298181373082,-28.30411507946267
GUIDED_NOGPS,4.811404466629028,27.39674058591071,213.75526992852923,-17.60713127523042,14.825173303067384,6.891601340100463,200.11501428419314,0.2635812058598077,50,0.9626410986494849,-0.6019338993826456,86.12429362222447,0.2638341358011551,-1.1441348971820093,-15.0,0.5087937066742332,217.436926420432,-12.714871826998804,17.925054539965785,8.61193459800586,-29.736509567289726
GUIDED_NOGPS,4.8528172969818115,24.151555284281322,214.30283354184238,-15.533022601805161,16.035284374092488,5.838836724268909,200.0930816633548,0.21331765217344412,50,0.7065379797171264,-0.2753277002075643,84.62637166553814,0.31130804480972674,-1.0147527503901463,-15.0,0.5084911789064769,215.59596640803272,-10.268276760635544,19.012494641927216,1.248592436930636,-32.37211542489151
GUIDED_NOGPS,4.8875627517700195,28.787656659665885,214.1156041103936,-12.860343544245973,17.420809715801326,4.588410953400334,200.07399820709207,0.16958360253799754,50,0.6110928095336624,-0.09788629580108239,83.48206226256171,0.851221220141936,-0.6363039511052481,-15.0,0.5081447975710497,211.26412834356023,-7.275424839965889,19.8895659953459,-8.21545377008782,-33.57532679466624
GUIDED_NOGPS,4.924013376235962,27.440474710665942,213.5646208608609,-9.879905712265426,18.84664544837198,3.480011725170045,200.05760710831146,0.1320196980866939,50,0.6266286084093854,-0.039958394233146434,82.29748206423889,1.045271502544443,-0.4142894661372865,-13.92004690068018,0.507788338637907,209.7188361498308,-4.253419716148633,20.96144743574855,-10.542697105011129,-34.54935504638864
GUIDED_NOGPS,4.961622476577759,26.5941983958406,213.5489864990732,-7.0976434960886605,19.973316398471784,2.291670288061344,200.0437417308079,0.10024405432447736,50,0.7667063434153852,0.02337338758745965,81.01617272689036,1.0279685584117502,-0.7084120550224281,-9.166681152245376,0.507506670900382,213.28756965052006,-0.9762243366945669,22.078019379371487,4.361438432069249,-35.408791739084876
GUIDED_NOGPS,4.9949631690979,29.997668447515036,213.41147805299605,-4.04056665597609,20.91332964717857,1.0419748934507242,200.0322254519989,0.07385190071686054,50,0.9389262549643775,0.0704749057123965,79.77981969465884,1.4277375771801304,-0.6291281062320856,-4.167899573802897,0.5072716675882054,212.31257697620427,2.570512373564053,22.62512078349973,8.033620606576477,-35.92445375470262
GUIDED_NOGPS,5.031475782394409,27.394414400292604,213.273542024628,-1.4728088291361707,21.635854875493074,-0.09093555137496395,200.02287150565886,0.052415220280451535,50,1.1209834531871865,0.21626054443041137,78.44686729699583,1.196578684300319,-0.6287037827386623,0.3637422054998558,0.5070910362811267,212.31257697620427,2.570512373564053,22.62512078349973,8.033620606576477,-36.039045313728785
GUIDED_NOGPS,5.068638801574707,26.910714744001027,212.4346546926328,2.6730150626525258,22.238944130230905,-1.307546797214052,200.01548282465313,0.03548238917282731,50,1.3244242661540129,0.3664493606464102,77.21651800104475,2.0097294755341104,-0.2134228012190511,5.230187188856208,0.5069402639674423,207.54865661627855,13.453694618977595,22.905012269035062,8.972165075675335,-35.580679077624126
GUIDED_NOGPS,5.104462623596191,27.921819246951056,211.1986209671136,6.214437929677771,22.627657096888207,-2.578484585700741,200.0098518836724,0.02257781628240707,50,1.5321426985319713,0.5249712210932361,75.99528700763564,1.9579185293015298,0.08952281735516077,10.313938342802963,0.506843085725778,207.54865661627855,13.453694618977595,22.905012269035062,8.972165075675335,-35.29420018005871
GUIDED_NOGPS,5.140030860900879,28.121192616878197,210.11769172933037,9.859964521890685,22.782942818898686,-3.77631527888655,200.00576054196702,0.013201582818382462,50,1.7114324962021614,0.6378730741347833,74.71334929288346,2.15987531345303,0.060011594186539674,15.0,0.5068042642952754,206.948532505767,17.251408624370008,22.854447989423882,-1.097800414306775,-34.83583394395405
GUIDED_NOGPS,5.173013925552368,30.327797019501226,209.5782422496062,12.79614377205188,22.828808260083512,-4.905307129969385,200.00297988608074,0.006829081900477263,50,1.7853522184946244,0.7846294001277334,73.51985569769377,2.0644935063218544,-0.1938384416734933,15.0,0.5067927979349791,206.948532505767,17.251408624370008,22.854447989423882,-1.097800414306775,-34.3774677078494
GUIDED_NOGPS,5.203848838806152,32.44080407762335,209.23195429409822,15.73232302221307,22.874673701268343,-5.965955710738999,200.00127007258536,0.0029106581492754913,50,1.7690090699146648,0.9891344419446123,72.7053009976564,2.2737469875946226,-0.28086940038594244,15.0,0.506781331574683,206.948532505767,17.251408624370008,22.854447989423882,-1.097800414306775,-33.403439456126996
GUIDED_NOGPS,5.243381977081299,25.299506592836547,208.43957465100408,16.491865823291555,22.8645608453461,-6.921901706021474,200.0003801708148,0.0008712472758674039,50,1.6654396031568823,1.2019485156085177,71.35336750428992,1.0918248075249821,-0.06476634818971655,15.0,0.5067838597886635,206.948532505767,17.251408624370008,22.854447989423882,-1.097800414306775,-31.74186185024761
GUIDED_NOGPS,5.272568702697754,34.274750149134206,207.7690690921994,17.251408624370036,22.854447989423864,-8.114317587898963,200.0000480055994,0.0001100156721207668,50,1.4677856679643493,1.3593462763283475,70.4702172144181,1.231439844239615,0.026226771977875873,15.0,0.5067863880026441,206.948532505767,17.251408624370008,22.854447989423882,-1.097800414306775,-30.02298846485514
GUIDED_NOGPS,5.302452802658081,33.4708886618999,207.09856353339472,17.251408624370033,22.854447989423864,-8.937679501770143,199.99999999999997,-1.4210854715202004e-14,50,1.2680966565642697,1.4995914043298657,69.988279066582,0.8164195605111153,0.05009580568889194,15.0,0.5067863880026441,206.948532505767,17.251408624370008,22.854447989423882,-1.097800414306775,-29.10625599264582
GUIDED_NOGPS,5.336968898773193,28.976593804404896,207.02354801958077,17.251408624370033,22.854447989423864,-9.707217857572381,200.0,0.0,50,0.7350874767566922,1.742450519657305,68.84609385243745,0.8177955051371274,-0.35328345005277395,15.0,0.5067863880026441,206.948532505767,17.251408624370008,22.854447989423882,-1.097800414306775,-26.69983325309636
GUIDED_NOGPS,5.37287449836731,27.858023379383635,205.94465888921346,22.539941191176194,23.391162683026998,-10.567193101868707,200.0,0.0,50,0.03391343669384714,2.0154761259494576,67.84024604431552,3.3970844572272827,0.2600328891206013,15.0,0.5066522093292433,198.91754357334003,43.69407145840084,25.53802145743956,-20.68814429503813,-23.376678041337588
GUIDED_NOGPS,5.4083850383758545,28.1676505154293,204.83329252168443,28.26694613443089,24.042547452120107,-11.37340108726388,200.0,0.0,50,-0.6368833370353661,2.160201431159681,67.1102012748787,3.844374934923794,0.33801451072969213,15.0,0.50648936313697,198.0576015655347,45.8864333406435,26.111371834889425,-18.28406038841497,-20.855663742761966
