E-kp,E-ki,E-kd,E-I-Tot,E-P,E-I,E-D,E-PID,N-kp,N-ki,N-kd,N-I-Tot,N-P,N-I,N-D,N-PID,D-kp,D-ki,D-kd,D-I-Tot,D-P,D-I,D-D,D-PID,Y-kp,Y-ki,Y-kd,Y-I-Tot,Y-P,Y-I,Y-D,Y-PID,errorN,desiredN,actualN,errorE,desiredE,actualE,errorD,desiredD,actualD,errorY,desiredY,actualY,roll,pitch,yaw-rate,thrust,dt,Time,Mode
0.035,0.005,0.05,0.0,0.0,0.0,0.0,0.0,0.04,0.006,0.04,0.0,0.0,0.0,0.0,0.0,0.002,8e-05,0,0.0,0.0,0.0,0.0,0.0,0.1,0.02,0,0.0,0.0,0.0,0.0,0.0,0.0,0.0,0.0,0.0,0.0,0.0,0.0,0.0,0.0,0.0,0,0.0,0.0,0.0,-0.0,0.5,0.033019065856933594,0.03332114219665527,STABILIZE
0.035,0.005,0.05,-0.0017133916448093757,-0.0017938025248086511,-8.566958224046879e-06,-0.038326268440486505,-0.0401286379235192,0.04,0.006,0.04,-0.0016509106595762862,-0.0019753020063053646,-9.905463957457718e-06,-0.029542922215998486,-0.03152812968626131,0.002,8e-05,0,-0.0020807540668540125,-0.00012448031815179077,-1.6646032534832103e-07,-0.0,-0.0001246467784771391,0.1,0.02,0,-0.0017139898657099835,-0.005126939487738445,-3.427979731419967e-05,-0.0,-0.0051612192850526446,-0.04938255015763411,0.0,0.04938255015763411,-0.0512515007088186,0.0,0.0512515007088186,-0.06224015907589539,0.0,0.06224015907589539,-0.051269394877384446,0,0.051269394877384446,-0.04015683384720882,0.03149220917113118,0.0051612192850526446,0.4,0.033431053161621094,0.06668996810913086,STABILIZE
0.035,0.005,0.05,-0.006562372064054856,-0.005071989432493301,-3.2811860320274285e-05,-0.07220327692993198,-0.07730807822274555,0.04,0.006,0.04,-0.006217733201964671,-0.005459262695575157,-3.730639921178803e-05,-0.05440186438635014,-0.05989843348113708,0.002,8e-05,0,-0.00889937478863707,-0.00040755515893374327,-7.119499830909657e-07,-0.0,-0.00040826710891683424,0.1,0.02,0,-0.006611251609164666,-0.014635689310432038,-0.00013222503218329333,-0.0,-0.014767914342615332,-0.13648156738937892,0.0,0.13648156738937892,-0.1449139837855229,0.0,0.1449139837855229,-0.20377757946687164,0.0,0.20377757946687164,-0.14635689310432037,0,0.14635689310432037,-0.0774608309761079,0.05970076177469758,0.014767914342615332,0.4,0.03346109390258789,0.10014724731445312,STABILIZE
0.035,0.005,0.05,-0.011621591029983986,-0.005288957600542176,-5.8107955149919936e-05,-0.056466954342100854,-0.06181401989779295,0.04,0.006,0.04,-0.010864375619847091,-0.005551595419556175,-6.518625371908255e-05,-0.041490866460311235,-0.04710764813358649,0.002,8e-05,0,-0.01650709554955975,-0.0004544678063353991,-1.3205676439647802e-06,-0.0,-0.0004557883739793639,0.1,0.02,0,-0.011687062124622258,-0.015160864487712818,-0.00023374124249244516,-0.0,-0.015394605730205263,-0.13878988548890436,0.0,0.13878988548890436,-0.15111307430120502,0.0,0.15111307430120502,-0.22723390316769956,0.0,0.22723390316769956,-0.15160864487712816,0,0.15160864487712816,-0.061938453487058606,0.04694391918272286,0.015394605730205263,0.4,0.03347969055175781,0.13370013236999512,STABILIZE
0.035,0.005,0.05,-0.01695852156088886,-0.005570354695535519,-8.47926078044443e-05,-0.0475711529362414,-0.053226300239581366,0.04,0.006,0.04,-0.015625172965701227,-0.005678883277067135,-9.375103779420737e-05,-0.03395186524897427,-0.039724499563835614,0.002,8e-05,0,-0.025117614910372954,-0.0005135498410530651,-2.0094091928298366e-06,-0.0,-0.0005155592502458949,0.1,0.02,0,-0.017000191163368452,-0.01584432052821514,-0.00034000382326736906,-0.0,-0.01618432435148251,-0.14197208192667837,0.0,0.14197208192667837,-0.15915299130101482,0.0,0.15915299130101482,-0.2567749205265325,0.0,0.2567749205265325,-0.1584432052821514,0,0.1584432052821514,-0.053335948951548334,0.03957715821315453,0.01618432435148251,0.4,0.033533334732055664,0.1671750545501709,STABILIZE
0.035,0.005,0.05,-0.022483020706214735,-0.00578967289571658,-0.00011241510353107367,-0.04944744180245116,-0.05534952980169881,0.04,0.006,0.04,-0.020504316427273336,-0.005843817596734868,-0.00012302589856364002,-0.03493958582654183,-0.04090642932184034,0.002,8e-05,0,-0.0345430822317528,-0.0005644506276966636,-2.7634465785402243e-06,-0.0,-0.0005672140742752038,0.1,0.02,0,-0.022453042151735998,-0.0163273875881936,-0.00044906084303472,-0.0,-0.01677644843122832,-0.1460954399183717,0.0,0.1460954399183717,-0.16541922559190228,0.0,0.16541922559190228,-0.2822253138483318,0.0,0.2822253138483318,-0.16327387588193598,0,0.16327387588193598,-0.05546587459850956,0.040748535730186386,0.01677644843122832,0.4,0.03339695930480957,0.20059537887573242,STABILIZE
0.035,0.005,0.05,-0.028143203186105584,-0.005925101154222951,-0.00014071601593052793,-0.03527421467605064,-0.04134003184620411,0.04,0.006,0.04,-0.025268224305288536,-0.005699288452659614,-0.00015160934583173123,-0.022257881664699563,-0.02810877946319091,0.002,8e-05,0,-0.04496370244332089,-0.0006233340564310541,-3.5970961954656713e-06,-0.0,-0.0006269311526265198,0.1,0.02,0,-0.02792059957464696,-0.01635274426089059,-0.0005584119914929392,-0.0,-0.016911156252383527,-0.14248221131649036,0.0,0.14248221131649036,-0.16928860440637,0.0,0.16928860440637,-0.31166702821552705,0.0,0.31166702821552705,-0.1635274426089059,0,0.1635274426089059,-0.04142008841347345,0.02799067687240727,0.016911156252383527,0.4,0.03343510627746582,0.23407626152038574,STABILIZE
0.035,0.005,0.05,-0.03380355274298955,-0.005920885112506562,-0.00016901776371494777,-0.007246755090864965,-0.013336657967086475,0.04,0.006,0.04,-0.029785699680502965,-0.005400464593002296,-0.0001787141980830178,0.000352229088337026,-0.005226949702748288,0.002,8e-05,0,-0.05616639457000062,-0.0006696189481007161,-4.49331156560005e-06,-0.0,-0.0006741122596663162,0.1,0.02,0,-0.033261269594685554,-0.015961403743544624,-0.0006652253918937111,-0.0,-0.016626629135438335,-0.1350116148250574,0.0,0.1350116148250574,-0.16916814607161604,0.0,0.16916814607161604,-0.33480947405035805,0.0,0.33480947405035805,-0.15961403743544622,0,0.15961403743544622,-0.01335116738461202,0.005189776333733834,0.016626629135438335,0.4,0.03345990180969238,0.2675185203552246,STABILIZE
0.035,0.005,0.05,-0.03999527455028328,-0.006480732984532894,-0.00019997637275141641,-0.01017866722235359,-0.0168593765796379,0.04,0.006,0.04,-0.034474634924136514,-0.005608915210436255,-0.00020684780954481909,-0.00034294193471716915,-0.006158704954698243,0.002,8e-05,0,-0.07050764339006285,-0.0008577517545450728,-5.640611471205029e-06,-0.0,-0.0008633923660162779,0.1,0.02,0,-0.038797822412378856,-0.01655709329463851,-0.0007759564482475771,-0.0,-0.017333049742886086,-0.14022288026090637,0.0,0.14022288026090637,-0.18516379955808265,0.0,0.18516379955808265,-0.4288758772725364,0.0,0.4288758772725364,-0.16557093294638509,0,0.16557093294638509,-0.016877103327565514,0.006109959790681503,0.017333049742886086,0.4,0.03343915939331055,0.3009350299835205,STABILIZE
0.035,0.005,0.05,-0.047044338122953916,-0.006393736330415368,-0.00023522169061476959,-0.0071369236877340675,-0.013765881708764204,0.04,0.006,0.04,-0.039741289175928056,-0.005459464554772415,-0.00023844773505556834,0.0011908400959651292,-0.004507072193862855,0.002,8e-05,0,-0.088002104545898,-0.0009067463518479061,-7.040168363671841e-06,-0.0,-0.000913786520211578,0.1,0.02,0,-0.04506334910786058,-0.016237263391329932,-0.0009012669821572115,-0.0,-0.017138530373487143,-0.13648661386931038,0.0,0.13648661386931038,-0.1826781808690105,0.0,0.1826781808690105,-0.45337317592395304,0.0,0.45337317592395304,-0.1623726339132993,0,0.1623726339132993,-0.013778599172432841,0.00446804250492468,0.017138530373487143,0.4,0.038587331771850586,0.3395504951477051,STABILIZE
0.035,0.005,0.05,-0.05301912658148782,-0.006251133336498144,-0.0002650956329074391,-0.004042686716856843,-0.010558915686262427,0.04,0.006,0.04,-0.04425470351427114,-0.005396763422103685,-0.00026552822108562687,0.002553424528194094,-0.0031088671149952177,0.002,8e-05,0,-0.10400943221329291,-0.0009570111889255312,-8.320754577063434e-06,-0.0,-0.0009653319435025946,0.1,0.02,0,-0.05043215172569376,-0.01604891298272279,-0.001008643034513875,0.0,-0.017057556017236665,-0.13491908555259213,0.0,0.13491908555259213,-0.17860380961423267,0.0,0.17860380961423267,-0.4785055944627656,0.0,0.4785055944627656,-0.1604891298272279,0,0.1604891298272279,-0.010567582387412209,0.0030792787619104483,0.017057556017236665,0.4,0.033452749252319336,0.3729989528656006,STABILIZE
0.035,0.005,0.05,-0.059089850300568326,-0.006355763760629582,-0.00029544925150284165,-0.003779636342299386,-0.01043084935443181,0.04,0.006,0.04,-0.04908802636197478,-0.0057831576352125,-0.00029452815817184873,-0.000622748841943656,-0.0067004346353280045,0.002,8e-05,0,-0.12208798300342863,-0.001081565543311716,-9.76703864027429e-06,-0.0,-0.0010913325819519903,0.1,0.02,0,-0.05583203772801307,-0.01615265157510993,-0.0011166407545602614,0.0,-0.01726929232967019,-0.1445789408803125,0.0,0.1445789408803125,-0.18159325030370232,0.0,0.18159325030370232,-0.540782771655858,0.0,0.540782771655858,-0.16152651575109928,0,0.16152651575109928,-0.010449697539875007,0.00667100171505628,0.01726929232967019,0.4,0.03343033790588379,0.40639591217041016,STABILIZE
0.035,0.005,0.05,-0.06509903399383418,-0.006149672088290392,-0.0003254951699691709,-0.002093923848606349,-0.008569091106865911,0.04,0.006,0.04,-0.05380151589597242,-0.005512783956835465,-0.00032280909537583453,-0.0008277971031035907,-0.00666339015531489,0.002,8e-05,0,-0.1411491299472331,-0.0011146729436096528,-1.129193039577865e-05,-0.0,-0.0011259648740054315,0.1,0.02,0,-0.06164008942810234,-0.016982393830398162,-0.0012328017885620468,-0.0,-0.01821519561896021,-0.13781959892088663,0.0,0.13781959892088663,-0.1757049168082969,0.0,0.1757049168082969,-0.5573364718048264,0.0,0.5573364718048264,-0.16982393830398163,0,0.16982393830398163,-0.008588803638251784,0.0066379622493103075,0.01821519561896021,0.4,0.034200429916381836,0.44062280654907227,STABILIZE
0.035,0.005,0.05,-0.07143030021116185,-0.0065701092342509895,-0.00035715150105580925,-0.0008720296796924054,-0.007799290414999205,0.04,0.006,0.04,-0.05788748592105879,-0.004845840756687172,-0.00034732491552635274,0.004373823947192516,-0.0008193417250210088,0.002,8e-05,0,-0.16167949458771977,-0.0012174205526925825,-1.2934359567017582e-05,-0.0,-0.0012303549122596002,0.1,0.02,0,-0.06549248796772311,-0.011422079542728567,-0.0013098497593544622,0.0,-0.012731929302083028,-0.1211460189171793,0.0,0.1211460189171793,-0.1877174066928854,0.0,0.1877174066928854,-0.6087102763462913,0.0,0.6087102763462913,-0.11422079542728567,0,0.11422079542728567,-0.007800908297569875,0.0008037919959568887,0.012731929302083028,0.4,0.03372764587402344,0.47434234619140625,STABILIZE
0.035,0.005,0.05,-0.07776238871384906,-0.006568826547460422,-0.00038881194356924534,-0.001505321362750085,-0.008462959853779753,0.04,0.006,0.04,-0.06287595287450179,-0.005914252532455312,-0.00037725571724701076,-0.0027342518846829684,-0.009025760134385292,0.002,8e-05,0,-0.18289979010793525,-0.0012579234030333107,-1.4631983208634821e-05,-0.0,-0.0012725553862419456,0.1,0.02,0,-0.06874352985003936,-0.009635967755753328,-0.0013748705970007872,0.0,-0.011010838352754116,-0.1478563133113828,0.0,0.1478563133113828,-0.1876807584988692,0.0,0.1876807584988692,-0.6289617015166553,0.0,0.6289617015166553,-0.09635967755753327,0,0.09635967755753327,-0.008478127344168794,0.009011514424679349,0.011010838352754116,0.4,0.03373861312866211,0.5080983638763428,STABILIZE
0.035,0.005,0.05,-0.08336045048938714,-0.005858067871893116,-0.0004168022524469357,0.00334832551212238,-0.002926544612217671,0.04,0.006,0.04,-0.06787264083319543,-0.0059757289209539325,-0.00040723584499917256,-0.0034767254797803703,-0.009859690245733476,0.002,8e-05,0,-0.2043173986249738,-0.001280706576946201,-1.6345391889997907e-05,-0.0,-0.001297051968836199,0.1,0.02,0,-0.07168897371523308,-0.008806420490827613,-0.0014337794743046618,0.0,-0.010240199965132275,-0.1493932230238483,0.0,0.1493932230238483,-0.16737336776837472,0.0,0.16737336776837472,-0.6403532884731005,0.0,0.6403532884731005,-0.08806420490827613,0,0.08806420490827613,-0.00294169559516241,0.009855180471940339,0.010240199965132275,0.4,0.033446550369262695,0.5415573120117188,STABILIZE
0.035,0.005,0.05,-0.08851210045808612,-0.005137498810916676,-0.0004425605022904306,0.010108593894843174,0.004528534581636068,0.04,0.006,0.04,-0.07316790659260387,-0.0060351086867293634,-0.00043900743955562323,-0.0015034682676790985,-0.007977584393964086,0.002,8e-05,0,-0.2271602308601072,-0.0013017191347460873,-1.8172818468808578e-05,-0.0,-0.001319891953214896,0.1,0.02,0,-0.07449665435176932,-0.007999909055090832,-0.0014899330870353864,0.0,-0.009489842142126219,-0.1508777171682341,0.0,0.1508777171682341,-0.146785680311905,0.0,0.146785680311905,-0.6508595673730436,0.0,0.6508595673730436,-0.07999909055090833,0,0.07999909055090833,0.00451739148855546,0.007983899570950264,0.009489842142126219,0.4,0.03509640693664551,0.5766327381134033,STABILIZE
0.035,0.005,0.05,-0.09400377183217917,-0.005680130151388281,-0.00047001885916089585,0.0038052240429577544,-0.0023449249675914223,0.04,0.006,0.04,-0.07799487332689077,-0.005705845383354173,-0.0004679692399613446,-0.0011385084566874733,-0.007312323080002991,0.002,8e-05,0,-0.24931460077503084,-0.0013094083330042125,-1.994516806200247e-05,-0.0,-0.001329353501066215,0.1,0.02,0,-0.07626705520772983,-0.005231874439342351,-0.0015253411041545968,0.0,-0.0067572155434969475,-0.14264613458385433,0.0,0.14264613458385433,-0.162289432896808,0.0,0.162289432896808,-0.6547041665021063,0.0,0.6547041665021063,-0.0523187443934235,0,0.0523187443934235,-0.0023516011224314665,0.007310178800204351,0.0067572155434969475,0.4,0.033838748931884766,0.6104707717895508,STABILIZE
0.035,0.005,0.05,-0.09902537522464305,-0.005195724528582883,-0.0004951268761232152,0.011458285052646882,0.005767433647940784,0.04,0.006,0.04,-0.08387108384428009,-0.006948531030350245,-0.0005032265030656805,-0.012440669884209582,-0.019892427417625508,0.002,8e-05,0,-0.271676757614976,-0.0013221457965817748,-2.173414060919808e-05,-0.0,-0.001343879937190973,0.1,0.02,0,-0.07705597979357699,-0.002332228801683858,-0.00154111959587154,0.0,-0.003873348397555398,-0.1737132757587561,0.0,0.1737132757587561,-0.14844927224522522,0.0,0.14844927224522522,-0.6610728982908873,0.0,0.6610728982908873,-0.02332228801683858,0,0.02332228801683858,0.005759335943557259,0.019894773407559782,0.003873348397555398,0.4,0.03382706642150879,0.6443226337432861,STABILIZE
0.035,0.005,0.05,-0.1041152394904138,-0.005326000995981784,-0.000520576197452069,0.010334602650862055,0.004488025457428203,0.04,0.006,0.04,-0.0895591748650053,-0.006802264682402928,-0.0005373550491900318,-0.005232620236629745,-0.012572239968222706,0.002,8e-05,0,-0.2947658070132373,-0.001380584669793358,-2.3581264561058987e-05,-0.0,-0.001404165934354417,0.1,0.02,0,-0.07674228058619792,0.0009378651956682296,-0.0015348456117239583,0.0,-0.0005969804160557287,-0.1700566170600732,0.0,0.1700566170600732,-0.15217145702805096,0.0,0.15217145702805096,-0.690292334896679,0.0,0.690292334896679,0.009378651956682296,0,-0.009378651956682296,0.004490083326585383,0.012571505162287451,0.0005969804160557287,0.4,0.033448219299316406,0.6777477264404297,STABILIZE
0.035,0.005,0.05,-0.10922300155713567,-0.005340808008565067,-0.0005461150077856784,0.004136619140786112,-0.0017503038755646329,0.04,0.006,0.04,-0.09581405799970771,-0.007474591360494292,-0.0005748843479982463,-0.008882165630244566,-0.016931641338737105,0.002,8e-05,0,-0.3184640547952533,-0.0014159714443548682,-2.5477124383620266e-05,-0.0,-0.0014414485687384885,0.1,0.02,0,-0.07494123138688381,0.0053806388125502555,-0.0014988246277376762,0.0,0.0038818141848125792,-0.1868647840123573,0.0,0.1868647840123573,-0.15259451453043046,0.0,0.15259451453043046,-0.7079857221774342,0.0,0.7079857221774342,0.05380638812550255,0,-0.05380638812550255,-0.0017344026248913612,0.01693327758041005,-0.0038818141848125792,0.4,0.03347277641296387,0.7112255096435547,STABILIZE
0.035,0.005,0.05,-0.11285501960638633,-0.0037999242707181585,-0.0005642750980319317,0.011430727213087764,0.007066527844337674,0.04,0.006,0.04,-0.10095784475579664,-0.006150378541331812,-0.0006057470685347799,-0.0006270392707000306,-0.007383164880566622,0.002,8e-05,0,-0.34270720460619936,-0.0014493655690045208,-2.741657636849595e-05,-0.0,-0.0014767821453730168,0.1,0.02,0,-0.07429210915045634,0.0019403737280219331,-0.0014858421830091268,0.0,0.00045453154501280636,-0.15375946353329528,0.0,0.15375946353329528,-0.10856926487766166,0.0,0.10856926487766166,-0.7246827845022604,0.0,0.7246827845022604,0.01940373728021933,0,-0.01940373728021933,0.00706902781505366,0.007380771313245633,-0.00045453154501280636,0.4,0.03345346450805664,0.7447125911712646,STABILIZE
0.035,0.005,0.05,-0.11502422836392556,-0.002266130811548119,-0.0005751211418196278,0.029092584816135653,0.026251332862767908,0.04,0.006,0.04,-0.10497006882909614,-0.004790278384747273,-0.0006298204129745769,0.005546148539846195,0.0001260497421243451,0.002,8e-05,0,-0.3673253439096841,-0.001469605615535832,-2.938602751277473e-05,-0.0,-0.0014989916430486068,0.1,0.02,0,-0.07484381285870592,-0.0016467265412718935,-0.0014968762571741184,0.0,-0.003143602798446012,-0.11975695961868182,0.0,0.11975695961868182,-0.06474659461566054,0.0,0.06474659461566054,-0.7348028077679161,0.0,0.7348028077679161,-0.016467265412718934,0,0.016467265412718934,0.0262513680062476,-0.00011850489394012005,0.003143602798446012,0.4,0.033503055572509766,0.7781903743743896,STABILIZE
0.035,0.005,0.05,-0.1182888546329961,-0.0034214003002724772,-0.0005914442731649805,0.015117482818086656,0.011104638244649197,0.04,0.006,0.04,-0.1085352863900358,-0.004270201829524248,-0.0006512117183402148,0.016008015592087303,0.01108660204422284,0.002,8e-05,0,-0.3920437642524645,-0.0014803113970816202,-3.136350114019716e-05,-0.0,-0.0015116748982218174,0.1,0.02,0,-0.07392241565056167,0.002758984533680986,-0.0014784483130112333,0.0,0.0012805362206697527,-0.10675504573810621,0.0,0.10675504573810621,-0.09775429429349934,0.0,0.09775429429349934,-0.7401556985408101,0.0,0.7401556985408101,0.02758984533680986,0,-0.02758984533680986,0.011099298385562124,-0.01109194801555388,-0.0012805362206697527,0.4,0.033396244049072266,0.8115839958190918,STABILIZE
0.035,0.005,0.05,-0.12053599724761975,-0.0023520660953000655,-0.0006026799862380987,0.025367147802274087,0.022412401720735924,0.04,0.006,0.04,-0.1119349672269678,-0.00406676409122643,-0.0006716098033618069,0.016350212648793522,0.011611838754205284,0.002,8e-05,0,-0.4168078077430789,-0.001481161433260958,-3.334462461944631e-05,-0.0,-0.0015145060578804043,0.1,0.02,0,-0.07359272636090639,0.0009859517913172846,-0.0014718545272181277,0.0,-0.00048590273590084316,-0.10166910228066074,0.0,0.10166910228066074,-0.06720188843714472,0.0,0.06720188843714472,-0.740580716630479,0.0,0.740580716630479,0.009859517913172845,0,-0.009859517913172845,0.022410403211500934,-0.011615695331888616,0.00048590273590084316,0.4,0.033438682556152344,0.8450384140014648,STABILIZE
0.035,0.005,0.05,-0.11845756689642345,0.0018671740147545592,-0.0005922878344821172,0.05643547146628253,0.057710357646554966,0.04,0.006,0.04,-0.11526263940760577,-0.003416502965042175,-0.0006915758364456346,0.02370546562581493,0.019597386824327122,0.002,8e-05,0,-0.445978675846818,-0.001497478597037944,-3.567829406774544e-05,-0.0,-0.0015331568911056894,0.1,0.02,0,-0.07370947504762894,-0.00029966310734664897,-0.0014741895009525788,-0.0,-0.0017738526082992276,-0.08541257412605438,0.0,0.08541257412605438,0.0533478289929874,0.0,-0.0533478289929874,-0.748739298518972,0.0,0.748739298518972,-0.0029966310734664894,0,0.0029966310734664894,0.05771138253209457,-0.019594368483568072,0.0017738526082992276,0.4,0.03895998001098633,0.8839812278747559,STABILIZE
0.035,0.005,0.05,-0.11511734628741217,0.0034952101214193784,-0.0005755867314370609,0.05718208879524694,0.06010171218522926,0.04,0.006,0.04,-0.11906505027520758,-0.0045472530986665665,-0.0007143903016512455,0.009027474155234586,0.0037658307549167745,0.002,8e-05,0,-0.47168048239011523,-0.0015368226043264046,-3.7734438591209224e-05,-0.0,-0.0015745570429176138,0.1,0.02,0,-0.07188452633303836,0.005456080356831219,-0.0014376905266607672,0.0,0.004018389830170452,-0.11368132746666415,0.0,0.11368132746666415,0.09986314632626794,0.0,-0.09986314632626794,-0.7684113021632023,0.0,0.7684113021632023,0.054560803568312194,0,-0.054560803568312194,0.06009809886403224,-0.0038230618357304688,-0.004018389830170452,0.4,0.033447980880737305,0.9174315929412842,STABILIZE
0.035,0.005,0.05,-0.11062813519199961,0.0046998934667070655,-0.0005531406759599981,0.0543975622459689,0.05854431503671597,0.04,0.006,0.04,-0.1236608077886994,-0.005498788795284202,-0.0007419648467321964,-0.004784312212578288,-0.011025065854594687,0.002,8e-05,0,-0.49765714975095715,-0.0015540442136392615,-3.9812571980076575e-05,-0.0,-0.001593856785619338,0.1,0.02,0,-0.0721358456735218,-0.0007517541827606778,-0.001442716913470436,0.0,-0.0021944710962311137,-0.13746971988210505,0.0,0.13746971988210505,0.1342826704773447,0.0,-0.1342826704773447,-0.7770221068196308,0.0,0.7770221068196308,-0.007517541827606777,0,0.007517541827606777,0.058542867979591656,0.011032747116674938,0.0021944710962311137,0.4,0.033431053161621094,0.950864315032959,STABILIZE
0.035,0.005,0.05,-0.10817771726036693,0.0025653448812696473,-0.0005408885863018347,0.046039088227011526,0.04806354452197934,0.04,0.006,0.04,-0.1260569698240305,-0.0028669078073475084,-0.000756341818944183,0.00784578512241719,0.004222535496125499,0.002,8e-05,0,-0.5244233439522378,-0.0016012316779325639,-4.1953867516179027e-05,-0.0,-0.001643185545448743,0.1,0.02,0,-0.0702175279280909,0.005737967675242321,-0.001404350558561818,0.0,0.0043336171166805035,-0.07167269518368771,0.0,0.07167269518368771,0.07329556803627563,0.0,-0.07329556803627563,-0.800615838966282,0.0,0.800615838966282,0.05737967675242321,0,-0.05737967675242321,0.04805929170200247,-0.004270667293780601,-0.0043336171166805035,0.4,0.0334320068359375,0.9842908382415771,STABILIZE
0.035,0.005,0.05,-0.10429154374217384,0.004066321871613771,-0.0005214577187108692,0.04972311366319887,0.05326797781610177,0.04,0.006,0.04,-0.12891570816933637,-0.0034185813457650017,-0.0007734942490160182,0.003330449763774922,-0.0008616258310060977,0.002,8e-05,0,-0.5518077278324686,-0.0016373611815846021,-4.414461822659749e-05,-0.0,-0.0016815057998111995,0.1,0.02,0,-0.07035746301593727,-0.0004183484313238575,-0.0014071492603187454,-0.0,-0.001825497691642603,-0.08546453364412504,0.0,0.08546453364412504,0.1161806249032506,0.0,-0.1161806249032506,-0.818680590792301,0.0,0.818680590792301,-0.004183484313238575,0,0.004183484313238575,0.053267914762002835,0.0008655152207603082,0.001825497691642603,0.4,0.033449411392211914,1.0177562236785889,STABILIZE
0.035,0.005,0.05,-0.10118726881958755,0.0032499379220774123,-0.0005059363440979378,0.011804105674170576,0.01454810725215005,0.04,0.006,0.04,-0.13160463054228674,-0.003217252156112217,-0.0007896277832537204,0.0011967875267084854,-0.0028100924126574526,0.002,8e-05,0,-0.579216477051233,-0.001639706270576597,-4.6337318164098644e-05,-0.0,-0.0016860435887406957,0.1,0.02,0,-0.06992976559278187,0.0012793326340066033,-0.0013985953118556373,0.0,-0.00011926267784903404,-0.08043130390280542,0.0,0.08043130390280542,0.09285536920221177,0.0,-0.09285536920221177,-0.8198531352882985,0.0,0.8198531352882985,0.012793326340066032,0,-0.012793326340066032,0.014548734342844519,0.0028068439588036084,0.00011926267784903404,0.4,0.033431291580200195,1.0511765480041504,STABILIZE
0.035,0.005,0.05,-0.09945681918574613,0.0018093255299868724,-0.0004972840959287306,-0.014398798409802098,-0.013086756975743956,0.04,0.006,0.04,-0.1326140010803141,-0.0012061472169372746,-0.0007956840064818846,0.01997388168495384,0.01797205046153468,0.002,8e-05,0,-0.6069654522965384,-0.0016579317507323399,-4.855723618372308e-05,-0.0,-0.001706488986916063,0.1,0.02,0,-0.0676576328439955,0.006787711965559876,-0.0013531526568799099,0.0,0.005434559308679966,-0.030153680423431868,0.0,0.030153680423431868,0.051695015142482065,0.0,-0.051695015142482065,-0.82896587536617,0.0,0.82896587536617,0.06787711965559876,0,-0.06787711965559876,-0.013108038902171123,-0.017956534244483274,-0.005434559308679966,0.4,0.03347420692443848,1.0846660137176514,STABILIZE
0.035,0.005,0.05,-0.09641359488627717,0.0031837293854534176,-0.00048206797443138587,-0.01295684172868075,-0.010255180317658718,0.04,0.006,0.04,-0.13192962851568274,0.0008182513320287663,-0.0007915777710940965,0.037768491365899805,0.037795164926834476,0.002,8e-05,0,-0.6351094826755974,-0.0016824819941991798,-5.08087586140478e-05,-0.0,-0.0017332907528132275,0.1,0.02,0,-0.06788273528464339,-0.0006728439355334613,-0.0013576547056928679,0.0,-0.0020304986412263294,0.020456283300719157,0.0,-0.020456283300719157,0.0909636967272405,0.0,-0.0909636967272405,-0.8412409970995899,0.0,0.8412409970995899,-0.006728439355334612,0,0.006728439355334612,-0.010250741831469255,-0.037796368967122754,0.0020304986412263294,0.4,0.03345537185668945,1.118112564086914,STABILIZE
0.035,0.005,0.05,-0.09335222182533834,0.0032042460135081104,-0.0004667611091266917,0.005460587578849523,0.008198072483230942,0.04,0.006,0.04,-0.1332385086222835,-0.0015656742552168517,-0.0007994310517337011,0.007765628000353766,0.005400522693403213,0.002,8e-05,0,-0.6634473404555893,-0.0016948784747502907,-5.307578723644715e-05,-0.0,-0.0017479542619867378,0.1,0.02,0,-0.06782354489371822,0.000177007945113523,-0.0013564708978743645,-0.0,-0.0011794629527608416,-0.039141856380421294,0.0,0.039141856380421294,0.09154988610023172,0.0,-0.09154988610023172,-0.8474392373751453,0.0,0.8474392373751453,0.0017700794511352298,0,-0.0017700794511352298,0.00819790563711282,-0.005400775959736275,0.0011794629527608416,0.4,0.03343939781188965,1.1515583992004395,STABILIZE
0.035,0.005,0.05,-0.09121979106371259,0.002233017095345878,-0.0004560989553185629,-0.015662663175874437,-0.013885745035847122,0.04,0.006,0.04,-0.13490229467534426,-0.001991161724968441,-0.0008094137680520656,0.008518138943269572,0.005717563450249065,0.002,8e-05,0,-0.6921881865736569,-0.0017198026341255401,-5.5375054925892553e-05,-0.0,-0.0017751776890514326,0.1,0.02,0,-0.06585853856561998,0.005879129384803113,-0.0013171707713123995,0.0,0.004561958613490714,-0.04977904312421103,0.0,0.04977904312421103,0.06380048843845365,0.0,-0.06380048843845365,-0.8599013170627701,0.0,0.8599013170627701,0.05879129384803113,0,-0.05879129384803113,-0.01389160452606019,-0.005703312256901337,-0.004561958613490714,0.4,0.033423423767089844,1.1849946975708008,STABILIZE
0.035,0.005,0.05,-0.0879659275728478,0.003402978192548061,-0.000439829637864239,0.001302792277749174,0.004265940832432996,0.04,0.006,0.04,-0.13417358913743727,0.0008709713189517499,-0.0008050415348246237,0.024418251488862387,0.024484181272989514,0.002,8e-05,0,-0.721369251200849,-0.0017439053928258673,-5.7709540096067925e-05,-0.0,-0.0018016149329219352,0.1,0.02,0,-0.06604278250987863,-0.0005505351022881869,-0.0013208556501975728,-0.0,-0.0018713907524857596,0.021774282973793746,0.0,-0.021774282973793746,0.09722794835851602,0.0,-0.09722794835851602,-0.8719526964129336,0.0,0.8719526964129336,-0.005505351022881869,0,0.005505351022881869,0.004268293412065107,-0.024483771260632035,0.0018713907524857596,0.4,0.033466339111328125,1.2184700965881348,STABILIZE
0.035,0.005,0.05,-0.08433493021273752,0.0038022436589354247,-0.00042167465106368764,0.01701195903592215,0.02039252804379389,0.04,0.006,0.04,-0.13223672149109522,0.0023179598161119654,-0.0007934203289465713,0.021060871023699433,0.022585410510864826,0.002,8e-05,0,-0.7511294011471727,-0.001780783313390713,-6.009035209177382e-05,-0.0,-0.0018408736654824869,0.1,0.02,0,-0.06742344370506664,-0.004130789700776721,-0.001348468874101333,-0.0,-0.005479258574878054,0.05794899540279914,0.0,-0.05794899540279914,0.1086355331124407,0.0,-0.1086355331124407,-0.8903916566953566,0.0,0.8903916566953566,-0.04130789700776721,0,0.04130789700776721,0.020408805893235137,-0.02257070246964977,0.005479258574878054,0.4,0.033423662185668945,1.2518794536590576,STABILIZE
0.035,0.005,0.05,-0.08107913277490865,0.0034071853575303314,-0.00040539566387454325,0.0018994078218765643,0.004901197515532352,0.04,0.006,0.04,-0.13167835282987295,0.0006678076132363603,-0.0007900701169792377,-0.0009091035385877025,-0.00103136604233058,0.002,8e-05,0,-0.7812728907196268,-0.0018025771523361089,-6.250183125757015e-05,-0.0,-0.001865078983593679,0.1,0.02,0,-0.06774130565247709,-0.0009504053646839803,-0.0013548261130495417,-0.0,-0.002305231477733522,0.016695190330909007,0.0,-0.016695190330909007,0.09734815307229518,0.0,-0.09734815307229518,-0.9012885761680545,0.0,0.9012885761680545,-0.009504053646839802,0,0.009504053646839802,0.004901026368170132,0.0010321790242173294,0.002305231477733522,0.4,0.033444881439208984,1.285323143005371,STABILIZE
0.035,0.005,0.05,-0.07829971340201809,0.0029074338397481253,-0.00039149856701009046,-0.002543393793369142,-2.7458520631107406e-05,0.04,0.006,0.04,-0.1325793058945127,-0.001077084743960824,-0.0007954758353670762,0.0029190322897971535,0.0010464717104692533,0.002,8e-05,0,-0.8112171577872614,-0.0017899108451634004,-6.489737262298092e-05,-0.0,-0.0018548082177863813,0.1,0.02,0,-0.06698706582052479,0.0022542245766382896,-0.0013397413164104957,0.0,0.000914483260227794,-0.0269271185990206,0.0,0.0269271185990206,0.08306953827851786,0.0,-0.08306953827851786,-0.8949554225817002,0.0,0.8949554225817002,0.022542245766382897,0,-0.022542245766382897,-2.78702385676267e-05,-0.0010464608262949345,-0.000914483260227794,0.4,0.03345894813537598,1.3187952041625977,STABILIZE
0.035,0.005,0.05,-0.07645440159183622,0.0019289423989166372,-0.0003822720079591811,-0.0025907051497174086,-0.0010440347587599525,0.04,0.006,0.04,-0.13322228979445508,-0.0007681420557304217,-0.0007993337387667305,0.007310471014056268,0.005742995219559116,0.002,8e-05,0,-0.8409528658119503,-0.0017761912773189838,-6.727622926495603e-05,-0.0,-0.0018434675065839398,0.1,0.02,0,-0.06571129989480605,0.0038102410530816686,-0.001314225997896121,-0.0,0.002496015055185548,-0.01920355139326054,0.0,0.01920355139326054,0.05511263996904677,0.0,-0.05511263996904677,-0.8880956386594919,0.0,0.8880956386594919,0.038102410530816685,0,-0.038102410530816685,-0.001047853691325045,-0.005742299653532049,-0.002496015055185548,0.4,0.03348255157470703,1.3523006439208984,STABILIZE
0.035,0.005,0.05,-0.07410750932708182,0.0024572791925951487,-0.00037053754663540913,-0.008063273003616967,-0.005976531357657227,0.04,0.006,0.04,-0.13488963178176783,-0.001995161167640136,-0.000809337790690607,-0.017135405139322737,-0.01993990409765348,0.002,8e-05,0,-0.8721315831257299,-0.001865441118697559,-6.977052665005839e-05,-0.0,-0.0019352116453476174,0.1,0.02,0,-0.0642505286789774,0.004369940340381252,-0.001285010573579548,0.0,0.003084929766801704,-0.0498790291910034,0.0,0.0498790291910034,0.07020797693128995,0.0,-0.07020797693128995,-0.9327205593487795,0.0,0.9327205593487795,0.043699403403812516,0,-0.043699403403812516,-0.005961321486472582,0.019944456588927125,-0.003084929766801704,0.4,0.03342771530151367,1.3857030868530273,STABILIZE
0.035,0.005,0.05,-0.07162843864004528,0.002594915851762985,-0.0003581421932002264,-0.01030023166946555,-0.008063458010902792,0.04,0.006,0.04,-0.1360399544069028,-0.0013760872711413696,-0.0008162397264414169,-0.022090999878383904,-0.02428332687596669,0.002,8e-05,0,-0.9031696576180424,-0.001856483489777381,-7.22535726094434e-05,-0.0,-0.0019287370623868243,0.1,0.02,0,-0.0631418353760994,0.003315719234660607,-0.0012628367075219879,0.0,0.002052882527138619,-0.03440218177853424,0.0,0.03440218177853424,0.07414045290751385,0.0,-0.07414045290751385,-0.9282417448886904,0.0,0.9282417448886904,0.033157192346606065,0,-0.033157192346606065,-0.008049403847344498,0.024287989150215673,-0.002052882527138619,0.4,0.033437490463256836,1.4191501140594482,STABILIZE
0.035,0.005,0.05,-0.06972794148638412,0.0019901858149990225,-0.0003486397074319206,-0.012094851095374556,-0.010453304987807454,0.04,0.006,0.04,-0.13568159189144402,0.0004288850681710259,-0.0008140895513486641,-0.0014222348628150972,-0.0018074393459927354,0.002,8e-05,0,-0.9344931681730578,-0.0018743849287005544,-7.475945345384463e-05,-0.0,-0.001949144382154399,0.1,0.02,0,-0.06208858736235733,0.0031512946157080885,-0.0012417717472471468,0.0,0.0019095228684609417,0.010722126704275647,0.0,-0.010722126704275647,0.05686245185711492,0.0,-0.05686245185711492,-0.9371924643502771,0.0,0.9371924643502771,0.03151294615708088,0,-0.03151294615708088,-0.01045230930669198,0.0018131884388565504,-0.0019095228684609417,0.4,0.03342270851135254,1.4525694847106934,STABILIZE
0.035,0.005,0.05,-0.0673573066091674,0.0024495721628896624,-0.000336786533045837,-0.003952385462692643,-0.0018395998328488176,0.04,0.006,0.04,-0.13572131716883645,-4.691205458386382e-05,-0.0008143279030130187,0.006198441695977077,0.005337201738380194,0.002,8e-05,0,-0.966149000374341,-0.001869137518479215,-7.729192002994729e-05,-0.0,-0.0019464294385091623,0.1,0.02,0,-0.06155718558309899,0.0015688467715565331,-0.0012311437116619799,-0.0,0.00033770305989455325,-0.0011728013645965953,0.0,0.0011728013645965953,0.06998777608256178,0.0,-0.06998777608256178,-0.9345687592396075,0.0,0.9345687592396075,0.01568846771556533,0,-0.01568846771556533,-0.0018410611719841615,-0.005336697827514528,-0.00033770305989455325,0.4,0.033872127532958984,1.486480474472046,STABILIZE
0.035,0.005,0.05,-0.06558169297840773,0.001857487475153163,-0.0003279084648920386,-0.0006589044749976547,0.0008706745352634698,0.04,0.006,0.04,-0.13491134531972043,0.0009683654718548268,-0.0008094680719183226,0.01042214453450876,0.010581041934445264,0.002,8e-05,0,-0.9972883043645638,-0.0018614367175002822,-7.978306434916511e-05,-0.0,-0.0019412197818494473,0.1,0.02,0,-0.0607742849767268,0.002340000815869246,-0.001215485699534536,-0.0,0.0011245151163347099,0.02420913679637067,0.0,-0.02420913679637067,0.053071070718661795,0.0,-0.053071070718661795,-0.9307183587501411,0.0,0.9307183587501411,0.02340000815869246,0,-0.02340000815869246,0.0008663530891950863,-0.010581396641733432,-0.0011245151163347099,0.4,0.033457279205322266,1.519897222518921,STABILIZE
0.035,0.005,0.05,-0.06438299007021026,0.0012532786884881983,-0.0003219149503510513,-0.010331599435075408,-0.00940023569693826,0.04,0.006,0.04,-0.13301976751947583,0.002260228002358027,-0.0007981186051168551,0.02548164269640973,0.0269437520936509,0.002,8e-05,0,-1.0296521514862302,-0.0019335623815992507,-8.237217211889843e-05,-0.0,-0.002015934553718149,0.1,0.02,0,-0.05966184742472756,0.00332310215521952,-0.0011932369484945512,-0.0,0.0021298652067249686,0.05650570005895067,0.0,-0.05650570005895067,0.03580796252823423,0.0,-0.03580796252823423,-0.9667811907996253,0.0,0.9667811907996253,0.0332310215521952,0,-0.0332310215521952,-0.009415861241705143,-0.026938295512505324,-0.0021298652067249686,0.4,0.03347587585449219,1.5533852577209473,STABILIZE
0.035,0.005,0.05,-0.06262824798957005,0.0018370018646402843,-0.00031314123994785023,-0.006519199770272108,-0.004995339145579674,0.04,0.006,0.04,-0.13034736187524779,0.003197353343709344,-0.0007820841712514867,0.02738480647321002,0.02980007564566788,0.002,8e-05,0,-1.062905477684506,-0.0019892682448705667,-8.503243821476048e-05,-0.0,-0.0020743006830853273,0.1,0.02,0,-0.05937613448060786,0.0008545907310097526,-0.0011875226896121572,-0.0,-0.00033293195860240456,0.0799338335927336,0.0,-0.0799338335927336,0.052485767561150976,0.0,-0.052485767561150976,-0.9946341224352834,0.0,0.9946341224352834,0.008545907310097526,0,-0.008545907310097526,-0.004999783897040372,-0.02979933023827523,0.00033293195860240456,0.4,0.033432722091674805,1.5868091583251953,STABILIZE
0.035,0.005,0.05,-0.06107415868075493,0.001626513611127711,-0.00030537079340377466,-0.003148007353280722,-0.0018268645355567856,0.04,0.006,0.04,-0.12865323592151148,0.002026372915148577,-0.0007719194155290689,0.009580784139062166,0.010835237638681675,0.002,8e-05,0,-1.0956234946729868,-0.0019567288759318653,-8.764987957383895e-05,-0.0,-0.0020443787555057043,0.1,0.02,0,-0.05845027463347456,0.0027685918412925564,-0.0011690054926694912,-0.0,0.0015995863486230652,0.05065932287871442,0.0,-0.05065932287871442,0.04647181746079174,0.0,-0.04647181746079174,-0.9783644379659326,0.0,0.9783644379659326,0.027685918412925562,0,-0.027685918412925562,-0.0018321000219418914,-0.010834353613740862,-0.0015995863486230652,0.4,0.03344154357910156,1.6202564239501953,STABILIZE
0.035,0.005,0.05,-0.06001168107381398,0.0010871353282865491,-0.00030005840536906993,-0.011528244209510277,-0.010741167286592797,0.04,0.006,0.04,-0.1265521909919751,0.0024569205350584177,-0.0007593131459518506,0.01490752617626167,0.016605133565368236,0.002,8e-05,0,-1.1289959711189248,-0.0019512558140265756,-9.031967768951399e-05,-0.0,-0.0020415754917160896,0.1,0.02,0,-0.05729378058350274,0.003380953377179369,-0.0011458756116700549,0.0,0.002235077765509314,0.06142301337646044,0.0,-0.06142301337646044,0.031061009379615687,0.0,-0.031061009379615687,-0.9756279070132877,0.0,0.9756279070132877,0.03380953377179369,0,-0.03380953377179369,-0.010750963900757863,-0.016598792444237967,-0.002235077765509314,0.4,0.03420615196228027,1.654475212097168,STABILIZE
0.035,0.005,0.05,-0.05831740215944977,0.0017720867013442437,-0.00029158701079724884,-0.0006238133502687382,0.0008566863402782567,0.04,0.006,0.04,-0.12296464056848168,0.004288348000843605,-0.0007377878434108901,0.019784334723095896,0.02333489488052861,0.002,8e-05,0,-1.1614045654556782,-0.0019369669318659423,-9.291236523645426e-05,-0.0,-0.0020298792971023966,0.1,0.02,0,-0.057324033885831044,-9.040757149285338e-05,-0.001146480677716621,-0.0,-0.0012368882492094742,0.10720870002109012,0.0,-0.10720870002109012,0.05063104860983553,0.0,-0.05063104860983553,-0.9684834659329711,0.0,0.9684834659329711,-0.0009040757149285338,0,0.0009040757149285338,0.0008570545437626978,-0.023334881359886005,0.0012368882492094742,0.4,0.033463239669799805,1.6879279613494873,STABILIZE
0.035,0.005,0.05,-0.05707492894438541,0.001299430511336836,-0.000285374644721927,0.000497771895200636,0.001511827761815545,0.04,0.006,0.04,-0.12003427025555753,0.003502518822215927,-0.0007202056215333452,0.007369861373936025,0.010152174574618606,0.002,8e-05,0,-1.1937380961440411,-0.0019323291552131431,-9.54990476915233e-05,0.0,-0.0020278282029046663,0.1,0.02,0,-0.05690077863547222,0.0012647373221442507,-0.0011380155727094446,-0.0,0.0001267217494348061,0.08756297055539818,0.0,-0.08756297055539818,0.03712658603819531,0.0,-0.03712658603819531,-0.9661645776065715,0.0,0.9661645776065715,0.012647373221442505,0,-0.012647373221442505,0.0015095867511995306,-0.010152508045578271,-0.0001267217494348061,0.4,0.03346586227416992,1.7214229106903076,STABILIZE
0.035,0.005,0.05,-0.05573095915764501,0.0014076557683356315,-0.00027865479578822506,-0.0035653596075148086,-0.002436358634967402,0.04,0.006,0.04,-0.11724716284129905,0.0033362041042113663,-0.0007034829770477943,0.0007684201504313597,0.0034011412775949317,0.002,8e-05,0,-1.22553459351354,-0.0019030412046729594,-9.804276748108321e-05,0.0,-0.0020010839721540425,0.1,0.02,0,-0.05654572349356059,0.0010625141460345363,-0.0011309144698712118,0.0,-6.84003238366755e-05,0.08340510260528415,0.0,-0.08340510260528415,0.0402187362381609,0.0,-0.0402187362381609,-0.9515206023364797,0.0,0.9515206023364797,0.010625141460345362,0,-0.010625141460345362,-0.0024369893133008233,-0.003400689411751372,6.84003238366755e-05,0.4,0.0334165096282959,1.7548127174377441,STABILIZE
0.035,0.005,0.05,-0.05429624721788172,0.0015003963053905522,-0.0002714812360894086,-0.0009752867759487333,0.00025362829335241017,0.04,0.006,0.04,-0.11373042334706339,0.004203135773755991,-0.0006823825400823803,0.012952264161774895,0.016473017395448507,0.002,8e-05,0,-1.2571664046107776,-0.0018902849788762532,-0.00010057331236886221,0.0,-0.0019908582912451156,0.1,0.02,0,-0.05696368913390208,-0.001248860157256244,-0.0011392737826780416,-0.0,-0.0023881339399342855,0.10507839434389976,0.0,-0.10507839434389976,0.04286846586830149,0.0,-0.04286846586830149,-0.9451424894381265,0.0,0.9451424894381265,-0.012488601572562439,0,0.012488601572562439,0.00025721886504665115,-0.016472961721481723,0.0023881339399342855,0.4,0.033467769622802734,1.788367509841919,STABILIZE
0.035,0.005,0.05,-0.0529477327309942,0.0011250378761450508,-0.000264738663654971,0.0009736294045065231,0.0018339286169966028,0.04,0.006,0.04,-0.10939298046139555,0.004135587782549127,-0.0006563578827683733,0.010112872375091689,0.013592102274872443,0.002,8e-05,0,-1.296550961583334,-0.0018775842925218798,-0.00010372407692666672,0.0,-0.0019813083694485466,0.1,0.02,0,-0.05707700180800762,-0.000270098375351102,-0.0011415400361601525,-0.0,-0.0014116384115112545,0.10338969456372817,0.0,-0.10338969456372817,0.03214393931843002,0.0,-0.03214393931843002,-0.9387921462609399,0.0,0.9387921462609399,-0.0027009837535110198,0,0.0027009837535110198,0.0018345693610612502,-0.01359201580643162,0.0014116384115112545,0.4,0.04195237159729004,1.830232858657837,STABILIZE
0.035,0.005,0.05,-0.05166997962046651,0.0013314521180256683,-0.0002583498981023326,-0.003118761907163261,-0.002045659687239925,0.04,0.006,0.04,-0.10585877214559042,0.00420884272453569,-0.0006351526328735426,-0.0003968423521426434,0.0031768477395195042,0.002,8e-05,0,-1.3278164976637967,-0.0018616860170986515,-0.00010622531981310374,0.0,-0.001967911336911755,0.1,0.02,0,-0.05722472612585485,-0.0004398074228023272,-0.001144494522517097,-0.0,-0.0015843019453194243,0.10522106811339224,0.0,-0.10522106811339224,0.038041489086447666,0.0,-0.038041489086447666,-0.9308430085493257,0.0,0.9308430085493257,-0.004398074228023271,0,0.004398074228023271,-0.002045415823597927,-0.003177004756789632,0.0015843019453194243,0.4,0.033588409423828125,1.863825798034668,STABILIZE
0.035,0.005,0.05,-0.05077045049059817,0.0009409730428140918,-0.00025385225245299085,-0.0024179124667073728,-0.0017307916763462717,0.04,0.006,0.04,-0.10194340848308324,0.0046808637819812675,-0.0006116604508984994,0.0071209947513150565,0.011190198082397825,0.002,8e-05,0,-1.3587245704888602,-0.0018475484160395458,-0.00010869796563910883,0.0,-0.0019562463816786544,0.1,0.02,0,-0.057318020383683374,-0.0002788359844566223,-0.0011463604076736675,-0.0,-0.0014251963921302897,0.11702159454953168,0.0,-0.11702159454953168,0.02688494408040262,0.0,-0.02688494408040262,-0.9237742080197728,0.0,0.9237742080197728,-0.0027883598445662227,0,0.0027883598445662227,-0.0017302470914454036,-0.01119028229995804,0.0014251963921302897,0.4,0.03345847129821777,1.8972926139831543,STABILIZE
0.035,0.005,0.05,-0.050234486388885155,0.0005609533166631861,-0.0002511724319444258,-0.006590089908934966,-0.006280309024216206,0.04,0.006,0.04,-0.09768452002690935,0.005094237995532324,-0.0005861071201614561,0.010588671811463597,0.015096802686834464,0.002,8e-05,0,-1.3892436269934936,-0.0018252572101098636,-0.0001111394901594795,0.0,-0.0019363967002693431,0.1,0.02,0,-0.057351726468657827,-0.00010079321196389039,-0.0011470345293731565,-0.0,-0.0012478277413370468,0.1273559498883081,0.0,-0.1273559498883081,0.016027237618948174,0.0,-0.016027237618948174,-0.9126286050549318,0.0,0.9126286050549318,-0.0010079321196389038,0,0.0010079321196389038,-0.006280043444305445,-0.015096913166025032,0.0012478277413370468,0.4,0.03344082832336426,1.9307308197021484,STABILIZE
0.035,0.005,0.05,-0.04940589625476999,0.0008672600761883181,-0.00024702948127384994,-0.004764656815207315,-0.004144426220292846,0.04,0.006,0.04,-0.09407076492590144,0.004322751409982641,-0.0005644245895554086,0.0007937386867875987,0.004552065507214831,0.002,8e-05,0,-1.4195163091542349,-0.0018105997201885993,-0.0001135613047323388,0.0,-0.0019241610249209381,0.1,0.02,0,-0.05751300065410077,-0.00048228794773810834,-0.0011502600130820155,0.0,-0.0016325479608201238,0.10806878524956604,0.0,-0.10806878524956604,0.02477885931966623,0.0,-0.02477885931966623,-0.9052998600942996,0.0,0.9052998600942996,-0.004822879477381083,0,0.004822879477381083,-0.0041440430349217044,-0.004552414348688263,0.0016325479608201238,0.4,0.03343939781188965,1.9641714096069336,STABILIZE
0.035,0.005,0.05,-0.04869802928917027,0.0007407179669605569,-0.00024349014644585134,-0.003289235758936228,-0.0027920079384215223,0.04,0.006,0.04,-0.09047893583768024,0.004295451739123958,-0.0005428736150260814,0.0009525232156286139,0.004705101339726491,0.002,8e-05,0,-1.4496751191884234,-0.0018033390485656432,-0.00011597400953507389,0.0,-0.0019193130581007171,0.1,0.02,0,-0.05773000270722142,-0.0006487793708832982,-0.0011546000541444285,-0.0,-0.0018033794250277267,0.10738629347809894,0.0,-0.10738629347809894,0.021163370484587336,0.0,-0.021163370484587336,-0.9016695242828215,0.0,0.9016695242828215,-0.006487793708832981,0,0.006487793708832981,-0.002791475146082917,-0.004705417458005844,0.0018033794250277267,0.4,0.0334477424621582,1.997621774673462,STABILIZE
0.035,0.005,0.05,-0.04822477637565697,0.0004954383291778129,-0.00024112388187828485,-0.0071412114828950535,-0.006886897035595525,0.04,0.006,0.04,-0.08646504510093055,0.0048023498963002,-0.0005187902706055833,0.0035486789320514434,0.00783223855774606,0.002,8e-05,0,-1.4798273762108218,-0.0018037572256138117,-0.00011838619009686575,0.0,-0.0019221434157106775,0.1,0.02,0,-0.0579610911938366,-0.0006912045210722401,-0.001159221823876732,-0.0,-0.0018504263449489722,0.120058747407505,0.0,-0.120058747407505,0.014155380833651796,0.0,-0.014155380833651796,-0.9018786128069058,0.0,0.9018786128069058,-0.006912045210722401,0,0.006912045210722401,-0.006885952120303725,-0.007833069321870141,0.0018504263449489722,0.4,0.033432722091674805,2.031069040298462,STABILIZE
0.035,0.005,0.05,-0.047784134669046685,0.00046029391346574995,-0.00023892067334523344,-0.004106454309582985,-0.0038850810694624686,0.04,0.006,0.04,-0.08327323091346585,0.003810475550579553,-0.0004996393854807951,-0.005193489332565239,-0.0018826531674664814,0.002,8e-05,0,-1.509934435122348,-0.0017971317430190738,-0.00012079475480978786,0.0,-0.0019179264978288616,0.1,0.02,0,-0.058054083576094345,-0.0002775421579793931,-0.001161081671521887,0.0,-0.0014386238295012801,0.09526188876448882,0.0,-0.09526188876448882,0.013151254670449997,0.0,-0.013151254670449997,-0.8985658715095368,0.0,0.8985658715095368,-0.002775421579793931,0,0.002775421579793931,-0.003885172261084459,0.0018824649709800949,0.0014386238295012801,0.4,0.03350567817687988,2.064645528793335,STABILIZE
0.035,0.005,0.05,-0.04735598948462741,0.00044768604621076366,-0.00023677994742313704,-0.0009672317188670992,-0.0007563256200794727,0.04,0.006,0.04,-0.07973004319623482,0.004234173047127135,-0.00047838025917740896,-0.005134131263050769,-0.0013783384751010434,0.002,8e-05,0,-1.5398273576012393,-0.0017861289996638529,-0.00012318618860809915,0.0,-0.001909315188271952,0.1,0.02,0,-0.058135481991971175,-0.00024318142735454303,-0.0011627096398394235,-0.0,-0.0014058910671939666,0.10585432617817836,0.0,-0.10585432617817836,0.012791029891736104,0.0,-0.012791029891736104,-0.8930644998319264,0.0,0.8930644998319264,-0.0024318142735454303,0,0.0024318142735454303,-0.0007563841204467484,0.0013783063730058232,0.0014058910671939666,0.4,0.033472299575805664,2.09808087348938,STABILIZE
0.035,0.005,0.05,-0.046996971749147916,0.00037577561666504906,-0.0002349848587457396,-0.004198815048158487,-0.004058024290239177,0.04,0.006,0.04,-0.07598604931949482,0.0044785741563694685,-0.00045591629591696894,0.0009418719177930842,0.004964529778245584,0.002,8e-05,0,-1.5692787069930945,-0.001761488621496079,-0.00012554229655944757,0.0,-0.0018870309180555266,0.1,0.02,0,-0.058513623763306793,-0.001130835159125642,-0.0011702724752661359,-0.0,-0.002301107634391778,0.11196435390923672,0.0,-0.11196435390923672,0.010736446190429972,0.0,-0.010736446190429972,-0.8807443107480395,0.0,0.8807443107480395,-0.01130835159125642,0,0.01130835159125642,-0.004057044372051564,-0.004965330605555188,0.002301107634391778,0.4,0.03343915939331055,2.131491184234619,STABILIZE
0.035,0.005,0.05,-0.04667707379442844,0.0002653686272363608,-0.0002333853689721422,-0.003865528908349083,-0.0038335456500848642,0.04,0.006,0.04,-0.07160826080438892,0.0041503511137874465,-0.00042964956482633354,-0.0004507453797599121,0.003269956169201201,0.002,8e-05,0,-1.6062157678317013,-0.0017509042643627762,-0.0001284972614265361,0.0,-0.0018794015257893124,0.1,0.02,0,-0.05869738192968275,-0.00043552863954846624,-0.001173947638593655,0.0,-0.0016094762781421212,0.10375877784468616,0.0,-0.10375877784468616,0.0075819607781817365,0.0,-0.0075819607781817365,-0.8754521321813881,0.0,0.8754521321813881,-0.004355286395484662,0,0.004355286395484662,-0.0038332970762754554,-0.0032702475632281455,0.0016094762781421212,0.4,0.04219198226928711,2.1736834049224854,STABILIZE
0.035,0.005,0.05,-0.04642903174447582,0.0002587234025860209,-0.00023214515872237908,-0.0018259647570593855,-0.0017993865131957435,0.04,0.006,0.04,-0.06838337953279852,0.0038442894463426793,-0.0004103002771967911,-0.005307330026056188,-0.0018733408569103003,0.002,8e-05,0,-1.635452360902577,-0.001742605645353798,-0.00013083618887220618,0.0,-0.001873441834226004,0.1,0.02,0,-0.05875690212102038,-0.0001773808274891286,-0.0011751380424204077,0.0,-0.0013525188699095364,0.09610723615856698,0.0,-0.09610723615856698,0.007392097216743455,0.0,-0.007392097216743455,-0.871302822676899,0.0,0.871302822676899,-0.001773808274891286,0,0.001773808274891286,-0.0017994445087084108,0.0018732851491749195,0.0013525188699095364,0.4,0.033555030822753906,2.207244396209717,STABILIZE
0.035,0.005,0.05,-0.046242288112982824,0.00019536833394452396,-0.00023121144056491413,-0.002067346643552373,-0.0021031897501727634,0.04,0.006,0.04,-0.06485931836823833,0.004213507365666895,-0.00038915591020943,0.0028205623001462915,0.006644913755603757,0.002,8e-05,0,-1.6644700032190836,-0.0017347322297419133,-0.0001331576002575267,0.0,-0.00186788982999944,0.1,0.02,0,-0.05890441768059088,-0.00044093864136886154,-0.0011780883536118177,-0.0,-0.0016190269949806792,0.10533768414167238,0.0,-0.10533768414167238,0.00558195239841497,0.0,-0.00558195239841497,-0.8673661148709566,0.0,0.8673661148709566,-0.004409386413688615,0,0.004409386413688615,-0.0021026783626063275,-0.006645075593856776,0.0016190269949806792,0.4,0.03345489501953125,2.240696668624878,STABILIZE
0.035,0.005,0.05,-0.04611866423877347,0.00012923762215300135,-0.00023059332119386737,-0.0025240846132404517,-0.0026254403122813177,0.04,0.006,0.04,-0.061002981564937546,0.004607374488529504,-0.00036601788938962526,0.0026418036001831847,0.006883160199323064,0.002,8e-05,0,-1.6935285025508307,-0.0017358881669962928,-0.00013548228020406647,0.0,-0.0018713704472003592,0.1,0.02,0,-0.059141793936349295,-0.0007090156803911913,-0.0011828358787269858,-0.0,-0.001891851559118177,0.11518436221323759,0.0,-0.11518436221323759,0.0036925034900857526,0.0,-0.0036925034900857526,-0.8679440834981463,0.0,0.8679440834981463,-0.007090156803911913,0,0.007090156803911913,-0.002624588524642372,-0.006883485035882081,0.001891851559118177,0.4,0.03347969055175781,2.274178981781006,STABILIZE
0.035,0.005,0.05,-0.04615463308784923,-3.7648036508203845e-05,-0.00023077316543924616,-0.0033355918463234876,-0.0036040130482709377,0.04,0.006,0.04,-0.057491120199630846,0.004200926660235819,-0.0003449467211977851,-0.0012509487734184313,0.0026050311656196025,0.002,8e-05,0,-1.7224234442126087,-0.001728222132742435,-0.0001377938755370087,0.0,-0.0018660160082794438,0.1,0.02,0,-0.05911428261818663,8.22733430407445e-05,-0.0011822856523637326,0.0,-0.001100012309322988,0.10502316650589547,0.0,-0.10502316650589547,-0.001075658185948681,0.0,0.001075658185948681,-0.8641110663712175,0.0,0.8641110663712175,0.0008227334304074449,0,-0.0008227334304074449,-0.003604050454602722,-0.0026049794138600243,0.001100012309322988,0.4,0.033438920974731445,2.307640790939331,STABILIZE
0.035,0.005,0.05,-0.04605347303545616,0.00010589549355183519,-0.0002302673651772808,-0.0013613046705511372,-0.0014856765421765827,0.04,0.006,0.04,-0.054230036154854146,0.003901416998015658,-0.0003253802169291249,-0.001486694420900238,0.002089342360186295,0.002,8e-05,0,-1.7513824619946112,-0.0017322645272130443,-0.00014011059695956892,0.0,-0.0018723751241726133,0.1,0.02,0,-0.059128612187819084,-4.285816140482196e-05,-0.0011825722437563816,0.0,-0.0012254304051612036,0.09753542495039144,0.0,-0.09753542495039144,0.0030255855300524337,0.0,-0.0030255855300524337,-0.8661322636065222,0.0,0.8661322636065222,-0.00042858161404821953,0,0.00042858161404821953,-0.0014856609135192878,-0.0020893534732265,0.0012254304051612036,0.4,0.03343486785888672,2.3410773277282715,STABILIZE
0.035,0.005,0.05,-0.046128519778906515,-7.503480335930822e-05,-0.00023064259889453258,-0.0027814689543961373,-0.003087146356649978,0.04,0.006,0.04,-0.05058451884538109,0.004165642628777877,-0.00030350711307228657,0.001847163245207701,0.005709298760913291,0.002,8e-05,0,-1.7814377033835551,-0.0017171691164743167,-0.0001425150162706844,0.0,-0.001859684132745001,0.1,0.02,0,-0.059188773326054225,-0.00017186161849847665,-0.0011837754665210845,0.0,-0.001355637085019561,0.10414106571944692,0.0,-0.10414106571944692,-0.0021438515245516634,0.0,0.0021438515245516634,-0.8585845582371583,0.0,0.8585845582371583,-0.0017186161849847665,0,0.0017186161849847665,-0.0030869751019273837,-0.0057093913588773795,0.001355637085019561,0.4,0.03500556945800781,2.376054048538208,STABILIZE
0.035,0.005,0.05,-0.04629369462849523,-0.0001689657900417922,-0.00023146847314247615,-0.0030247807835166625,-0.003425215046700931,0.04,0.006,0.04,-0.04708911514739184,0.00408643082556004,-0.00028253469088435106,-0.0008231221552578276,0.002980773979417861,0.002,8e-05,0,-1.8108415068298345,-0.001718780134905516,-0.00014486732054638676,0.0,-0.0018636474554519027,0.1,0.02,0,-0.059239315344943665,-0.00014772003595368168,-0.0011847863068988732,0.0,-0.001332506342852555,0.10216077063900099,0.0,-0.10216077063900099,-0.004827594001194062,0.0,0.004827594001194062,-0.859390067452758,0.0,0.859390067452758,-0.0014772003595368167,0,0.0014772003595368167,-0.0034251381952180465,-0.00298086228735571,0.001332506342852555,0.4,0.03421473503112793,2.4102766513824463,STABILIZE
0.035,0.005,0.05,-0.046578052581320216,-0.00029228963963531893,-0.00023289026290660109,-0.0034952302533432685,-0.004020410155885189,0.04,0.006,0.04,-0.043543997978532166,0.00416457399940254,-0.000261263987871193,-0.0027170064058350874,0.0011863036056962597,0.002,8e-05,0,-1.8400156452763885,-0.001713594398186991,-0.0001472012516221111,0.0,-0.001860795649809102,0.1,0.02,0,-0.05930468018636469,-0.00019196595351504063,-0.001186093603727294,0.0,-0.0013780595572423346,0.10411434998506351,0.0,-0.10411434998506351,-0.008351132561009111,0.0,0.008351132561009111,-0.8567971990934954,0.0,0.8567971990934954,-0.0019196595351504062,0,0.0019196595351504062,-0.004020370407262558,-0.001186438306377625,0.0013780595572423346,0.4,0.03405022621154785,2.4443743228912354,STABILIZE
0.035,0.005,0.05,-0.0469807841294091,-0.00042158697192312314,-0.0002349039206470455,-0.0031742037438303064,-0.003830694636400475,0.04,0.006,0.04,-0.039978045964913396,0.004266177999651802,-0.00023986827578948038,0.00032175713804407334,0.004348066861906395,0.002,8e-05,0,-1.8687246546182459,-0.0017173218200676032,-0.00014949797236945967,0.0,-0.0018668197924370628,0.1,0.02,0,-0.05938422060657621,-0.00023789831543825267,-0.0011876844121315243,-0.0,-0.0014255827275697769,0.10665444999129504,0.0,-0.10665444999129504,-0.012045342054946374,0.0,0.012045342054946374,-0.8586609100338016,0.0,0.8586609100338016,-0.0023789831543825266,0,0.0023789831543825266,-0.003830514096627779,-0.004348225912770835,0.0014255827275697769,0.4,0.03343462944030762,2.4777817726135254,STABILIZE
0.035,0.005,0.05,-0.047430312991785455,-0.00047060884075821627,-0.00023715156495892728,-0.004819784768883174,-0.005527545174600318,0.04,0.006,0.04,-0.03635512220045347,0.0043346460722322915,-0.00021813073320272081,0.0025229508580614235,0.006639466197090994,0.002,8e-05,0,-1.8972867449810928,-0.001708655230625791,-0.00015178293959848744,0.0,-0.0018604381702242783,0.1,0.02,0,-0.05945030993611548,-0.00019768139721437793,-0.0011890061987223095,-0.0,-0.0013866875959366873,0.10836615180580729,0.0,-0.10836615180580729,-0.013445966878806177,0.0,0.013445966878806177,-0.8543276153128955,0.0,0.8543276153128955,-0.001976813972143779,0,0.001976813972143779,-0.00552731609702855,-0.0066396569040192335,0.0013866875959366873,0.4,0.0334322452545166,2.511198043823242,STABILIZE
0.035,0.005,0.05,-0.04804726194501581,-0.0006455069717727373,-0.00024023630972507906,-0.004836866397255171,-0.005722609678752987,0.04,0.006,0.04,-0.032917480878260456,0.004110590494558874,-0.00019750488526956275,-0.000326252016723688,0.003586833592565623,0.002,8e-05,0,-1.9262753012404574,-0.0017331663289221824,-0.0001541020240992366,-0.0,-0.001887268353021419,0.1,0.02,0,-0.059350853811541114,0.00029731388616791537,-0.0011870170762308223,0.0,-0.000889703190062907,0.10276476236397183,0.0,-0.10276476236397183,-0.01844305633636392,0.0,0.01844305633636392,-0.8665831644610912,0.0,0.8665831644610912,0.0029731388616791535,0,-0.0029731388616791535,-0.005722795795653569,-0.003586536635441552,0.000889703190062907,0.4,0.03345155715942383,2.5446653366088867,STABILIZE
0.035,0.005,0.05,-0.04860066997821873,-0.0005783981934480721,-0.00024300334989109366,-0.0034799194354910067,-0.004301320978830172,0.04,0.006,0.04,-0.029295412546800983,0.0043264337213725955,-0.0001757724752808059,0.001425861269232293,0.0055765225153240824,0.002,8e-05,0,-1.9552046302547499,-0.0017277534978707232,-0.00015641637042038,-0.0,-0.0018841698682911033,0.1,0.02,0,-0.059394752603912644,-0.00013108892369184067,-0.001187895052078253,0.0,-0.0013189839757700935,0.10816084303431488,0.0,-0.10816084303431488,-0.016525662669944916,0.0,0.016525662669944916,-0.8638767489353616,0.0,0.8638767489353616,-0.0013108892369184067,0,0.0013108892369184067,-0.004301193390587034,-0.005576620925220882,0.0013189839757700935,0.4,0.033487796783447266,2.578141689300537,STABILIZE
0.035,0.005,0.05,-0.04915523698915287,-0.0005813561664716174,-0.00024577618494576434,-0.0024704263841163246,-0.0032975587355337063,0.04,0.006,0.04,-0.025691186595215854,0.004318095154285276,-0.00015414711957129513,0.0009169228704771353,0.005080870905191116,0.002,8e-05,0,-1.9839746161717775,-0.0017234149363268454,-0.00015871796929374223,-0.0,-0.0018821329056205875,0.1,0.02,0,-0.05955177045226763,-0.00047029377404860027,-0.0011910354090453527,-0.0,-0.001661329183093953,0.10795237885713188,0.0,-0.10795237885713188,-0.016610176184903354,0.0,0.016610176184903354,-0.8617074681634227,0.0,0.8617074681634227,-0.004702937740486002,0,0.004702937740486002,-0.00329714167765996,-0.005081141557460284,0.001661329183093953,0.4,0.033387184143066406,2.6115264892578125,STABILIZE
0.035,0.005,0.05,-0.04975018954054525,-0.0006221730991610785,-0.00024875094770272625,-0.0017139653615411152,-0.00258488940840492,0.04,0.006,0.04,-0.022269615373475434,0.004089276057966554,-0.0001336176922408526,-0.0010582149377402336,0.002897443427985468,0.002,8e-05,0,-2.012866431543037,-0.0017264964136678993,-0.000161029314523443,-0.0,-0.0018875257281913422,0.1,0.02,0,-0.05966804430351012,-0.0003474104769706027,-0.0011933608860702025,-0.0,-0.0015407713630408051,0.10223190144916385,0.0,-0.10223190144916385,-0.0177763742617451,0.0,0.0177763742617451,-0.8632482068339496,0.0,0.8632482068339496,-0.0034741047697060268,0,0.0034741047697060268,-0.002584713718426233,-0.002897600156308553,0.0015407713630408051,0.4,0.03346872329711914,2.6450002193450928,STABILIZE
0.035,0.005,0.05,-0.05030342960630938,-0.0005791297346497868,-0.0002515171480315469,-0.0009272035944006556,-0.0017578504770819894,0.04,0.006,0.04,-0.01879047233814128,0.004162233788181284,-0.00011274283402884769,-0.001031397148799715,0.003018093805352721,0.002,8e-05,0,-2.041826173039251,-0.0017322831129442178,-0.00016334609384314008,-0.0,-0.0018956292067873579,0.1,0.02,0,-0.05966090651583885,2.1348030762535646e-05,-0.0011932181303167771,0.0,-0.0011718700995542416,0.1040558447045321,0.0,-0.1040558447045321,-0.016546563847136764,0.0,0.016546563847136764,-0.8661415564721089,0.0,0.8661415564721089,0.00021348030762535644,0,-0.00021348030762535644,-0.0017578617222888855,-0.003018087255696462,0.0011718700995542416,0.4,0.03343534469604492,2.6784415245056152,STABILIZE
