Mode,Time,Freq,North-Vision,East-Vision,Down-Vision,Yaw-Vision,North-Desired,East-Desired,Down-Desired,Roll-UAV,Pitch-UAV,Yaw-UAV,Roll-Control,Pitch-Control,Yaw-Control,Thrust-Control,zGyro
GUIDED_NOGPS,0.06215071678161621,16.096711427683264,221.88352556758431,33.83869231342252,-17.97937930723518,-0.0002763860646047394,300,0,50,-0.9521197258416092,0.8760262958457896,99.77963811283168,0.7406615190716327,1.7098139042058476,5.527721292094789e-05,0.5080400636591568,13.235325067522018
GUIDED_NOGPS,0.07581686973571777,73.21818975298945,221.31776137430853,33.64325225375539,-18.203812267441325,0.48187858624219165,300,0,50,-0.8023502725684786,0.7999465262283101,100.0324575649597,0.6816505389013637,1.6010985491637382,-0.09637571724843834,0.5069893179467629,13.80828286265284
GUIDED_NOGPS,0.11078977584838867,28.59863221988122,220.9937775481877,33.409662792860566,-18.497802193652245,0.6775503661888339,300,0,50,-0.6181813185925192,0.5829806580443891,100.73699157784651,0.6823543883835651,1.6156037392130713,-0.1355100732377668,0.5070833194223745,14.954198452914486
GUIDED_NOGPS,0.148956298828125,26.207684280903017,221.28783573254807,32.96550249743973,-19.244379119640143,1.1657852370054167,300,0,50,-0.4465795391634131,0.4616585691383914,101.37988313347397,0.6779941972990706,1.620014888441544,-0.23315704740108334,0.5072482899773122,14.78231111437524
GUIDED_NOGPS,0.18746471405029297,25.977034844111927,221.49014337499662,32.40171523536055,-20.02081683023368,1.6823623102331011,300,0,50,-0.07602484795964175,0.3580536174134365,101.98686155444548,0.671417071720233,1.6283193105942653,-0.33647246204662024,0.5074074355218152,13.922874421679005
GUIDED_NOGPS,0.22571182250976562,26.15082081688894,221.50770384786787,31.77245202821246,-20.830592026571857,2.1802429791231663,300,0,50,0.5732996119478365,0.1815251905194884,102.44972981411891,0.6635052907888657,1.640446426718331,-0.4360485958246333,0.5075706660331202,12.891550390443523
GUIDED_NOGPS,0.27077198028564453,22.1954903133285,222.21994515305738,30.973151530954443,-21.802945430833304,2.6602574263854106,300,0,50,1.7300261921136402,0.08381618615213546,103.0774651799781,0.6529898375593601,1.6387184607478291,-0.5320514852770821,0.5077655128216845,12.605071492878112
GUIDED_NOGPS,0.30650901794433594,28.02836045307227,222.77904866077841,30.142006178835626,-22.75137863871181,3.20201691145973,300,0,50,2.4440461638188395,-0.07486346233668835,103.43359124330256,0.6400991168865632,1.6385479848827793,-0.640403382291946,0.5079431962415312,11.917522138721123
GUIDED_NOGPS,0.3411712646484375,28.817720858010524,223.90360836940891,29.520901569485613,-24.06523637319181,3.635411251941587,300,0,50,3.1100638862023064,-0.13855660385307042,103.90624033386744,0.6323142087183202,1.6249394296884552,-0.7270822503883174,0.508162900581323,12.490479933851947
GUIDED_NOGPS,0.3836238384246826,23.561387740427826,224.5211376070954,28.875915597788605,-25.06851374783588,4.0346965079288175,300,0,50,3.553439426314749,-0.3093541018269811,104.39747436916393,0.6245858811670819,1.6271857734688753,-0.8069393015857635,0.5083445393280703,12.3185925953127
GUIDED_NOGPS,0.416581392288208,30.36292430088534,226.340107712294,28.533960723422876,-26.535170784148235,4.553223714343286,300,0,50,3.67776103548344,-0.3163179866139116,104.87447429023011,0.6219660936329905,1.5963740621217268,-0.9106447428686573,0.508587571509215,12.433184154338864
GUIDED_NOGPS,0.45878028869628906,23.69529405118355,227.97782305167243,28.0818499002993,-27.878127530362494,4.931927936793853,300,0,50,3.664627435483152,-0.22327941757624573,105.40007100724094,0.6176533208426533,1.5774927687070346,-0.9863855873587707,0.5088077533975851,12.08940947726037
GUIDED_NOGPS,0.497455358505249,25.859319222920277,230.0411666478306,27.68697597865148,-29.53833161403358,5.430786669601526,300,0,50,3.6495920546858382,-0.09253212118287997,105.8319302080825,0.6140130570295311,1.5453595460336318,-1.0861573339203052,0.5090765878263676,12.08940947726037
GUIDED_NOGPS,0.5366194248199463,25.53811869432588,231.93850739643932,27.28477195021689,-30.79576132200025,5.881655024439314,300,0,50,3.5796413126313875,0.20295880438266445,106.38051734183959,0.610342307162641,1.5189046993848274,-1.1763310048878628,0.5092869293456143,12.3185925953127
GUIDED_NOGPS,0.5810017585754395,22.536935542803104,233.11967667454073,26.633510892992422,-31.238808196871144,6.342373909886922,300,0,50,3.3906591563638315,0.39436973323039426,106.9074596061169,0.601573474693931,1.5092229445788825,-1.2684747819773845,0.5094175958710981,11.802930579694959
GUIDED_NOGPS,0.6163675785064697,28.28485110056107,234.58782929810104,26.408842070515135,-31.312944889846445,6.843045079486705,300,0,50,3.3474360117486985,0.43285085893168745,107.02508912400286,0.6016295277767971,1.487562143375114,-1.3686090158973412,0.5095029499775482,11.516451682129548
GUIDED_NOGPS,0.6525063514709473,27.679145796625157,235.57739029594353,25.96834383650742,-30.898972119110965,7.20520005149322,300,0,50,3.024475639486523,0.7023021418538078,107.71263645642385,0.5960144468121076,1.4785695685629834,-1.441040010298644,0.5095361267604394,10.886198107485642
GUIDED_NOGPS,0.6926028728485107,24.946939552367528,235.87114414139347,25.683968973598436,-30.580654686877722,7.558096085413798,300,0,50,2.8503427413613984,0.7530319845319023,108.1401038456291,0.5949464308008313,1.484963866925801,-1.5116192170827596,0.509604598614896,9.568395178684748
GUIDED_NOGPS,0.7282731533050537,28.04129004653153,236.3048576216569,25.28065040678182,-30.005617604824437,7.929461513491377,300,0,50,2.795036351774278,0.6265905621212743,108.46817832203233,0.5900654180595843,1.4848931381413282,-1.5858923026982756,0.5096245155154685,8.938141604040842
GUIDED_NOGPS,0.7689106464385986,24.60810588815095,237.22939245314564,24.85487742789998,-29.631849670728872,8.222209971417328,300,0,50,2.767008883958542,0.48332723755855106,108.76342690928446,0.5857001169389086,1.475612673505169,-1.6444419942834658,0.50969170711561,7.849521793292278
GUIDED_NOGPS,0.8092684745788574,24.786247407206048,238.3106139834252,24.83147182190736,-29.76467538429956,8.537782418081902,300,0,50,2.7642947375371083,0.19983591382808769,109.07315549757703,0.5902105229550391,1.4634864273536068,-1.7075564836163803,0.5098136762110019,6.990085100596044
GUIDED_NOGPS,0.8469181060791016,26.564049298896727,238.77119220526475,24.51140841478242,-30.38781586316533,8.81833756027887,300,0,50,2.753936755660784,0.12040791077427385,109.31396064695501,0.5867128093701449,1.4649704323843598,-1.763667512055774,0.5099801024131576,6.41712730546522
GUIDED_NOGPS,0.8910293579101562,22.67681660899654,239.8138982401518,24.368641839120297,-31.543726452333896,9.031229645344819,300,0,50,2.615066203229731,0.0944082620900914,109.56731285383829,0.5886679766185441,1.453552348753513,-1.8062459290689639,0.5102130082488915,4.92743703812508
GUIDED_NOGPS,0.9314079284667969,24.789177241000242,240.08357384488698,24.070634173424153,-32.709814812955464,9.236786217388104,300,0,50,2.506688603461377,0.15937659458842957,109.73185894113307,0.5861781142678959,1.459530564615943,-1.8473572434776209,0.5104323342734666,3.4377467707849396
GUIDED_NOGPS,0.9672338962554932,27.90324383299183,241.42238320712954,24.104017973500927,-33.874113808983175,9.36688386725028,300,0,50,2.505520427669893,0.1447275997268976,109.82216770233897,0.5911334758925367,1.438086072374351,-1.8733767734500562,0.5106425320238648,2.119943841984046
GUIDED_NOGPS,1.0039677619934082,27.230965999467625,242.04633268015482,24.515387535439263,-34.973461087562164,9.441945349179324,300,0,50,2.5405119136746914,0.12450351631619563,109.86563502621694,0.6039923519512241,1.436169760125955,-1.888389069835865,0.5108436192309769,1.3178029288008934
GUIDED_NOGPS,1.041407823562622,26.716333108271655,243.72542753908314,25.120743192061994,-35.81184774788216,9.457570873982915,300,0,50,2.5827737091641456,0.07196527433363442,109.86059434660946,0.6203594301340728,1.4082258807395813,-1.8915141747965831,0.5110163284936463,-0.7448451336700702
GUIDED_NOGPS,1.0729901790618896,31.671617672599314,245.57018002354093,25.88983681963839,-36.38275349119079,9.45230988906102,300,0,50,2.5846855218015143,0.036366168296969294,109.82137540039525,0.6398315776976837,1.3768740172577982,-1.890461977812204,0.5111510597897296,-1.2032113697747289
GUIDED_NOGPS,1.113713264465332,24.56271118945414,247.12004781647266,26.571974314124493,-36.55222770012842,9.38739306220468,300,0,50,2.61296293185219,0.041702733833717774,109.72775399744188,0.657047053480403,1.3565157220951811,-1.8774786124409362,0.5112598694950853,-2.9220847551671985
GUIDED_NOGPS,1.1519818305969238,26.13534059470103,249.06438497320875,27.522396817646143,-36.98883408815939,9.274990162147065,300,0,50,2.745712994456677,0.0753821298267862,109.55468383406293,0.6810745218157221,1.324131969594303,-1.854998032429413,0.5114105163635776,-4.583662361046586
GUIDED_NOGPS,1.1934833526611328,24.100209152129445,249.52282632920964,28.42072959838711,-37.266453949339635,9.124697373440245,300,0,50,2.8676461718499793,0.16323223637490175,109.36302872595238,0.703440093473346,1.327339315227443,-1.8249394746880492,0.5115423333154316,-5.385803274229739
GUIDED_NOGPS,1.2365944385528564,23.19948228084052,250.92710919391044,29.72312815921343,-37.85879345387611,8.923805635687778,300,0,50,2.9382511179608706,0.25428767599531027,109.10677368867184,0.7354739319026528,1.3055664887125469,-1.7847611271375556,0.5117222978975561,-6.41712730546522
GUIDED_NOGPS,1.2717363834381104,28.466259001106263,252.44631254291443,31.594062062020047,-38.244668931107356,8.660807456693124,300,0,50,2.8610264378837678,0.25646101017269657,108.82351891360224,0.7796390058642252,1.2807855132598434,-1.732161491338625,0.511851056888291,-7.906817572805361
GUIDED_NOGPS,1.307011604309082,28.353302237544785,253.99777813328865,33.76864800130582,-38.568435512086225,8.40150367675893,300,0,50,2.7378813287996113,0.25610797476997155,108.63312739048813,0.8287296028937895,1.2561747539736206,-1.680300735351786,0.5119753222449394,-8.537071147449266
GUIDED_NOGPS,1.3404836654663086,29.88694518273609,255.6774188845249,36.11031849116417,-38.87047458115548,8.1262299865732,300,0,50,2.6095439952857755,0.3989971863930779,108.43521582909784,0.881228255086414,1.2278930113214503,-1.6252459973146403,0.5120945761869629,-8.766254265501596
GUIDED_NOGPS,1.3825206756591797,23.817604670047302,257.7298031176921,38.020762171376155,-38.895841312448766,7.821002684600959,300,0,50,2.3279241967487487,0.5557869001942181,108.00372545847145,0.9233779785935596,1.1941027261939186,-1.564200536920192,0.5122009077178149,-10.255944532841736
GUIDED_NOGPS,1.427311897277832,22.33008220111589,259.24633707227224,40.355470946136656,-39.071313653254684,7.4282344287018365,300,0,50,1.9792549924506453,0.659990507327754,107.40421243426276,0.9779731907258398,1.1725572098289592,-1.4856468857403673,0.5123413699457221,-10.828902327972559
GUIDED_NOGPS,1.4612054824829102,29.505976039563564,260.40113511001294,42.654284800742765,-38.715300024612304,7.040124737629758,300,0,50,1.7517599607743266,0.6405643821111799,106.9609877986423,1.0312940468290535,1.154849897553018,-1.4080249475259516,0.5123819966653659,-11.172677005051053
GUIDED_NOGPS,1.5046145915985107,23.04246120038456,262.0264424210382,45.2948147200456,-38.42391952321453,6.704474077756561,300,0,50,1.5668103908814288,0.6509631316791128,106.50962840772034,1.0912923076741368,1.12854080847448,-1.3408948155513123,0.5124712322795945,-10.59971920992023
GUIDED_NOGPS,1.540372371673584,27.97358908348784,263.12707496583107,48.84824688144676,-37.98678975893101,6.272760815695777,300,0,50,1.5131801724053118,0.7545407092865347,106.12726075760469,1.1731719555887568,1.1124963342186744,-1.2545521631391554,0.5125165744028795,-10.59971920992023
GUIDED_NOGPS,1.5786752700805664,26.11061032396225,264.0152013331393,52.35017562624893,-37.55992717626528,5.904139591695529,300,0,50,1.4396996099321395,0.8696737930308547,105.7042671423058,1.2504493839539101,1.1010103248141487,-1.1808279183391057,0.5125756832954631,-11.000789666511807
GUIDED_NOGPS,1.6209001541137695,23.690743543977767,265.0792045599705,55.973033254082374,-37.321353489458254,5.5241710138333495,300,0,50,1.376610860116024,0.8939293955991566,105.30444152867159,1.3318063125804078,1.0854160580944665,-1.10483420276667,0.512667802347123,-10.485127650894066
GUIDED_NOGPS,1.6577186584472656,27.16482947112084,265.63376031983313,58.412384537829105,-36.90682793367182,5.099945287863564,300,0,50,1.3023751348527424,0.8702133779752856,104.87344976185462,1.3872329548648812,1.0804039105177985,-1.0199890575727129,0.5127167640842718,-10.427831871380983
GUIDED_NOGPS,1.701972246170044,22.601299723027513,266.1280969889516,61.06500201478199,-36.623579632445285,4.763312298071661,300,0,50,1.1994240136582575,0.8279817847285679,104.49996135765997,1.4504606320752682,1.0768954295369852,-0.9526624596143322,0.5128081883692175,-9.167324722093172
GUIDED_NOGPS,1.7351398468017578,30.161395636478694,266.32176196064444,64.34281342274573,-36.26282501014783,4.377571322684909,300,0,50,1.24401276922057,0.7043199291450176,104.2862857196653,1.5284412579816666,1.0780063356298757,-0.8755142645369818,0.5128531307731327,-8.479775367936185
GUIDED_NOGPS,1.7722668647766113,27.032992813637975,266.8879843167646,67.71877916063733,-36.147332138374765,4.142311609672599,300,0,50,1.251863964949794,0.4717216789416416,104.02661558779975,1.6051948287910698,1.070676229304349,-0.8284623219345199,0.5129455850641624,-7.333859777674538
GUIDED_NOGPS,1.8190302848815918,21.351686783174422,266.97073135640966,71.04509293658997,-36.35640075666244,3.909109405997991,300,0,50,1.314720808499246,0.1304447136770489,103.69492111113642,1.6829744737763606,1.0764618211949224,-0.7818218811995983,0.5130937098669573,-5.67228217179515
GUIDED_NOGPS,1.859009027481079,25.00091794523324,267.1386297975022,73.16929361332507,-36.72560462674113,3.66709833184374,300,0,50,1.3270757669341529,-0.07853359511808594,103.5227525327279,1.7353070213754764,1.0781538927484093,-0.733419666368748,0.5132399486888277,-3.8388172273765155
GUIDED_NOGPS,1.9005160331726074,24.09633238349113,268.26005743558096,75.76553212078731,-37.808167996026846,3.507741798733567,300,0,50,1.2903458910638805,0.04325926991254021,103.39210467428391,1.8007693740024393,1.058689769376849,-0.7015483597467135,0.5134742314805095,-2.9220847551671985
GUIDED_NOGPS,1.940723180770874,24.876067565002845,270.11478431405783,78.918741082675,-39.607985327766215,3.3641726547464352,300,0,50,1.281551062012137,0.4072032317940251,103.2922268180508,1.8781493744602828,1.0245970245102165,-0.6728345309492871,0.5137815905850773,-2.6929016371148693
GUIDED_NOGPS,1.978013038635254,26.819515314278405,270.91576075716057,81.46366711996673,-40.91050169290346,3.2213619340702446,300,0,50,1.2230184752592435,0.9766467217077134,103.19613971680707,1.9402854814446564,1.015358612398402,-0.644272386814049,0.514004452396546,-3.151267873219528
GUIDED_NOGPS,2.024674892425537,21.433629042148727,271.611151874601,83.29354402793766,-41.20358774601914,3.102800771066413,300,0,50,1.2765303393636487,1.38262889710504,103.0544611028535,1.9895568583112404,1.007400060888125,-0.6205601542132827,0.5141329548476207,-2.979380534680281
GUIDED_NOGPS,2.0643043518066406,25.241346107553802,273.7020593704012,84.55071237541277,-40.0107241128648,2.963669419435771,300,0,50,1.3815616800472257,1.4902839909252539,102.97493721034704,2.0273283594654288,0.9659400317164917,-0.5927338838871542,0.5140839475045148,-2.6929016371148693
GUIDED_NOGPS,2.109809160232544,21.978232960767976,273.77808090682527,85.95385077048321,-38.19189066054576,2.86704540413752,300,0,50,1.4779379971136326,1.5020585967241211,102.90856826218203,2.0709385892685153,0.9743148865411934,-0.573409080827504,0.5140126567248603,-2.177239621497128
GUIDED_NOGPS,2.146221876144409,27.4708479061055,274.4269297591862,88.42601313928822,-35.975378709350366,2.7777473179671293,300,0,50,1.546785877060538,1.2727503632665755,102.83028063391534,2.1369667961398795,0.9634478291693942,-0.5555494635934258,0.5138640251846367,-1.432394487827058
GUIDED_NOGPS,2.183133125305176,27.098663255351177,275.6647194014625,90.07093291087081,-34.18854890389992,2.723324390260648,300,0,50,1.5204937041808086,0.9589946314063443,102.77474436577397,2.180799822797949,0.9406890201823231,-0.5446648780521296,0.5137905308530577,-1.3750987083139758
GUIDED_NOGPS,2.2174859046936035,29.144516864238366,277.23641063745174,92.33348312943696,-33.58953706573937,2.682904607233964,300,0,50,1.4966787555356782,0.7825486470301125,102.7452857598837,2.2408488101503288,0.9111685770806265,-0.5365809214467928,0.5138478551461116,-0.8021409131831525
GUIDED_NOGPS,2.253973960876465,27.40157315702825,277.55210772824034,93.2602140684075,-34.073818700413874,2.6692272338352976,300,0,50,1.5449848415537704,0.7092149336240954,102.74710942039209,2.26898407013126,0.9118584590709427,-0.5338454467670596,0.5140193152264441,-0.11459155902616465
GUIDED_NOGPS,2.288689374923706,28.819700967458225,278.14114086555077,94.24135436963434,-34.84070798638226,2.689749790317813,300,0,50,1.6476498418550551,0.7793640713295941,102.78796761200711,2.301961443066649,0.9022658821402614,-0.5379499580635626,0.5141930512757773,1.260507149287811
GUIDED_NOGPS,2.3263676166534424,26.546227848101267,279.0506787876843,95.79877806829131,-35.95129500211438,2.7119101552554206,300,0,50,1.8430087267647581,0.8539788720918116,102.83713814384203,2.3488752550865963,0.8865346506047017,-0.5423820310510842,0.5144087713568374,1.0313240312354819
GUIDED_NOGPS,2.363539695739746,26.90588114543775,279.5343574967017,96.8723812600216,-36.69969522727264,2.740486251688173,300,0,50,2.0006676354986355,0.9439881721912975,102.87270976903946,2.3835203050719236,0.8810117313726679,-0.5480972503376347,0.514571055038729,1.1459155902616465
GUIDED_NOGPS,2.4068994522094727,23.067553223668654,280.5431171718007,98.75677115192748,-37.49686793550103,2.764841004510958,300,0,50,2.2509957761268953,1.0134198198688273,102.92694147104936,2.43966975011286,0.8631291511014001,-0.5529682009021916,0.5147619089198194,0.8594366926962349
GUIDED_NOGPS,2.4483189582824707,24.150720899166245,281.68671307738657,99.5929562401703,-37.444300209384394,2.7935212815904293,300,0,50,2.4760665175346825,1.058513475821192,102.98775747541916,2.4706321039591934,0.8429231672834888,-0.5587042563180858,0.5148462954990147,0.8594366926962349
GUIDED_NOGPS,2.4799821376800537,31.590275057994155,284.2747528478364,101.35666168623675,-37.361301976056005,2.8302352312401076,300,0,50,2.6773060885980606,0.9681037558816142,103.02470196863975,2.522323569652032,0.7877401807769728,-0.5660470462480215,0.5149197812804774,1.088619810748564
GUIDED_NOGPS,2.512721061706543,30.556029898153948,286.16991688194884,102.97110360520732,-37.19467228046175,2.873386914064302,300,0,50,2.864564048987011,0.90481917173539,103.06561480176813,2.5674598017243215,0.7540095051383021,-0.5746773828128604,0.5149861902639434,1.604281826366305
GUIDED_NOGPS,2.549400806427002,27.264421014313758,289.0442090665235,104.39668524508566,-37.318667372099895,2.9260212249147584,300,0,50,3.0907455499085716,0.6056798312555745,103.1208778623427,2.610180793392122,0.6960416332167007,-0.5852042449829516,0.5151026806796613,1.948056503444799
GUIDED_NOGPS,2.585049629211426,28.058735775974526,291.41138383606085,105.74981241057823,-37.57735071925446,3.0084547051101382,300,0,50,3.2133549160297052,0.21317383253409453,103.21121394430529,2.6522929969405054,0.6512145306674463,-0.6016909410220277,0.5152266867622955,2.864788975654116
STABILIZE,2.6273255348205566,23.65867196137271,292.01107863853036,105.27362455767648,-37.80843735651385,3.1007173389372116,300,0,50,3.227493407611632,-0.11472698097339508,103.31786734819504,2.655523302367108,0.6457237281549378,-0.6201434677874423,0.5153585672225317,3.0366763141933633
STABILIZE,2.6642186641693115,27.11250161603103,292.3145910718141,105.22541853051892,-38.65359572402787,3.2291024344623755,300,0,50,3.1203384117047097,-0.36668903091716887,103.45152732006302,2.1200456244202397,0.15403702750923187,-0.6458204868924752,0.5089870611919527,3.896113006889598
STABILIZE,2.702880382537842,25.87176086701744,292.3508443202911,105.04177076932417,-40.620110925784665,3.363775407384387,300,0,50,2.822893278304175,-0.5249643909040661,103.62360027582315,2.1165178545591914,0.15406562166186522,-0.6727550814768775,0.5092177010332458,4.239887683968092
STABILIZE,2.739391326904297,27.390836424429235,292.38550628995984,106.00598253712297,-42.744926259686274,3.491512068275377,300,0,50,2.402114351843662,-0.5928808038029111,103.74592213366891,2.1383337466806016,0.15331558979662754,-0.6983024136550755,0.5094345877809299,3.552338329811104
STABILIZE,2.7839365005493164,22.45525068929518,293.70586233738004,107.66273810379334,-45.008721831386566,3.568769204601085,300,0,50,1.7590197048101097,-0.5309461425131163,103.86478791579464,2.1759682329795176,0.12398957033143415,-0.7137538409202171,0.5096777310400731,1.776169164905552
STABILIZE,2.8267362117767334,23.372846220716404,295.2649148539754,107.80740380575561,-45.56371291412092,3.6256277416456686,300,0,50,1.6847746947584248,-0.08900179383605608,103.9275710146454,2.1751199519196747,0.09191291453008271,-0.7251255483291338,0.5096931167072926,0.4583662361046586
STABILIZE,2.8684229850769043,23.994050547464045,297.2101290663862,108.78638041650368,-45.17176735932582,3.6509216605421293,300,0,50,2.259905117568942,0.26084620506325634,103.9346744113822,2.196189105003484,0.05158765868110944,-0.7301843321084259,0.5096265792588739,-0.2864788975654116
STABILIZE,2.9100334644317627,24.037779102287836,299.55723336250605,109.46668679453789,-43.80693022531488,3.637799233103788,300,0,50,4.206433472054883,0.6539610511162195,103.90862406988778,2.2092118061629455,0.003296381641098847,-0.7275598466207577,0.5094652036056556,-1.1459155902616465
STABILIZE,2.9461328983306885,27.70730418353933,301.2015166048863,110.79059231183005,-41.965730235394155,3.614828644680398,300,0,50,6.05562992332085,0.814634634595011,103.90514750360025,2.2354615127230817,-0.02876426422332053,-0.7229657289360797,0.5092449757243297,-1.1459155902616465
STABILIZE,2.982120990753174,27.789914463091918,302.9081142644377,112.42789178891218,-41.01659805875998,3.5954973817675637,300,0,50,8.82384454911131,0.8126171674689184,103.87260165220513,2.2693409908878106,-0.06330481468981115,-0.7190994763535128,0.5091740788790449,-0.6875493541569879
STABILIZE,3.020864486694336,25.81841013456117,304.4814890895125,111.93059321074344,-40.029093488452794,3.576782263759945,300,0,50,11.808058357874724,0.6831792130033588,103.82796636597911,2.25458184848441,-0.09440216064868559,-0.7153564527519891,0.5090814138646392,-0.6875493541569879
STABILIZE,3.064257860183716,23.04841244546044,303.93871867232053,110.78854197114475,-40.36851173182581,3.5408133365693035,300,0,50,14.367760541796212,0.4517520200775226,103.71887458455566,2.2324361778528052,-0.07821315679755368,-0.7081626673138608,0.5091626528738208,-1.3178029288008934
STABILIZE,3.103132724761963,25.73003214487277,302.2676377912835,108.41594486260385,-40.50003380454127,3.5010417446291817,300,0,50,15.439316477280956,0.2143474511325731,103.62222740779998,2.1789842723243256,-0.04138846264017525,-0.7002083489258364,0.5091585315753574,-1.2032113697747289
STABILIZE,3.1418228149414062,25.84832312375975,301.3009692427944,107.35609041741185,-40.88976788209225,3.463266400577467,300,0,50,16.02594776471501,-0.03763837107116351,103.49623773836993,2.1610891799688474,-0.023735052516420142,-0.6926532801154934,0.5092050013709549,-1.2032113697747289
STABILIZE,3.183623790740967,23.93080311294703,300.97284835935807,106.33893318252747,-47.08116811446067,3.3960932127340344,300,0,50,15.679141494513027,-0.1346453066970332,103.39154459877197,2.142077754943775,-0.018832423912179437,-0.679218642546807,0.509978038861804,-2.2345354010102105
STABILIZE,3.2186813354492188,28.531127557683934,302.2327635558078,104.81938902175345,-54.17975291322332,3.294049822498579,300,0,50,15.020217777356265,-0.13628377836546934,103.29997908275878,2.1067088084420624,-0.04856971397753502,-0.6588099644997158,0.5107302404180656,-3.20856365273261
STABILIZE,3.2610912322998047,23.5843075071833,305.34123861288646,103.57705365583286,-61.64417579712089,3.14376322992089,300,0,50,13.378108819743677,-0.1568612173440137,103.08885110532451,2.0862038067952837,-0.11505378331479739,-0.6287526459841781,0.511482433614504,-5.271211715203574
STABILIZE,3.3051788806915283,22.687610887532994,309.2958157115112,103.76045479201902,-62.976639340616316,2.9273473749476073,300,0,50,12.075391108215376,-0.06471548209691547,102.82435202971577,2.093907639996744,-0.19653187303548253,-0.5854694749895215,0.5114772088154106,-6.64631042351755
STABILIZE,3.3476510047912598,23.5501428964464,313.2890110593381,104.90349055409803,-62.184457370083415,2.6565998228014585,300,0,50,11.570416439856116,-0.015594442453049816,102.51611242266226,2.1185742209402894,-0.2774439257236991,-0.5313199645602917,0.5113426418549163,-7.7349302342661135
STABILIZE,3.3920304775238037,22.536208990188808,315.10907933525294,106.34784118170745,-60.40169081905717,2.3644490312052695,300,0,50,11.673440451975651,0.1432479566370907,102.17601681331982,2.149103530993796,-0.308963643250321,-0.4728898062410539,0.5111471470244942,-8.13600069085769
STABILIZE,3.433885335922241,23.897261756896885,316.1289344365974,107.00758472241823,-57.427264299750185,2.0394698149233874,300,0,50,12.107863535076909,0.08754829756416563,101.81011674929306,2.1596430157375295,-0.3277156311781578,-0.4078939629846775,0.5108065505818591,-8.36518380891002
STABILIZE,3.477358102798462,23.009847325312837,317.7142443613789,107.90641064336948,-55.33044430896271,1.740566555438744,300,0,50,12.60491176890437,-0.17886619253951716,101.41666370215448,2.178997379779922,-0.3610106516757229,-0.3481133110877488,0.510622599767091,-7.677634454753031
STABILIZE,3.5178000926971436,24.73173262889759,318.1335197623438,107.73749813841755,-53.6837992150451,1.4386727416013674,300,0,50,12.857776471035644,-0.8267889562230486,100.96095348073123,2.17171458240608,-0.3666356488459705,-0.2877345483202735,0.5104530278597508,-7.16197243913529
STABILIZE,3.560866117477417,23.226075111027434,319.2241390989491,107.99183076441415,-53.544973526258985,1.1932951929029494,300,0,50,12.782731475077421,-1.914040559698775,100.45862038803347,2.179008856285939,-0.3903259227124743,-0.2386590385805899,0.5104848888368466,-5.958761069360562
STABILIZE,3.6006743907928467,25.125673174267522,316.3616486090502,104.73927023293493,-54.13536436161684,0.962601226885425,300,0,50,12.636684101375977,-2.951398164896087,100.07994787025879,2.103308570283209,-0.32265381180576214,-0.192520245377085,0.5105528003082072,-5.042028597151244
STABILIZE,3.63657546043396,27.86079909661563,314.526863292138,101.97592446697503,-54.90032679546323,0.8146514947505601,300,0,50,12.38704751740118,-4.8817744026554175,99.48317375190727,2.0465520875042045,-0.2875405502310682,-0.16293029895011202,0.5106246770686305,-2.979380534680281
STABILIZE,3.6758456230163574,25.470347474403972,311.368915689458,99.16536138974287,-55.28968890049262,0.7429016100202657,300,0,50,12.011159155486931,-6.029148853021887,99.2010937693749,1.9916619875823482,-0.2210943270579325,-0.14858032200405313,0.5106625991819219,-1.260507149287811
STABILIZE,3.7086710929870605,30.472337859535173,308.53090056904847,99.16536138974284,-55.28968890049262,0.7305620394883231,300,0,50,11.055120501887322,-7.478820645863951,98.91663005082222,1.996352982172479,-0.1631111988421185,-0.14611240789766464,0.5106328547177699,0.4583662361046586
STABILIZE,3.7461156845092773,26.711569079492044,304.9829232637964,99.16536138974284,-55.28968890049262,0.768909327060814,300,0,50,9.803253548729765,-8.658730702341776,98.7840970601673,1.9981313984445797,-0.09090977068373318,-0.15378186541216282,0.5106470165853868,2.0626480624709638
STABILIZE,3.790743827819824,22.41325246479814,304.9829232637964,99.16536138974284,-55.28968890049262,0.8454562840139738,300,0,50,8.388568546137446,-9.45560972658081,98.80506574091923,2.000858555585689,-0.10054039540086089,-0.16909125680279477,0.5106687334573076,3.495042550298022
STABILIZE,3.8285906314849854,26.42763800414595,306.0883177213471,95.72416896704071,-68.89797615843035,0.9838223449009481,300,0,50,7.289491217165782,-9.704597442584454,98.94621160011755,1.9201063344279916,-0.12558996517776436,-0.19676446898018962,0.5123822492283718,5.328507494716656
STABILIZE,3.8658335208892822,26.856608654449523,307.1937121788977,92.28297654433857,-82.50626341636809,1.1578979016002373,300,0,50,6.677890892560276,-9.72525278840822,99.06298051416809,1.8500508600710313,-0.14792362534860284,-0.23157958032004747,0.5137651738939891,6.016056848873644
STABILIZE,3.9014992713928223,28.044477430311783,308.93144696574376,88.34837126588052,-97.17272792738548,1.343872592803928,300,0,50,4.884151735373405,-9.417532275731634,99.40186034983827,1.768652617136567,-0.18475827083738355,-0.2687745185607856,0.515284756596139,6.474423084978302
STABILIZE,3.937105178833008,28.091998981956518,313.07388515706737,86.99238812548265,-98.93206790470212,1.5508919668290735,300,0,50,4.032041667071533,-9.097791483889475,99.56245175760361,1.7484278146829098,-0.2749747158307675,-0.3101783933658147,0.515101694549572,6.703606203030632
STABILIZE,3.9678893089294434,32.49257466010768,317.4426253577782,84.71976801976173,-99.49005663422899,1.75400642203293,300,0,50,2.689375032861473,-8.454397055584382,99.8094245678021,1.6972943762051793,-0.3652943664047265,-0.350801284406586,0.5151041798653163,6.932789321082962
STABILIZE,4.00558066368103,26.538501448945244,320.70597110093837,82.94056076979673,-98.98986811067618,1.9367469886567907,300,0,50,0.9938295566687614,-7.272542956514042,100.12458315648483,1.666723953421414,-0.42585829353978827,-0.3873493977313582,0.5150555443093949,6.474423084978302
STABILIZE,4.042571306228638,27.041184207133096,323.9693168440985,82.02392380447368,-97.78851686288641,2.154589745755778,300,0,50,-0.8022199653657194,-5.014673662204586,100.49564684352411,1.6501168543622335,-0.4917622423400985,-0.43091794915115567,0.5149101084829493,6.245239966925974
STABILIZE,4.073331356048584,32.61993607142579,326.6003222579633,82.02392380447368,-97.78851686288642,2.3655020309076518,300,0,50,-1.1112067844422537,-4.5298100589696055,100.56911918842594,1.6504029253052876,-0.5439228686959152,-0.4731004061815304,0.5149129637442946,5.958761069360562
STABILIZE,4.113839864730835,24.629926068599413,326.8266242673505,82.02392380447368,-97.78851686288642,2.538691421351482,300,0,50,-2.1014016132555104,-2.313476852550291,100.87879996539432,1.653996306221698,-0.5415028720922008,-0.5077382842702964,0.5149615221780596,6.187944187412891
STABILIZE,4.152578353881836,25.83017613006528,326.8266242673505,82.02392380447368,-97.78851686288642,2.7834722470785156,300,0,50,-2.407167411169002,-1.129630259233011,101.0573752612443,1.6529690672162274,-0.5406176397689476,-0.5566944494157031,0.5149476407893707,6.245239966925974
STABILIZE,4.187941789627075,28.284469620338527,326.8266242673505,82.02392380447368,-97.78851686288642,3.0191916315740746,300,0,50,-2.6091886120055237,0.08435054173298318,101.28711550416685,1.652259496319287,-0.540385568551669,-0.6038383263148149,0.5149380521450821,6.875493541569879
STABILIZE,4.228489637374878,24.667733132586807,326.8266242673505,82.02392380447368,-97.78851686288642,3.2444747036405164,300,0,50,-2.806098483465348,0.833460130051447,101.50988212394681,1.6537747755436982,-0.540881153553312,-0.6488949407281033,0.5149585285675838,6.589014644004467
STABILIZE,4.265218019485474,27.232734048838765,325.16064234843054,70.01073992523602,-76.09551221996502,3.48585615872868,300,0,50,-3.0157902001832055,1.3005374938008916,101.71878345971166,1.3777466190832324,-0.5023646175831495,-0.697171231745736,0.5121570838503623,6.531718864491385
STABILIZE,4.306177377700806,24.420130883346143,325.3509564641878,56.96157007972899,-53.020838184956794,3.703010775437244,300,0,50,-3.0972227036758597,1.5660517062750285,101.98671812047291,1.1167428715009322,-0.511640599223339,-0.7406021550874489,0.5098659525434716,5.958761069360562
STABILIZE,4.346552848815918,24.77102342859505,325.3541330124227,42.370152971201605,-28.723672695577545,3.942447779620883,300,0,50,-2.903232311199392,1.5946360479515318,102.17702768131699,0.8181631452089362,-0.5111906497298009,-0.7884895559241767,0.5073668590339284,5.729577951308232
STABILIZE,4.387447834014893,24.461147269461357,325.6963325842093,38.31272456879493,-25.532781747341602,4.185183513356714,300,0,50,-2.499631950831696,1.5045648492626926,102.47226943837995,0.7621770566849314,-0.518880823657082,-0.8370367026713428,0.5075634765117114,6.64631042351755
STABILIZE,4.430051803588867,23.4725166489451,323.82813368543907,33.67025732096046,-23.276985085623433,4.447435879212197,300,0,50,-1.944618462839276,1.142457888102824,102.82455693539087,0.6686835872280572,-0.4764611494373251,-0.8894871758424394,0.5073722911018769,7.104676659622208
STABILIZE,4.4686479568481445,25.929820223052005,323.02329134838,27.722797579691377,-22.48375969717785,4.760019631351039,300,0,50,-1.444704004159643,0.7964930118292224,103.1328580141469,0.5430845476016136,-0.4618660336035282,-0.9520039262702078,0.5073104773531183,7.7349302342661135
STABILIZE,4.50594162940979,26.813514463800544,321.27572749280745,21.899974963474005,-22.698634642300245,5.016688981693455,300,0,50,-1.0364720284827378,0.39093750981160996,103.40596312810986,0.4257877376679058,-0.4240585852708115,-1.003337796338691,0.5073575040047713,7.505747116213785
STABILIZE,4.541547060012817,28.093504266634515,320.01281400942634,16.33933704943993,-24.150969499594755,5.274072430703992,300,0,50,-0.6782861828758381,-0.0023745579536372454,103.69740046980513,0.31331826929635576,-0.3994962539292757,-1.0548144861407984,0.5075347178212135,7.047380880109126
STABILIZE,4.576851844787598,28.33032083755488,318.41087750249363,13.625938891860804,-25.363224537987694,5.502318446316009,300,0,50,-0.2557569670796564,-0.3029958894007868,103.96389396065153,0.26685592675860037,-0.3663533838162436,-1.1004636892632018,0.5076509536663127,6.64631042351755
STABILIZE,4.617403030395508,24.662511466001835,318.22737789741325,9.299883753112441,-27.635836076897984,5.722766629232561,300,0,50,0.3754584068420835,-0.4814774302322412,104.2224644320607,0.17687301721754717,-0.3670614291222325,-1.1445533258465124,0.5079141845014689,6.187944187412891
STABILIZE,4.66033411026001,23.29935895299359,316.6022853004426,4.840542060971994,-29.357930404538035,5.96100331980739,300,0,50,1.291937004975376,-0.5986587703147715,104.48440218673069,0.0872346498805999,-0.3310994165426305,-1.1922006639614782,0.508078002088757,5.958761069360562
STABILIZE,4.699885368347168,25.287761586369474,315.92542414367125,-0.9629735814088031,-31.791871429167077,6.194613769109027,300,0,50,1.859695092350511,-0.7087061378917824,104.71336378808786,-0.03407594963538809,-0.3193193160516315,-1.2389227538218055,0.5083377979035043,5.614986392282068
STABILIZE,4.737051248550415,26.9169319231954,312.20138429874595,-4.830227419616622,-32.65615841321121,6.39793102514198,300,0,50,1.668542430030772,-0.7317151775757041,104.90068855626463,-0.10787427130094587,-0.23564347316359424,-1.2795862050283962,0.5083800118425394,4.698253920072751
STABILIZE,4.781426191329956,22.53717773741846,311.3285184074774,-8.68234587982759,-33.889720635436056,6.508607668096245,300,0,50,0.49788044968914413,-0.8658592391011083,105.02460184818699,-0.18377596632342597,-0.226666410840034,-1.301721533619249,0.5085295626245481,2.3491269600363753
STABILIZE,4.821024417877197,25.262478241752948,308.91614863155326,-13.659686342147289,-34.05595914602868,6.590714794047003,300,0,50,-1.0910503625930172,-0.929032725951614,105.06618403985404,-0.287955278619835,-0.17362268888275645,-1.3181429588094007,0.5085093883350185,0.057295779513082325
STABILIZE,4.860459804534912,25.364222951929996,307.66460503934985,-18.47350531994548,-34.38865606444231,6.580618497916094,300,0,50,-2.761108667732709,-0.9569769508368403,105.00778592245042,-0.3845908845577,-0.1513275242371139,-1.316123699583219,0.5085471401971384,-1.8907607239317168
STABILIZE,4.893006801605225,30.72952795422409,303.5720919505788,-22.7403376654521,-34.395839499849046,6.515669392834519,300,0,50,-3.6510592646969218,-0.9150344666910845,104.9301676527224,-0.47085663719490045,-0.05935893378810155,-1.3031338785669038,0.5085223751527879,-3.20856365273261
STABILIZE,4.9351701736450195,23.72706239074972,302.2292447452925,-24.53777405860963,-34.75849994989901,6.4085924747984,300,0,50,-4.814906850680993,-0.8016790997608191,104.7587913762576,-0.4991573400787159,-0.04176440679594749,-1.28171849495968,0.5085913424620829,-4.239887683968092
STABILIZE,4.990107774734497,18.204918530864518,297.46014245016005,-25.812422315679253,-35.50944947677869,6.222891611302959,300,0,50,-4.87646094236797,-0.23620859214910964,104.3089482873314,-0.524246882959829,0.06002180390738844,-1.244578322260592,0.5087057710861977,-6.703606203030632
STABILIZE,5.029815912246704,25.18919957720765,295.2469456513482,-26.524663890381436,-35.957862416507226,5.9374138568407355,300,0,50,-3.8916206616988864,0.2322271254715211,103.97846958434033,-0.5364985120854777,0.10139255360384769,-1.187482771368147,0.5087094216114345,-7.7349302342661135
STABILIZE,5.07280707359314,23.264594784981725,292.5054222578366,-27.220088842644873,-35.49620554565136,5.658423502898316,300,0,50,-2.306967041941034,0.7937462085658195,103.59806219851647,-0.5507040434542599,0.15755104917088453,-1.1316847005796633,0.5086492985370945,-8.36518380891002
STABILIZE,5.106227397918701,29.926395250938253,291.5273278371586,-27.913050343412777,-33.82244078963553,5.327776166087595,300,0,50,-1.739385365545556,0.9690845283577457,103.446705206509,-0.5640654836383885,0.17351321312346987,-1.065555233217519,0.5084161666689433,-8.995437383553925
STABILIZE,5.155572175979614,20.269976126269803,289.90586231201917,-28.342526186821527,-30.959277469235214,5.022340020182492,300,0,50,0.2572234833996522,1.3524687027209679,102.77074187492033,-0.5733051789302894,0.2071638512854699,-1.0044680040364984,0.5081573775370423,-10.141352973815572
STABILIZE,5.192890644073486,26.802034608797893,288.63113146926304,-28.934451120505866,-27.994190817925773,4.571742347391754,300,0,50,0.8069019533200574,1.3476956811515983,102.39733543299575,-0.5845999887547881,0.2324867202385668,-0.9143484694783508,0.507807629064804,-10.714310768946394
STABILIZE,5.224090814590454,32.06139687053302,286.880462106027,-29.168588864780627,-24.25959764171655,4.206549127083425,300,0,50,1.0342981073359696,1.2270240610423384,102.08415076898315,-0.5877592954530318,0.2696435537240143,-0.8413098254166851,0.507375560938257,-10.59971920992023
STABILIZE,5.261874198913574,26.471671557953865,286.5415115028688,-29.29861429616444,-21.73281026653628,3.8931611430400967,300,0,50,1.0776602036120302,1.0435380726225274,101.6898917595225,-0.5907440880275447,0.27210079470568194,-0.7786322286080194,0.5071877024972361,-10.771606548459477
STABILIZE,5.30185604095459,25.01821652251715,285.7791841172366,-28.99939271925341,-20.00874012896553,3.49800122343949,300,0,50,0.8961152695769723,0.7104215292296605,101.24588848233665,-0.583880019284192,0.2885974883393885,-0.699600244687898,0.5070417902027201,-11.115381225537972
STABILIZE,5.34082293510437,25.66893512851897,285.6602278360657,-28.715778178795414,-19.79946422508152,3.0765229698532726,300,0,50,0.5632156914119589,0.42316234231573013,100.7857591285204,-0.5780572507334589,0.2893334747898356,-0.6153045939706545,0.5070560659679747,-11.229972784564136
STABILIZE,5.383237600326538,23.581257800816346,284.57833199216356,-27.73010625640501,-20.152320724949362,2.660921049289083,300,0,50,0.23524889720986997,0.3237996851172936,100.31586260419104,-0.5569976101190268,0.31360068744929825,-0.5321842098578167,0.5071129856516637,-11.172677005051053
STABILIZE,5.4180097579956055,28.76692523473454,284.14868929472834,-26.697829281192693,-21.122180650314494,2.1997927833410036,300,0,50,0.03803472214622259,0.2883097553856429,99.91313416015957,-0.5346964496109589,0.32046584812990714,-0.4399585566682007,0.5072142687497679,-11.401860123103383
STABILIZE,5.454684495925903,27.27044810278016,284.0245957818728,-25.396065955707044,-22.42866320268739,1.8128201897511385,300,0,50,-0.021069919630086073,0.29811838728145723,99.4692265056221,-0.5080861011443057,0.3221869070775673,-0.36256403795022774,0.5073581105090761,-11.745634800181877
STABILIZE,5.497659921646118,23.275310203991033,282.8321083338649,-24.335805537803164,-23.29955279183163,1.3981050009982976,300,0,50,0.02099861619041084,0.4523186056135163,98.96618990343984,-0.4884339316823287,0.34908387778291083,-0.2796210001996595,0.5074447402021642,-11.917522138721123
STABILIZE,5.539355278015137,23.987875391047236,282.0801257052867,-22.843693792464578,-23.696045189714656,0.9059912813101517,300,0,50,-0.014643925580507339,0.6458401696364858,98.46363141449947,-0.45710149904498953,0.36318911541141596,-0.18119825626203034,0.5074712561488621,-12.433184154338864
STABILIZE,5.58351469039917,22.657706519155557,282.6251039920451,-21.214635243188056,-23.45114492795808,0.4296193960787118,300,0,50,-0.2652483153441825,0.8088114714407519,97.94748084911078,-0.4243191825791788,0.34931448850125013,-0.08592387921574236,0.5074364366594898,-12.032113697747288
STABILIZE,5.623518466949463,24.99317117353323,282.3252544381826,-19.560481201932422,-22.800720818804223,-0.04127066611613586,300,0,50,-0.617274130732524,1.0587547735979639,97.55353602835194,-0.39026532022290694,0.3570901987191763,0.008254133223227173,0.507352051208086,-10.59971920992023
STABILIZE,5.656128644943237,30.674018926706548,281.96401726943253,-17.816646610303888,-21.428303080239942,-0.46052911176186645,300,0,50,-1.2148502093421427,1.1877967905350744,97.18458969995537,-0.35327736859846026,0.36417485610246003,0.0921058223523733,0.507170156104039,-10.370536091867901
STABILIZE,5.692906379699707,27.198827565187504,282.31028538568023,-16.479245172886614,-20.360655374307502,-0.7721526595633987,300,0,50,-2.1845452925786644,1.399141733197192,96.84978748721969,-0.32836884629710156,0.35545285240546237,0.15443053191267975,0.5070845985077146,-9.797578296737077
STABILIZE,5.7263102531433105,29.940067099721606,282.3427233149563,-15.132781061844065,-19.190850858380333,-1.0894597467408946,300,0,50,-3.6472130144205583,1.4608196220628766,96.47832081901937,-0.3006538988941838,0.35541062139867,0.21789194934817893,0.5069535259278418,-9.453803619658583
STABILIZE,5.769848585128784,22.971285236240956,282.5142051835104,-14.143780974632671,-18.40230536627189,-1.3783444890087062,300,0,50,-5.320609787960505,1.636039800926503,96.08939618730051,-0.28307882042600463,0.35237565737582816,0.27566889780174125,0.5069117256027259,-8.766254265501596
STABILIZE,5.808442115783691,25.92661457818218,282.57259748936235,-12.091008246822009,-16.95219849927715,-1.7372644705062859,300,0,50,-6.884107963981301,1.8034025942019698,95.75273616311058,-0.23832964583424585,0.35107207586477907,0.3474528941012572,0.5067345547112373,-7.62033867523995
STABILIZE,5.850760221481323,23.635474309414057,281.97136189878034,-9.928727816162107,-15.710350909842562,-2.0296338153786104,300,0,50,-7.963724803347128,1.9251959661606983,95.51538025926347,-0.1951237319082841,0.3650400337251813,0.4059267630757221,0.5066247486026316,-7.333859777674538
STABILIZE,5.889956712722778,25.528947752836345,281.52756485741213,-7.694691658160498,-14.608918523784709,-2.318452272100766,300,0,50,-9.30872565470604,2.1419396397531822,95.14392042125232,-0.14940201482524174,0.3734775014688611,0.4636904544201532,0.5065087851157849,-6.41712730546522
STABILIZE,5.92819356918335,26.152125251744284,281.19240523482864,-5.9586588817198285,-13.937386356067494,-2.579442582727687,300,0,50,-10.054841859259891,2.3320314883174538,94.84970319256485,-0.11556793846546856,0.3799137126807554,0.5158885165455374,0.5064499138895117,-6.41712730546522
STABILIZE,5.967517137527466,25.431121459060922,281.09251608355845,-3.6215871310026606,-12.535977173523975,-2.8259745630194697,300,0,50,-10.272254464504215,2.4581624572859635,94.59728672159785,-0.06708167133363871,0.3813875680258151,0.565194912603894,0.506292128857541,-6.245239966925974
STABILIZE,6.012747526168823,22.11590764087719,281.1704817797073,-1.3426475541700782,-10.886039867573919,-3.062949388865661,300,0,50,-9.303448479798558,2.536112418075557,94.32374447552802,-0.0219782574984142,0.37977177414169516,0.6125898777731322,0.5061329759780334,-5.844169510334397
STABILIZE,6.045727968215942,30.326042788868243,282.18018316526434,1.0425632552766373,-8.963875516429697,-3.2871455140994685,300,0,50,-7.640299124447746,2.5341521537837632,94.15861099196462,0.028084781074191444,0.35579048429945426,0.6574291028198938,0.5058987071939576,-4.354479242994256
STABILIZE,6.083993434906006,26.13664348563025,282.7914914307403,2.8518137766138256,-7.376281335095992,-3.399495183706571,300,0,50,-5.670781633876011,2.4157546665030005,94.06333668323211,0.06220141570333009,0.34520611767636145,0.6798990367413142,0.5057619930445879,-2.979380534680281
STABILIZE,6.123035192489624,25.6237720541518,282.0620524927018,4.645285763138353,-5.952641851993107,-3.4787513236705663,300,0,50,-3.440426475977483,1.9539002630345002,94.04900694635343,0.09825160513975062,0.36342231780569306,0.6957502647341133,0.5056236337357283,-0.7448451336700702
STABILIZE,6.163316249847412,24.827769095989012,281.35420622933844,6.46034644405174,-4.729329259912091,-3.5103944005013257,300,0,50,-1.8582882868248998,1.3675647014471655,94.09069842104718,0.13473972070639184,0.377682569880419,0.7020788801002652,0.5055090949256968,0.40107045659157625
STABILIZE,6.200325965881348,27.02950861930079,280.46109565364446,8.648023355948661,-4.277810309187174,-3.5144005686915585,300,0,50,-1.061880438916891,0.9253157156609519,94.13760816026684,0.1801834858641579,0.3960806430276546,0.7028801137383117,0.5054753530852227,0.8594366926962349
STABILIZE,6.237744092941284,26.731146475300655,278.20727870114445,10.76084225355978,-4.780315323496015,-3.4998926391550604,300,0,50,0.06163693441109089,0.45338027314263013,94.20177095732993,0.22245231595049866,0.44512477993767335,0.6999785278310121,0.5055532143805452,0.8594366926962349
STABILIZE,6.282238483428955,22.47883851674,277.8753156839331,12.793958296246375,-6.460357051145131,-3.4702887425272677,300,0,50,2.3689072527595294,0.1640627980501459,94.28585741620196,0.26272621860978823,0.44717657280721307,0.6940577485054535,0.5057591488110835,1.4896902673401404
STABILIZE,6.321363210678101,25.56458032389207,278.1076657011936,14.183271035407108,-8.55272133999424,-3.3966525836742116,300,0,50,4.796441861146686,0.04595895554284064,94.36473244073727,0.2894364607017243,0.4406777664994515,0.6793305167348423,0.5059774727887905,3.0366763141933633
STABILIZE,6.366231203079224,22.290564132543246,277.6205165920601,15.650972355778956,-10.580276307122906,-3.2913181704749754,300,0,50,7.389924026268942,-0.17656351165472373,94.52227075394362,0.31909768717544607,0.4527038282093313,0.6582636340949951,0.5061849089567894,3.724225668350351
STABILIZE,6.406538724899292,24.814402432747432,278.4330269203941,17.21155394100084,-12.39633861957933,-3.165183632754096,300,0,50,8.85126348976068,-0.39412614093694814,94.67645544426748,0.3508826153187567,0.4327770740287556,0.6330367265508192,0.5063600093497037,3.552338329811104
STABILIZE,6.445212364196777,25.86394356469834,280.2173426356118,18.505115314423566,-13.897888542140421,-3.0453700177044976,300,0,50,9.311846197383089,-0.5660237529344805,94.79256182996852,0.3763107773085928,0.39408367578794995,0.6090740035408996,0.5065026767689651,3.4377467707849396
STABILIZE,6.482849597930908,26.57684167838903,281.2586560958917,19.551594988959128,-15.103308487916744,-2.961809585228589,300,0,50,9.16193037529048,-0.6063454545345334,94.8677758731087,0.39675606639243516,0.37489025199214854,0.5923619170457178,0.506615931357409,2.119943841984046
STABILIZE,6.514765977859497,31.334683052556873,281.87612116082437,19.9885973652349,-15.899932435785848,-2.90922631808894,300,0,50,8.989359669494583,-0.6020605246865552,94.91857198996608,0.4036971546262465,0.36287153475967754,0.581845263617788,0.5066781849349634,1.2032113697747289
STABILIZE,6.559298753738403,22.460301055461247,282.5146516524462,20.543366891861698,-16.583112206332988,-2.8815268279118205,300,0,50,8.957953605917218,-0.4117631567973755,94.98559663629142,0.41577018116563724,0.3513834227864354,0.5763053655823641,0.5067625352751879,0.8594366926962349
STABILIZE,6.612886428833008,18.665076497236488,282.0420428761988,21.58984048922682,-17.05021493209328,-2.8493818913491427,300,0,50,8.978613220609214,-0.21216277777394751,95.04889199932994,0.4383602454917886,0.36387125935705855,0.5698763782698285,0.5068208908206222,0.0
STABILIZE,6.649721145629883,27.154277427457885,282.2783277942873,22.8914818214224,-17.105510356842768,-2.822282767765466,300,0,50,8.66536025470492,-0.02169772340455867,95.07464181250089,0.4647366989480378,0.35639316105655233,0.5644565535530932,0.5067859855786505,-0.057295779513082325
STABILIZE,6.680239200592041,32.778243201000315,281.7714330174126,24.23768285934422,-16.55057895164532,-2.831757139598012,300,0,50,8.002041310817253,0.03244419897035393,95.07273618972245,0.49210422197472936,0.36846566643492573,0.5663514279196024,0.5066989000868983,-0.5156620156177409
STABILIZE,6.71494197845459,28.823463925177126,281.95567342548065,25.056008156895825,-15.578363708860516,-2.8728069321258767,300,0,50,6.604399337751408,0.01778415841227359,95.01236414764871,0.5069536182498403,0.36285303043754824,0.5745613864251754,0.5065978604028833,-1.5469860468532228
STABILIZE,6.751018047332764,27.725069737311774,282.05016101340726,25.77564154463469,-14.385928288297757,-2.9468077485976454,300,0,50,5.21937058964846,0.06007039317235144,94.94275085962794,0.5212270644252027,0.3613249930512916,0.5893615497195291,0.5064752191269285,-2.6929016371148693
STABILIZE,6.783024072647095,31.258087835269745,283.0041416644036,26.625087333673168,-13.502008467361518,-3.041460183760822,300,0,50,3.5225654771624106,0.21588664493420606,94.83904809745962,0.5385650041310054,0.3391164109256539,0.6082920367521645,0.5063836255750763,-3.380450991271857
STABILIZE,6.823790788650513,24.55293366973605,283.87975458469475,27.696531037597747,-12.706847076730377,-3.150569815219558,300,0,50,1.737095117739486,0.3567020403705673,94.6858811053221,0.561053805729073,0.32283031892401787,0.6301139630439117,0.5063267575000325,-3.9534087864026803
STABILIZE,6.863911390304565,24.920555888941042,283.5780365780665,28.765115314964607,-11.797650990095988,-3.274434935645497,300,0,50,0.6701675425519259,0.5736396273024562,94.57265705945079,0.5826041299035793,0.33184782135725,0.6548869871290994,0.5062325633545115,-3.495042550298022
STABILIZE,6.902935028076172,25.63097493308564,284.03524858665213,30.396678602941435,-10.155888331924496,-3.402952076591947,300,0,50,-0.21825419927590142,0.7464494964410083,94.41384833105883,0.6168596250923664,0.32061758138197427,0.6805904153183895,0.5060440095555646,-3.7815214478634336
STABILIZE,6.948051452636719,22.165228374086425,284.77906513101834,31.59383431172508,-8.817205956332195,-3.5238919179867474,300,0,50,-0.5806847006270599,0.9997386307961745,94.27022994338097,0.6402427093670532,0.30553259825686796,0.7047783835973496,0.505932048111709,-3.2658594322456924
STABILIZE,6.987297058105469,25.487682454029486,284.90755260787233,33.300133532701885,-6.878991193073098,-3.675930881084527,300,0,50,-0.6162508830174914,0.9947994435309032,94.13447993362696,0.6755717613502978,0.3038710945036894,0.7351861762169054,0.5057046275405693,-3.724225668350351
STABILIZE,7.0291666984558105,23.88787069363207,284.40413735061713,34.403828871922805,-5.197359059405593,-3.7952267258831407,300,0,50,-0.5468863099320451,0.9046027401160651,94.00545766020542,0.6964916750098468,0.31573930674838374,0.7590453451766281,0.5055495025649726,-3.151267873219528
STABILIZE,7.072325229644775,23.17627946555859,284.5595658638375,36.02164424448979,-3.0832104052308935,-3.925556355649133,300,0,50,-0.3800919698224231,0.6799801231508541,93.88147606639136,0.7303965871327983,0.31110991528735726,0.7851112711298267,0.5053279025274199,-3.151267873219528
STABILIZE,7.105612516403198,30.048601558917927,283.6814419158542,37.05159330667606,-1.9937443275008198,-4.046329926805333,300,0,50,-0.23783833931809814,0.4570922675131205,93.83336421387779,0.7490604568825413,0.3311817074441514,0.8092659853610666,0.505218616864808,-2.7501974166279517
STABILIZE,7.139063596725464,29.90164682398232,282.4723380353448,37.976136475998885,-1.660581380637205,-4.129713464053582,300,0,50,0.011601769996354237,0.3216252303619966,93.76679036003767,0.7673637313176488,0.35651539691133866,0.8259426928107164,0.5052078282592447,-2.5783100780887045
STABILIZE,7.180630683898926,24.06370625358577,281.7646252022546,38.62517186742801,-2.108755665045315,-4.190948545965927,300,0,50,0.8415622285109631,-0.07436288417572047,93.66305344692351,0.7804891445334194,0.36944262887784657,0.8381897091931855,0.5052866617318331,-1.4896902673401404
STABILIZE,7.217333793640137,27.263712120227247,280.99595210011523,39.45591396463691,-2.9659863514663036,-4.248265217472455,300,0,50,1.6025428456894677,-0.30586456885219215,93.62530982157003,0.7970869224558906,0.3849491331062617,0.8496530434944911,0.505377409780729,-0.9167324722093172
STABILIZE,7.251711845397949,29.084897613879853,280.623125920851,40.32862523507006,-4.137387942426018,-4.255760611820502,300,0,50,2.384307835234027,-0.2983770273354186,93.63904533199091,0.8147432078895435,0.39133176242191764,0.8511521223641005,0.5055042847042511,0.34377467707849396
STABILIZE,7.28777551651001,27.737904399121764,282.1926797252566,41.46855035949185,-5.367874166646032,-4.232848613005974,300,0,50,2.8817184959743214,-0.4280194072284026,93.68938382617391,0.83845668211177,0.3542172943537974,0.8465697226011948,0.5056302896142131,1.3750987083139758
STABILIZE,7.324030876159668,27.583579949756015,282.1425072122539,41.985239277335616,-6.338008047135709,-4.195527793846127,300,0,50,3.2132040115377305,-0.3830343406116705,93.73456552753355,0.847324802628373,0.3599334357460896,0.8391055587692254,0.505722629355341,1.5469860468532228
STABILIZE,7.372369050979614,20.694625905385937,281.2698747334513,42.23411386007124,-7.226998183238831,-4.124604218454996,300,0,50,3.6290455650019706,-0.4074577363818874,93.85701032878437,0.8532167609163864,0.3799951554169762,0.8249208436909993,0.5058228471081728,2.6929016371148693
STABILIZE,7.405278921127319,30.38756185384019,282.0965738458706,42.48454467047633,-8.067122393379131,-4.021796064799671,300,0,50,3.8970775559589033,-0.34515464508330873,93.97229026159584,0.856180542069116,0.35804789510556756,0.8043592129599342,0.5058904808364058,3.4377467707849396
STABILIZE,7.442041873931885,27.20923775543302,282.0932164092124,42.83641277642886,-8.70319499600709,-3.891259751532473,300,0,50,4.14724689468896,-0.2646232996742734,94.1559062370533,0.8639551357207521,0.36076356440826846,0.7782519503064946,0.5059521035927173,4.640958140559668
STABILIZE,7.481366395950317,25.43543966040024,281.3771372044868,43.27480489405411,-9.048336408347662,-3.7291637695839106,300,0,50,4.287541968448784,-0.12367479559037624,94.43710512518273,0.8734323807302711,0.3772103655273793,0.7458327539167822,0.505983426171258,5.443099053742821
STABILIZE,7.51996374130249,25.91187881483678,283.00899056371566,43.112402505600606,-8.787062968941015,-3.5241184375609897,300,0,50,4.117381038769434,0.05757625354738608,94.66229646211804,0.8684082815320524,0.33814238611696795,0.704823687512198,0.5059392133020456,6.474423084978302
STABILIZE,7.554650068283081,28.834560466379305,284.8775505785741,42.91440643000726,-8.43496813370554,-3.308441864741294,300,0,50,3.745473823367654,0.09624905143226273,94.9274990472113,0.8637374435734166,0.29923532379567397,0.6616883729482588,0.5058948697331462,6.589014644004467
STABILIZE,7.5898261070251465,28.45003968065551,285.3941557501712,42.543271363051325,-7.805624707808853,-3.099295691187909,300,0,50,3.5407993074819943,0.14295148373842984,95.07107645375413,0.8557631238851633,0.292686704245248,0.6198591382375818,0.50582329983714,6.818197762056797
STABILIZE,7.631340026855469,24.0899661133766,286.4281349194718,41.917813697219295,-7.123627870256025,-2.8580434102436434,300,0,50,3.019766864384034,0.21107856528448735,95.5530692431036,0.8438383856394368,0.2712160007041004,0.5716086820487287,0.5057673674197672,8.193296470370772
STABILIZE,7.6744139194488525,23.219003437757763,287.0384509985547,41.27276644356427,-6.37007269264268,-2.5395865133250672,300,0,50,2.7077352216807022,0.16766737702376722,95.91228938212207,0.8309644749799713,0.26000289672452875,0.5079173026650134,0.5056912589995977,8.938141604040842
STABILIZE,7.710561513900757,27.666730430538056,286.8775907407248,39.91810602087577,-5.308707147343854,-2.185979869977743,300,0,50,2.553858743643131,0.09789667448696963,96.32492843063922,0.800546492564036,0.2648152942052333,0.4371959739955486,0.5055629919599367,9.740282517223996
STABILIZE,7.747016191482544,27.44065423617926,287.5406049857892,38.57966698729754,-4.383270039247452,-1.8408554375990165,300,0,50,2.450847751571703,-0.07920431435849591,96.7057866089483,0.7735034175745108,0.24916874585177132,0.3681710875198033,0.5054720149373986,10.427831871380983
STABILIZE,7.781015157699585,29.418641678298133,287.3425731747258,36.96837984419346,-3.7206767712589013,-1.4789187303733125,300,0,50,2.3633760801922885,-0.2321512463387105,97.03498806656458,0.7396930412046984,0.25545670351956395,0.2957837460746625,0.5054076550412734,10.943493886998723
STABILIZE,7.823981523513794,23.286423344696253,286.53451171653285,35.388937532988216,-3.6526280766192936,-1.1191052304850357,300,0,50,2.2690648281327523,-0.48772993480885896,97.48847847650758,0.7097645278919571,0.27348985662326347,0.22382104609700715,0.5054298363763066,11.459155902616464
STABILIZE,7.86399507522583,24.998682806754044,285.6484258490969,33.62773062228706,-3.8850206400206893,-0.6822579212340776,300,0,50,2.165480527057866,-0.7536684727851829,97.99838624899488,0.6739471984165504,0.2915504242910708,0.13645158424681553,0.5054615292162781,12.032113697747288
STABILIZE,7.899967908859253,27.799123801191683,285.91310884784815,31.125505990256993,-4.678790351249177,-0.20353006262719336,300,0,50,2.094978033784525,-0.9719274878780577,98.37233227586391,0.6200911118215344,0.28304309914825443,0.04070601252543868,0.5055491424797172,12.662367272391194
STABILIZE,7.937834024429321,26.41765080084903,285.455679381649,28.698966714038452,-5.727354448855043,0.21554403753655418,300,0,50,2.037521842156143,-1.2390731550684757,98.96180492199268,0.5718831939731476,0.29429417699071814,-0.04310880750731084,0.5056636174100205,12.3185925953127
STABILIZE,7.977269649505615,25.363916185408037,285.45427979619865,26.054967948731843,-6.955834060092369,0.6669645331629985,300,0,50,2.0340600034640044,-1.3317773916823548,99.43731586181981,0.518492374194063,0.29320981366271637,-0.1333929066325997,0.505794076233429,12.662367272391194
STABILIZE,8.01889705657959,24.02772669725769,286.23844504148036,23.95001846787629,-8.009759651576521,1.1295565543896993,300,0,50,1.9720781711802544,-1.4272509498395565,99.95947016348894,0.47787100641210783,0.27561079162671626,-0.22591131087793986,0.5058984243324526,12.146705256773453
STABILIZE,8.059933185577393,24.370469361904874,285.9966840519853,21.566258573197107,-8.844928500339742,1.5862605455032066,300,0,50,1.8044072723401965,-1.4619892919582413,100.4551506519351,0.42916135190813154,0.28297345987547223,-0.31725210910064133,0.50597788036965,11.974817918234207
STABILIZE,8.107354402542114,21.09121263168481,286.7673065484202,18.615045746317687,-9.684266367411706,2.043857854110851,300,0,50,1.5564494207973425,-1.4403949018453055,100.99689393614383,0.36959996764448705,0.2655352335879663,-0.4087715708221702,0.5060709764981172,10.886198107485642
STABILIZE,8.143231630325317,27.881727292065516,286.21522314699644,15.512431733735838,-10.073005195650104,2.559566319762592,300,0,50,1.406470953063439,-1.336403991071392,101.3583065658859,0.3037984842148256,0.279211451155501,-0.5119132639525185,0.506082652868358,10.886198107485642
STABILIZE,8.181496620178223,26.13534059470103,286.47080023228875,12.713935330286175,-10.190305519785133,2.9168423043686906,300,0,50,1.1797635275757874,-1.114576522302303,101.7813411623198,0.24893771558309893,0.27199470447025165,-0.5833684608737382,0.5060913807444616,10.255944532841736
