Mode,Time,Freq,North-Vision,East-Vision,Down-Vision,Yaw-Vision,North-Desired,East-Desired,Down-Desired,Roll-UAV,Pitch-UAV,Yaw-UAV,Roll-Control,Pitch-Control,Yaw-Control,Thrust-Control,northVraw,eastVraw,downVraw,N-Velocity,E-Velocity,D-Velocity,yawVraw,yawRate,Q-Size
GUIDED_NOGPS,0.004596233367919922,218.66972524894427,-4.437860017773422,4.7151708147000235,73.62103470730523,9.916756980237702,-7.329803520824678,14.621975606732482,75.8839123894864,1.3637815236989188,-0.3256566161174644,2.372431843814667,3.2513671938523383,4.62910481310812,10.0,0.5045257553643624,-3.4882369904133665,14.377893256671548,80.82823806475598,-33.35018754005432,12.087355554103851,30.629727244377136,6.121640559190883,-11.525094719618497,1
GUIDED_NOGPS,0.021950721740722656,57.63148204127621,-13.729374319311061,12.189617964954069,81.16710735610734,7.653809439148434,-7.329701291893697,14.622399289707095,75.88368529399246,1.3626381073431764,-0.44512652313919865,2.546246070926329,-3.4316146422727987,-4.497112512150316,-10.0,0.48943315587577024,-14.96680164081154,17.369688762883005,79.51013205489966,-31.886586546897888,12.201762199401855,42.04280376434326,5.251505917926766,-10.165622404955622,0
GUIDED_NOGPS,0.030662059783935547,114.86837925179383,-15.062120465219971,13.137466178700706,81.30856709277745,7.11052735671054,-7.328999519245691,14.62530775329129,75.88211395180363,1.3625392830436227,-0.4723043260943554,2.675861503588603,-1.2359606472234397,-3.1199741179716183,-5.518719384138314,0.4891470937180524,-21.27114152670019,18.31584190924174,78.23064858443126,-31.886586546897888,12.201762199401855,42.04280376434326,4.711460259179031,-10.165622404955622,0
GUIDED_NOGPS,0.06226086616516113,31.651541334943214,-16.24902619354742,13.921949616610267,81.42595359079678,6.676463631207831,-7.327136266010913,14.633029918292866,75.87790417868123,1.42102320469868,-0.5724373539259753,2.9951039050647643,-0.2843841022875281,-1.4168802913179097,1.2685320550417458,0.48890390117576893,-23.50497842571021,19.100655128449002,78.68816240461888,-33.46950709819794,11.984286457300186,46.17258608341217,4.195570106435383,-8.646927281682348,0
GUIDED_NOGPS,0.09613847732543945,29.52342204734386,-17.949744432922724,14.808489868675764,82.26649570964523,6.127818567458663,-7.323589761795236,14.647728237459074,75.86981572764586,1.5737735552968453,-0.5522513701642373,3.3576644334742043,-0.33447100921180895,-1.7957342226152535,0.43832330278396325,0.4872066400360013,-24.999719715031496,18.779418126025664,78.71741681403132,-31.886595487594604,13.933975994586945,48.93594682216644,4.021437404796845,-10.380119373197994,0
GUIDED_NOGPS,0.1309645175933838,28.719847715040878,-17.54846931000711,14.910762305133469,83.92242708766099,5.670544849469632,-7.3178774575866115,14.671402612372171,75.85666154501519,1.4366558001615468,-0.6796610252505676,3.7543526424018476,-0.011253307199881074,-0.4912776195347642,0.7622385585368403,0.48386846891470836,-5.224448401640737,11.659414994339189,86.68619237553155,-29.412221908569336,14.93736207485199,45.76636850833893,4.719776874619101,-12.375589021294838,0
GUIDED_NOGPS,0.1641697883605957,30.119377262021025,-17.33987082472381,15.014557694363365,85.50728830866929,5.271166946343274,-7.30955508066153,14.70589431034495,75.83730702644179,1.3194785688646888,-1.1198933976843348,4.167451448027505,-0.006268944952701777,-0.5852706103237809,0.7716807531817631,0.48066003743554503,-5.224448401640737,11.659414994339189,86.68619237553155,-34.1486394405365,13.712936639785767,49.84859228134155,4.719776874619101,-10.982643657057023,0
GUIDED_NOGPS,0.19809341430664062,29.481917802441888,-17.431117861849206,15.15853332157434,87.05454938950514,4.86536161015885,-7.29821568949147,14.752889881316289,75.81066927295095,0.9455655190027472,-1.4735798028146356,4.546774541320625,-0.01594865447418442,-0.7739453465588733,0.5259620292922169,0.4775122397668916,-7.753009060929406,12.059258306676183,87.40676574459667,-34.65659320354462,14.089849591255188,53.247618675231934,4.240968750752634,-11.386844860628269,0
GUIDED_NOGPS,0.23122549057006836,30.188314212094603,-19.843341382896266,15.92509469922404,88.34458978902184,4.268586142939233,-7.283488728649358,14.813925074746692,75.77571634697846,0.6832172059306171,-1.8633643980386887,4.849976883861246,-0.3170140626117622,-2.375816186073289,-1.0447543860231767,0.47486225311591324,-36.41001189654919,19.801802329807714,83.84073611056243,-34.84372794628143,13.485555350780487,60.54171323776245,1.5332516427569352,-11.266198106676455,0
GUIDED_NOGPS,0.26555705070495605,29.130550134390866,-22.063068154600494,16.600239699663135,89.48294175323754,3.658511140883526,-7.265039083716023,14.890388756513827,75.73146652840838,0.6446932314644526,-1.9220419128680335,5.229517689434161,-0.3028064093392703,-2.3720872689049517,-1.3812896108551636,0.47249704955034166,-37.3435216015659,19.49260864767681,84.47803450994516,-34.193894267082214,14.413626492023468,53.461164236068726,1.2039399573034952,-14.230467763063432,0
GUIDED_NOGPS,0.2989327907562256,29.96680598721109,-24.17761075002534,17.43224188148771,90.79283043123475,3.050189707439008,-7.242566136186653,14.98352682580808,75.6769875706109,0.2762568193780976,-2.198239608421128,5.565790954162337,-0.4549180315850562,-2.4844963283723622,-1.7888085367956394,0.4697683142787523,-38.37949918103202,22.26876850610379,86.95656179598608,-34.193894267082214,14.413626492023468,53.461164236068726,0.7244986223741299,-14.230467763063432,0
GUIDED_NOGPS,0.33229970932006836,29.97494407798352,-26.051688836921805,18.151445280348213,91.98244846442306,2.6066994391691565,-7.215802818377251,15.094446132028079,75.61139595648015,0.23331571355091835,-2.243999741426098,5.9646641832941505,-0.4380432754057181,-2.4890123456525983,-1.1144154447662311,0.4672578949841142,-38.37949918103202,22.26876850610379,86.95656179598608,-31.865254044532776,12.459002435207367,52.545589208602905,0.7244986223741299,-7.5125566577219365,0
GUIDED_NOGPS,0.36545729637145996,30.161829426146987,-27.86301175191243,18.850925162796727,93.18095635359383,2.0950125682863874,-7.184514668331091,15.224118391676251,75.5338561544719,0.23915886034458492,-2.390737604563948,6.288598711286698,-0.4648683668017659,-2.56839917967172,-1.8037467328927153,0.4647057996017562,-40.00260580829112,22.962711750881283,88.22761055642627,-30.989879369735718,12.25677877664566,52.48550772666931,0.27174660411844653,-12.233787463936205,0
GUIDED_NOGPS,0.40118861198425293,27.992071490066003,-29.621620119544513,19.545425364050644,94.49098471705385,1.644536816508729,-7.148498884725173,15.37338410525436,75.44357987464151,0.24284420096905637,-2.3714504310083013,6.696786184012293,-0.4819257016207652,-2.5947855502678103,-1.5404055450946816,0.46190519031517535,-42.18454904992017,23.29554212558486,89.21930245077988,-26.993530988693237,13.627040386199951,57.519835233688354,-0.37406937716264266,-8.00667047152723,0
GUIDED_NOGPS,0.43387842178344727,30.59347328188595,-31.425214538914922,20.04767340960604,95.85543251233246,1.1322220912496461,-7.107583381776679,15.542956474159048,75.33982532468163,0.25127793712928825,-2.747412004012718,6.919706909935408,-0.41741640195435403,-2.8371958146977816,-2.448587996260908,0.45896878562469834,-45.04671535213613,20.982749563051307,90.96510352516601,-26.993530988693237,13.627040386199951,57.519835233688354,-1.609036395315829,-8.00667047152723,0
GUIDED_NOGPS,0.46654748916625977,30.615581135628727,-32.77381866964725,20.681038729032164,97.4532289060913,0.7491595708122377,-7.06162584414943,15.73342531757738,75.22189646596,0.22644763817535318,-2.771068364203057,7.089660799505542,-0.5341752262833231,-2.6638423616075126,-1.9039254699349566,0.4555373351197374,-39.85742358209781,24.1055949295931,95.82754656727512,-28.00828218460083,12.839339673519135,60.35294532775879,-1.162846455172344,-5.863959874171482,0
GUIDED_NOGPS,0.5001301765441895,29.782533675114145,-33.53085078978509,21.724674608209572,99.31414456835128,0.3692536061456684,-7.010512781860341,15.945260989382376,75.08914226955731,0.5501757397084939,-2.6418061803869195,7.439723789281151,-0.831346256239572,-2.347311498408121,-2.0606771665496395,0.4515499954024121,-31.91418847750021,31.752296848532147,103.79153636917383,-25.86621344089508,13.137871026992798,52.93416380882263,-0.23924678720772063,-10.851894199549115,0
GUIDED_NOGPS,0.538602352142334,25.995872199324427,-34.23781174481424,22.801311730052802,101.11403078162435,-0.004597768389452087,-6.954158585185879,16.17881829502857,74.940955972305,0.53566441584742,-2.689420069421313,7.650125205342455,-0.8465882130875522,-2.3163551699901452,-1.9940170860025954,0.4476538503813613,-32.55487408160264,32.587769178900245,105.60399291733246,-21.651236712932587,15.90009331703186,47.22709655761719,-0.5117116756272669,-10.460576440299805,0
GUIDED_NOGPS,0.5675194263458252,34.587919020327384,-35.04279065312486,23.735756165251853,102.70182646963723,-0.2992244558769628,-6.892504579568515,16.434340408447543,74.77677433282302,0.5274460974503079,-2.786258918360577,7.716217530846084,-0.9018662946060909,-2.5408996234868346,-2.1345321325288924,0.4441498957263716,-36.03831636931665,30.06945676841749,101.663789403781,-17.291830480098724,16.906072199344635,43.18218529224396,-0.6945664076831204,-3.972431191090246,0
GUIDED_NOGPS,0.6012656688690186,29.637744755121222,-35.67453523501278,24.49970311152968,103.80760542353487,-0.513266429354408,-6.825518080523183,16.711962788943456,74.59607688755764,0.5324692746980292,-2.82480316995084,7.777991469246972,-0.7795008235135722,-2.429835917199682,-1.586242544903024,0.44157694292804556,-35.66852156822809,30.211212441819747,102.7863240682531,-19.36260461807251,15.67433774471283,36.1049085855484,-0.8671090043154788,-4.231020445519636,0
GUIDED_NOGPS,0.6344587802886963,30.13300956226247,-36.554792702965905,25.404279727462878,105.32988002475999,-0.7021372317723478,-6.753191448543736,17.011717098088614,74.39838520681928,0.43797616885184154,-2.5412931165610115,7.79914029623827,-0.9002111362984105,-2.6487789699525144,-1.5583714581860617,0.4381370103641186,-39.10755095526666,33.18230973907963,105.6491260665332,-19.546213746070862,13.919775187969208,46.86082303524017,-1.1086182299279546,-0.9917473094672595,0
GUIDED_NOGPS,0.6684718132019043,29.405029480015983,-37.37523194365646,26.213159104673203,106.79261742929353,-0.8841767535031666,-6.675541144009398,17.333535116618986,74.1832621508203,0.1826474492970597,-2.6674763791653544,7.681281113241469,-0.8581966166031175,-2.6602099876828396,-1.5929552195041965,0.43478128944305355,-39.00841721935442,32.35987498990159,106.24184079783898,-19.546213746070862,13.919775187969208,46.86082303524017,-1.3524980505964945,-0.9917473094672595,0
GUIDED_NOGPS,0.7010836601257324,30.667066367378574,-38.22143632337801,27.10204984810049,108.17609032712517,-0.9146299532133506,-6.592606782091227,17.677252661329767,73.95031112571279,0.11805141546934012,-2.476199065893263,7.608040140997776,-0.943654724851002,-2.7683006279055267,-0.7352695947065121,0.43154844159717526,-40.23816915090616,34.05906134646021,106.97105643301194,-19.885513186454773,15.728668868541718,41.833093762397766,-1.2527338715515155,7.262286573701622,0
GUIDED_NOGPS,0.746396541595459,22.073890070100834,-38.90504436733059,27.955583295417547,109.14293668283953,-0.8950259451190401,-6.504450187658564,18.042613501970898,73.69917533962641,-0.21601812607572882,-2.37221370464805,7.371589237215689,-0.8544686831420994,-2.6011629002742613,-0.44908784509675814,0.4291124773135737,-40.464260298475395,33.789215504026956,108.37743166838818,-13.01262080669403,18.283171951770782,20.099054276943207,-1.445023455217679,9.263495288248569,0
GUIDED_NOGPS,0.7684211730957031,45.40764317419075,-39.97945497587194,28.37968620250056,110.72642053390057,-1.0264696141276426,-6.411154450185491,18.429273278142634,73.42953705870613,-0.5060267309348537,-2.1874383045789876,7.042908581523628,-0.6903865252809223,-3.3657299844587034,-1.772805618136018,0.4254062330496111,-48.23076239468632,27.082236449477275,106.36025054354927,-14.658428728580475,14.459016919136047,38.581714034080505,-3.32170121703854,9.44657424008253,0
GUIDED_NOGPS,0.8131699562072754,22.349953374363892,-40.40644728958888,29.387058719850383,111.80702714796476,-0.8822421323245698,-6.312822978657292,18.83680341619106,73.1411168631501,-0.5346034953702467,-2.364722054345604,6.5025842691149665,-0.9416375152606937,-2.6073886405477804,0.11591410998084051,0.4226681794303707,-42.06419013566242,42.79437835779119,116.04192126060562,-14.658428728580475,14.459016919136047,38.581714034080505,-0.7481954231230552,9.44657424008253,0
GUIDED_NOGPS,0.8542120456695557,24.368911844849723,-41.44029938528766,30.750604949460676,113.79280347847879,-0.7696434705286226,-6.2095785564769,19.26469504610366,72.83367290324742,-0.6096768259413542,-2.051655211096192,5.873416271077365,-1.1890952892567632,-3.008778306130189,0.09108762929569758,0.41808173884953725,-43.63969939738601,44.32324544011115,117.88340485353535,-15.353071689605713,12.640799582004547,36.13490164279938,-0.3146718727225378,11.702535350292612,0
GUIDED_NOGPS,0.8880801200866699,29.52924196875506,-42.18029763653498,32.00163993827876,115.10143814683722,-0.5643977084592802,-6.101562396371358,19.712362918404832,72.50700015541592,-0.5504695979253631,-2.0564222562500376,5.294181651627611,-1.2367010164853967,-3.009218158300853,0.8612124092189944,0.41481112401715736,-44.14370165266237,44.14098424622233,118.20629432311341,-6.325352191925049,14.557068049907684,12.648999691009521,-0.24219921259752897,14.530006562887987,0
GUIDED_NOGPS,0.9203460216522217,30.99728035946553,-42.7828867092951,32.99798177526525,116.2547878081817,-0.22978984090657228,-5.988933195298278,20.17914932105145,72.16092967824004,-0.7639796571935221,-2.2486263408151355,4.771999175428149,-1.1093099937745623,-3.0142602651108827,1.935164673458705,0.4118122837401167,-44.14370165266237,44.14098424622233,118.20629432311341,-11.174874007701874,9.201671928167343,24.09411370754242,-0.24219921259752897,20.46889361225451,0
GUIDED_NOGPS,0.9546389579772949,29.16457949448945,-43.28970857874945,33.962904367244086,117.45563990323197,0.13628531951793926,-5.87186618935229,20.664327996328396,71.79532786850854,-0.6602316450219672,-2.128700812150994,4.257184338909016,-1.0712080245733986,-2.9864473096863473,2.221356367454769,0.40867937593055315,-42.94320146328566,45.07735826286686,120.94344187119151,-12.712010741233826,9.039976447820663,26.42121911048889,0.7038379850070696,19.292113489963842,0
GUIDED_NOGPS,0.993398904800415,25.804273330749403,-43.80650639932303,34.99388608762602,118.47397878427033,0.5104259144209526,-5.750552208671502,21.167108057744112,71.41009571725233,-0.8358354884178777,-2.2667511015514106,3.536485189247485,-1.0760284880003377,-3.0035936502259175,2.2409615611096845,0.405872233865964,-45.43997833609451,46.54168356371811,120.64089227358957,-6.107006594538689,10.604465007781982,17.043207585811615,1.2398774309547693,18.272426011036178,0
GUIDED_NOGPS,1.022059679031372,34.92982894451939,-44.43481128812331,36.127227284798444,119.548828635166,0.8984231376588678,-5.625196732343957,21.686637906926126,71.00516806578236,-0.8592131982344214,-2.3744668133005082,2.8598049012393933,-1.2468093615635487,-3.2663581211927064,3.266214081371452,0.4029126788612327,-46.61210234571354,48.17648157639513,120.76310815154989,-5.817868560552597,10.179276764392853,14.78564739227295,1.8338786865568275,16.88723632660091,0
GUIDED_NOGPS,1.0564959049224854,29.019898707552652,-44.66615242564756,36.995953233010944,120.0090817176063,1.317229671892874,-5.496018943314082,22.22200915051662,70.58051286172727,-0.9044658161675476,-2.4903527119574105,2.291138291982941,-1.0103343914963958,-2.9735518457553765,3.2023414030997888,0.4011428622882419,-44.703023542529515,47.38863368234648,121.88407230673755,-2.239764668047428,10.543086379766464,0.2723186742514372,2.1095324651818808,19.728929700595547,0
GUIDED_NOGPS,1.0897090435028076,30.11267383172873,-45.01895471655091,37.46311760744702,120.61841090489943,1.7235295960922732,-5.363250783289157,22.77226051706794,70.13613041507132,-1.202492796308003,-2.5830138330021537,1.5256185872141397,-0.7387621734649439,-3.09189533853827,3.480581379331762,0.3990354390203438,-45.26930016585909,38.399868224225166,118.62092886583756,-2.9204905033111572,9.205034375190735,10.577259957790375,1.4848592850825906,20.304934921228355,0
GUIDED_NOGPS,1.1281003952026367,26.052548542181697,-45.309045884841666,37.93856015570481,121.20369275715461,2.1656623853986483,-5.227136007645756,23.33638177393815,69.67205265419214,-1.2918816164100755,-2.5023994581060203,0.7212227263500952,-0.7148391101755439,-3.057310696227036,3.606301360031818,0.3969367197940751,-44.69892874326352,39.375029260020014,119.66671456116973,-2.9204905033111572,9.205034375190735,10.577259957790375,2.4270920556521354,20.304934921228355,0
GUIDED_NOGPS,1.1613941192626953,30.039993124391223,-45.70661402542754,38.375855986169896,121.93383906424724,2.741455101924178,-5.087929240336212,23.91331764418662,69.18834238189854,-1.6217253252517427,-2.535971331980514,0.11053752703145173,-0.6317106607062262,-3.199128941762896,5.0983481924895315,0.3945090066353026,-43.853493558915744,39.627872110481746,120.42704914768058,-8.879456669092178,2.858268655836582,10.95338687300682,3.1606530944264986,24.79694714021793,0
GUIDED_NOGPS,1.1948394775390625,29.90441831780232,-45.893597231778365,38.75756876720208,122.4289971829406,3.1500652386690753,-4.945895028795074,24.50197172346946,68.68509253146829,-1.6874063453012895,-2.470673869741546,-0.6189431514892401,-0.56234158877119,-3.0984066508682684,4.3302005040563945,0.39251219069705534,-43.853493558915744,39.627872110481746,120.42704914768058,-2.4261774495244026,6.182170659303665,8.451905101537704,3.1606530944264986,17.22225881293733,0
GUIDED_NOGPS,1.2350718975067139,24.85955429113324,-46.06074268992478,39.49998768905091,122.85263859519685,3.7077619704814104,-4.801306898845555,25.101210396935198,68.16242542268597,-1.9789418709658826,-2.5143595462295356,-1.004744092240736,-0.7364918230777824,-3.0975864440843504,5.003272635376613,0.39061957365497824,-45.827843833670144,47.572381361653434,122.7892740165428,3.8291476666927338,6.9084882736206055,-0.24820305407047272,5.73120920888306,19.21047906900385,0
GUIDED_NOGPS,1.2697675228118896,28.826237259712858,-46.2423821862349,40.26465409866804,123.40691009853667,4.280112319767502,-4.654446409605994,25.7098667561202,67.62049201788074,-1.947930677699909,-2.4095056837426734,-1.3344812928200334,-0.7296031892150836,-3.1649765649091317,5.887909959951181,0.38842716383868814,-45.827843833670144,47.572381361653434,122.7892740165428,7.379923760890961,4.322230815887451,-0.06116991862654686,5.73120920888306,17.673365486859993,0
GUIDED_NOGPS,1.3009297847747803,32.09574459944445,-46.369831521863084,41.1513228314784,123.75978006750827,4.901004163718495,-4.505602208396314,26.32674451584429,67.05947117796416,-1.8963142978118879,-2.2993957772460747,-2.4183667869737073,-0.7921104756646105,-3.185885322397621,6.897224666071729,0.3865993822209118,-47.622636956408584,53.6918838154521,122.68622411655895,8.808708935976028,2.0251527428627014,0.6017252802848816,7.610080099971496,18.892895763165768,0
GUIDED_NOGPS,1.3357341289520264,28.74070825567372,-46.27265288040988,41.829739439930954,123.9610749934796,5.406306508162349,-4.355069085644469,26.950621931106273,66.47956891846796,-1.7998015904054923,-2.10891012558747,-3.25553218792818,-0.6407215240628422,-3.0388740670779497,6.156736720085171,0.38503698784997675,-45.322194907835396,51.45716690158136,123.54341674746209,12.895862758159637,1.040654070675373,-4.970953613519669,7.563048331495548,15.098952783013587,0
GUIDED_NOGPS,1.3682408332824707,30.76468991821616,-46.23345132912077,42.605762849291864,124.1747477733585,5.981322488133098,-4.20314702979291,27.58025571397946,65.8810176655819,-1.7158982659805861,-2.147422147222587,-3.791335555436528,-0.6725981554740789,-3.098604510219088,7.135520097618398,0.3834125397844468,-46.32851252888253,53.665626934266164,123.33713815652062,12.895862758159637,1.040654070675373,-4.970953613519669,8.79142188681488,15.098952783013587,0
GUIDED_NOGPS,1.40348482131958,28.37862487990365,-46.15156476850744,43.19671638433603,124.42502378590329,6.55773915900866,-4.050140282205035,28.21438495050721,65.26407551219151,-1.7022267885831595,-2.0139096647519974,-4.187797300904503,-0.5276463325203684,-3.0676358697161636,7.193261893798649,0.38167810345257647,-44.45736139320016,51.44056566036609,123.30737228275842,8.5068978369236,-0.3022296819835901,1.1287612840533257,9.136427056898743,16.734682343941383,0
GUIDED_NOGPS,1.435896635055542,30.85816865555245,-46.145775617583986,43.43207141269893,124.32274045030576,7.004542782459489,-3.8963563920716426,28.85173501759853,64.62902547391593,-1.735087255566914,-2.1359747501736455,-4.543536604767215,-0.2506690919495251,-3.102371206872439,6.9557577387768035,0.3806125700472203,-46.50443143348029,43.65482095286181,118.93986475158908,10.055164992809296,0.27244207449257374,-8.81626382470131,8.542051395987079,10.38280790641004,0
GUIDED_NOGPS,1.4697837829589844,29.513035034513816,-46.01269413371347,43.60037879321732,123.92003212366573,7.43887929665,-3.7421052713173975,29.491021499923512,63.97617474514572,-1.5360431634348717,-2.105148185458674,-4.752838787258971,-0.17966596443144928,-3.020089441875597,7.0215191451631105,0.38011228524296,-45.278158619928426,43.82093814421236,119.24219160250664,12.908545136451721,-1.4545080251991749,-24.32079017162323,8.90789929219758,11.508422227854496,0
GUIDED_NOGPS,1.5058202743530273,27.754790894653254,-45.77352831220641,43.68798040469438,123.55559479261116,7.907214449143904,-3.5876982495072784,30.13095410680898,63.30585395508065,-1.4959047030036454,-2.1461713688308284,-5.158703141893115,-0.10162457772490796,-2.947870468191792,7.349381389393236,0.379500518324939,-42.9140910981837,42.13617621547747,119.93084341844252,12.908545136451721,-1.4545080251991749,-24.32079017162323,9.705315457832974,11.508422227854496,0
GUIDED_NOGPS,1.5363452434539795,32.763904511936005,-45.42827497583471,43.779384398561334,123.30404075290119,8.30755862165634,-3.433447128753035,30.770240589133962,62.61841642376748,-1.529936120543234,-2.0965195221028323,-5.27048687162319,-0.011177903302354186,-2.8462279482205854,7.602279463934874,0.3786287513417326,-42.9140910981837,42.13617621547747,119.93084341844252,19.33303475379944,-0.11082279961556196,-16.365239024162292,9.705315457832974,7.46436198916468,0
GUIDED_NOGPS,1.5707566738128662,29.064541611807915,-45.033338998133004,43.801088285004184,123.02711262079416,8.634278522181686,-3.2796632386196425,31.407590656225274,61.91423741813779,-1.4680923861467652,-2.031351620014683,-5.413140495080784,0.036396362612491406,-2.8089374631990207,7.079904718771363,0.37777424959468725,-42.59862668691025,41.79981293761464,119.21032647660958,20.92399001121521,-1.0361721739172935,-13.349626958370209,10.24153931404996,6.028459430802538,0
GUIDED_NOGPS,1.6049466133117676,29.253061793834565,-44.72844698802936,44.23354057304266,122.84659518156752,8.972133192739548,-3.126656491031767,32.04171989275303,61.19371340804578,-1.341200704859445,-1.9314784595366408,-5.425385316715324,-0.16570183473138483,-2.8843907278185164,7.360088285848615,0.3766942364529565,-43.408258093384106,51.15215923211923,121.19668395852818,18.00890415906906,-3.4519392997026443,-14.698874950408936,11.60929276028911,1.6298844131021462,0
GUIDED_NOGPS,1.643888235092163,25.682609467709245,-44.27100105284928,44.935934520633204,122.91061478264992,9.27116182052821,-2.9747344351802063,32.671353675626214,60.45726132230609,-1.2960446167091983,-1.7152213302008144,-5.40585268323638,-0.3227685559720985,-2.8225336022481153,7.10006681805115,0.37509329307931233,-41.1397422023208,58.624941976341795,125.20467807585234,21.12002670764923,-5.734514072537422,-10.089661926031113,12.386137684550263,-1.3856088872955754,0
GUIDED_NOGPS,1.6774322986602783,29.818740224655198,-43.752085047085544,45.64138472088031,122.84438606282372,9.615252051700613,-2.824201312428361,33.295231090888194,59.70531780473155,-1.1121454018446015,-1.67415513798123,-5.311238768419248,-0.33715628098690636,-2.738304022449999,7.837452175397301,0.37372186348381564,-39.889049930482855,58.40534741815451,125.26273439223695,21.352635324001312,-5.703306198120117,-18.99987906217575,12.69755284019725,-0.9031089564002422,0
GUIDED_NOGPS,1.7113194465637207,29.51261970602101,-43.318219528869285,45.899549646014684,122.37005323103189,9.756706775931479,-2.6753571112186805,33.912108850612285,58.938338470171026,-1.044574553829077,-1.672916846029048,-5.203881428158164,-0.048360378004678795,-2.726074590717968,6.680606187741748,0.3731365704782783,-41.896563228826544,50.72043373827918,119.60781899796125,21.967396140098572,-5.881073325872421,-24.37487542629242,12.191780799868217,-6.849288513366222,0
GUIDED_NOGPS,1.7445316314697266,30.115052126712428,-42.7452772050605,46.12120030502926,121.86943765724499,9.860709981441543,-2.5284966219791247,34.520765209797275,58.156797160547235,-0.8005161533329186,-1.609172611496023,-4.890096561272255,-0.017722479055512386,-2.5996939806013786,6.5435498130770124,0.3725747190066045,-39.249105652430714,49.710220687747096,120.04832175558487,23.50074052810669,-4.798025265336037,-27.436745166778564,12.042657357570688,-8.001742490041066,0
GUIDED_NOGPS,1.7780163288116455,29.86587675700309,-42.164059324837055,46.27142653933082,121.3645234157811,9.880634084043093,-2.383908492029601,35.12000388326303,57.361185200894504,-0.587131385347347,-1.358729318147225,-4.480823515355452,0.03800600158785983,-2.5553424460556706,6.04731862174029,0.37199332357022685,-38.6527773353837,49.53471220752674,119.86399207314301,23.16116988658905,-6.970736384391785,-26.88215970993042,11.997001521425247,-11.353531466725178,0
GUIDED_NOGPS,1.8188962936401367,24.466141291349974,-41.59824896974572,46.40553620594453,120.78246507963748,9.851409121030422,-2.241874280488462,35.708657962545864,56.552010655396586,-0.297652653757427,-1.3130852983581454,-4.009100769196752,0.025724920960017106,-2.577736476515932,5.765458838136921,0.37153909115151823,-39.00077907523521,49.92054262980784,118.57673657895575,23.7562894821167,-8.284978568553925,-28.05999219417572,11.88275478078543,-13.142330689594838,0
GUIDED_NOGPS,1.852715253829956,29.573381655115035,-41.04669219793527,46.51764434809265,120.23128512725376,9.831173124058553,-2.10266751317892,36.285593832794326,55.729797583424514,-0.02251262366947937,-1.2967599723030514,-3.648135516845333,0.08981024634476403,-2.5036188996248887,5.77901365819397,0.37099702491234154,-38.727678706180924,49.43056167626966,117.71476802897214,19.895879924297333,-9.807154536247253,-22.815388441085815,11.592583005328445,-13.015436873873401,0
GUIDED_NOGPS,1.8892149925231934,27.40085711299258,-40.48413055914805,46.130140342117464,119.43699115239673,9.72959932695395,-1.9665527375355172,36.84971508966456,54.895085295574304,0.17855792689236744,-1.3165380657052925,-2.975412256244206,0.37395048969746575,-2.4380473803741256,5.289802216024684,0.37091618828635514,-38.51439444409711,39.196193367084035,112.90899456354958,23.637886345386505,-7.966521382331848,-24.985584616661072,10.542547854645946,-11.970417930861451,0
GUIDED_NOGPS,1.9190447330474854,33.53002214387926,-39.93165520819494,45.746881841262045,118.70961088968637,9.592231978135285,-1.83378457751059,37.39996645621587,54.04842760970485,0.44876103755129165,-1.3318131434537914,-2.531773753848718,0.532711054109123,-2.3232996359417384,4.815137294567098,0.37067763344003696,-38.43062446127505,38.87992554343116,112.50100654099501,23.687535524368286,-7.165798544883728,-21.013924479484558,10.324565299080232,-12.811963830951429,0
GUIDED_NOGPS,1.9518203735351562,30.517567793712118,-39.36246496663883,45.30534310103692,117.97073470053607,9.338052925513452,-1.704606788480719,37.93533769980636,53.19039210697569,0.6252557937470657,-1.3246198870407102,-1.8841463158055103,0.5241843449173433,-2.319071318023255,4.085558854870491,0.3704393148128793,-36.73991887668342,37.585468573588784,112.06911170373454,22.924743592739105,-7.095770537853241,-23.05934429168701,9.96170486004116,-18.118538433941204,0
GUIDED_NOGPS,1.985884428024292,29.360362882903065,-38.75985123493601,44.875933749264476,117.1012039179766,9.033162480933662,-1.5792513121531737,38.45486754898837,52.321559387884825,0.8152648262676504,-1.427688722276672,-1.3300810501689586,0.5350177118285033,-2.2661872217540977,3.6275763470406344,0.37044071093981645,-36.123330131608824,37.35108054308465,110.27737594996691,21.585752069950104,-7.111897319555283,-25.60153901576996,9.093233816889121,-19.063083586714974,0
GUIDED_NOGPS,2.0231642723083496,26.82826422069989,-38.14501726978509,44.405683654118654,116.21751269470414,8.716651993562143,-1.457937331472385,38.9576476104041,51.44252232830646,1.0885701501506562,-1.2345040786788546,-0.5451618472491756,0.5431761607154164,-2.246272083162247,3.527567862794152,0.37045001926720467,-35.15569083167853,36.13274296471218,110.04609806235703,20.920991897583008,-6.6560156643390656,-27.101489901542664,8.735479285561944,-18.575139995051142,0
GUIDED_NOGPS,2.0535340309143066,32.93266331658292,-37.368489611613235,43.94262650679626,115.18894656194334,8.382099379828826,-1.340870325526394,39.44282628568104,50.5538853355289,1.3022835676291817,-1.2696960947688163,0.07014722338490116,0.6550365098267517,-2.0136478584661526,2.8259601068143327,0.3707298775471711,-33.43958138726015,36.16484234303039,110.22940932278715,25.199490785598755,-6.899499148130417,-35.936933755874634,8.55215752053484,-18.79015093502856,0
GUIDED_NOGPS,2.0875749588012695,29.38442892271909,-36.663157036539836,43.506991100897174,114.321583625533,8.01536160209677,-1.2282411244533211,39.909612688327634,49.656263604292285,1.6418331887248487,-1.3357704910258734,0.8572998914931717,0.6251475743044046,-2.0530049427092862,2.579685159840983,0.3706693599575186,-32.76137990219068,35.98997070122732,109.98996152520303,25.739476084709167,-5.272895470261574,-31.624513864517212,8.306013400890276,-20.851295413316013,0
GUIDED_NOGPS,2.1218056678771973,29.216790426169215,-35.85855922625035,43.076000076053965,113.41560544455827,7.538493792902769,-1.1202249643477753,40.35728056062883,48.75028237282645,1.8469599911996104,-1.4712637283557666,1.595776689542924,0.5979653692747554,-1.9766232877433618,1.8279229406471922,0.3706693538565363,-31.1467654714419,34.79162208152775,108.74017751632627,26.32620930671692,-2.3543624207377434,-29.561007022857666,7.347098666420935,-24.599633220380017,0
GUIDED_NOGPS,2.1549770832061768,30.15055494853068,-35.015288397893315,42.61323106502587,112.43796870291592,7.007420330907466,-1.0169805421673868,40.785172190541424,47.83657617888863,2.0145100810687238,-1.5581543000472011,2.399624321004369,0.6621509088752746,-1.8648759825375103,0.9883106642556823,0.3707972149519454,-30.375958111679385,33.85365927345499,107.37037051106857,26.32620930671692,-2.3543624207377434,-29.561007022857666,6.33666624474324,-24.599633220380017,0
GUIDED_NOGPS,2.1884872913360596,29.84505037855069,-34.251374707322654,42.15948216265064,111.56047133526009,6.507364907345716,-0.9186490706391819,41.19270232858985,46.91578811580139,2.1364125226107613,-1.5051865031988696,3.1051173351393366,0.6702734790868778,-1.874067699925575,0.9342504769901074,0.3707106335610826,-30.375958111679385,33.85365927345499,107.37037051106857,24.141286313533783,-2.7938237413764,-26.943814754486084,6.33666624474324,-23.774992038485824,0
GUIDED_NOGPS,2.233522415161133,22.20759472223987,-33.602003604742386,41.71356876817135,110.6323898891428,6.014178812895162,-0.8253533331661185,41.57936210476159,45.988569088490316,2.2764030126222847,-1.6119658387014408,3.8392028018004467,0.5738904219563377,-1.9985208147243279,1.4203753499585416,0.370712358398695,-31.309234267413444,33.528647690157904,105.40897262642625,20.464180409908295,-2.2174183279275894,-25.71834921836853,5.322997186601047,-20.73745494287212,0
GUIDED_NOGPS,2.2557947635650635,44.90689507494647,-32.845200115977285,41.51769917863925,109.78802411120706,5.406382574947615,-0.7371967387334504,41.944722945402724,45.05557706952192,2.3564581657801233,-1.6448673935419211,4.535160658410665,0.6819706410618331,-1.5905697503847969,-2.2084224242942074,0.3705351059166297,-28.31959787364477,38.666163653142746,108.75150828462705,20.40347456932068,-1.8267292529344559,-21.066845953464508,4.564150651022798,-21.054969946818503,0
GUIDED_NOGPS,2.2937357425689697,26.35954222940064,-32.3037437322408,41.37448811762812,109.34102632298365,5.063108894117014,-0.6542623768152769,42.28844049011348,44.11747635514135,2.316765588635652,-1.775985574543304,5.308720136162806,0.48451526914683474,-1.9385376478144685,1.2281465458839615,0.3695529000643154,-28.31959787364477,38.666163653142746,108.75150828462705,20.342616736888885,-0.6650816183537245,-21.079452335834503,4.564150651022798,-16.510906563711547,0
GUIDED_NOGPS,2.326356887817383,30.6625825176001,-31.496857484792287,40.95750182239054,108.25887630414483,4.527929669111525,-0.5766120722809429,42.610258508643874,43.17493682131023,2.436561130262152,-1.9860435601554032,6.1392600401789545,0.6924399620943035,-1.6609000417732522,-0.6153697180459266,0.3698321210343308,-26.74583993724912,31.44605387617598,103.79190543459916,23.179258406162262,3.359275311231613,-31.48382604122162,3.488159669761594,-17.944653770503727,0
GUIDED_NOGPS,2.362603187561035,27.59210846583471,-31.199169506567486,40.34154816652695,107.05886684532781,3.960391515525199,-0.5042854403014889,42.910012817789045,42.228633179744484,2.338909702255068,-1.8387180873055207,6.615331482404836,0.7961911356251478,-1.9743734540729487,-0.7463334636201457,0.37033953266883335,-36.5959805047829,26.217782333554172,97.35057177984274,23.179258406162262,3.359275311231613,-31.48382604122162,1.003671876375861,-17.944653770503727,0
GUIDED_NOGPS,2.3921844959259033,33.810580961363286,-30.700808199310277,39.70147010030317,105.81832383288926,3.2741148636725974,-0.4372989412561612,43.18763519828493,41.279244233952085,2.4299606062029806,-1.8141402919074645,7.303478590812322,0.9266537327682663,-1.77965430755114,-2.6296256241302736,0.37092184080212565,-34.138240509072475,25.301727161202887,96.91654974692517,23.103593289852142,4.1698649525642395,-27.461737394332886,0.2811228505706976,-20.56960645911364,0
GUIDED_NOGPS,2.4296884536743164,31.347797816127176,-30.302415059121802,39.13586745189742,104.56851997730004,2.6773011498006154,-0.3756449356387943,43.44315731170391,40.327452135270974,2.132096910272371,-2.046636729603525,7.804016197532013,0.8591979587597388,-1.846135263002018,-2.1265064867610857,0.37151786431594186,-35.66248724292236,24.942255710142064,95.13035116230252,30.130940675735474,6.9273777306079865,-35.173213481903076,-0.3967193443015484,-18.684347889690475,0
GUIDED_NOGPS,2.4582059383392334,29.31993037545525,-29.943007338082523,38.61422946519223,103.44211062493078,1.9719483994103468,-0.3192907389643356,43.67671461735011,39.373941638906686,2.3081554948566163,-2.0495869444381474,8.361529534760658,0.827367589868453,-1.862078493816069,-3.1043976077544166,0.37186366202795185,-35.564076415031465,25.269249043236883,94.08182535786864,25.015011429786682,7.794387638568878,-23.70423674583435,-1.0218646357264505,-23.396259756555907,0
GUIDED_NOGPS,2.492105484008789,29.505145791565546,-28.99756366022324,38.46190484358243,102.43407232693635,1.411134360662701,-0.2681776766752453,43.88855028915511,38.41939935997028,2.228789123587891,-1.9760162021235899,8.98664979194138,0.5708347407689417,-1.4854459450317892,-2.363977650361052,0.3719706540660679,-24.55593223550587,31.186356703081636,98.93436446497162,32.63657093048096,14.170852303504944,-30.949774384498596,0.18221108040985912,-18.587330175172323,0
GUIDED_NOGPS,2.5243282318115234,31.03765095903386,-28.082748019865544,38.21288769935837,101.5323089870848,0.9221047351646482,-0.22222013904799276,44.07901913257344,37.46451302951618,2.293447109365817,-1.9721697384038148,9.540511539285006,0.6466642361190461,-1.4021778128673907,-2.473891021684919,0.37186440808486276,-22.216497919950825,30.051539319534612,98.31617889218995,24.819356203079224,10.081400722265244,-24.113120138645172,-0.49031852748674376,-13.133714405956866,0
GUIDED_NOGPS,2.5587210655212402,29.079856344551214,-27.90673972327146,37.38473549990444,100.32258113220307,0.2686362609478943,-0.1813046360994992,44.248591501478124,36.50997075057978,2.2516299165026483,-2.1794166742856307,10.015484601714986,1.001570059707421,-1.8574344541175618,-3.6442531097354074,0.37237477923675344,-38.50476325628141,16.20710562590739,90.03416698087702,24.819356203079224,10.081400722265244,-24.113120138645172,-4.775850119053352,-13.133714405956866,0
GUIDED_NOGPS,2.5982775688171387,25.283798202412456,-27.39744941624823,36.91302217069226,99.09414852111848,-0.2594239246983454,-0.14528885249358758,44.3978572150562,35.556460254215466,2.2805117982948704,-2.0736477798933985,10.303465867690234,0.7548470734862082,-1.672290908666278,-2.820033323273398,0.3729246234661939,-33.21631172160873,21.016041931602558,91.05679695628987,31.657645106315613,18.035471439361572,-29.293647408485413,-4.162862095403261,-7.738577008867767,0
GUIDED_NOGPS,2.624985456466675,37.44813978197013,-26.655048759407464,36.70943160952987,97.82609556341768,-0.8315894492074742,-0.11400070244742899,44.5275294747044,34.604668155534355,2.3208587929391937,-1.9413504307648364,10.79360451139858,0.6987082069166034,-1.336942952434937,-4.773117520293864,0.37355714518423333,-28.17827293024039,28.240533349298147,91.56623935433373,25.667446851730347,14.256393909454346,-26.5042781829834,-3.0219928536797207,-10.754481187832747,0
GUIDED_NOGPS,2.6581077575683594,30.19570350745839,-26.346802198788495,36.01366877785437,96.80124034322074,-1.2699037539084785,-0.08723738463803166,44.63844878092441,33.65527920974198,2.373212833257576,-1.9549405862224578,11.16599410891049,0.9677544888357792,-1.689930254322006,-3.41070021834944,0.3737080777330425,-31.71549654520338,15.915128663271847,90.25053627147972,25.121361017227173,14.328162372112274,-30.358323454856873,-5.626984009196506,-6.572187311851982,0
GUIDED_NOGPS,2.7014667987823486,23.065016194933104,-25.54466835170334,35.7448381396776,95.74957812430097,-1.7275821738054398,-0.06476443710865176,44.731586850218655,32.708975568176214,2.298838049611661,-2.1070461242742913,11.496939826086058,0.6986233432181321,-1.3734015235033339,-3.5717682417857457,0.3739187948877505,-23.43317434866358,23.81344360852565,90.67158423617536,27.387553453445435,18.64447295665741,-26.06380581855774,-4.844045303655257,-6.6405677507275644,0
GUIDED_NOGPS,2.7298476696014404,35.24388276418392,-24.546156820812204,35.71958109640832,94.6565638682652,-2.168580406796452,-0.04631479217531087,44.80805053198579,31.766436034345105,2.226247439443,-2.114192850023652,11.583123153033279,0.5580899244409917,-1.1854610844480977,-3.782708613595205,0.3742197443321598,-19.291687005841275,29.01826715462731,90.40300184328093,27.387553453445435,18.64447295665741,-26.06380581855774,-4.246536353158259,-6.6405677507275644,0
GUIDED_NOGPS,2.7623062133789062,30.811924246653835,-23.62950280442796,35.69144677935374,93.72280673780273,-2.623605592069264,-0.031587831333213856,44.86908572541622,30.828335319964523,2.3183224448795916,-2.040965111271476,11.882103584893185,0.5553497535090776,-1.1188553675072477,-4.3973253248437825,0.37421105716432357,-18.811670274315134,29.343318436333295,90.17511584460196,22.706562280654907,16.56808853149414,-19.078710675239563,-4.430949067346492,-8.81001683113662,0
GUIDED_NOGPS,2.79848575592041,27.645759181628833,-22.734531985563514,35.636754696210964,92.84973545291133,-2.8855519372687874,-0.02024844016314553,44.91608129638748,29.89534330099613,2.1571568743371476,-2.191369505333153,12.08416192488332,0.5571875167153515,-1.1283200070030064,-3.187340231526102,0.3740912156961696,-16.708960834824445,28.67421086513211,89.4565184284835,22.23590314388275,16.053545475006104,-21.02319598197937,-4.672643500118945,-0.07581339223984904,0
GUIDED_NOGPS,2.829314947128296,32.44005135582471,-21.613269685925015,35.69566026163213,92.09676623572891,-3.1399011552875487,-0.011926063238073326,44.950572994360265,28.968124273685078,2.02304376210642,-2.249753108584776,12.142624075310398,0.4950014409807535,-0.8296680382302858,-3.5083551380562916,0.37374271607591236,-11.687744990439679,29.31200987961217,89.71514007721558,25.302067399024963,20.99231779575348,-16.743192076683044,-4.873347660152048,-0.0024332548918170427,0
GUIDED_NOGPS,2.862579345703125,30.066264282949348,-20.63249982283644,35.76434128508461,91.31035584721863,-3.3396198183023538,-0.006213759029437327,44.97424736927342,28.04733621059782,1.852664693260452,-2.1418724050785403,12.235097152709553,0.4746910284764175,-0.8861240232881881,-3.2058509128188675,0.37347396072675837,-14.121753821266259,28.73483924993254,88.90094387864863,27.85578966140747,22.913801670074463,-21.00427895784378,-5.090449453321887,1.8830782449740495,0
GUIDED_NOGPS,2.903578281402588,24.394565419691048,-19.018592937784017,35.57217766575173,90.3952444331804,-3.4249468576652453,-0.002667254813760067,44.98894568843965,27.133630016659993,1.375429130667906,-2.3818944305794854,12.22964751552553,0.6319144974681813,-0.585526604997928,-2.4705848170819404,0.3734767711669592,-0.30935875278645497,20.542685607358628,90.26864578687537,30.29342293739319,28.370386362075806,-32.42688477039337,-3.8162489789689644,5.334362373854326,0
GUIDED_NOGPS,2.932856321334839,34.16113373513602,-17.117985933321116,35.464157654044875,89.31600007571059,-3.558686981014472,-0.0008040015789720911,44.9966678534412,26.227648785194162,1.0809445641074544,-2.402134415524349,12.205919438348905,0.6563828600588645,0.06219080495454073,-3.0515971629183154,0.37382329741896714,2.7424744195032282,21.483322092328024,90.28096541996018,30.29342293739319,28.370386362075806,-32.42688477039337,-3.8025941559473067,5.334362373854326,0
GUIDED_NOGPS,2.9705469608306885,26.540180718317345,-15.833718320267975,35.40215047476585,88.57972818829751,-3.636387975773529,-0.00010222893098621455,44.999576317025365,25.330027053957522,0.9394235781133191,-2.5064008817425902,12.138080291965046,0.5818944139178336,-0.46571530215397117,-2.5937641934965407,0.37350059773132005,-3.82240580508471,23.25015715551684,89.3978260726989,32.359153032302856,28.026992082595825,-29.87799644470215,-5.0494093092481425,5.012396647890034,0
GUIDED_NOGPS,3.00018048286438,33.748825233344064,-14.31400786675104,35.35179044996726,87.74331278132208,-3.789126091754424,1.9539925233402755e-14,45.00000000000002,24.441390061179987,0.7260983608395736,-2.5277588832772198,12.005734277738648,0.6132082781064422,-0.018748204874246253,-3.302509380283568,0.3733961545597158,1.3177169192561535,23.44034299790797,89.18785316821132,28.575703501701355,26.155132055282593,-24.646207690238953,-4.953525823824435,3.1152234537900165,0
GUIDED_NOGPS,3.0336458683013916,29.885028643087182,-13.073375876340746,35.56749194123927,86.88804238783119,-3.847639334082749,0.0,45.0,23.562353001601636,0.7067235154026275,-2.256606989973472,11.898760708731555,0.42438901384930866,-0.20252849809472445,-2.658325060923001,0.37334862122754087,-0.7234414066601957,29.76232559214216,85.77142191926745,26.714465022087097,26.238489151000977,-31.11400008201599,-5.365366020826808,5.690352260282213,0
GUIDED_NOGPS,3.073965549468994,24.805010319886925,-11.477462602233508,35.6014461071315,86.18757154472058,-3.904501770222873,0.0,45.0,22.693520282510747,0.6523032894994633,-2.082799593050981,11.660197568948641,0.5450104840758034,-0.048750485719436985,-2.624854127806951,0.37301189747558033,4.509357538358689,24.558728495582294,86.82607759484162,32.19371438026428,27.63119637966156,-20.394349098205566,-4.278102039523661,3.6030041881308277,0
GUIDED_NOGPS,3.106764793395996,30.493827519520742,-9.933831606501435,35.60771168159428,85.52401428877147,-3.877467459599705,0.0,45.0,21.835484779781595,0.6032844092084569,-2.0921665571674186,11.562653929864396,0.5844903989742812,0.35546550117706077,-2.1356635141470024,0.37262294098202026,5.715012482850812,24.761342203211782,86.05595292635438,28.553664684295654,24.744175374507904,-17.75258481502533,-4.2074328342162035,7.923244833457401,0
GUIDED_NOGPS,3.135040283203125,35.37228444204561,-8.785063712177296,35.82923844141095,84.89319658018333,-3.8575400073707184,0.0,45.0,20.988827093912164,0.3568785313915034,-1.8490875951260695,11.31010000134036,0.41971743699829045,0.05951665071559081,-2.1926500131365,0.3721912610274577,2.3671077182580635,30.673366059538523,83.32095273830939,28.553664684295654,24.744175374507904,-17.75258481502533,-5.080815697016657,7.923244833457401,0
GUIDED_NOGPS,3.167668342590332,30.653170699622162,-7.365962658885738,35.93443947653989,84.31732852188746,-3.8705563845466955,0.0,45.0,20.154114806061926,0.2261768585273592,-1.6756815785390222,11.088591843914969,0.5022749243768083,0.319955717757399,-2.4020177535097975,0.37167357256834893,5.606926008672913,26.56674258188044,84.79772087607904,30.389025807380676,26.332342624664307,-15.198899805545807,-4.550048937301816,4.996562988733475,0
GUIDED_NOGPS,3.20171856880188,29.372699515392586,-5.842531791525866,35.8413070896781,83.77547847210508,-3.7825452240489184,0.0,45.0,19.331901734089826,0.06731038035235173,-1.672872343077737,10.887238720956638,0.635006649782723,0.4452914854904505,-1.7523608133095898,0.3711128465239695,8.440797465230105,21.99032232606414,86.0195926223397,30.339491367340088,25.38459002971649,-16.98339432477951,-3.862389329027713,9.073980590669164,0
GUIDED_NOGPS,3.2418861389160156,24.89969604863222,-4.294584199487004,36.03323081261559,83.01214103791027,-3.7184680124115603,0.0,45.0,18.522727188591944,0.11181558615925069,-1.312096628475786,10.679675248495474,0.47188620206077436,0.4424285932359264,-1.911213028675403,0.37102117230136333,8.312642356504185,27.28440547356697,83.22564249387366,35.2609246969223,28.353217244148254,-24.117234349250793,-4.113305154232856,8.010893235981591,0
GUIDED_NOGPS,3.275986671447754,29.32669556705356,-2.4903676504775536,36.53572539854551,81.98149180253074,-3.7178915757707034,0.0,45.0,17.727115228939198,-0.06449993093166338,-1.2614084072629463,10.42111416859641,0.27075285912495023,0.8646096314621079,-2.2273653287875192,0.3714912468528169,10.664846971960383,32.80066102771856,79.3005728574188,36.03959381580353,28.920885920524597,-22.950462996959686,-3.897540434338324,3.9006173014962626,0
GUIDED_NOGPS,3.30846905708313,30.79473135489934,-0.9394243110219249,36.94046835622952,81.06302042257212,-3.669890598840659,0.0,45.0,16.94557391931542,-0.21018637182415442,-0.9892947379466961,10.143501129781242,0.2896626887887056,0.8782271016953195,-1.9045939327212313,0.3717651069934866,10.664846971960383,32.80066102771856,79.3005728574188,35.53718030452728,26.765146851539612,-27.268880605697632,-3.897540434338324,5.535911864751293,0
GUIDED_NOGPS,3.3498642444610596,24.15962398046173,0.707316393789322,37.056190791974196,80.37473050677751,-3.49688759617105,0.0,45.0,16.178594584754933,-0.1805542898011417,-0.9441601008593113,9.937140624387647,0.47151681174071325,0.8141248838465721,-1.2662250247168843,0.37160772815595483,15.983116182811983,27.79186907211092,80.22544213369957,33.2698255777359,23.774828016757965,-20.454193651676178,-2.6867096639725325,9.224399285439416,0
GUIDED_NOGPS,3.3842613697052,29.075623028664516,2.582778150116145,37.28910492735329,79.49512785757277,-3.3729235819824583,0.0,45.0,15.426651067180387,-0.022262574712833435,-0.4903074240860396,9.66781602013029,0.401433887769422,1.2501428090622324,-1.3027580103168952,0.37186304641921525,15.983116182811983,27.79186907211092,80.22544213369957,34.970030188560486,25.611937046051025,-21.836888790130615,-2.6867096639725325,6.5892828484577,0
GUIDED_NOGPS,3.4160032272338867,31.5084023828662,3.9953995171619923,37.64447318670207,78.73114020045608,-3.3537386217078677,0.0,45.0,14.69019898144063,0.18892495343325677,-0.16776121208357556,9.363960540750286,0.28564051517575995,1.154171464483449,-1.891476323579562,0.37191811756196913,14.755535525000852,34.48293895646711,76.12925224114016,29.756352305412292,20.480869710445404,-17.419207096099854,-3.081165978371663,0.8667603971847269,0
GUIDED_NOGPS,3.4513814449310303,28.27074318221647,5.428421360082459,37.86617107718014,77.98677250611516,-3.1067236777701086,0.0,45.0,13.969674971348667,0.17315412668097666,0.026873482676067643,9.055465655376551,0.36671252788692166,1.1723631559365997,-0.4669041464944199,0.37196580493046705,17.00534128601643,31.506321967801398,77.19116483328443,30.564746260643005,21.96623682975769,-23.531047999858856,-2.5780556732522473,13.037144922602995,0
GUIDED_NOGPS,3.484456777572632,30.23902526945676,6.997125484391367,38.22027142954785,77.35247433006218,-2.9352125970318603,0.0,45.0,13.26549596571897,0.1242429952921699,0.37764505455226605,8.78095522999186,0.2659206669074036,1.4274607316506507,-0.7231136164641176,0.3718260432713136,18.045746424500038,33.373414067936125,79.32194650713922,34.58757400512695,23.33729714155197,-20.251403748989105,-2.9483960539805487,9.53874337406362,0
GUIDED_NOGPS,3.5177900791168213,30.0041061298653,8.433703306643885,38.52527066316417,76.92079178280137,-2.793485134855476,0.0,45.0,12.578058434405818,0.13375404705162589,0.5214370250845777,8.394287122020039,0.27604192524140925,1.4404295844193284,-0.8258592863079635,0.37131453330320885,18.659291235633553,33.836716378857076,79.18014496208343,33.76640975475311,21.68619930744171,-13.518036901950836,-2.8050276888081145,7.498576114264567,0
GUIDED_NOGPS,3.5539371967315674,27.67038085248151,9.92774864882987,38.85311914644429,76.44932440884088,-2.640488897476285,0.0,45.0,11.907737644340727,0.09632251598648003,0.7483901772997911,8.02896420897815,0.2564231481474262,1.5165381431599663,-0.7324980859528132,0.37091682647099966,20.123457961738467,34.17042403501762,78.31235331675406,33.76640975475311,21.68619930744171,-13.518036901950836,-2.5607838319810226,7.498576114264567,0
GUIDED_NOGPS,3.584533929824829,32.6903603940641,11.386921856499454,39.20049765145636,75.73438642776323,-2.5027597508185675,0.0,45.0,11.254886915570523,0.37352388916180956,1.1485655713246963,7.766618350505254,0.19839605793639797,1.7379502602197257,-0.6069744127153841,0.3710410009756146,20.123457961738467,34.17042403501762,78.31235331675406,33.08171629905701,22.570839524269104,-27.27530300617218,-2.5607838319810226,6.447075321730273,0
GUIDED_NOGPS,3.619300603866577,28.767517146776406,12.666641214054208,39.435280382732586,75.0846584800739,-2.3426064721742335,0.0,45.0,10.619836877294915,0.3174691402933232,1.2910899547965886,7.391757932061091,0.265085359443991,1.6126722988684659,-0.48511260350152297,0.371070356794442,20.074835525453103,33.625615561581974,77.4598945623884,32.09790587425232,20.35945951938629,-28.45134139060974,-2.1611896861274196,7.324615464972573,0
GUIDED_NOGPS,3.6624090671539307,23.199867249294762,14.118388396846298,39.9548618742186,74.31109291157831,-2.1349277112947953,0.0,45.0,10.002894723904546,0.3124130127189419,1.4571430592987058,6.909612744115775,0.10054416668939761,1.7309708190438533,-0.21487596408168863,0.3713836036246525,21.4902039222796,38.3086703826107,76.23675428284544,36.29963994026184,23.165905475616455,-29.7379732131958,-2.1500737390274827,9.890498970092922,0
GUIDED_NOGPS,3.698620319366455,27.61899870277816,15.458945633055803,40.43307545026389,73.60950134864201,-1.959963008091096,0.0,45.0,9.40434347101845,0.15612254305744738,1.6335374970910452,6.709072413668677,0.09628419325079149,1.7455980600016536,-0.30707314333130054,0.37158968424475286,21.4902039222796,38.3086703826107,76.23675428284544,35.614776611328125,22.720631957054138,-28.761044144630432,-2.1500737390274827,8.257512583890533,0
GUIDED_NOGPS,3.722855806350708,41.27520714833986,16.897361202189714,40.92652438982153,72.73826438519338,-1.7589786400208252,0.0,45.0,8.824441211522299,0.21330804841932793,1.651539848030789,6.443114665785312,-0.09872329129683398,2.402003717645151,0.6423230717238613,0.3721723536526579,21.4902039222796,38.3086703826107,76.23675428284544,28.93865406513214,18.61143708229065,-31.853455305099487,-2.1500737390274827,8.824192888758981,0
GUIDED_NOGPS,3.7536818981170654,32.44682710978053,17.60750401493497,41.124998819526695,72.33358155875707,-1.6087159502783308,0.0,45.0,8.263420371605747,-0.027551835853494286,1.6317286708997554,5.945692905987617,0.15327551697166444,1.6814669421507584,-0.007588695503821796,0.3718596776256974,21.4902039222796,38.3086703826107,76.23675428284544,25.260037183761597,16.143038868904114,-28.25283408164978,-2.1500737390274827,9.227323460177827,0
GUIDED_NOGPS,3.7876601219177246,29.433712280701755,18.574862765350883,41.44264651585431,71.82521959827702,-1.5095877711422205,0.0,45.0,7.721486966800455,-0.20596590188646835,1.8456934179953963,5.716167814023923,0.07598707640341712,1.8673844080114912,-0.323195838418578,0.3717925347370469,21.4902039222796,38.3086703826107,76.23675428284544,25.331130623817444,17.10027903318405,-24.66205805540085,-2.1500737390274827,4.792070966964701,0
GUIDED_NOGPS,3.8211021423339844,29.908469886906545,19.42834562333291,41.67726639188007,71.38125971022926,-1.3583615491173713,0.0,45.0,7.198819858018169,-0.4765188196165177,1.7526937756999141,5.334541666320039,0.10308839788134509,1.8696218120090866,0.0913947255407428,0.3716351202955778,21.4902039222796,38.3086703826107,76.23675428284544,15.609714388847351,10.626403987407684,-19.1077783703804,-2.1500737390274827,7.743959197933737,0
GUIDED_NOGPS,3.8543970584869385,30.03827202933425,20.25397687279091,41.906581043535446,70.91794731418881,-1.2427239867822615,0.0,45.0,6.6955700075878894,-0.6505853902014993,1.8315922790104935,5.029460167984018,0.08950640899365106,1.911630601133449,-0.05185797917792445,0.3715552453867982,21.4902039222796,38.3086703826107,76.23675428284544,18.273387849330902,11.664263904094696,-22.436442971229553,-2.1500737390274827,5.8944097112650455,0
GUIDED_NOGPS,3.88808536529541,29.688932932224386,20.916653909375942,42.04113398732961,70.55223063482029,-1.087210296796606,0.0,45.0,6.211859735294354,-0.7070806595910251,1.9114785984297857,4.725639693323511,0.13233748739130302,1.858351355996789,0.27783616455776994,0.37131925820094813,21.4902039222796,38.3086703826107,76.23675428284544,9.879860281944275,6.405463069677353,-18.02283674478531,-2.1500737390274827,8.653082135898176,0
GUIDED_NOGPS,3.922700881958008,28.892161657631345,21.718128770268805,42.23619164270285,70.22168150040028,-0.9654076833012235,0.0,45.0,5.7477819744151475,-0.7482421542938722,1.748763428719395,4.437513712715224,0.08741716501728182,1.9782688754326978,0.11860354627939862,0.3710522009480297,21.4902039222796,38.3086703826107,76.23675428284544,21.575376391410828,10.909189283847809,-16.726022958755493,-2.1500737390274827,6.725271914832654,0
GUIDED_NOGPS,3.963096857070923,24.757279375741515,22.523443030421447,42.435464436364256,69.8871780478303,-0.8424285938192954,0.0,45.0,5.303399527759211,-0.7299561370601614,1.658690735926675,4.139772960189674,0.08422079664030997,1.9744487142709635,0.10359779902266608,0.37083244295985784,21.4902039222796,38.3086703826107,76.23675428284544,21.575376391410828,10.909189283847809,-16.726022958755493,-2.1500737390274827,6.725271914832654,0
GUIDED_NOGPS,3.991724967956543,34.94350626088261,23.311468463895714,42.61935570873053,69.46308382025732,-0.6023884905817956,0.0,45.0,4.8787443237040975,-0.8488463584565172,1.8352893323421744,3.8167916704731653,0.035342457143040545,2.1909197366249815,1.3424537282466196,0.37083132100689353,21.4902039222796,38.3086703826107,76.23675428284544,13.228461146354675,6.822314113378525,-17.36520081758499,-2.1500737390274827,12.6771307740935,0
GUIDED_NOGPS,4.024251699447632,30.745295812228324,23.653370417279916,42.60331258790609,69.30082122688839,-0.5432776634715561,0.0,45.0,4.473816672234079,-1.0590793143052453,1.7715312239873977,3.5155903599159464,0.17118459570296227,1.8614622274213108,0.03237153410924509,0.37034599089069137,21.4902039222796,38.3086703826107,76.23675428284544,11.847443133592606,4.582304134964943,-18.057802319526672,-2.1500737390274827,5.285453950528804,0
GUIDED_NOGPS,4.0579962730407715,29.640886476707372,24.20280771945285,42.66686349263863,68.98790184482101,-0.38177225163654704,0.0,45.0,4.0885845209779745,-1.1014181628662734,1.8308915442903324,3.1198718244070336,0.11566078237034357,2.020195906970437,0.7313353175673797,0.37020136535231396,21.4902039222796,38.3086703826107,76.23675428284544,17.769181728363037,6.542834639549255,-22.544880211353302,-2.1500737390274827,10.400923275636208,0
GUIDED_NOGPS,4.091211795806885,30.10964745407427,24.741950068570006,42.73111861128227,68.67515996363606,-0.22194968048314753,0.0,45.0,3.722982711246459,-1.1640255977893144,1.840441215967068,2.8165949901157767,0.10550543672641544,2.0553392832327746,0.8266865012822473,0.3700956454952208,21.4902039222796,38.3086703826107,76.23675428284544,17.769181728363037,6.542834639549255,-22.544880211353302,-2.1500737390274827,10.400923275636208,0
GUIDED_NOGPS,4.12397837638855,30.522453553781556,25.202383546790607,42.73485168560352,68.50103007531001,-0.06681191501222218,0.0,45.0,3.3769122340705167,-1.2397700478072284,1.855906685238681,2.403683160918649,0.1360160466115525,2.0449131991584606,0.9063851166320736,0.369751764317521,21.4902039222796,38.3086703826107,76.23675428284544,15.154553949832916,3.431430831551552,-15.095630288124084,-2.1500737390274827,10.395155180882131,0
GUIDED_NOGPS,4.168854475021362,22.286181868417977,25.662196859484396,42.72844879204008,68.2087555203025,0.12918547194980123,0.0,45.0,3.0502394862389792,-1.2334713327320075,1.9888189648359555,2.094439089170329,0.13463464967816297,2.0016436778999616,0.9512526000690773,0.36968296793187294,21.4902039222796,38.3086703826107,76.23675428284544,16.82620644569397,3.227905184030533,-23.73771071434021,-2.1500737390274827,13.298195606454529,0
GUIDED_NOGPS,4.210752487182617,23.86951820530623,26.298987851634607,42.76734671664179,67.81681623610079,0.3740948944276725,0.0,45.0,2.742795526336238,-1.323289387534733,1.7321061981593207,1.5787403834839138,0.1013612834959673,2.1459515024995244,1.3948498159531832,0.36985195858047093,21.4902039222796,38.3086703826107,76.23675428284544,11.211823672056198,0.15916357515379786,-17.6739364862442,-2.1500737390274827,12.414539028810482,0
GUIDED_NOGPS,4.225121974945068,69.6219374543523,26.321169707129908,42.52752888693965,67.75055755258718,0.5991368248521942,0.0,45.0,2.4543753307801808,-1.1495592571272273,1.930544644611053,1.4654737556520057,0.4609838701573666,1.8781362323680724,3.477268578411599,0.369407635556386,21.4902039222796,38.3086703826107,76.23675428284544,9.182776510715485,-4.956457763910294,-23.217307031154633,-2.1500737390274827,12.617392232065276,0
GUIDED_NOGPS,4.259939908981323,28.727716058684127,26.171801457417807,42.25218740056155,67.8194397449654,0.6566978440079932,0.0,45.0,2.1847370498600753,-1.2815522359509006,1.6611702013170955,1.0937593863725734,0.3032835490518357,1.7496614639040604,0.725259840352666,0.36873059460978935,21.4902039222796,38.3086703826107,76.23675428284544,9.182776510715485,-4.956457763910294,-23.217307031154633,-2.1500737390274827,12.617392232065276,0
GUIDED_NOGPS,4.29305100440979,30.204183919634175,26.62075697945299,42.20112425168087,67.31471129151936,0.7637167733903634,0.0,45.0,1.933601263773653,-1.204910896717599,1.6430297524900703,0.8258446292094415,0.1702710701312989,2.1367465331497533,1.1038259729977904,0.36923777994450857,21.4902039222796,38.3086703826107,76.23675428284544,21.091125905513763,0.8476546965539455,-39.16793465614319,-2.1500737390274827,8.615537439804262,0
GUIDED_NOGPS,4.327582120895386,28.964587591845753,26.89576327899998,42.04935236710257,67.03507599268899,0.866326211683331,0.0,45.0,1.7006502386662419,-0.9934971185552522,1.7502948851973588,0.5983773451766259,0.23446119682830696,2.0465495120030686,1.117033036331195,0.3693311484919545,21.4902039222796,38.3086703826107,76.23675428284544,11.537212133407593,-5.284709483385086,-25.774303078651428,-2.1500737390274827,8.852556956834752,0
