Mode,Time,Freq,time2delay,actualDelay,North-Desired,East-Desired,Down-Desired,Roll-UAV,Pitch-UAV,Yaw-UAV,Roll-Control,Pitch-Control,Yaw-Control,Thrust-Control,North-Pos,East-Pos,Down-Pos,Yaw-Ang,North-Vel,East-Vel,Down-Vel,Yaw-Vel,North-Acc,East-Acc,Down-Acc,North-Avg,East-Avg,Down-Avg,Yaw-Avg,North-Dif,East-Dif,Down-Dif,Yaw-Dif,North-One,East-One,Down-One,Yaw-One,North-Two,East-Two,Down-Two,Yaw-Two,Landing-State,Q-Size,Kalman-Time,Kalman-Dt
STABILIZE,0.03442645072937012,29.05608512524939,0.03275302251180013,0.03290271759033203,0.0,0.0,0.0,-0.5815563501590298,-1.2847605038701024,20.22521636833055,-0.0457459079770052,0.045001236817330904,0.0059027934727008576,0.4,0.02917658635303187,0.02962914684815484,0.03363705695405881,0.029227266951463257,-0.11879790108650923,0.10787785286083817,1.7519837245345116,-0.0947376853154123,-5.652911216020584,0.20322054624557495,21.761174499988556,0.0,0.0,0.0,0.0,0.0,0.0,0.0,0.0,0.0,0.0,0.0,0.0,0.0,0.0,0.0,0.0,False,0,0.05881381034851074,0.02993603515625
STABILIZE,0.06835079193115234,29.47860250346141,0.03226736386617025,0.03306126594543457,0.0,0.0,0.0,-0.5822656226156534,-1.2850482255888893,20.225472500424427,-0.05692344612055106,0.0554037122565179,0.00897622515510502,0.4,0.07174113834451144,0.07353296825432933,0.09450816533020871,0.07166289177567031,-0.05400162190198898,0.13575972989201546,1.9158978015184402,0.2174294005727695,0.09716171771287918,0.4086144268512726,29.070907831192017,0.0,0.0,0.0,0.0,0.0,0.0,0.0,0.0,0.0,0.0,0.0,0.0,0.0,0.0,0.0,0.0,False,0,0.11632204055786133,0.034924072265625
STABILIZE,0.10179686546325684,29.897597103122838,0.03249052365620931,0.0326075553894043,0.0,0.0,0.0,-0.5826260218160774,-1.2847734171965022,20.22570814195079,-0.04873855241773201,0.047100380649153464,0.009033629216489415,0.4,0.08963995020631428,0.09247406101782052,0.12856068927816972,0.08941954636675943,-0.114098796620965,0.010572565224720165,2.1568099036812782,-0.15040479426807402,-0.6546181160956621,1.880480907857418,24.76523071527481,0.0,0.0,0.0,0.0,0.0,0.0,0.0,0.0,0.0,0.0,0.0,0.0,0.0,0.0,0.0,0.0,False,0,0.14513683319091797,0.02993603515625
STABILIZE,0.13540935516357422,29.751056887501772,0.032494338353474934,0.03273344039916992,0.0,0.0,0.0,-0.5817727817783547,-1.2838683104097697,20.225467377782547,-0.04233472341805206,0.040575032506257616,0.009049673603425318,0.4,0.10099683739285567,0.10500921443072087,0.15771788806572065,0.10153000897067889,-0.11883503757417202,0.027826725272461772,2.1958554163575172,0.035339051920102185,1.764216460287571,0.022546954278368503,26.688626408576965,0.0,0.0,0.0,0.0,0.0,0.0,0.0,0.0,0.0,0.0,0.0,0.0,0.0,0.0,0.0,0.0,False,0,0.1737816333770752,0.034814697265625
STABILIZE,0.16891121864318848,29.849298300549403,0.03243997891743978,0.03258633613586426,0.0,0.0,0.0,-0.5809832012381306,-1.283684962519237,20.227209076020902,-0.039259586535604046,0.0369885379979777,0.009458822497025857,0.4,0.11290156347907623,0.11935450786915121,0.19220095551454172,0.11514584838885686,-0.22290355991572142,0.0798243097960949,2.034708298742771,0.04223159658177105,-0.049530668184161186,0.1259130658581853,25.22958517074585,0.0,0.0,0.0,0.0,0.0,0.0,0.0,0.0,0.0,0.0,0.0,0.0,0.0,0.0,0.0,0.0,False,0,0.20246338844299316,0.034925048828125
STABILIZE,0.20253872871398926,29.739243880994923,0.03238871892293294,0.03253984451293945,0.0,0.0,0.0,-0.5817302531786007,-1.2834302178075367,20.22722102885195,-0.0343529684988394,0.03126945226933698,0.009584063953974795,0.4,0.12229321433445671,0.1316549776548967,0.22698635282580637,0.1267255523824133,-0.22290355991572142,0.0798243097960949,2.034708298742771,0.04223159658177105,-0.049530668184161186,0.1259130658581853,25.22958517074585,0.0,0.0,0.0,0.0,0.0,0.0,0.0,0.0,0.0,0.0,0.0,0.0,0.0,0.0,0.0,0.0,False,0,0.231093168258667,0.034925048828125
STABILIZE,0.2365562915802002,29.396167701602163,0.032230647404988606,0.033141374588012695,0.0,0.0,0.0,-0.5805471363483077,-1.2836345898741082,20.228542670456346,-0.02469780286619136,0.020712440978766348,0.009160364188703436,0.4,0.1281752537651314,0.14166098856720233,0.26175237677105156,0.13592305382780984,-0.37754280492663383,0.029339836328290403,2.019991911947727,-0.021014791198943342,-2.8034592047333717,-0.04460076743271202,21.686334908008575,0.0,0.0,0.0,0.0,0.0,0.0,0.0,0.0,0.0,0.0,0.0,0.0,0.0,0.0,0.0,0.0,False,1,0.2597990036010742,0.029934814453125
STABILIZE,0.27003049850463867,29.87289626437805,0.03245714505513509,0.03256797790527344,0.0,0.0,0.0,-0.580607487472927,-1.2835670350343487,20.22897638746864,-0.021273089331109805,0.016600502714337117,0.009177731501803774,0.4,0.13185556791158304,0.14841163725629072,0.2893258018105686,0.14159872117944355,-0.06642511580139399,0.20466034766286612,1.923595368862152,0.10677722107877542,-1.6046375036239624,0.45114667154848576,28.87825071811676,0.0,0.0,0.0,0.0,0.0,0.0,0.0,0.0,0.0,0.0,0.0,0.0,0.0,0.0,0.0,0.0,False,0,0.28846311569213867,0.034925048828125
STABILIZE,0.3034694194793701,29.904631530914898,0.03239324887593587,0.03251242637634277,0.0,0.0,0.0,-0.5809441410938146,-1.283239612841011,20.23006751018855,-0.02194033395564938,0.017250270388434498,0.010102953425358843,0.4,0.1440670239912033,0.1616938894363305,0.35491757919536804,0.15638623563066725,0.058446626644581556,0.01629364414839074,1.9536357372999191,0.10314967025798463,1.0108010843396187,0.038801622577011585,27.893242239952087,0.0,0.0,0.0,0.0,0.0,0.0,0.0,0.0,0.0,0.0,0.0,0.0,0.0,0.0,0.0,0.0,False,0,0.3519589900970459,0.034924072265625
STABILIZE,0.3369436264038086,29.872470745760538,0.03242090543111165,0.03256726264953613,0.0,0.0,0.0,-0.5824433142557796,-1.2827573374525847,20.2315599065222,-0.019161283083073136,0.015115279788306771,0.010309269046954502,0.4,0.14829581979504705,0.1662009993184801,0.3879831638634059,0.16269677555108358,0.0822711968794465,0.04312687087804079,1.9367914646863937,0.22195816283803171,0.21810887847095728,0.012461277947295457,26.676779985427856,0.0,0.0,0.0,0.0,0.0,0.0,0.0,0.0,0.0,0.0,0.0,0.0,0.0,0.0,0.0,0.0,False,0,0.38063907623291016,0.029935791015625
STABILIZE,0.3749730587005615,26.29624706900227,0.03241422971089681,0.0371549129486084,0.0,0.0,0.0,-0.5822972656014176,-1.2823967248087491,20.23223438770274,-0.01607199654656797,0.011719905709097441,0.01017830369282063,0.4,0.1461552115560424,0.1681180904264563,0.4133172993244675,0.163878661153319,-0.2245224080979824,0.12402913998812437,1.8888147547841072,0.04929830106211533,-4.251950979232788,1.885068230330944,21.74907922744751,0.0,0.0,0.0,0.0,0.0,0.0,0.0,0.0,0.0,0.0,0.0,0.0,0.0,0.0,0.0,0.0,False,0,0.41018176078796387,0.034924072265625
STABILIZE,0.4085714817047119,29.765413875326445,0.03244140942891439,0.03257465362548828,0.0,0.0,0.0,-0.5825606547712863,-1.2826846599709476,20.2328354443497,-0.014348799929714938,0.009666392925561344,0.010239570852578272,0.4,0.1450555518711999,0.17170939286155873,0.4450067981072444,0.1666174317016492,-0.2245224080979824,0.12402913998812437,1.8888147547841072,0.04929830106211533,-4.251950979232788,1.885068230330944,21.74907922744751,0.0,0.0,0.0,0.0,0.0,0.0,0.0,0.0,0.0,0.0,0.0,0.0,0.0,0.0,0.0,0.0,False,0,0.4388432502746582,0.034924072265625
STABILIZE,0.44190502166748047,29.997239366913885,0.03228715260823568,0.03242206573486328,0.0,0.0,0.0,-0.583634061688036,-1.2828653398188354,20.232779095289047,-0.013404500578850108,0.007958269888770589,0.010389676005351555,0.4,0.14312968506581947,0.17489897646920674,0.4808392449280226,0.16920368266337305,-0.20208079367876053,0.1609794911928475,2.2892747074365616,0.11277716206855477,-0.8894165046513081,0.03521774779073894,27.969565987586975,0.0,0.0,0.0,0.0,0.0,0.0,0.0,0.0,0.0,0.0,0.0,0.0,0.0,0.0,0.0,0.0,False,0,0.4675288200378418,0.0399140625
STABILIZE,0.4753122329711914,29.933229614193344,0.0323975404103597,0.03256702423095703,0.0,0.0,0.0,-0.583417309903594,-1.2829050402933861,20.233200859470294,-0.009564188088659472,0.0037240334747115095,0.009794970347488621,0.4,0.14124606265712128,0.17524450105060269,0.5338010194579487,0.16590243202767793,-0.08876752690412104,0.053537345957010984,1.9444404169917107,-0.022982839505152435,0.39095543324947357,1.556116808205843,21.94320261478424,0.0,0.0,0.0,0.0,0.0,0.0,0.0,0.0,0.0,0.0,0.0,0.0,0.0,0.0,0.0,0.0,False,0,0.5248382091522217,0.034925048828125
STABILIZE,0.5088334083557129,29.834223647990214,0.0325045903523763,0.03262591361999512,0.0,0.0,0.0,-0.5832096828249961,-1.283799795074658,20.2342936897375,-0.008573893852758295,0.0019824451081765213,0.009893565591028131,0.4,0.13971321117339536,0.1762532868336564,0.5623313339156595,0.1680885947614664,-0.02673140843398869,0.13389972737058997,1.8591590225696564,0.23004810836330192,-0.591365760192275,1.766854152083397,27.321338653564453,0.0,0.0,0.0,0.0,0.0,0.0,0.0,0.0,0.0,0.0,0.0,0.0,0.0,0.0,0.0,0.0,False,0,0.5534541606903076,0.034925048828125
STABILIZE,0.5424933433532715,29.71080462701263,0.03241732915242513,0.03266501426696777,0.0,0.0,0.0,-0.5836126639860268,-1.283986237894658,20.234768387884813,-0.009073105384489081,0.0018444066995624093,0.009966282522082351,0.4,0.13751031962675497,0.17922193279820473,0.5912227190151725,0.16797610155922754,-0.03922607866115868,0.3138669999316335,1.9610723480582237,0.09337087374904282,2.21007838845253,1.9948970526456833,29.136621952056885,0.0,0.0,0.0,0.0,0.0,0.0,0.0,0.0,0.0,0.0,0.0,0.0,0.0,0.0,0.0,0.0,False,0,0.582181453704834,0.02993505859375
STABILIZE,0.5783133506774902,27.916987260552975,0.0323217233022054,0.03482842445373535,0.0,0.0,0.0,-0.5832556798801879,-1.2851197291317629,20.23600123703,-0.007353943387212731,0.0007465938362348909,0.009804950310369182,0.4,0.13280186884720052,0.1770383527823578,0.6090093363065515,0.16543376442093274,-0.11420464143157005,0.08548713522031903,1.7364583909511566,0.0554656450525728,-4.311542958021164,1.449671946465969,17.81109720468521,0.0,0.0,0.0,0.0,0.0,0.0,0.0,0.0,0.0,0.0,0.0,0.0,0.0,0.0,0.0,0.0,False,0,0.6151137351989746,0.0349248046875
STABILIZE,0.6117265224456787,29.925754689384046,0.03233483632405599,0.03250861167907715,0.0,0.0,0.0,-0.5840862949162849,-1.2853577185356555,20.23579120871302,-0.005730582567150153,-0.0002812194553537737,0.009595422428592732,0.4,0.12783893117923745,0.174920017683483,0.6409113041136574,0.1624153140096419,-0.18318516667932272,0.0016543406673008576,2.2838307544589043,-0.05707322078718522,-0.1882384531199932,-2.4014197289943695,26.402050256729126,0.0,0.0,0.0,0.0,0.0,0.0,0.0,0.0,0.0,0.0,0.0,0.0,0.0,0.0,0.0,0.0,False,0,0.6437549591064453,0.034924072265625
STABILIZE,0.6451575756072998,29.9110293383538,0.032427104314168294,0.03255748748779297,0.0,0.0,0.0,-0.5850520729927542,-1.2853479001387236,20.23616516157008,-0.004736130784210551,-0.0002728932205244167,0.009578900330343377,0.4,0.1260791879449981,0.17212203016769795,0.6718565068188361,0.1596361410840549,0.06258663488551974,-0.010039788321591914,2.272954024374485,-0.007488271893447529,0.6234146654605865,1.5428663231432438,31.42123818397522,0.0,0.0,0.0,0.0,0.0,0.0,0.0,0.0,0.0,0.0,0.0,0.0,0.0,0.0,0.0,0.0,False,0,0.6728346347808838,0.029941650390625
STABILIZE,0.6794226169586182,29.184263627381398,0.03244021733601888,0.03339242935180664,0.0,0.0,0.0,-0.5846910868229485,-1.2853988063923814,20.236786708784553,-0.00303775492020446,-0.0006486330627046082,0.009286150623291517,0.4,0.12340824853076225,0.1676972151085591,0.6948140198562542,0.15542023611325548,0.06258663488551974,-0.010039788321591914,2.272954024374485,-0.007488271893447529,0.6234146654605865,1.5428663231432438,31.42123818397522,0.0,0.0,0.0,0.0,0.0,0.0,0.0,0.0,0.0,0.0,0.0,0.0,0.0,0.0,0.0,0.0,False,1,0.7011666297912598,0.029941650390625
STABILIZE,0.7129380702972412,29.838256217631326,0.031234296162923177,0.031373023986816406,0.0,0.0,0.0,-0.5846876183675105,-1.2850793883269775,20.237129925790345,-0.0014514085808988904,-0.003289612597532962,0.008908052678878248,0.4,0.11330984617760725,0.1654992396910947,0.7343149193675225,0.14939352179702753,-0.19888551905751228,0.1721252570860088,1.7765466123819351,0.22585712029683797,-3.6817695945501328,1.467238087207079,23.476050794124603,0.0,0.0,0.0,0.0,0.0,0.0,0.0,0.0,0.0,0.0,0.0,0.0,0.0,0.0,0.0,0.0,False,0,0.76007080078125,0.0349248046875
STABILIZE,0.746406078338623,29.87821627012395,0.032404454549153645,0.032531023025512695,0.0,0.0,0.0,-0.5840804785833198,-1.2846091724913045,20.237942718301575,-0.0006700743993826419,-0.0037747865773861684,0.00900892803142155,0.4,0.10777987930730021,0.16119378039360138,0.7566378162153066,0.14852459551686456,-0.14935984509065747,-0.045464374125003815,1.9218165427446365,0.17186958420955145,-1.3235203921794891,-0.6329412572085857,23.817874491214752,0.0,0.0,0.0,0.0,0.0,0.0,0.0,0.0,0.0,0.0,0.0,0.0,0.0,0.0,0.0,0.0,False,0,0.7890000343322754,0.029936279296875
STABILIZE,0.7804033756256104,29.414928010884278,0.03238633473714193,0.03312969207763672,0.0,0.0,0.0,-0.5832984752842063,-1.2845281707166163,20.238550605137707,-0.0009033873644810429,-0.0034988223622356004,0.008837300579202994,0.4,0.10400290889535717,0.15987405217054276,0.7691642103105247,0.1439914606263186,-0.0015737401554360986,0.22269082255661488,1.8122665584087372,-0.004368843124202048,1.5201867558062077,1.5263785608112812,26.597687602043152,0.0,0.0,0.0,0.0,0.0,0.0,0.0,0.0,0.0,0.0,0.0,0.0,0.0,0.0,0.0,0.0,False,0,0.8176169395446777,0.034924072265625
STABILIZE,0.8138508796691895,29.896744670083326,0.03245666821797689,0.03258156776428223,0.0,0.0,0.0,-0.5829974667130498,-1.284624540416937,20.239170444804888,-0.00036298528689000223,-0.0052113281643529925,0.008997035704624992,0.4,0.09714405177633739,0.15562290873785872,0.7903777656835493,0.14374746274637226,-0.2241465961560607,-0.022823170002084225,1.9680215045809746,0.22296865730922338,-3.5222571343183517,1.289471797645092,19.61676925420761,0.0,0.0,0.0,0.0,0.0,0.0,0.0,0.0,0.0,0.0,0.0,0.0,0.0,0.0,0.0,0.0,False,0,0.846318244934082,0.034925048828125
STABILIZE,0.8473021984100342,29.894400729843767,0.03245976765950521,0.03257465362548828,0.0,0.0,0.0,-0.5828201485988939,-1.2851022267720147,20.23973222786412,-0.0017356966405189288,-0.006047932952000478,0.008662851359732725,0.4,0.09219480074845295,0.15579361457996335,0.8059525141937836,0.1368792190158919,-0.09424814488738775,0.2694550435990095,1.6845783218741417,-0.18998445984782855,1.0185998864471912,-0.3650347935035825,22.858166694641113,0.0,0.0,0.0,0.0,0.0,0.0,0.0,0.0,0.0,0.0,0.0,0.0,0.0,0.0,0.0,0.0,False,0,0.8753712177276611,0.029934814453125
STABILIZE,0.8824417591094971,28.457953944065245,0.0324435551961263,0.03421974182128906,0.0,0.0,0.0,-0.5825220215137934,-1.2853676436542931,20.24044939772697,-0.0011268016775130122,-0.0037273295778792077,0.008663827752873745,0.4,0.08992549752476554,0.1516704225599969,0.8192723726801768,0.13340340463430492,0.08769708801992238,0.052606232929974794,2.037092112004757,0.07166442584503652,4.759404808282852,1.5105136670172215,27.598658204078674,0.0,0.0,0.0,0.0,0.0,0.0,0.0,0.0,0.0,0.0,0.0,0.0,0.0,0.0,0.0,0.0,False,1,0.9041612148284912,0.034925048828125
STABILIZE,0.9158987998962402,29.88992695528238,0.03239920934041341,0.032527923583984375,0.0,0.0,0.0,-0.581669048280335,-1.2855497108843563,20.240234246768114,-0.0006818559896761612,-0.004175439932630634,0.00859002028915759,0.4,0.08349159618974944,0.14633302271839224,0.8447552615175956,0.13105719644203398,0.009389729530084878,0.09988036472350359,1.6517214477062225,0.17776626527888065,-3.204517439007759,1.3918470591306686,20.67461609840393,0.0,0.0,0.0,0.0,0.0,0.0,0.0,0.0,0.0,0.0,0.0,0.0,0.0,0.0,0.0,0.0,False,0,0.9610750675201416,0.034924072265625
STABILIZE,0.9493343830108643,29.908256619057465,0.032393725713094075,0.03252887725830078,0.0,0.0,0.0,-0.5818696317263513,-1.2851707421071263,20.24063210528727,0.0004243234113281072,-0.004680941785093242,0.008373461690707129,0.4,0.07853528937731616,0.14172201265930068,0.8588460613022607,0.12562831585759043,-0.09947175858542323,-0.010882937931455672,1.8393978476524353,-0.08107976824472637,-8.055972307920456,-0.639278395101428,21.002639830112457,0.0,0.0,0.0,0.0,0.0,0.0,0.0,0.0,0.0,0.0,0.0,0.0,0.0,0.0,0.0,0.0,False,0,0.9897468090057373,0.029935791015625
STABILIZE,0.9830203056335449,29.687251827891536,0.03241875966389974,0.03285837173461914,0.0,0.0,0.0,-0.5815956771076104,-1.2858014673882947,20.24180519027722,-0.0001307122336237302,-0.005825866263910005,0.008073397924084541,0.4,0.06871793635359794,0.13946426025474973,0.8662319494317583,0.12074702270671317,-0.39538624696433544,0.1711753662675619,1.8744956701993942,-0.01739108902966729,-0.044944079127162695,-0.47090514563024044,24.35159534215927,0.0,0.0,0.0,0.0,0.0,0.0,0.0,0.0,0.0,0.0,0.0,0.0,0.0,0.0,0.0,0.0,False,0,1.0184557437896729,0.034924072265625
STABILIZE,1.0167758464813232,29.62392908853339,0.032491238911946614,0.032854318618774414,0.0,0.0,0.0,-0.5813098763795277,-1.2865115936185645,20.24264530354513,0.0016364008471699597,-0.006178313220473024,0.0080096140546278,0.4,0.06306470137269515,0.13414281816854046,0.8796123556516428,0.11638338094981528,-0.14327103272080421,-0.05348667618818581,1.8784508109092712,-0.013986079645857262,3.748553991317749,-0.6982540711760521,22.513386607170105,0.0,0.0,0.0,0.0,0.0,0.0,0.0,0.0,0.0,0.0,0.0,0.0,0.0,0.0,0.0,0.0,False,0,1.0470311641693115,0.034925048828125
STABILIZE,1.0507662296295166,29.420911603372566,0.032427342732747395,0.03291463851928711,0.0,0.0,0.0,-0.5809657522392354,-1.2864309120089938,20.243323199820253,0.0016064690601317458,-0.0062328410094524295,0.007808527425564319,0.4,0.06088204888032364,0.13056043251573968,0.8903788420053643,0.11166329578081442,0.06356951780617237,0.05655005224980414,1.7763294279575348,-0.033890224722839674,-1.2535158544778824,1.326825562864542,24.498918652534485,0.0,0.0,0.0,0.0,0.0,0.0,0.0,0.0,0.0,0.0,0.0,0.0,0.0,0.0,0.0,0.0,False,0,1.0762038230895996,0.02993505859375
STABILIZE,1.0840115547180176,30.07812287105495,0.03223303159077962,0.032366037368774414,0.0,0.0,0.0,-0.5805130921241634,-1.2870228973109634,20.243562256441205,0.002328009394580595,-0.008801946635719485,0.007390831260462237,0.4,0.04720238299098732,0.12346788245812222,0.9303558743902396,0.10468221653999409,-0.22501398343592882,0.05819599609822035,2.389752119779587,0.03860913838737801,-0.8689630776643753,-0.4849681630730629,30.10956645011902,0.0,0.0,0.0,0.0,0.0,0.0,0.0,0.0,0.0,0.0,0.0,0.0,0.0,0.0,0.0,0.0,False,0,1.1337645053863525,0.0399140625
STABILIZE,1.1175332069396973,29.832738239185172,0.03245595296223958,0.03258967399597168,0.0,0.0,0.0,-0.5809477696318112,-1.286329206223384,20.24416672818275,0.001699759080040127,-0.008460256431930753,0.007443119932624566,0.4,0.0437176726709888,0.12112239999438053,0.9448809103668102,0.10244712626072161,-0.01823419297579676,0.11001547100022435,1.7794169485569,0.09810909070211439,-1.691192388534546,1.3869143091142178,24.446329474449158,0.0,0.0,0.0,0.0,0.0,0.0,0.0,0.0,0.0,0.0,0.0,0.0,0.0,0.0,0.0,0.0,False,0,1.1624860763549805,0.029935791015625
STABILIZE,1.1509461402893066,29.928103549155882,0.0323672612508138,0.0324862003326416,0.0,0.0,0.0,-0.5794029195797719,-1.2862553548029834,20.246173096251443,0.0019022409159990107,-0.007377359956883837,0.007457670020211367,0.4,0.03813995725519005,0.11840461328921949,0.9497688526728947,0.09998040813390716,-0.17613291274756193,0.127838843036443,2.0234867930412292,0.1079858243864305,-0.14474464114755392,-0.48415125347673893,28.353986144065857,0.0,0.0,0.0,0.0,0.0,0.0,0.0,0.0,0.0,0.0,0.0,0.0,0.0,0.0,0.0,0.0,False,0,1.191157579421997,0.034864990234375
STABILIZE,1.1845550537109375,29.75717802640634,0.03240826924641927,0.03257322311401367,0.0,0.0,0.0,-0.5779303734833994,-1.2862310222540652,20.246101379265156,0.0009436417973444987,-0.007851746684946743,0.007311129306903815,0.4,0.031579840297623014,0.11645825361632091,0.9501210140909017,0.09572088670723329,-0.22700957488268614,0.14770596753805876,1.408463530242443,-0.01631570776136052,-2.185683138668537,1.2413613498210907,16.62288010120392,0.0,0.0,0.0,0.0,0.0,0.0,0.0,0.0,0.0,0.0,0.0,0.0,0.0,0.0,0.0,0.0,False,0,1.2198715209960938,0.02993505859375
STABILIZE,1.2183420658111572,29.59529219175569,0.03226664861043294,0.03284096717834473,0.0,0.0,0.0,-0.5787855345118261,-1.2860399904007163,20.246898803850755,0.0011416119544493959,-0.007444428074625015,0.007316662236592207,0.4,0.030830923024497834,0.1125323617993097,0.9501071555521223,0.09324175877686115,0.09031834779307246,0.04484079254325479,1.7754526808857918,0.0946197044696709,3.6894015967845917,-0.5906437523663044,24.09798502922058,0.0,0.0,0.0,0.0,0.0,0.0,0.0,0.0,0.0,0.0,0.0,0.0,0.0,0.0,0.0,0.0,False,0,1.2501585483551025,0.0349248046875
STABILIZE,1.2518761157989502,29.819376213057296,0.032383235295613606,0.03251910209655762,0.0,0.0,0.0,-0.5790043140086781,-1.2862835293333097,20.24775940768618,-0.000462133601790281,-0.005344432192500547,0.00750555048235464,0.4,0.024768637174491438,0.11089096880039442,0.9574342347302628,0.09221960532353277,-0.21515421103686094,0.1564321224577725,1.8677446991205215,0.16424734655986847,0.42890291661024094,1.3677818700671196,24.45959597826004,0.0,0.0,0.0,0.0,0.0,0.0,0.0,0.0,0.0,0.0,0.0,0.0,0.0,0.0,0.0,0.0,False,0,1.281226396560669,0.034925048828125
STABILIZE,1.2853353023529053,29.885667462324985,0.03231981595357259,0.032465457916259766,0.0,0.0,0.0,-0.5779092425856547,-1.286763350122503,20.248051398273194,-0.0006625320376849827,-0.006260042647016515,0.007559124483123813,0.4,0.018807925828865164,0.10931701989212268,0.9641057393980869,0.09128910531569064,-0.21515421103686094,0.1564321224577725,1.8677446991205215,0.16424734655986847,0.42890291661024094,1.3677818700671196,24.45959597826004,0.0,0.0,0.0,0.0,0.0,0.0,0.0,0.0,0.0,0.0,0.0,0.0,0.0,0.0,0.0,0.0,False,0,1.3099124431610107,0.034925048828125
STABILIZE,1.3187267780303955,29.94797683734015,0.032328160603841145,0.03246474266052246,0.0,0.0,0.0,-0.578395466677195,-1.28643176578264,20.248353634143967,-2.4714721747022995e-05,-0.009579158585754338,0.007677347528578148,0.4,0.0036326998148117147,0.10486748694011506,1.0178601478179297,0.09108248646971802,-0.22804050240665674,0.06498508737422526,1.9564015790820122,0.16317252558051704,-7.63208270072937,1.2539583258330822,23.289431631565094,0.0,0.0,0.0,0.0,0.0,0.0,0.0,0.0,0.0,0.0,0.0,0.0,0.0,0.0,0.0,0.0,False,0,1.3674845695495605,0.06984912109375
STABILIZE,1.3521831035614014,29.889713951797955,0.032381566365559895,0.03251981735229492,0.0,0.0,0.0,-0.5778946217119626,-1.2856970935600405,20.248708803980808,0.000677702033451066,-0.008744333174776776,0.007887769276980401,0.4,0.0002138697589088188,0.10091072980382856,1.05956030143976,0.09135970001312671,0.06198203191161156,-0.03314975474495441,1.9954558461904526,0.14484838201741576,1.5316982753574848,-0.7351808715611696,25.543546676635742,0.0,0.0,0.0,0.0,0.0,0.0,0.0,0.0,0.0,0.0,0.0,0.0,0.0,0.0,0.0,0.0,False,0,1.3961400985717773,0.029934814453125
STABILIZE,1.3856351375579834,29.892483233912753,0.03239563306172689,0.03255176544189453,0.0,0.0,0.0,-0.5774174689654137,-1.285453127740624,20.249231313452317,0.0007404611269905843,-0.009030790918346476,0.007906584484369955,0.4,-0.0013293643805765746,0.09714497298760265,1.0505383152296068,0.08992529439154437,-0.041200523264706135,0.06829319754615426,1.9050044938921928,0.15392406257813632,-3.9669163525104523,1.326246652752161,26.697829365730286,0.0,0.0,0.0,0.0,0.0,0.0,0.0,0.0,0.0,0.0,0.0,0.0,0.0,0.0,0.0,0.0,False,0,1.4250013828277588,0.02993505859375
STABILIZE,1.419072151184082,29.908469886906545,0.03242162068684896,0.032530784606933594,0.0,0.0,0.0,-0.5774805414935306,-1.284841825809908,20.251196700385986,0.001393442638653018,-0.00769684547813464,0.007891933240783246,0.4,-0.002780431290193683,0.09361695427484738,1.042475221204368,0.08861847990353268,-0.041200523264706135,0.06829319754615426,1.9050044938921928,0.15392406257813632,-3.9669163525104523,1.326246652752161,26.697829365730286,0.0,0.0,0.0,0.0,0.0,0.0,0.0,0.0,0.0,0.0,0.0,0.0,0.0,0.0,0.0,0.0,False,0,1.4536311626434326,0.02993505859375
STABILIZE,1.4534032344818115,29.127111111111113,0.032412083943684895,0.03339529037475586,0.0,0.0,0.0,-0.5770126735353847,-1.2847713894840922,20.251973634404074,0.0022258575719235033,-0.00753981577385266,0.007724342711601645,0.4,-0.007831284221643111,0.08951525899152456,1.039016659627804,0.08540952811837497,-0.2337765647098422,0.027024367591366172,2.101149968802929,0.04849839853191023,-1.0838111862540245,1.3104130513966084,24.77167844772339,0.0,0.0,0.0,0.0,0.0,0.0,0.0,0.0,0.0,0.0,0.0,0.0,0.0,0.0,0.0,0.0,False,0,1.4824481010437012,0.06985009765625
STABILIZE,1.4868214130401611,29.92361968223619,0.03239110310872396,0.03252768516540527,0.0,0.0,0.0,-0.5751315967492808,-1.2839698027519677,20.25187459666111,0.0022825625271642056,-0.004651033451384599,0.007750758166946055,0.4,-0.012823443117226347,0.08524556917520823,1.0772558398326872,0.08495147698477153,-0.06777929374948144,-0.025950060808099806,1.9738178700208664,0.09437482484564876,-1.6243603080511093,-0.6120349280536175,27.233150601387024,0.0,0.0,0.0,0.0,0.0,0.0,0.0,0.0,0.0,0.0,0.0,0.0,0.0,0.0,0.0,0.0,False,0,1.511186122894287,0.029934814453125
STABILIZE,1.5202913284301758,29.878641952442692,0.032431872685750325,0.03255629539489746,0.0,0.0,0.0,-0.5751064104267165,-1.2837102555635074,20.252583228787497,0.0023717281189069403,-0.003463183288008528,0.007170520150635141,0.4,-0.012312709641388168,0.08133061709168214,1.0541420710305867,0.07714693599607828,-0.00827055482659489,-0.001952203456312418,1.854466274380684,0.041597746355655274,2.9487350955605507,-0.7190702017396688,22.781218588352203,0.0,0.0,0.0,0.0,0.0,0.0,0.0,0.0,0.0,0.0,0.0,0.0,0.0,0.0,0.0,0.0,False,0,1.5688352584838867,0.034925048828125
STABILIZE,1.553786039352417,29.856522543813444,0.03240207036336263,0.03253316879272461,0.0,0.0,0.0,-0.5747424894100017,-1.2836502779648582,20.252921323151416,0.0026022500769864445,-0.0031365208509853927,0.007029808233826514,0.4,-0.012715928995227336,0.07716732673133696,1.0488769577333565,0.07422763534199989,-0.00827055482659489,-0.001952203456312418,1.854466274380684,0.041597746355655274,2.9487350955605507,-0.7190702017396688,22.781218588352203,0.0,0.0,0.0,0.0,0.0,0.0,0.0,0.0,0.0,0.0,0.0,0.0,0.0,0.0,0.0,0.0,True,0,1.5974750518798828,0.034925048828125
STABILIZE,1.5872933864593506,29.845687489771088,0.03235677083333333,0.032480478286743164,0.0,0.0,0.0,-0.5740457033929546,-1.2836440881059228,20.254142219465553,0.0022366748126177935,-0.004525776392249021,0.0070937457509963,0.4,-0.018246823376565798,0.07503800865195458,1.0448685357979608,0.07391980740423845,-0.2727337647229433,0.0927214976400137,1.9009366631507874,0.16772738130284284,-4.89058643579483,1.2401199899613857,23.101596534252167,0.0,0.0,0.0,0.0,0.0,0.0,0.0,0.0,0.0,0.0,0.0,0.0,0.0,0.0,0.0,0.0,True,0,1.627312421798706,0.029934814453125
STABILIZE,1.6247234344482422,26.716333108271655,0.032289775212605794,0.03647899627685547,0.0,0.0,0.0,-0.5739784687183123,-1.2838745002687049,20.25469204969374,0.0019004329729731455,-0.0040569039381412484,0.006739958551894704,0.4,-0.021613651960016956,0.07209178168466115,1.035163214254796,0.06742539767883275,-0.18911018269136548,0.046790382475592196,1.857057772576809,-0.14989597185533451,-5.283085256814957,-0.7199784740805626,21.477968990802765,0.0,0.0,0.0,0.0,0.0,0.0,0.0,0.0,0.0,0.0,0.0,0.0,0.0,0.0,0.0,0.0,True,0,1.656224012374878,0.034925048828125
STABILIZE,1.6581430435180664,29.91913715867264,0.032366307576497395,0.03249692916870117,0.0,0.0,0.0,-0.5744745112067845,-1.2842733192832103,20.25570804033278,0.0006072319457066125,-0.001840666505531272,0.006596036961674986,0.4,-0.019398057421237083,0.0720983008344778,1.0282330114842506,0.06490897922390203,0.11817089980468154,0.18963960465043783,1.685788482427597,0.0413136798552915,4.600229859352112,1.2999745085835457,21.509787440299988,0.0,0.0,0.0,0.0,0.0,0.0,0.0,0.0,0.0,0.0,0.0,0.0,0.0,0.0,0.0,0.0,True,0,1.6846330165863037,0.034922607421875
STABILIZE,1.6915416717529297,29.942845720567973,0.03241399129231771,0.032521724700927734,0.0,0.0,0.0,-0.574541639159721,-1.2850822698130335,20.256210059236775,0.0005569241267445539,-0.0023997213970171345,0.006767995253018152,0.4,-0.020622081067692963,0.06866167862024122,1.021912660885083,0.06360872649571807,-0.06697801291011274,0.002035799843724817,1.7053790390491486,0.09961110532949573,3.452104702591896,-0.7546791806817055,21.022571623325348,0.0,0.0,0.0,0.0,0.0,0.0,0.0,0.0,0.0,0.0,0.0,0.0,0.0,0.0,0.0,0.0,True,0,1.7190155982971191,0.029935791015625
STABILIZE,1.7253475189208984,29.58047294295205,0.03245094617207845,0.03294062614440918,0.0,0.0,0.0,-0.574232999986601,-1.2850955033045506,20.256604502661343,0.0008899696741497971,-0.004185487621268271,0.006853531927353183,0.4,-0.026458911879474897,0.0637934044171142,0.9996138950862475,0.06305140702632009,-0.17291104886680841,0.0467897392809391,1.5409188345074654,0.1490853004380054,-10.002930462360382,1.2702727690339088,20.200583338737488,0.0,0.0,0.0,0.0,0.0,0.0,0.0,0.0,0.0,0.0,0.0,0.0,0.0,0.0,0.0,0.0,True,0,1.7749969959259033,0.034925048828125
STABILIZE,1.7589747905731201,29.737346237016556,0.032453330357869466,0.032610177993774414,0.0,0.0,0.0,-0.5745862488327377,-1.2851306147457526,20.257859549921335,0.0007692614524297595,-0.0017484063368931081,0.006545596531361165,0.4,-0.024061837269006892,0.06218228360146273,0.9914753893083798,0.05858806286254216,0.1198947080411017,0.08029196178540587,1.5372208319604397,-0.08918310067396554,-5.7658519595861435,-0.6462641060352325,21.488136053085327,0.0,0.0,0.0,0.0,0.0,0.0,0.0,0.0,0.0,0.0,0.0,0.0,0.0,0.0,0.0,0.0,True,0,1.8036038875579834,0.06984912109375
STABILIZE,1.7948284149169922,27.89099759279701,0.03227737744649251,0.03500175476074219,0.0,0.0,0.0,-0.5753184664561042,-1.2847365982080075,20.258916521695394,0.00030206218098649,-0.0006368320218261747,0.00643759420039137,0.4,-0.023351468433402453,0.061107207712676186,1.0149768545283537,0.054467012115508064,0.1198947080411017,0.08029196178540587,1.5372208319604397,-0.08918310067396554,-5.7658519595861435,-0.6462641060352325,21.488136053085327,0.0,0.0,0.0,0.0,0.0,0.0,0.0,0.0,0.0,0.0,0.0,0.0,0.0,0.0,0.0,0.0,True,0,1.8323378562927246,0.06984912109375
STABILIZE,1.8283545970916748,29.82764653173847,0.0325045903523763,0.0326387882232666,0.0,0.0,0.0,-0.5752940271854803,-1.2851433146287405,20.25948855003838,0.0007696914697164806,-0.003238924608945042,0.00626122130740525,0.4,-0.02923706450477012,0.05966753834959683,1.036491422246911,0.05089104424856953,-0.23583713918924332,0.06293572369031608,1.6848297789692879,-0.03317860438868897,-1.5252426266670227,-0.7905365899205208,16.156773269176483,0.0,0.0,0.0,0.0,0.0,0.0,0.0,0.0,0.0,0.0,0.0,0.0,0.0,0.0,0.0,0.0,True,0,1.8611476421356201,0.029934814453125
STABILIZE,1.8633005619049072,28.61716905694363,0.03242328961690267,0.033977508544921875,0.0,0.0,0.0,-0.5744596768896809,-1.2845793971353914,20.260021304793643,0.00010532494566136367,-0.004442232554981471,0.006044830392611957,0.4,-0.0341700263763015,0.058490261188585364,1.022959172613113,0.04722802196072324,-0.2951967529952526,0.10230655316263437,1.8642080947756767,-0.035201357574270974,-0.1432492397725582,1.3170166872441769,22.91216403245926,0.0,0.0,0.0,0.0,0.0,0.0,0.0,0.0,0.0,0.0,0.0,0.0,0.0,0.0,0.0,0.0,True,0,1.8896703720092773,0.034925048828125
STABILIZE,1.8966965675354004,29.942418206868982,0.032340319951375325,0.032530784606933594,0.0,0.0,0.0,-0.5742168850090281,-1.2847209101172576,20.260760672771298,1.3705747960429002e-06,-0.003407305272702983,0.0054562968026229414,0.4,-0.03625840115586773,0.05438973524873108,1.0068032638747024,0.039320968445981284,0.021946392371319234,-0.01729046634864062,1.728004589676857,-0.03446072227636094,-6.1822809278965,1.185896061360836,20.297853648662567,0.0,0.0,0.0,0.0,0.0,0.0,0.0,0.0,0.0,0.0,0.0,0.0,0.0,0.0,0.0,0.0,True,0,1.9470961093902588,0.029935302734375
STABILIZE,1.9302077293395996,29.839954467842915,0.03247979482014974,0.03260302543640137,0.0,0.0,0.0,-0.5742423914967099,-1.2835298958807366,20.261491503012486,8.24693047494254e-05,-0.0055786794621916136,0.005339107363957711,0.4,-0.04066557968248396,0.052657203756017075,0.9993460349450931,0.035885372871427054,-0.2919029211625457,0.057447561994194984,2.0192546769976616,-0.05561232069695618,-6.7055076360702515,1.3651859946548939,24.58260953426361,0.0,0.0,0.0,0.0,0.0,0.0,0.0,0.0,0.0,0.0,0.0,0.0,0.0,0.0,0.0,0.0,True,0,1.9757568836212158,0.0349248046875
STABILIZE,1.96360182762146,29.945197264146902,0.03241422971089681,0.0325167179107666,0.0,0.0,0.0,-0.5740473042185413,-1.2863776578778088,20.263166606906434,0.0016557045280339567,-0.004670846694207308,0.005305205017588566,0.4,-0.03728901968172503,0.04693928088942038,0.9963744842156922,0.03374639490554059,0.12166931992396712,-0.15711791347712278,1.9601020961999893,0.00762473226955564,9.16290432214737,-0.8301427587866783,18.46812814474106,0.0,0.0,0.0,0.0,0.0,0.0,0.0,0.0,0.0,0.0,0.0,0.0,0.0,0.0,0.0,0.0,True,0,2.0045268535614014,0.034925048828125
STABILIZE,2.0036656856536865,24.961340697010094,0.03244903882344564,0.03908896446228027,0.0,0.0,0.0,-0.5744081303057884,-1.2856870617196972,20.263632767317286,0.0006915846432307943,-0.003866759029162122,0.005290462686192815,0.4,-0.04066518226281415,0.04880792998100802,0.9873978898031196,0.031786719920406756,-0.22811477538198233,0.22795796394348145,1.6226252540946007,0.010291654336181165,-1.876409724354744,1.3973579742014408,21.23996466398239,0.0,0.0,0.0,0.0,0.0,0.0,0.0,0.0,0.0,0.0,0.0,0.0,0.0,0.0,0.0,0.0,True,0,2.0346715450286865,0.02993505859375
STABILIZE,2.0369458198547363,30.045803276574713,0.03234222730000814,0.03245234489440918,0.0,0.0,0.0,-0.5729227776047222,-1.285822384842628,20.264220163585907,0.0007024116135767005,-0.0018402217427652278,0.005488658823516115,0.4,-0.03879056296754868,0.04772351662732433,0.9723772041043276,0.032678606903331194,0.02487093734089285,0.07404229836538434,1.5115177258849144,0.1495525947669827,3.5362377762794495,-0.5963478237390518,21.83985710144043,0.0,0.0,0.0,0.0,0.0,0.0,0.0,0.0,0.0,0.0,0.0,0.0,0.0,0.0,0.0,0.0,True,0,2.0631930828094482,0.034925048828125
STABILIZE,2.070624351501465,29.69355695100281,0.032500298817952473,0.03276705741882324,0.0,0.0,0.0,-0.5722853288560896,-1.2857959178595941,20.26409892772814,-0.0005072449773667963,-0.001115464551964154,0.005790385317496602,0.4,-0.03845940515890923,0.04765421106737879,0.9658823429337778,0.033222551264950675,-0.11893111513927579,0.16623748233541846,2.1539978682994843,0.08192901955869548,-1.1494489386677742,1.5508346259593964,29.285553097724915,0.0,0.0,0.0,0.0,0.0,0.0,0.0,0.0,0.0,0.0,0.0,0.0,0.0,0.0,0.0,0.0,True,0,2.1209568977355957,0.0349248046875
STABILIZE,2.1040141582489014,29.94840450978572,0.0324130376180013,0.0325314998626709,0.0,0.0,0.0,-0.5730447605144304,-1.2852920846865998,20.265348852346253,-0.0004950521154182383,0.0003934361562711856,0.005966301892582973,0.4,-0.03785624023943385,0.04601674124273891,0.9635200842051995,0.033855979329088584,-0.025248373276554048,0.02790663274936378,1.8491091206669807,0.1298574774909865,-2.577276900410652,-0.6139062810689211,19.618724286556244,0.0,0.0,0.0,0.0,0.0,0.0,0.0,0.0,0.0,0.0,0.0,0.0,0.0,0.0,0.0,0.0,True,0,2.1494953632354736,0.034924072265625
STABILIZE,2.138167381286621,29.281039911199848,0.03246501286824544,0.03318619728088379,0.0,0.0,0.0,-0.5730714409408758,-1.2858041354309393,20.266660248666895,-0.0021759657908180193,0.0010085458951055496,0.0063013069075151034,0.4,-0.03281984942044069,0.04590557008776055,0.9607172447821356,0.03695409691840918,0.21587046794593334,0.10785013437271118,1.8076667562127113,0.26146500419380364,0.571164395660162,3.484726697206497,25.0678151845932,0.0,0.0,0.0,0.0,0.0,0.0,0.0,0.0,0.0,0.0,0.0,0.0,0.0,0.0,0.0,0.0,True,0,2.1782517433166504,0.0299423828125
STABILIZE,2.1716463565826416,29.87289626437805,0.032332690556844075,0.03245210647583008,0.0,0.0,0.0,-0.5723707062207147,-1.285309160159525,20.26776161667056,-0.0016934409817913909,0.0021164107191207243,0.006511608769266935,0.4,-0.03200419269572505,0.04583421997238219,0.9515230426223075,0.03864905040622137,-0.02535338280722499,0.11394486064091325,1.6858840361237526,0.18933319063829723,-2.7739794924855232,1.244995091110468,15.836155414581299,0.0,0.0,0.0,0.0,0.0,0.0,0.0,0.0,0.0,0.0,0.0,0.0,0.0,0.0,0.0,0.0,True,0,2.206840753555298,0.0349248046875
STABILIZE,2.205037832260132,29.943487014006884,0.03229645093282064,0.03246474266052246,0.0,0.0,0.0,-0.5724835110637257,-1.2863359296908483,20.2687998054244,-0.0020608386937286055,0.0017490948014997048,0.006658314770089312,0.4,-0.031395272037058,0.04594034040984131,0.9476124213857389,0.04048125288119907,-0.02535338280722499,0.11394486064091325,1.6858840361237526,0.18933319063829723,-2.7739794924855232,1.244995091110468,15.836155414581299,0.0,0.0,0.0,0.0,0.0,0.0,0.0,0.0,0.0,0.0,0.0,0.0,0.0,0.0,0.0,0.0,True,0,2.235313892364502,0.0349248046875
STABILIZE,2.2386510372161865,29.751478954163062,0.03241399129231771,0.03254222869873047,0.0,0.0,0.0,-0.5728630134494846,-1.287572514095738,20.270001918718325,-0.001257303430760621,0.00045427193443668115,0.006576487215850646,0.4,-0.03501778678570348,0.04341414279346977,0.9473998273147967,0.03932998919851648,-0.2631247974932194,-0.0363047729479149,1.8808608874678612,0.020437029899322327,3.7207983434200287,-0.6509803701192141,18.254877626895905,0.0,0.0,0.0,0.0,0.0,0.0,0.0,0.0,0.0,0.0,0.0,0.0,0.0,0.0,0.0,0.0,True,0,2.267136573791504,0.02993505859375
STABILIZE,2.2719831466674805,30.000243188922028,0.03224042256673177,0.03238224983215332,0.0,0.0,0.0,-0.5727590665080535,-1.2860364685844254,20.270864230101036,-0.001538469749341203,0.0015643041535065554,0.0067352325518732275,0.4,-0.031080084360429115,0.042757312498576686,0.9419062899810952,0.04120864977551707,0.1534592709504068,0.07308619096875191,1.8243487924337387,0.20058960919474272,-3.0276061967015266,1.3940539211034775,22.332996129989624,0.0,0.0,0.0,0.0,0.0,0.0,0.0,0.0,0.0,0.0,0.0,0.0,0.0,0.0,0.0,0.0,True,0,2.295907974243164,0.034925048828125
STABILIZE,2.3054304122924805,29.89866271278264,0.03237417538960775,0.03250837326049805,0.0,0.0,0.0,-0.5725400735677899,-1.2858463972264287,20.272382239644074,-0.0011033643137456132,0.000890367661239483,0.006334376003539588,0.4,-0.028617065969050465,0.041315927625318105,0.946590579963951,0.037020604929947694,0.011357629409758374,0.058553897542878985,1.9733790308237076,-0.03813705492185378,2.0299267023801804,1.309866737574339,18.403260409832,0.0,0.0,0.0,0.0,0.0,0.0,0.0,0.0,0.0,0.0,0.0,0.0,0.0,0.0,0.0,0.0,True,0,2.353187084197998,0.034924072265625
STABILIZE,2.338866710662842,29.905697642084547,0.032384427388509114,0.032529592514038086,0.0,0.0,0.0,-0.5716641018067358,-1.2861469255499094,20.27317112649321,-0.0008880672063709857,0.0005349253614137637,0.006196812283667329,0.4,-0.02894226965468215,0.04057628483303824,0.9488476118455539,0.035634146761472765,-0.07786982459947467,0.05419330555014312,1.9571520388126373,0.0016965416165944758,1.7027441412210464,1.426488719880581,21.78003042936325,0.0,0.0,0.0,0.0,0.0,0.0,0.0,0.0,0.0,0.0,0.0,0.0,0.0,0.0,0.0,0.0,True,0,2.381822347640991,0.064861083984375
STABILIZE,2.372305393218994,29.90697707583158,0.032416375478108723,0.03254342079162598,0.0,0.0,0.0,-0.5721320764865875,-1.2850936890355522,20.27523042852797,-0.000843654633787676,-1.9702790976895756e-05,0.006103325818123404,0.4,-0.03005990307040444,0.04051809406890468,0.9788713003551477,0.034857272645671296,-0.07786982459947467,0.05419330555014312,1.9571520388126373,0.0016965416165944758,1.7027441412210464,1.426488719880581,21.78003042936325,0.0,0.0,0.0,0.0,0.0,0.0,0.0,0.0,0.0,0.0,0.0,0.0,0.0,0.0,0.0,0.0,True,0,2.4106051921844482,0.064861083984375
STABILIZE,2.411034345626831,25.822383933903428,0.03242448170979818,0.037668704986572266,0.0,0.0,0.0,-0.5729303548458327,-1.285878947346692,20.27504601342038,-0.0016316354955093718,0.0037835296294122184,0.006299183401548187,0.4,-0.020636092922432903,0.04059758959170656,1.0060102442475476,0.03661190418590746,0.4433619789779186,0.06512106629088521,1.9496139138936996,0.13913051316612338,4.832889139652252,1.372682861983776,16.776573657989502,0.0,0.0,0.0,0.0,0.0,0.0,0.0,0.0,0.0,0.0,0.0,0.0,0.0,0.0,0.0,0.0,True,0,2.439255714416504,0.034923828125
STABILIZE,2.4443252086639404,30.035690756495086,0.032239707310994466,0.03237485885620117,0.0,0.0,0.0,-0.572887239276697,-1.2861247274351069,20.276393268234163,-0.002065282118279274,0.003361920190571989,0.0061316753234877605,0.4,-0.018328694969684485,0.04129863303362507,0.9970467786857345,0.03492636709807267,0.051770382560789585,0.13137655332684517,1.6764456406235695,-0.0009163125658395231,0.348089262843132,1.507909782230854,21.893711388111115,0.0,0.0,0.0,0.0,0.0,0.0,0.0,0.0,0.0,0.0,0.0,0.0,0.0,0.0,0.0,0.0,True,0,2.467907667160034,0.02993603515625
STABILIZE,2.481355667114258,27.00531825849569,0.03242662747701009,0.03613781929016113,0.0,0.0,0.0,-0.5714044478965695,-1.2858498123210138,20.276362532382898,-0.002809001605438545,0.00023749800057138446,0.005703389998672498,0.4,-0.026269782159001727,0.04232137995306836,0.9779118857523136,0.027475111293778765,-0.31047752127051353,0.13496926985681057,1.6619523987174034,0.011391781700016012,-9.524697810411453,1.4497937634587288,21.239104866981506,0.0,0.0,0.0,0.0,0.0,0.0,0.0,0.0,0.0,0.0,0.0,0.0,0.0,0.0,0.0,0.0,True,0,2.5262677669525146,0.034924072265625
STABILIZE,2.5160105228424072,28.854396984060372,0.032413752873738606,0.0338134765625,0.0,0.0,0.0,-0.570765505044056,-1.2868065724133444,20.27755610794036,-0.0031683347695211257,0.001666965984617963,0.00556266163138177,0.4,-0.022068006962155766,0.04273118044015871,0.9737898135068445,0.02494371831927352,0.1612229971215129,0.11192299425601959,1.8053945153951645,-0.05672796272876901,6.377382576465607,1.3630973175168037,21.081119775772095,0.0,0.0,0.0,0.0,0.0,0.0,0.0,0.0,0.0,0.0,0.0,0.0,0.0,0.0,0.0,0.0,True,0,2.5556068420410156,0.039913818359375
STABILIZE,2.5520284175872803,27.76471211258655,0.03250244458516439,0.03510093688964844,0.0,0.0,0.0,-0.5708363682566949,-1.286550013432646,20.27791298532449,-0.0032307952738358805,0.0029998373454277077,0.005136468743916541,0.4,-0.018819282073519437,0.0428514740305448,0.9732747399609236,0.018994109955576585,0.11438083602115512,0.08572706137783825,1.7342941835522652,-0.2357456867502826,0.686607975512743,1.4006230980157852,22.108930349349976,0.0,0.0,0.0,0.0,0.0,0.0,0.0,0.0,0.0,0.0,0.0,0.0,0.0,0.0,0.0,0.0,True,0,2.583538770675659,0.024946044921875
STABILIZE,2.585435390472412,29.93365686554382,0.03240373929341634,0.03251361846923828,0.0,0.0,0.0,-0.5707216424229798,-1.2872522422566879,20.278754806139695,-0.0030641724016672828,0.001584812622436374,0.004661401609224519,0.4,-0.015689050250120753,0.042388074892688206,0.9589830118414053,0.01350489983331456,0.11438083602115512,0.08572706137783825,1.7342941835522652,-0.2357456867502826,0.686607975512743,1.4006230980157852,22.108930349349976,0.0,0.0,0.0,0.0,0.0,0.0,0.0,0.0,0.0,0.0,0.0,0.0,0.0,0.0,0.0,0.0,True,0,2.6122639179229736,0.024946044921875
STABILIZE,2.6192917823791504,29.536936099491555,0.03243211110432943,0.03296947479248047,0.0,0.0,0.0,-0.5795108152243169,-1.2701844532944722,20.27243517361014,-0.0029639436532152507,-0.0002248986651506584,0.004487278091466523,0.4,-0.01912089571589149,0.04270343535501262,0.9454173146414026,0.010591752082655068,-0.2395394491031766,0.1261213212274015,1.6923768445849419,-0.11214086057825932,3.6031313240528107,1.3896271586418152,22.673384845256805,0.0,0.0,0.0,0.0,0.0,0.0,0.0,0.0,0.0,0.0,0.0,0.0,0.0,0.0,0.0,0.0,True,1,2.64129638671875,0.034925048828125
STABILIZE,2.652789354324341,29.85375992028186,0.032436641057332356,0.03255462646484375,0.0,0.0,0.0,-0.5769625143336674,-1.2713015093888866,20.265003927793167,-0.003005393018347172,0.0028724067214640813,0.005035650257394547,0.4,-0.016217387210515313,0.04364447751108783,0.939870861887062,0.014811957241176189,0.0016828671505209059,0.14084483264014125,1.7325107008218765,0.2248554303663733,-2.3999731987714767,-0.4720801953226328,24.779297411441803,0.0,0.0,0.0,0.0,0.0,0.0,0.0,0.0,0.0,0.0,0.0,0.0,0.0,0.0,0.0,0.0,True,0,2.6986780166625977,0.029895751953125
STABILIZE,2.6914632320404053,25.857087373852575,0.032372268040974934,0.03768515586853027,0.0,0.0,0.0,-0.5667152028662384,-1.2909429990077277,20.275139928521465,-0.000186640369076772,-0.0012762074095460357,0.006630592283823431,0.4,-0.02637592278722589,0.03427612768291865,0.9330695030230762,0.03451820638992622,-0.6262376438826323,-0.4382563754916191,1.720479130744934,1.174681760111592,-18.833771347999573,-20.723015069961548,2.3977190256118774,0.0,0.0,0.0,0.0,0.0,0.0,0.0,0.0,0.0,0.0,0.0,0.0,0.0,0.0,0.0,0.0,True,0,2.7274420261383057,0.0349248046875
STABILIZE,2.724874258041382,29.928530654184268,0.032335789998372395,0.03248405456542969,0.0,0.0,0.0,-0.5690941364098128,-1.2811367683502934,20.268555626161575,0.002796957015267173,-0.008188192646712366,0.005560223761870135,0.4,-0.044631731301229424,0.025294984099811898,0.93831950567512,0.018885891250679826,-1.0851874947547913,-0.42948368936777115,2.1126437932252884,-0.8429889909955554,-44.2170649766922,-14.428998529911041,14.502924680709839,0.0,0.0,0.0,0.0,0.0,0.0,0.0,0.0,0.0,0.0,0.0,0.0,0.0,0.0,0.0,0.0,True,0,2.755974292755127,0.034925048828125
STABILIZE,2.7583634853363037,29.861836718711064,0.03239277203877767,0.03253293037414551,0.0,0.0,0.0,-0.5792117810047173,-1.2912738362956502,20.27337090952643,-0.0011926736332159695,0.004953353516636096,0.010248100094478227,0.4,-0.0018295520784820038,0.03695486322200234,0.9472404258115132,0.07487866159302763,2.4044619873166084,0.7487207651138306,2.314627170562744,3.25239243534409,11.370503902435303,-1.1532427743077278,3.940451145172119,0.0,0.0,0.0,0.0,0.0,0.0,0.0,0.0,0.0,0.0,0.0,0.0,0.0,0.0,0.0,0.0,True,0,2.7846176624298096,0.02993505859375
STABILIZE,2.7916994094848633,29.99616671911205,0.03236535390218099,0.03247690200805664,0.0,0.0,0.0,-0.5817830804229626,-1.2883848797201463,20.271837532057763,0.005721091751648687,-0.011655692569257147,0.008005744413336988,0.4,-0.05534039951588346,0.016279960135570336,0.9730678762860142,0.04536775307652231,-1.5934199094772339,-0.5180576350539923,2.665887773036957,-0.786315709800786,-59.965455532073975,-37.09880709648132,-47.35599458217621,0.0,0.0,0.0,0.0,0.0,0.0,0.0,0.0,0.0,0.0,0.0,0.0,0.0,0.0,0.0,0.0,True,0,2.8419909477233887,0.034925048828125
STABILIZE,2.8252182006835938,29.836558160710222,0.03247073491414388,0.032614707946777344,0.0,0.0,0.0,-0.5809521452217482,-1.2790871779907607,20.253966342094426,0.004838735835072707,-0.009587341097512836,0.007926796339131537,0.4,-0.046379932456108684,0.01980581106127155,0.9682767428954906,0.04557713310459531,0.4827543627470732,0.2815937390550971,1.4846046455204487,0.07264034248355498,-20.32952457666397,27.80008614063263,-35.05244851112366,0.0,0.0,0.0,0.0,0.0,0.0,0.0,0.0,0.0,0.0,0.0,0.0,0.0,0.0,0.0,0.0,True,0,2.870725631713867,0.0349248046875
STABILIZE,2.85872220993042,29.84611224569668,0.03240803082784017,0.032536983489990234,0.0,0.0,0.0,-0.583553006552495,-1.2923797933326633,20.257125304585557,0.003789416843728008,-0.01031975438529544,0.007489611121999239,0.4,-0.056567628581141824,0.01561880926870226,0.9691903110371947,0.04610313543005082,-0.6374284159392118,-0.17187870107591152,1.8243316560983658,0.09381488940594654,-42.40846335887909,-3.369487449526787,-10.572969168424606,0.0,0.0,0.0,0.0,0.0,0.0,0.0,0.0,0.0,0.0,0.0,0.0,0.0,0.0,0.0,0.0,True,0,2.8993403911590576,0.034924072265625
STABILIZE,2.8922197818756104,29.851847634231053,0.032351287206014,0.03255724906921387,0.0,0.0,0.0,-0.5870599885261792,-1.2903755596980877,20.271550664112624,0.0018383072008515088,-0.013290425776331981,0.003390768941263869,0.4,-0.08217628341178501,0.013349590904181306,0.972389905004565,-0.010999423376965432,-1.531799416989088,-0.06336498190648854,1.9620280712842941,-3.2411123779298143,-38.7712299823761,-10.604424774646759,33.81600081920624,0.0,0.0,0.0,0.0,0.0,0.0,0.0,0.0,0.0,0.0,0.0,0.0,0.0,0.0,0.0,0.0,True,0,2.9282360076904297,0.02993603515625
STABILIZE,2.925656318664551,29.907403578075197,0.03237918217976888,0.032529592514038086,0.0,0.0,0.0,-0.597935837479808,-1.2914992325382606,20.295625373389626,0.006590589965276386,-0.012546278140534604,0.002694845944419912,0.4,-0.04097975498236272,0.009502220262116369,0.9477226206146383,0.0012338958857279966,2.317618206143379,-0.16841316828504205,0.6259062327444553,0.7717891780966383,128.98064851760864,6.552442163228989,-3.0114833265542984,0.0,0.0,0.0,0.0,0.0,0.0,0.0,0.0,0.0,0.0,0.0,0.0,0.0,0.0,0.0,0.0,True,0,2.9567415714263916,0.0349248046875
STABILIZE,2.9591026306152344,29.89866271278264,0.03242185910542806,0.03253746032714844,0.0,0.0,0.0,-0.5985528490217835,-1.3056456215264147,20.285665250032455,-0.003331845155362695,0.004017616555742389,1.1640205637656904e-05,0.4,-0.039296494230103715,0.02085066815310803,0.9391570660948337,-0.04303814047622642,0.030266138492152095,0.7273370865732431,1.2602569535374641,-2.520896037265238,-87.75440454483032,48.211199045181274,14.63177353143692,0.0,0.0,0.0,0.0,0.0,0.0,0.0,0.0,0.0,0.0,0.0,0.0,0.0,0.0,0.0,0.0,True,0,2.985429048538208,0.034924072265625
STABILIZE,2.9925129413604736,29.930452777678667,0.0324125607808431,0.032525062561035156,0.0,0.0,0.0,-0.6145380530005521,-1.2982191781862011,20.297180948973097,0.00010756858838806074,0.015687338458003554,0.0006962436744164377,0.4,0.004288052223215003,0.01361383581452508,0.9317158834143202,-0.034108423722486354,2.77880746871233,-1.3231541961431503,1.0934324003756046,-0.5203226370328078,-21.003679931163788,-54.02056574821472,3.2950863242149353,0.0,0.0,0.0,0.0,0.0,0.0,0.0,0.0,0.0,0.0,0.0,0.0,0.0,0.0,0.0,0.0,True,0,3.0427448749542236,0.034925048828125
STABILIZE,3.02597975730896,29.88183495650563,0.032436641057332356,0.03256797790527344,0.0,0.0,0.0,-0.6230185332679163,-1.3184675941458213,20.347505782777752,-0.0029627799319937205,0.014813471001399407,-0.0012735479888066124,0.4,-0.0076371978083798284,0.019151568021663887,0.9236889469237733,-0.05808311346975549,-0.7941187359392643,0.38316575810313225,1.2673694640398026,-1.3645398881402018,-34.14933383464813,55.35666346549988,-5.209048092365265,0.0,0.0,0.0,0.0,0.0,0.0,0.0,0.0,0.0,0.0,0.0,0.0,0.0,0.0,0.0,0.0,True,0,3.0713701248168945,0.029934814453125
STABILIZE,3.0594451427459717,29.88162206833661,0.03239038785298665,0.032518863677978516,0.0,0.0,0.0,-0.6386100408740571,-1.3059055956016985,20.300857298293856,-0.0016899979450464666,0.029872377866635123,-0.003242178965368027,0.4,0.014910148344260635,0.01333608447082135,0.9276195408980027,-0.10317783928511473,1.2888094410300255,-0.29610067140311,2.2394901141524315,-2.7056838170521713,-41.19928479194641,-91.22423529624939,29.14743423461914,0.0,0.0,0.0,0.0,0.0,0.0,0.0,0.0,0.0,0.0,0.0,0.0,0.0,0.0,0.0,0.0,True,0,3.100187063217163,0.034925048828125
STABILIZE,3.092855215072632,29.92959847009041,0.03240707715352376,0.03253436088562012,0.0,0.0,0.0,-0.647869536232773,-1.317205396531544,20.40257418296098,0.005736042007649393,0.025170792807218505,-0.0026385806216615896,0.4,0.038054238839525446,-0.012764019510410646,0.9429645993772786,-0.09029269696070899,1.3005157001316547,-1.504235714673996,2.6281768456101418,0.8276591116511377,-18.066494166851044,33.50995182991028,-0.11946111917495728,0.0,0.0,0.0,0.0,0.0,0.0,0.0,0.0,0.0,0.0,0.0,0.0,0.0,0.0,0.0,0.0,True,0,3.128993034362793,0.034925048828125
STABILIZE,3.1263718605041504,29.83698265682132,0.03244832356770833,0.03262495994567871,0.0,0.0,0.0,-0.6197786757238031,-1.325227453711724,20.35477651914923,0.017793687162148582,0.03227988110823124,-0.0002837422744570279,0.4,0.061240660042147496,-0.039106008126786516,0.9584304505711077,-0.07673927323737033,1.3005157001316547,-1.504235714673996,2.6281768456101418,0.8276591116511377,-18.066494166851044,33.50995182991028,-0.11946111917495728,0.0,0.0,0.0,0.0,0.0,0.0,0.0,0.0,0.0,0.0,0.0,0.0,0.0,0.0,0.0,0.0,True,0,3.1577134132385254,0.034925048828125
STABILIZE,3.1597812175750732,29.930025617788306,0.03243091901143392,0.032553672790527344,0.0,0.0,0.0,-0.5786893782549171,-1.2602114166109015,20.25311769109005,0.0015609269881038822,0.02849370190577421,-0.005532528578976743,0.4,0.08926282944340343,0.003729112701673823,0.9808689049151864,-0.13793347979629195,1.5897320583462715,2.5987837463617325,3.0380599200725555,-3.6306434023809304,16.45784080028534,69.27681565284729,19.90027278661728,0.0,0.0,0.0,0.0,0.0,0.0,0.0,0.0,0.0,0.0,0.0,0.0,0.0,0.0,0.0,0.0,True,0,3.186288833618164,0.02993505859375
STABILIZE,3.1932191848754883,29.906337345274085,0.03247097333272298,0.032624244689941406,0.0,0.0,0.0,-0.5485325989654298,-1.2796160907646135,20.351533886840766,0.01515059929940133,-0.022330361962440922,-0.001376698023178537,0.4,-0.07600346380599667,-0.03286263731483351,0.9960527601128656,-0.09409327988702082,-8.716516941785812,0.30196269508451223,1.579408347606659,1.1710175770652917,-162.02092170715332,84.80410575866699,98.2811987400055,0.0,0.0,0.0,0.0,0.0,0.0,0.0,0.0,0.0,0.0,0.0,0.0,0.0,0.0,0.0,0.0,True,0,3.2435927391052246,0.034925048828125
STABILIZE,3.226776599884033,29.80052008582837,0.03251508076985677,0.03262734413146973,0.0,0.0,0.0,-0.584965254885101,-1.2406238214534802,20.350739877349753,-0.015420911981550182,-0.02464277603466762,-0.014436411570894606,0.4,-0.06279678381544998,0.0545784498001359,1.0040907644974706,-0.2722004479621451,0.8444393053650856,5.2250586450099945,2.182942070066929,-10.641997363712745,260.4275941848755,99.96253848075867,202.5101661682129,0.0,0.0,0.0,0.0,0.0,0.0,0.0,0.0,0.0,0.0,0.0,0.0,0.0,0.0,0.0,0.0,True,0,3.2723073959350586,0.02993505859375
STABILIZE,3.2601892948150635,29.92895777140329,0.03238514264424642,0.03251218795776367,0.0,0.0,0.0,-0.56896948545746,-1.326802772810764,20.29765564712041,-0.018579479216499814,0.0027654891360408998,-0.013591697917790259,0.4,0.04142515661815084,0.04083816708875848,0.8676004293971332,-0.25468040874690145,6.230479851365089,-0.8013754151761532,-6.153108179569244,0.8521036649995257,121.31919860839844,-73.35923314094543,-224.52433109283447,0.0,0.0,0.0,0.0,0.0,0.0,0.0,0.0,0.0,0.0,0.0,0.0,0.0,0.0,0.0,0.0,True,0,3.3015778064727783,0.0349248046875
STABILIZE,3.293621301651001,29.909962847016708,0.032404216130574544,0.03253579139709473,0.0,0.0,0.0,-0.5897136771012879,-1.302282500412124,20.326531979383933,-0.021975423536754173,0.03035586405383243,-0.012979901735716576,0.4,0.146251873209448,0.027590280498432783,0.7349826756898971,-0.239948479569156,6.230479851365089,-0.8013754151761532,-6.153108179569244,0.8521036649995257,121.31919860839844,-73.35923314094543,-224.52433109283447,0.0,0.0,0.0,0.0,0.0,0.0,0.0,0.0,0.0,0.0,0.0,0.0,0.0,0.0,0.0,0.0,True,0,3.329726457595825,0.0349248046875
STABILIZE,3.327087879180908,29.88140918320094,0.03244927724202474,0.03260493278503418,0.0,0.0,0.0,-0.5781838375346303,-1.2742077548807271,20.319172450553246,0.010422675150627387,-0.008191196814634382,-0.031085765386753304,0.4,0.05499670857245552,-0.03258743071469926,0.6362953500946684,-0.4854732592349723,-5.514711141586304,-3.5758953541517258,-4.049238935112953,-14.716711491397579,-244.78983879089355,-2.8564155101776123,-71.43169641494751,0.0,0.0,0.0,0.0,0.0,0.0,0.0,0.0,0.0,0.0,0.0,0.0,0.0,0.0,0.0,0.0,True,0,3.3585779666900635,0.034925048828125
STABILIZE,3.360607862472534,29.831889500561886,0.032457860310872395,0.03258681297302246,0.0,0.0,0.0,-0.5534725332826416,-1.3260640451633448,20.28270094793267,-0.01286096194454039,0.013139311164843705,-0.026028725281455348,0.4,-0.030965404057525278,0.0054842316235939464,0.5523904188188515,-0.4023566878328282,-5.089454352855682,2.30398066341877,-3.155072033405304,4.921628983349265,-76.75396203994751,96.78284525871277,-128.25069427490234,0.0,0.0,0.0,0.0,0.0,0.0,0.0,0.0,0.0,0.0,0.0,0.0,0.0,0.0,0.0,0.0,True,0,3.387260913848877,0.02993505859375
STABILIZE,3.394012212753296,29.95888630162426,0.03238681157430013,0.03250694274902344,0.0,0.0,0.0,-0.5683339576995314,-1.2945619320507766,20.328463215371755,0.010932563388173003,0.05972130772045435,-0.015357756796291078,0.4,0.12277105514545156,0.013311020847365681,0.6497798677643887,-0.33265533197581343,9.242310374975204,0.4828592762351036,7.579336315393448,3.748205472148836,161.72515153884888,6.001172959804535,182.19332695007324,0.0,0.0,0.0,0.0,0.0,0.0,0.0,0.0,0.0,0.0,0.0,0.0,0.0,0.0,0.0,0.0,True,1,3.415929079055786,0.0349248046875
STABILIZE,3.4291088581085205,28.47437559826478,0.03242066701253255,0.03416752815246582,0.0,0.0,0.0,-0.5660921615478863,-1.3029816343066982,20.282186976197625,0.01598126356351696,0.021219342388970056,-0.0183467983182725,0.4,0.09962421010555327,-0.01641719589692804,0.5982999235992326,-0.36082358731727265,-1.4092177152633667,-1.7669083550572395,-1.4171924442052841,-1.9192468713936173,-8.00269991159439,-32.90422260761261,-139.67446088790894,0.0,0.0,0.0,0.0,0.0,0.0,0.0,0.0,0.0,0.0,0.0,0.0,0.0,0.0,0.0,0.0,True,1,3.444939136505127,0.034925048828125
STABILIZE,3.4625437259674072,29.90697707583158,0.03239324887593587,0.03252100944519043,0.0,0.0,0.0,-0.565599107267176,-1.3016401424650255,20.273347003864338,0.0041842406090060675,-0.018176734845735523,-0.018377391167292725,0.4,0.0748488625157871,0.006657184270381545,0.6282794208539895,-0.35274131969747924,1.1663389392197132,-0.5086622666567564,2.5172585621476173,1.4623059352592949,56.66685700416565,-63.52629065513611,91.44532084465027,0.0,0.0,0.0,0.0,0.0,0.0,0.0,0.0,0.0,0.0,0.0,0.0,0.0,0.0,0.0,0.0,True,0,3.50240421295166,0.02993603515625
STABILIZE,3.4959583282470703,29.92703583991552,0.03241017659505208,0.03252553939819336,0.0,0.0,0.0,-0.567658836188758,-1.290772884608712,20.323352526325294,-0.010877055412681316,0.01252422768381291,-0.009461501665727137,0.4,0.08499488785203058,-0.0016419271544612932,0.6243772617768943,-0.33018273814763865,0.7068393751978874,-0.48425914719700813,1.3528852723538876,0.8027684615725832,24.19663667678833,33.082833886146545,34.765902161598206,0.0,0.0,0.0,0.0,0.0,0.0,0.0,0.0,0.0,0.0,0.0,0.0,0.0,0.0,0.0,0.0,True,0,3.53092622756958,0.0349248046875
STABILIZE,3.529407024383545,29.89866271278264,0.03243378003438314,0.032566070556640625,0.0,0.0,0.0,-0.5616262850477558,-1.3034133236065841,20.298202062254013,-0.006153576876224195,0.03128979397857893,-0.013383097856620148,0.4,0.06407914452388541,0.018891232877579725,0.6099837845785955,-0.34532076911550874,-1.191030815243721,1.2387008406221867,0.5997710861265659,-1.3027626413664348,-23.61229658126831,10.905522108078003,11.164430528879166,0.0,0.0,0.0,0.0,0.0,0.0,0.0,0.0,0.0,0.0,0.0,0.0,0.0,0.0,0.0,0.0,True,0,3.565788507461548,0.034924072265625
STABILIZE,3.5629005432128906,29.855672451347466,0.032433303197224934,0.03256845474243164,0.0,0.0,0.0,-0.5622535952343392,-1.2972146067696804,20.280301843986702,-0.010992758485333438,-0.021757664956624446,-0.016899862095816096,0.4,0.04267829889716793,0.039724328643524445,0.5960013673931582,-0.36019197475282383,-1.191030815243721,1.2387008406221867,0.5997710861265659,-1.3027626413664348,-23.61229658126831,10.905522108078003,11.164430528879166,0.0,0.0,0.0,0.0,0.0,0.0,0.0,0.0,0.0,0.0,0.0,0.0,0.0,0.0,0.0,0.0,True,0,3.594484329223633,0.034924072265625
STABILIZE,3.5962953567504883,29.94498347219545,0.0323975404103597,0.0325169563293457,0.0,0.0,0.0,-0.565651827789832,-1.299124605138051,20.331852696747376,-0.015415093260303494,-0.01812719212915508,-0.013218935909049935,0.4,0.033580622046400846,0.027492287067777708,0.5997375225840768,-0.3214917942138115,-0.44254353269934654,-0.7284421939402819,1.6230665147304535,1.8489985892234477,12.738685309886932,-41.68182611465454,9.384375810623169,0.0,0.0,0.0,0.0,0.0,0.0,0.0,0.0,0.0,0.0,0.0,0.0,0.0,0.0,0.0,0.0,True,0,3.6229028701782227,0.0399140625
STABILIZE,3.6300759315490723,29.60239399243408,0.0324435551961263,0.032891035079956055,0.0,0.0,0.0,-0.5641254939537458,-1.298738272563122,20.307352808194537,-0.012329571081532313,-0.00883750962028939,-0.014223532056191939,0.4,0.03938038094221741,0.0393148356890812,0.6010507802100764,-0.32829048089283125,-0.27643118519335985,1.0159763507544994,1.1614609509706497,-2.1629224077702847,-56.37098550796509,8.679895102977753,-11.761423945426941,0.0,0.0,0.0,0.0,0.0,0.0,0.0,0.0,0.0,0.0,0.0,0.0,0.0,0.0,0.0,0.0,True,0,3.6802780628204346,0.034923828125
STABILIZE,3.663606643676758,29.824889249169814,0.032414944966634114,0.032531023025512695,0.0,0.0,0.0,-0.5636687250530011,-1.2922785144338766,20.291947316521576,-0.02041654282299644,-0.013831201634449484,-0.017378431109018374,0.4,0.033234849114519134,0.05621874300629621,0.5987161565155725,-0.35635173100686,-0.27643118519335985,1.0159763507544994,1.1614609509706497,-2.1629224077702847,-56.37098550796509,8.679895102977753,-11.761423945426941,0.0,0.0,0.0,0.0,0.0,0.0,0.0,0.0,0.0,0.0,0.0,0.0,0.0,0.0,0.0,0.0,True,0,3.7089438438415527,0.034923828125
