Mode,Time,Freq,time2delay,actualDelay,North-Desired,East-Desired,Down-Desired,Roll-UAV,Pitch-UAV,Yaw-UAV,Roll-Control,Pitch-Control,Yaw-Control,Thrust-Control,North-Pos,East-Pos,Down-Pos,Yaw-Ang,North-Vel,East-Vel,Down-Vel,Yaw-Vel,North-Acc,East-Acc,Down-Acc,North-Avg,East-Avg,Down-Avg,Yaw-Avg,North-Dif,East-Dif,Down-Dif,Yaw-Dif,North-One,East-One,Down-One,Yaw-One,North-Two,East-Two,Down-Two,Yaw-Two,Landing-State,Q-Size,Kalman-Time,Kalman-Dt
STABILIZE,0.034288644790649414,29.17208474175465,0.0327179749806722,0.0328519344329834,-10.0,40.0,10.0,1.9209138644379236,-1.2848358493943843,145.6039919714725,4.000780629706314,3.9992192179182613,-0.0022439306658944775,0.5187299895589593,-0.038428713515729705,0.020323121680731065,0.6473379768039564,-0.011182788263173883,0.11433471227064729,0.03251071320846677,1.1721753515303135,0.07897750405328388,6.802797317504883,0.39541726000607014,13.121506571769714,0.0,0.0,0.0,0.0,0.0,0.0,0.0,0.0,0.0,0.0,0.0,0.0,0.0,0.0,0.0,0.0,False,0,3.507146120071411,0.03492236328125
STABILIZE,0.06775021553039551,29.886732221747184,0.032395156224568684,0.032517194747924805,-10.0,40.0,10.0,1.920397971712176,-1.2846260345208178,145.5977764993278,4.001016441439439,3.9989833002066026,-0.0029293704434151776,0.5187558691580759,-0.03946634088491682,0.020552152445967066,0.6469069544476486,-0.014561301631188166,-0.3341672010719776,0.06141545018181205,1.3524116016924381,-0.3181625378962117,-5.5408775806427,0.7343143690377474,26.02629065513611,0.0,0.0,0.0,0.0,0.0,0.0,0.0,0.0,0.0,0.0,0.0,0.0,0.0,0.0,0.0,0.0,False,0,3.564464807510376,0.034921875
STABILIZE,0.1011819839477539,29.91060273269247,0.032387765248616536,0.03252077102661133,-10.0,40.0,10.0,1.9210891014788167,-1.2850772538928619,145.59373302733917,4.000848229820892,3.9991515902674957,-0.002455498200809542,0.5187720521392621,-0.04752492412385662,0.019898038875096134,0.6513266217153125,-0.012151285811658787,-0.5241383798420429,0.004005218215752393,1.5089040622115135,0.108774144276505,-10.413450747728348,-1.365168485790491,21.483738720417023,0.0,0.0,0.0,0.0,0.0,0.0,0.0,0.0,0.0,0.0,0.0,0.0,0.0,0.0,0.0,0.0,False,0,3.5932226181030273,0.0349208984375
STABILIZE,0.13461637496948242,29.90889643172937,0.032413514455159505,0.03257250785827637,-10.0,40.0,10.0,1.9204647794999952,-1.2843736376866448,145.5870257815742,4.0007826812491665,3.9992171655733735,-0.0022751839888386876,0.5187998200553794,-0.047023699023541705,0.020036671612428468,0.6499629583330736,-0.011212180194621559,-0.049328606110066175,0.047788178198970854,1.183578185737133,0.026958703293187437,-1.8770452588796616,0.44683204032480717,14.66577798128128,0.0,0.0,0.0,0.0,0.0,0.0,0.0,0.0,0.0,0.0,0.0,0.0,0.0,0.0,0.0,0.0,False,0,3.621868848800659,0.02993310546875
STABILIZE,0.1682584285736084,29.72954735543868,0.032430442174275716,0.03256082534790039,-10.0,40.0,10.0,1.9196686355748656,-1.2846378806301597,145.58392487569103,4.0007838080965925,3.7137114163612344,-0.002459110948135864,0.5188363411836292,-0.044324882672256746,0.019650629754570666,0.6442258208723599,-0.012091351968819511,0.05734722944907844,0.02315204037586227,1.1086261831223965,-0.07665226486793089,4.535523056983948,-1.3866711407899857,16.244088113307953,0.0,0.0,0.0,0.0,0.0,0.0,0.0,0.0,0.0,0.0,0.0,0.0,0.0,0.0,0.0,0.0,False,0,3.6518890857696533,0.034887451171875
STABILIZE,0.20151543617248535,30.063462710102858,0.03224972089131673,0.03238081932067871,-10.0,40.0,10.0,1.9189728100531707,-1.2845078935925178,145.57583793171372,4.0003909860464875,1.7201986448338658,-0.002653421333990348,0.5188658804712056,-0.04192101987156087,0.019367412770761733,0.6419675441954675,-0.013019387715592126,0.05734722944907844,0.02315204037586227,1.1086261831223965,-0.07665226486793089,4.535523056983948,-1.3866711407899857,16.244088113307953,0.0,0.0,0.0,0.0,0.0,0.0,0.0,0.0,0.0,0.0,0.0,0.0,0.0,0.0,0.0,0.0,False,0,3.6792211532592773,0.034887451171875
STABILIZE,0.23508858680725098,29.787609990980563,0.03245976765950521,0.03258037567138672,-10.0,40.0,10.0,1.918360654348808,-1.2848485492773722,145.57287362961395,4.000353301661524,1.7257301924692825,-0.002402820322477412,0.5188990677467953,-0.04200215533654999,0.018197738666647492,0.63790276131544,-0.011727147930157287,-0.08407848654314876,-0.027197838062420487,1.004608254879713,0.04920086747979017,2.21448577940464,-1.5950724482536316,9.439467638731003,0.0,0.0,0.0,0.0,0.0,0.0,0.0,0.0,0.0,0.0,0.0,0.0,0.0,0.0,0.0,0.0,False,0,3.7084217071533203,0.029932861328125
STABILIZE,0.2684330940246582,29.988874747965852,0.03232434590657552,0.032457590103149414,-10.0,40.0,10.0,1.9184724986964672,-1.2853809838675159,145.56949951616394,4.000450981338503,1.7367849354822207,-0.0030419843511478016,0.518925036991339,-0.03826447644053857,0.017622082944975404,0.637441539584354,-0.014873231818141267,0.02121261932188645,0.0278830761089921,1.3127842918038368,-0.2751332532596305,-4.325605183839798,-1.5107539482414722,15.277384221553802,0.0,0.0,0.0,0.0,0.0,0.0,0.0,0.0,0.0,0.0,0.0,0.0,0.0,0.0,0.0,0.0,False,0,3.765594482421875,0.03492138671875
STABILIZE,0.3018991947174072,29.880131936083664,0.03242352803548177,0.03259134292602539,-10.0,40.0,10.0,1.9178667462944516,-1.2841763092526548,145.5616584589968,4.00051269829671,1.7428433159066996,-0.0034484639584573063,0.518950893462962,-0.03605486887263829,0.017161101923827252,0.6370534745380908,-0.01684921278421856,0.048296782188117504,0.011153521336382255,1.1867881752550602,-0.13594312268061495,2.5722626596689224,-1.444440707564354,16.586123406887054,0.0,0.0,0.0,0.0,0.0,0.0,0.0,0.0,0.0,0.0,0.0,0.0,0.0,0.0,0.0,0.0,False,0,3.7942440509796143,0.0299326171875
STABILIZE,0.3355734348297119,29.698182410377324,0.032470019658406575,0.032591819763183594,-10.0,40.0,10.0,1.9170537403398085,-1.2832151735703872,145.559336194679,4.00044033873238,1.7457139497263352,-0.0029779336966553826,0.5189758134507778,-0.03762829515554461,0.015856170913252244,0.637153251086013,-0.014448108017333067,-0.17750918632373214,-0.03530453541316092,1.3917145319283009,0.11015881171827303,-5.326750874519348,0.5930574610829353,20.535017549991608,0.0,0.0,0.0,0.0,0.0,0.0,0.0,0.0,0.0,0.0,0.0,0.0,0.0,0.0,0.0,0.0,False,0,3.822941303253174,0.034922119140625
STABILIZE,0.3688046932220459,30.091286068902185,0.032228978474934895,0.03234267234802246,-10.0,40.0,10.0,1.9167564136675015,-1.2835582838544746,145.55624894917412,4.000476568554843,1.7484452318509192,-0.003221140052306521,0.5190070111174526,-0.03919726621997472,0.01565078398474928,0.6340482366882543,-0.015612075028545343,-0.1674926606938243,0.024850573390722275,1.0074292309582233,-0.09124599122608128,4.125652462244034,0.3567399689927697,12.86410540342331,0.0,0.0,0.0,0.0,0.0,0.0,0.0,0.0,0.0,0.0,0.0,0.0,0.0,0.0,0.0,0.0,False,0,3.851595640182495,0.034921875
STABILIZE,0.4023559093475342,29.80581434185374,0.03242972691853841,0.032575130462646484,-10.0,40.0,10.0,1.9153184454038021,-1.2841177190361808,145.54843521276365,4.000438762273537,1.7547246034488382,-0.0029728160086426505,0.5190300701981715,-0.03742512774784791,0.016527125809443568,0.6350576997404036,-0.014322512700744975,0.02810660225804895,0.08705092477612197,1.2496559880673885,0.0515046022414282,3.931235522031784,0.62140510417521,21.64454311132431,0.0,0.0,0.0,0.0,0.0,0.0,0.0,0.0,0.0,0.0,0.0,0.0,0.0,0.0,0.0,0.0,False,0,3.8803303241729736,0.02993310546875
STABILIZE,0.4357490539550781,29.945838658318042,0.032347710927327473,0.03246498107910156,-10.0,40.0,10.0,1.9156567532111293,-1.2842664890940403,145.54396826904645,4.000397771586492,1.7592695590175582,-0.002707227441706392,0.5190592259928475,-0.035512329705837946,0.017349625344356332,0.6330060093568457,-0.012951271475196771,0.02810660225804895,0.08705092477612197,1.2496559880673885,0.0515046022414282,3.931235522031784,0.62140510417521,21.64454311132431,0.0,0.0,0.0,0.0,0.0,0.0,0.0,0.0,0.0,0.0,0.0,0.0,0.0,0.0,0.0,0.0,False,0,3.909083366394043,0.02993310546875
STABILIZE,0.4743208885192871,25.92837758476803,0.03239444096883138,0.03767275810241699,-10.0,40.0,10.0,1.9160390303612385,-1.2834783492968442,145.53786207992846,4.000460959983039,1.765235422073557,-0.0031199857180529036,0.5190874660168792,-0.033128811206709144,0.015608072259012527,0.6333414066472608,-0.014957354263235403,-0.12417257530614734,0.009190700075123459,1.2717800214886665,-0.1497099826025839,1.732378825545311,0.48974836245179176,17.706532776355743,0.0,0.0,0.0,0.0,0.0,0.0,0.0,0.0,0.0,0.0,0.0,0.0,0.0,0.0,0.0,0.0,False,0,3.971726894378662,0.034922119140625
STABILIZE,0.5078034400939941,29.860773732397373,0.032404454549153645,0.0325319766998291,-10.0,40.0,10.0,1.9156913310438026,-1.283732880565133,145.53375030604812,4.000404322408469,1.771503633649732,-0.0027519944812631142,0.5191098163762314,-0.03253965844952744,0.016086614502396568,0.6347046313436102,-0.013073640093111124,-0.0374767289031297,0.06195132154971361,1.2390212155878544,0.08816384168268658,2.6543987914919853,0.5917566828429699,19.383443892002106,0.0,0.0,0.0,0.0,0.0,0.0,0.0,0.0,0.0,0.0,0.0,0.0,0.0,0.0,0.0,0.0,False,0,4.000486850738525,0.034922119140625
STABILIZE,0.5412776470184326,29.874811248183708,0.03239587148030599,0.032511234283447266,-10.0,40.0,10.0,1.9135848580150883,-1.2842184643264385,145.52607317342103,4.000432853150469,1.775974265074021,-0.00293874664112607,0.5191413477036609,-0.034421322295970565,0.01613510197798537,0.6314730320293828,-0.013960706147742294,-0.18270944710820913,0.035712949465960264,0.9704574942588806,-0.07739304023807976,-5.9895578771829605,-1.4575246721506119,16.876304149627686,0.0,0.0,0.0,0.0,0.0,0.0,0.0,0.0,0.0,0.0,0.0,0.0,0.0,0.0,0.0,0.0,False,0,4.029387474060059,0.029932861328125
STABILIZE,0.5747435092926025,29.883112349223765,0.03235319455464681,0.03249049186706543,-10.0,40.0,10.0,1.9131882801564044,-1.2836573215974396,145.5232318147263,4.000433160848618,1.7792336094584458,-0.002944944820749214,0.5191736248714125,-0.035800933942275535,0.014673876837931463,0.6278748459858157,-0.013945049017902557,-0.1601708121597767,-0.05095906089991331,1.1325403116643429,-0.027907979525900205,-5.161713436245918,0.5461254622787237,17.61661469936371,0.0,0.0,0.0,0.0,0.0,0.0,0.0,0.0,0.0,0.0,0.0,0.0,0.0,0.0,0.0,0.0,False,0,4.058143615722656,0.034921875
STABILIZE,0.6082038879394531,29.88524157979864,0.03234151204427083,0.032479286193847656,-10.0,40.0,10.0,1.9136604169827816,-1.283276751994623,145.5192703050077,4.00036088730138,1.7836416257947476,-0.0024817239584250974,0.5192006646606226,-0.035564907686355895,0.015209606986494087,0.6269124587428393,-0.011590125298290697,-0.05316489841789007,0.06448547937907279,1.0933281853795052,0.1160995955325164,-0.40289033204317093,0.3433590289205313,9.403420239686966,0.0,0.0,0.0,0.0,0.0,0.0,0.0,0.0,0.0,0.0,0.0,0.0,0.0,0.0,0.0,0.0,False,0,4.087040662765503,0.03492138671875
STABILIZE,0.6418886184692383,29.688932932224386,0.032335551579793294,0.03247690200805664,-10.0,40.0,10.0,1.912458944019094,-1.2839801547574285,145.51298653097126,4.000287258109523,1.7879685286747642,-0.0020105656640309697,0.5192277862168435,-0.03532606310312224,0.015761930047394797,0.6258791041204447,-0.009203585021059375,-0.05316489841789007,0.06448547937907279,1.0933281853795052,0.1160995955325164,-0.40289033204317093,0.3433590289205313,9.403420239686966,0.0,0.0,0.0,0.0,0.0,0.0,0.0,0.0,0.0,0.0,0.0,0.0,0.0,0.0,0.0,0.0,False,0,4.115170240402222,0.03492138671875
STABILIZE,0.6800613403320312,26.194426749603426,0.03208783467610677,0.03727841377258301,-10.0,40.0,10.0,1.9122190336244973,-1.2849790699235428,145.51010419114152,4.0002198668151525,1.7943033415548064,-0.001579222559511603,0.5192615968255255,-0.034117246498066356,0.016434385862932978,0.6234160011584304,-0.007019838885064675,0.004152022302150726,0.07084075477905571,1.0122175328433514,0.10295814481674659,-1.9164584577083588,0.44278912246227264,12.448631227016449,0.0,0.0,0.0,0.0,0.0,0.0,0.0,0.0,0.0,0.0,0.0,0.0,0.0,0.0,0.0,0.0,False,1,4.144170045852661,0.0299326171875
STABILIZE,0.7136406898498535,29.780419054110663,0.03245976765950521,0.03258347511291504,-10.0,40.0,10.0,1.9122591609858712,-1.2851828016598796,145.50308275667476,4.0002850035998145,1.7979346093093493,-0.001997480033262363,0.5192796250887786,-0.0373876938024637,0.015255618558336731,0.626936550550043,-0.009080766778609618,-0.14939422253519297,-0.032595673110336065,1.3511193916201591,-0.20416349233773867,0.3269965760409832,-1.689276471734047,5.816452205181122,0.0,0.0,0.0,0.0,0.0,0.0,0.0,0.0,0.0,0.0,0.0,0.0,0.0,0.0,0.0,0.0,False,0,4.201673269271851,0.034921875
STABILIZE,0.747600793838501,29.446937571962145,0.0323212464650472,0.03303933143615723,-10.0,40.0,10.0,1.9116028224953152,-1.2841657438037826,145.49950373754967,4.000217754942097,1.8033608177708866,-0.0015695403113570405,0.5193095884243123,-0.03812745963200133,0.01596093372595738,0.6247255220073717,-0.006917511247980415,-0.10898549808189273,0.07261633290909231,1.01320780813694,0.10628916270791702,-2.36788559705019,0.5567138083279133,15.229372680187225,0.0,0.0,0.0,0.0,0.0,0.0,0.0,0.0,0.0,0.0,0.0,0.0,0.0,0.0,0.0,0.0,False,0,4.2302775382995605,0.02993310546875
STABILIZE,0.7810313701629639,29.911242645747905,0.03239587148030599,0.03252673149108887,-10.0,40.0,10.0,1.911114677413071,-1.2849294443303545,145.49245498232622,4.000279651258748,1.806574504573769,-0.0019655013161119813,0.5193429967306977,-0.040491940685758225,0.016309404555064893,0.6205676976795867,-0.008867661864529447,-0.21933584939688444,0.05536994431167841,1.0776461102068424,-0.1389969376111247,-8.506889641284943,-1.3386833481490612,18.68814378976822,0.0,0.0,0.0,0.0,0.0,0.0,0.0,0.0,0.0,0.0,0.0,0.0,0.0,0.0,0.0,0.0,False,0,4.259013891220093,0.034921875
STABILIZE,0.8144617080688477,29.913375887030632,0.032433303197224934,0.03257036209106445,-10.0,40.0,10.0,1.9114982352236494,-1.2855718022774532,145.48884864244445,4.000217361782266,1.810564947536412,-0.0015720808915507172,0.5193621180267606,-0.042080825295222425,0.01567799803960955,0.6235518905111792,-0.0068775558699723325,-0.15834207879379392,-0.008299363980768248,1.3131635263562202,0.09835939312281156,-0.23573050275444984,0.5540952086448669,17.99612045288086,0.0,0.0,0.0,0.0,0.0,0.0,0.0,0.0,0.0,0.0,0.0,0.0,0.0,0.0,0.0,0.0,False,0,4.287625074386597,0.034921142578125
STABILIZE,0.8484692573547363,29.405441785791904,0.03246143658955892,0.033125877380371094,-10.0,40.0,10.0,1.9109968566498883,-1.2845396966608407,145.48434071759223,4.000311241228054,1.8141381255889935,-0.002168861338680708,0.5193877037897613,-0.04332267959949559,0.01647159961082173,0.6235089501058843,-0.009828048209775574,-0.13804008485749364,0.07715586107224226,1.1345080099999905,-0.1967650634452926,-1.07658002525568,0.5379605107009411,16.98291152715683,0.0,0.0,0.0,0.0,0.0,0.0,0.0,0.0,0.0,0.0,0.0,0.0,0.0,0.0,0.0,0.0,False,1,4.3180341720581055,0.02993310546875
STABILIZE,0.8819575309753418,29.861836718711064,0.03243759473164876,0.03257417678833008,-10.0,40.0,10.0,1.9121133791357736,-1.284146000288213,145.47673188685684,4.000309498124446,1.824137724638771,-0.0021536488991773946,0.5194401231938025,-0.03803588654050898,0.01662665662437356,0.6098677701424211,-0.009719462699930308,0.08448539301753044,0.0363385071977973,0.814854446798563,-0.01653020004718805,-3.4804746508598328,-1.5474965795874596,11.957183480262756,0.0,0.0,0.0,0.0,0.0,0.0,0.0,0.0,0.0,0.0,0.0,0.0,0.0,0.0,0.0,0.0,False,0,4.37544846534729,0.034921875
STABILIZE,0.9172413349151611,28.343722124611435,0.03240373929341634,0.032692909240722656,-10.0,40.0,10.0,1.9120711173402842,-1.283606842230605,145.47294796205665,4.0002782981850995,1.827609210584288,-0.0019602660919217467,0.5194579264284513,-0.04107969986298966,0.014849223090782683,0.6135852883724616,-0.008723229796264078,-0.2508515026420355,-0.07672631181776524,1.3571586459875107,0.04103622009552626,-0.9639488533139229,0.48237633891403675,17.56288856267929,0.0,0.0,0.0,0.0,0.0,0.0,0.0,0.0,0.0,0.0,0.0,0.0,0.0,0.0,0.0,0.0,False,0,4.404203414916992,0.034921875
STABILIZE,0.9490468502044678,31.438495498939385,0.030723126729329427,0.0308990478515625,-10.0,40.0,10.0,1.9122969404697179,-1.2834170910377256,145.4645741501342,4.000281784869564,1.8337338343996437,-0.001982117013294456,0.5194829140136357,-0.04108382303397536,0.0145637699940902,0.6136621897979373,-0.008803010726462132,-0.06829910562373698,0.01346663775620982,1.1394085362553596,-0.023601478553141052,2.631957456469536,2.4123473092913628,13.593524694442749,0.0,0.0,0.0,0.0,0.0,0.0,0.0,0.0,0.0,0.0,0.0,0.0,0.0,0.0,0.0,0.0,False,0,4.432729959487915,0.03492138671875
STABILIZE,0.9825081825256348,29.88588040814,0.03242543538411458,0.03253746032714844,-10.0,40.0,10.0,1.9116999392475764,-1.2838176175995235,145.46062630079396,4.000152388419453,1.8366940965238154,-0.0011753615620727744,0.5195090283471974,-0.04582807363315432,0.01711103555180297,0.6131625106541838,-0.0047533362203773365,-0.3498351667076349,0.18093421822413802,1.1075292713940144,0.22104179691133932,-6.559567153453827,0.49931746907532215,13.930538296699524,0.0,0.0,0.0,0.0,0.0,0.0,0.0,0.0,0.0,0.0,0.0,0.0,0.0,0.0,0.0,0.0,False,0,4.461463212966919,0.039910888671875
STABILIZE,1.018014669418335,28.162922178204525,0.03239467938741048,0.03462982177734375,-10.0,40.0,10.0,1.9119274699243025,-1.2825681198682342,145.45727950810064,4.000180514101471,1.8445231750723525,-0.0013500099956986994,0.5195222462076045,-0.04261017528228409,0.018389095768678684,0.6198888327529172,-0.0056066516220173186,0.1360650872811675,0.09758106316439807,1.3665612787008286,-0.0715932424672803,1.8169701099395752,0.659977737814188,19.69175487756729,0.0,0.0,0.0,0.0,0.0,0.0,0.0,0.0,0.0,0.0,0.0,0.0,0.0,0.0,0.0,0.0,False,0,4.490994453430176,0.02494384765625
STABILIZE,1.0518074035644531,29.596545203082222,0.032322200139363606,0.03271150588989258,-10.0,40.0,10.0,1.9114265182373642,-1.283019019075161,145.45570856459153,4.000249130115678,1.843510875707133,-0.0017822504646857415,0.5195695105364976,-0.04783435874906304,0.018357877110584876,0.6089196916434991,-0.007741756319576914,-0.2759965369477868,0.02103000588249415,0.9151202626526356,-0.14649245657540544,-7.9351454973220825,0.3914827015250921,13.242091238498688,0.0,0.0,0.0,0.0,0.0,0.0,0.0,0.0,0.0,0.0,0.0,0.0,0.0,0.0,0.0,0.0,False,0,4.549310684204102,0.034921875
STABILIZE,1.0851945877075195,29.9460524624809,0.0323515256245931,0.032509803771972656,-10.0,40.0,10.0,1.9116973779266375,-1.28058181548023,145.45012146985047,4.0002230532428795,1.8481371102648247,-0.0016213650054146874,0.5195873786171076,-0.05073444906822918,0.024817548293254305,0.6125610429932343,-0.006914173495905327,-0.24197769816964865,0.41577559895813465,1.328045129776001,0.03407813496629436,-2.6708444580435753,8.37429091334343,18.267370760440826,0.0,0.0,0.0,0.0,0.0,0.0,0.0,0.0,0.0,0.0,0.0,0.0,0.0,0.0,0.0,0.0,False,0,4.582267761230469,0.034922119140625
STABILIZE,1.1187341213226318,29.818104263381272,0.0324740727742513,0.03265643119812012,-10.0,40.0,10.0,1.9102363577744896,-1.2809305820147237,145.44372841278735,4.000357264177032,1.850845818918739,-0.002457410746528909,0.5196138780667194,-0.05382677432510056,0.018983575660666368,0.6118927084636204,-0.011057356152454536,-0.2537419321015477,-0.3229791997000575,1.0717809200286865,-0.26330710087687076,-4.784452170133591,-17.03169345855713,21.90629690885544,0.0,0.0,0.0,0.0,0.0,0.0,0.0,0.0,0.0,0.0,0.0,0.0,0.0,0.0,0.0,0.0,False,0,4.610821962356567,0.029931884765625
STABILIZE,1.1522047519683838,29.875662430907745,0.03242495854695638,0.03255605697631836,-10.0,40.0,10.0,1.9082150486669889,-1.2829060007887383,145.4534682625438,4.0004900286847125,1.8560957441041692,-0.0032805352023285313,0.5196462623488108,-0.0564895702758998,0.013004199366766868,0.6082692585902986,-0.015122383770936672,-0.2537419321015477,-0.3229791997000575,1.0717809200286865,-0.26330710087687076,-4.784452170133591,-17.03169345855713,21.90629690885544,0.0,0.0,0.0,0.0,0.0,0.0,0.0,0.0,0.0,0.0,0.0,0.0,0.0,0.0,0.0,0.0,False,0,4.642298460006714,0.029931884765625
STABILIZE,1.1856260299682617,29.92020430437357,0.03241017659505208,0.032587528228759766,-10.0,40.0,10.0,1.9083685144799027,-1.2787073554398845,145.42471316613802,4.000562327353785,1.8621761359042954,-0.003726877099082264,0.5196623413473932,-0.052345403904608664,0.01163000201791307,0.6128015164540526,-0.017296183692690648,0.15745500568300486,-0.04819691239390522,1.5527344308793545,-0.15197517748822162,10.114036500453949,10.598579049110413,27.38705277442932,0.0,0.0,0.0,0.0,0.0,0.0,0.0,0.0,0.0,0.0,0.0,0.0,0.0,0.0,0.0,0.0,False,0,4.670310020446777,0.034922119140625
STABILIZE,1.2191951274871826,29.790783567248138,0.032494576772054036,0.0326385498046875,-10.0,40.0,10.0,1.90327276647225,-1.2755346258487077,145.43133844963293,4.000761895831839,1.8709143937216355,-0.004947759104645064,0.5196881129719274,-0.04974834657336522,0.017907510528539845,0.6124868979037593,-0.023322513447453907,0.08315969025716186,0.41394177824258804,1.0663507506251335,-0.37536011615105874,-13.46668004989624,-25.474026799201965,-6.729355454444885,0.0,0.0,0.0,0.0,0.0,0.0,0.0,0.0,0.0,0.0,0.0,0.0,0.0,0.0,0.0,0.0,False,0,4.699089765548706,0.034921875
STABILIZE,1.252622127532959,29.915082699151966,0.032381566365559895,0.03252601623535156,-10.0,40.0,10.0,1.9040900412951243,-1.2748236458447917,145.4326225251969,4.000125319809661,1.8721240842721885,-0.0010528442863854638,0.5197208211855997,-0.059824216300649116,0.007915548010926561,0.608709222744797,-0.0038350998348928925,-0.6849700585007668,-0.5725402850657701,0.8663726970553398,1.1629155853274815,-16.263698041439056,2.10432019084692,-0.729577848687768,0.0,0.0,0.0,0.0,0.0,0.0,0.0,0.0,0.0,0.0,0.0,0.0,0.0,0.0,0.0,0.0,False,0,4.7276856899261475,0.034922119140625
STABILIZE,1.2870774269104004,29.02451750410009,0.0324280579884847,0.0334477424621582,-10.0,40.0,10.0,1.9148603958425883,-1.2769684319658816,145.39527505081526,4.0009180620981395,1.8736383942743904,-0.005917008325970985,0.5197486302133687,-0.06514464201102016,0.01884903597740868,0.607697341111158,-0.028059627761647485,-0.39311135187745094,0.6900148000568151,1.0423658415675163,-1.4762555294219881,14.420856535434723,20.244917273521423,19.697095453739166,0.0,0.0,0.0,0.0,0.0,0.0,0.0,0.0,0.0,0.0,0.0,0.0,0.0,0.0,0.0,0.0,False,1,4.7567033767700195,0.029932861328125
STABILIZE,1.3205063343048096,29.912735882696943,0.032305272420247395,0.03244733810424805,-10.0,40.0,10.0,1.911521927442333,-1.2790800276364733,145.41263739168545,4.000348259012737,1.881028122400023,-0.0024333489969717887,0.5197595500842306,-0.0652867413841978,0.006828752755172091,0.6148071927768604,-0.010605819620682461,-0.0962691439781338,-0.3301952965557575,1.3998902402818203,0.5030696859110614,-7.1684829890728,-22.861215472221375,22.284097969532013,0.0,0.0,0.0,0.0,0.0,0.0,0.0,0.0,0.0,0.0,0.0,0.0,0.0,0.0,0.0,0.0,False,0,4.813806533813477,0.034921142578125
STABILIZE,1.3538925647735596,29.95375144616,0.03233173688252767,0.0324554443359375,-10.0,40.0,10.0,1.911915943980078,-1.28054360910956,145.42691248705077,4.000803576755704,1.8873866772511863,-0.005205152144647685,0.5198012767692949,-0.05863195474393428,-0.0050715970516407635,0.6065012907646297,-0.02438334484842008,0.31458584126085043,-0.6789364386349916,0.5986624862998724,-0.8494101158673077,13.931769132614136,-0.42421091347932816,-14.902719855308533,0.0,0.0,0.0,0.0,0.0,0.0,0.0,0.0,0.0,0.0,0.0,0.0,0.0,0.0,0.0,0.0,False,0,4.842607021331787,0.034921875
STABILIZE,1.3874146938323975,29.831252978286074,0.03240207036336263,0.03252673149108887,-10.0,40.0,10.0,1.911479879090255,-1.2826241487637695,145.40502856095006,4.002091464743738,1.8845651615416756,-0.013073245091771268,0.5198222936253316,-0.06454540405466389,0.008761211309716015,0.6085602688303331,-0.06351133610430254,-0.4444411490112543,0.8611286990344524,1.2303740717470646,-2.3470207653378696,-20.195989310741425,29.783090949058533,21.412858366966248,0.0,0.0,0.0,0.0,0.0,0.0,0.0,0.0,0.0,0.0,0.0,0.0,0.0,0.0,0.0,0.0,False,0,4.871214389801025,0.02993310546875
STABILIZE,1.4208543300628662,29.90505796626121,0.032303841908772786,0.03245210647583008,-10.0,40.0,10.0,1.9092397904859024,-1.2773845398967234,145.4237842604109,4.001685288410327,1.9079480403133697,-0.010517335072486887,0.5198631899358386,-0.04499997594141468,0.00105608107723211,0.6006989137765748,-0.05056251271847695,1.0589615441858768,-0.4390863701701164,0.8086978457868099,0.7309039325292065,17.324364185333252,-39.76690173149109,-18.518969416618347,0.0,0.0,0.0,0.0,0.0,0.0,0.0,0.0,0.0,0.0,0.0,0.0,0.0,0.0,0.0,0.0,False,0,4.899825811386108,0.034921875
STABILIZE,1.4542648792266846,29.92981204241533,0.03235796292622884,0.032494544982910156,-10.0,40.0,10.0,1.9152029725181468,-1.2767340710999855,145.41909875064027,4.001283680134549,1.9288953743917898,-0.008051131412787186,0.5198980839707396,-0.02557933498751581,-0.0067408685212114435,0.5958314927644923,-0.03810406853313923,1.0589615441858768,-0.4390863701701164,0.8086978457868099,0.7309039325292065,17.324364185333252,-39.76690173149109,-18.518969416618347,0.0,0.0,0.0,0.0,0.0,0.0,0.0,0.0,0.0,0.0,0.0,0.0,0.0,0.0,0.0,0.0,False,0,4.928699254989624,0.034921875
STABILIZE,1.487703561782837,29.904631530914898,0.03240326245625814,0.032523155212402344,-10.0,40.0,10.0,1.915658887645245,-1.2913705261610882,145.38261188009406,4.0015592487238205,1.9244076451144652,-0.009738292608952794,0.5199287747035646,-0.03941413843430212,-0.0007283725274723884,0.5930665505795166,-0.04638479199845273,-0.9360592812299728,0.3869022009894252,0.9416901506483555,-0.5250728201571401,-50.02009868621826,35.10389029979706,1.264585368335247,0.0,0.0,0.0,0.0,0.0,0.0,0.0,0.0,0.0,0.0,0.0,0.0,0.0,0.0,0.0,0.0,False,0,4.957526922225952,0.034922119140625
STABILIZE,1.521207332611084,29.847174188406417,0.0324127991994222,0.032691240310668945,-10.0,40.0,10.0,1.904083851436189,-1.2961026733171435,145.46076290457736,4.002917901468942,1.9455665319257482,-0.01767864325334723,0.5199570794392707,-0.005278493644592631,0.03631172005887513,0.5915562944358694,-0.08579832751013981,3.070761263370514,0.4144837614148855,1.2962478213012218,-2.419026540558848,85.73924899101257,50.90628266334534,25.84337592124939,0.0,0.0,0.0,0.0,0.0,0.0,0.0,0.0,0.0,0.0,0.0,0.0,0.0,0.0,0.0,0.0,False,0,5.01495099067688,0.0698427734375
STABILIZE,1.5548264980316162,29.746625910454537,0.03250912030537923,0.03265523910522461,-10.0,40.0,10.0,1.9081294578589523,-1.2951971396435877,145.39822569253673,4.004752100732847,1.9895216667982882,-0.027915879735509835,0.5199379255014216,0.05588032124575302,0.046983503614802094,0.6137047954651303,-0.13652736519098602,3.070761263370514,0.4144837614148855,1.2962478213012218,-2.419026540558848,85.73924899101257,50.90628266334534,25.84337592124939,0.0,0.0,0.0,0.0,0.0,0.0,0.0,0.0,0.0,0.0,0.0,0.0,0.0,0.0,0.0,0.0,False,0,5.043659925460815,0.0698427734375
STABILIZE,1.5882353782653809,29.930666362196185,0.032344849904378255,0.032469987869262695,-10.0,40.0,10.0,1.9022185694625409,-1.2942464626884866,145.37205240763723,4.005489174669244,2.001746468867088,-0.03205270305220272,0.5199440143761512,0.0835097919950745,0.08867397440054842,0.6232018220862926,-0.15668755790214406,0.816130917519331,1.9193584099411964,0.7358819246292114,-0.5104560018899013,-26.44602358341217,24.667535722255707,16.7770117521286,0.0,0.0,0.0,0.0,0.0,0.0,0.0,0.0,0.0,0.0,0.0,0.0,0.0,0.0,0.0,0.0,False,0,5.072177410125732,0.02993310546875
STABILIZE,1.6216456890106201,29.930879949762012,0.03239491780598958,0.032509565353393555,-10.0,40.0,10.0,1.8795950619407547,-1.3080222071924619,145.429453317422,4.003440416137961,1.9804706911219456,-0.02065332590856073,0.5199772987350575,0.051080099640273796,0.03858272836469432,0.6191057799053987,-0.09935846373558721,-1.5735538676381111,-2.4217287078499794,1.2364624068140984,2.6535709677888546,-60.67747473716736,-93.11259984970093,24.68448430299759,0.0,0.0,0.0,0.0,0.0,0.0,0.0,0.0,0.0,0.0,0.0,0.0,0.0,0.0,0.0,0.0,False,0,5.100775480270386,0.034921875
STABILIZE,1.655141830444336,29.85503491376549,0.03242185910542806,0.032552242279052734,-10.0,40.0,10.0,1.8717610484061615,-1.3191340711984263,145.40520614586848,4.001517119961306,1.9759545994080134,-0.00960244930962189,0.5200040496762013,0.020176196193052838,-0.010141625332184614,0.6182838088923536,-0.043957035516245184,-1.5735538676381111,-2.4217287078499794,1.2364624068140984,2.6535709677888546,-60.67747473716736,-93.11259984970093,24.68448430299759,0.0,0.0,0.0,0.0,0.0,0.0,0.0,0.0,0.0,0.0,0.0,0.0,0.0,0.0,0.0,0.0,False,0,5.129734992980957,0.034921875
STABILIZE,1.6884982585906982,29.978371965034913,0.03237584431966146,0.03247690200805664,-10.0,40.0,10.0,1.871007806606756,-1.3143151592955709,145.36863731305223,4.002465734887434,1.9738520402291229,-0.015155503023925342,0.5200303119779797,0.03720350317590593,-0.0035300932411082633,0.617692453624973,-0.07148345349245144,0.8901038207113743,0.40617738850414753,1.2340209446847439,-1.5912801839132342,49.86526966094971,55.17747402191162,9.081538766622543,0.0,0.0,0.0,0.0,0.0,0.0,0.0,0.0,0.0,0.0,0.0,0.0,0.0,0.0,0.0,0.0,False,1,5.158324480056763,0.034922119140625
STABILIZE,1.7220044136047363,29.845687489771088,0.03231623967488607,0.03245043754577637,-10.0,40.0,10.0,1.8655701222537797,-1.3182487079272636,145.43648841226712,3.99986154423834,1.9902393320019125,-5.8905204399841826e-05,0.5200398695248184,0.09162963107809823,-0.08531903191589613,0.6254615984135148,0.003986196689732775,1.2547248043119907,-1.849633827805519,1.0315466672182083,1.6666209057181771,-18.134599924087524,-53.03642749786377,38.13171684741974,0.0,0.0,0.0,0.0,0.0,0.0,0.0,0.0,0.0,0.0,0.0,0.0,0.0,0.0,0.0,0.0,False,0,5.215514421463013,0.06485498046875
STABILIZE,1.7555522918701172,29.808568098473433,0.032390864690144856,0.03253340721130371,-10.0,40.0,10.0,1.8732227088885443,-1.3205300978317536,145.3932396544426,4.000406056386361,1.9760055464806607,-0.0032183203529637305,0.5200538957893897,0.08394676518676795,-0.06081225097027599,0.6309964812185077,-0.011771464904356078,-0.5830220878124237,1.476504746824503,0.8412082679569721,-1.0679215277943557,-36.56718730926514,88.94694447517395,3.0503161251544952,0.0,0.0,0.0,0.0,0.0,0.0,0.0,0.0,0.0,0.0,0.0,0.0,0.0,0.0,0.0,0.0,False,0,5.244344711303711,0.0349208984375
STABILIZE,1.7891147136688232,29.79416946070353,0.03228453000386556,0.03265380859375,-10.0,40.0,10.0,1.8729608138225566,-1.3173624908824544,145.38124584226006,4.001152019817,1.98513968183694,-0.007532511800107313,0.5201032025506666,0.06849794918477105,-0.02709790018216423,0.6189736900122332,-0.03323056826330651,-0.5830220878124237,1.476504746824503,0.8412082679569721,-1.0679215277943557,-36.56718730926514,88.94694447517395,3.0503161251544952,0.0,0.0,0.0,0.0,0.0,0.0,0.0,0.0,0.0,0.0,0.0,0.0,0.0,0.0,0.0,0.0,False,0,5.272994518280029,0.0349208984375
STABILIZE,1.8225934505462646,29.869705170203673,0.032442363103230794,0.03257870674133301,-10.0,40.0,10.0,1.8836692697806672,-1.3061415572931812,145.39683233394604,4.000318995656901,1.9924709088407984,-0.002726859617331233,0.5201251693256372,0.04662697191928431,-0.06726503090223887,0.6205470351652362,-0.009171611137889828,-0.9058183059096336,-1.9317053258419037,1.441689394414425,1.033434088405963,-38.959676027297974,12.605170905590057,21.035125851631165,0.0,0.0,0.0,0.0,0.0,0.0,0.0,0.0,0.0,0.0,0.0,0.0,0.0,0.0,0.0,0.0,False,0,5.301637887954712,0.064855224609375
STABILIZE,1.8561389446258545,29.810474843460153,0.03238991101582845,0.03252434730529785,-10.0,40.0,10.0,1.8910522773866278,-1.291588451884294,145.41494599562492,4.000444667685337,1.9755705510898929,-0.003479842739497356,0.5201464724782443,0.025766441783237108,-0.03336663738191796,0.62244848333143,-0.01289337825403271,-0.861677061766386,1.6296878457069397,0.7300509605556726,-0.33649431206127633,-20.523586869239807,45.59640288352966,9.37688797712326,0.0,0.0,0.0,0.0,0.0,0.0,0.0,0.0,0.0,0.0,0.0,0.0,0.0,0.0,0.0,0.0,False,0,5.330482244491577,0.034921875
STABILIZE,1.8895177841186523,29.95910029214077,0.03232434590657552,0.032453298568725586,-10.0,40.0,10.0,1.9018194302829183,-1.323771342758042,145.41903044874857,4.000474934477314,1.913886460224655,-0.0037535448472561404,0.5202020217237676,-0.03677560488204497,-0.040294957279169756,0.6072342625978528,-0.014214368661388855,-2.7358951047062874,-0.39045943412929773,0.7240572478622198,-0.11958812799131364,-75.46859979629517,-33.16168487071991,3.045642375946045,0.0,0.0,0.0,0.0,0.0,0.0,0.0,0.0,0.0,0.0,0.0,0.0,0.0,0.0,0.0,0.0,False,1,5.3590333461761475,0.02993310546875
STABILIZE,1.923048496246338,29.82425302558414,0.032396586736043294,0.03255057334899902,-10.0,40.0,10.0,1.9076865627799593,-1.2887035507336098,145.3214680266441,4.003672112338698,1.8830647268718086,-0.02328539436851666,0.5203691088332915,-0.08720958941073072,-0.012967466848422572,0.5363644718994944,-0.11150031135887031,0.2671129070222378,1.5320749022066593,-1.1839249171316624,-4.704323099810724,91.98183417320251,92.02532768249512,-139.42948579788208,0.0,0.0,0.0,0.0,0.0,0.0,0.0,0.0,0.0,0.0,0.0,0.0,0.0,0.0,0.0,0.0,False,0,5.417393684387207,0.0349208984375
STABILIZE,1.956434965133667,29.950970800991154,0.032343180974324544,0.03248286247253418,-10.0,40.0,10.0,1.91438676491233,-1.2795389309713336,145.32936372532464,3.9990178445495332,1.8864126307722222,0.005004112256209791,0.5204160498555962,-0.11625129063845449,-0.03847414495323281,0.5255724192401368,0.029847369127917023,-1.4336183667182922,-1.3220521621406078,0.7476592436432838,6.861575596796252,-115.85198640823364,-86.0321044921875,-95.71165442466736,0.0,0.0,0.0,0.0,0.0,0.0,0.0,0.0,0.0,0.0,0.0,0.0,0.0,0.0,0.0,0.0,False,0,5.446046352386475,0.034922119140625
STABILIZE,1.9899349212646484,29.85206009836089,0.032416375478108723,0.03254342079162598,-10.0,40.0,10.0,1.9205130177110084,-1.2891841185747437,145.3024527799948,3.994476545442459,1.8932571331809143,0.032681730485789096,0.5204615408954187,-0.14427786539886328,-0.06338156587438243,0.5155170047219726,0.16767459462856435,-1.4336183667182922,-1.3220521621406078,0.7476592436432838,6.861575596796252,-115.85198640823364,-86.0321044921875,-95.71165442466736,0.0,0.0,0.0,0.0,0.0,0.0,0.0,0.0,0.0,0.0,0.0,0.0,0.0,0.0,0.0,0.0,False,0,5.474912643432617,0.034922119140625
STABILIZE,2.023397207260132,29.883538171066224,0.03236440022786458,0.03251528739929199,-10.0,40.0,10.0,1.9178451885098837,-1.2841418381416874,145.27249557029512,3.9919637789812845,1.8629725472106986,0.04897462600929304,0.5204247587946081,-0.2226502430369123,-0.013384914783687134,0.5465648230778354,0.24830795211056575,-4.042742773890495,2.45638657361269,2.802741155028343,4.128127487654802,-50.47667622566223,113.28741312026978,21.941258013248444,0.0,0.0,0.0,0.0,0.0,0.0,0.0,0.0,0.0,0.0,0.0,0.0,0.0,0.0,0.0,0.0,False,0,5.503660202026367,0.06485498046875
STABILIZE,2.056856870651245,29.887584083912895,0.032377036412556966,0.032526254653930664,-10.0,40.0,10.0,1.9149891022197607,-1.2852032922273897,145.3350464427141,3.9943844445359824,1.92335812681069,0.032984321073534675,0.5204252396525252,-0.1746094532744199,-0.0374887212465365,0.5589642908846344,0.16779480762873233,3.11747994273901,-1.2695224955677986,1.1772215366363525,-4.861271882314331,1.995299756526947,-118.66847276687622,77.72356271743774,0.0,0.0,0.0,0.0,0.0,0.0,0.0,0.0,0.0,0.0,0.0,0.0,0.0,0.0,0.0,0.0,False,0,5.532247304916382,0.034921875
STABILIZE,2.0902352333068848,29.957174487536605,0.03237489064534505,0.03249549865722656,-10.0,40.0,10.0,1.9206398030974767,-1.28578033649055,145.28171632567464,3.992699280701711,1.9563160097520265,0.04249716069188944,0.5204337470891659,-0.17358642766870616,-0.05293843785667547,0.5673229962637684,0.21464151329811706,-0.18005118472501636,-0.8221812546253204,1.6763988882303238,2.4971803398064845,-44.82201039791107,81.75339102745056,31.835341453552246,0.0,0.0,0.0,0.0,0.0,0.0,0.0,0.0,0.0,0.0,0.0,0.0,0.0,0.0,0.0,0.0,False,1,5.5609331130981445,0.034922119140625
STABILIZE,2.12368106842041,29.900367846245974,0.032462390263875325,0.03257942199707031,-10.0,40.0,10.0,1.9152098027073168,-1.2870242846931386,145.29847760989784,3.9922769022239306,1.9522752622686605,0.04523785916967434,0.5204420595108143,-0.21019987665363124,-0.04188763859141316,0.5757725847767226,0.2275839677516667,-2.138974890112877,1.2219928205013275,1.2358284555375576,-1.3454957199086195,19.58993971347809,-11.55371442437172,42.24013388156891,0.0,0.0,0.0,0.0,0.0,0.0,0.0,0.0,0.0,0.0,0.0,0.0,0.0,0.0,0.0,0.0,False,0,5.618372678756714,0.029931884765625
STABILIZE,2.157160997390747,29.869492454832255,0.03243592580159505,0.032568931579589844,-10.0,40.0,10.0,1.9139906139404694,-1.2869618524952564,145.32810697051735,3.9934458041012113,1.9461123633505386,0.038577617324917095,0.5204724956548519,-0.24429560038237255,-0.016431984754473924,0.5731718818937064,0.1936348305863601,-2.138974890112877,1.2219928205013275,1.2358284555375576,-1.3454957199086195,19.58993971347809,-11.55371442437172,42.24013388156891,0.0,0.0,0.0,0.0,0.0,0.0,0.0,0.0,0.0,0.0,0.0,0.0,0.0,0.0,0.0,0.0,False,0,5.6494035720825195,0.029931884765625
STABILIZE,2.190659999847412,29.850997807953995,0.03241899808247884,0.03255271911621094,-10.0,40.0,10.0,1.9227183150392764,-1.2839946689094148,145.25487368223648,3.993294807269602,1.9685224122234815,0.03914978377157031,0.5204983276333992,-0.27527835161659375,-0.0009007144207051013,0.5728696206329638,0.19584056431331176,-2.0542507991194725,0.7607724983245134,1.3305583968758583,0.4809083900970145,-44.06435191631317,-41.40007197856903,19.52633559703827,0.0,0.0,0.0,0.0,0.0,0.0,0.0,0.0,0.0,0.0,0.0,0.0,0.0,0.0,0.0,0.0,False,0,5.6784656047821045,0.029849365234375
STABILIZE,2.224092483520508,29.91209590574878,0.032340319951375325,0.032460927963256836,-10.0,40.0,10.0,1.9160751022977927,-1.2859081890940762,145.29629194936345,3.992491019045697,1.9623014926831095,0.04415087714967203,0.5205226306680244,-0.2595994975068818,-0.03842818568707447,0.5733287896610013,0.22010989202307582,0.40583014488220215,-2.0799269899725914,1.353464089334011,1.680698672649514,50.61601400375366,-28.95224392414093,27.34755575656891,0.0,0.0,0.0,0.0,0.0,0.0,0.0,0.0,0.0,0.0,0.0,0.0,0.0,0.0,0.0,0.0,False,0,5.710088014602661,0.034922119140625
STABILIZE,2.2575314044952393,29.90505796626121,0.03238061269124349,0.032511234283447266,-10.0,40.0,10.0,1.91469540408545,-1.288368444577456,145.30637330857837,3.9915529969077874,1.9766632951532246,0.04947581308991195,0.5205400871292375,-0.24701318584734458,-0.07531130544122529,0.5772056098005433,0.2459121682969841,0.40583014488220215,-2.0799269899725914,1.353464089334011,1.680698672649514,50.61601400375366,-28.95224392414093,27.34755575656891,0.0,0.0,0.0,0.0,0.0,0.0,0.0,0.0,0.0,0.0,0.0,0.0,0.0,0.0,0.0,0.0,False,0,5.7387309074401855,0.034922119140625
STABILIZE,2.292288064956665,28.771858579483872,0.03239420255025228,0.03378176689147949,-10.0,40.0,10.0,1.9216604894915705,-1.284394555140978,145.23260726554224,3.9931467599284596,2.0189560772624544,0.039457846378212404,0.5205717599337998,-0.21022506639260194,-0.04524826534754738,0.5744521960740561,0.19514516403163845,1.722247153520584,1.5852369368076324,0.9833949618041515,-2.505328542042898,3.3698275685310364,54.76928949356079,11.85096725821495,0.0,0.0,0.0,0.0,0.0,0.0,0.0,0.0,0.0,0.0,0.0,0.0,0.0,0.0,0.0,0.0,False,0,5.76738166809082,0.034921875
STABILIZE,2.326930046081543,28.86631200060564,0.03234532674153646,0.033735036849975586,-10.0,40.0,10.0,1.9156926117042719,-1.28521972737008,145.27786409898275,3.99291129146364,2.0137827980016776,0.041048475835213566,0.5205979991673371,-0.25310283225884095,-0.053191085321620646,0.5744177729850881,0.20239586423705758,-2.6889460161328316,-0.5138959735631943,1.1271138675510883,0.7036648179540782,-72.27833271026611,-50.909578800201416,16.024361550807953,0.0,0.0,0.0,0.0,0.0,0.0,0.0,0.0,0.0,0.0,0.0,0.0,0.0,0.0,0.0,0.0,False,1,5.796245813369751,0.02993310546875
STABILIZE,2.3605141639709473,29.774499712498848,0.03242305119832357,0.032715797424316406,-10.0,40.0,10.0,1.9199604127184722,-1.2860223813192624,145.23462900153658,3.9935495036560336,2.0602959060361945,0.03667685499936692,0.5206330315594715,-0.2092599588948995,-0.047965797689265406,0.5695808614998683,0.1799329563038373,1.8006648868322372,0.7897727191448212,1.2261614203453064,-2.234928823321498,24.134984612464905,12.349259108304977,12.650935351848602,0.0,0.0,0.0,0.0,0.0,0.0,0.0,0.0,0.0,0.0,0.0,0.0,0.0,0.0,0.0,0.0,False,0,5.854310512542725,0.034922119140625
STABILIZE,2.394040107727051,29.82870716078883,0.03245547612508138,0.03259754180908203,-10.0,40.0,10.0,1.9211958231845983,-1.2818719741814217,145.23189692586857,3.992705093013266,2.044780275184938,0.04185248899657269,0.5206586768185802,-0.23191064952783547,-0.0665771604846257,0.5693871422664272,0.20512440059694018,-1.6310254111886024,-1.13784559071064,1.0850497521460056,1.7526698700378192,-61.56640648841858,-38.82705569267273,11.765813082456589,0.0,0.0,0.0,0.0,0.0,0.0,0.0,0.0,0.0,0.0,0.0,0.0,0.0,0.0,0.0,0.0,False,0,5.88212513923645,0.029932861328125
STABILIZE,2.427483081817627,29.90079416000114,0.03239467938741048,0.03252220153808594,-10.0,40.0,10.0,1.9165952638917714,-1.2845386294437828,145.25622605969215,3.99192732876193,2.0319502402869025,0.046685506162884784,0.5206900551984224,-0.25248698616878523,-0.08433342116213445,0.5663290685585228,0.22852453501660347,-1.6310254111886024,-1.13784559071064,1.0850497521460056,1.7526698700378192,-61.56640648841858,-38.82705569267273,11.765813082456589,0.0,0.0,0.0,0.0,0.0,0.0,0.0,0.0,0.0,0.0,0.0,0.0,0.0,0.0,0.0,0.0,False,0,5.9114274978637695,0.029932861328125
STABILIZE,2.460942506790161,29.886732221747184,0.03239897092183431,0.03253626823425293,-10.0,40.0,10.0,1.9183092144866216,-1.2872583253939174,145.22923315209226,3.992237830597641,2.0144900344014354,0.04545281340911467,0.5207315697810395,-0.2600421115220459,-0.06893446049354364,0.5581964041073549,0.22162025066715624,-0.897061824798584,0.7778300903737545,0.765881035476923,0.009761194097594473,9.32224839925766,43.720704317092896,9.033598750829697,0.0,0.0,0.0,0.0,0.0,0.0,0.0,0.0,0.0,0.0,0.0,0.0,0.0,0.0,0.0,0.0,False,0,5.940211772918701,0.034922119140625
STABILIZE,2.4944043159484863,29.88651926379319,0.03239420255025228,0.03251957893371582,-10.0,40.0,10.0,1.9188016284370972,-1.2829221157663113,145.23032598235946,3.992658478481648,2.0500896561646207,0.04244676990212337,0.5207506012613966,-0.24148440121756734,-0.07184101441575647,0.5613082410878034,0.2059013689903673,0.748354010283947,-0.2543314127251506,1.2361446395516396,-0.6060241688392783,-7.120876759290695,-47.904837131500244,19.56363171339035,0.0,0.0,0.0,0.0,0.0,0.0,0.0,0.0,0.0,0.0,0.0,0.0,0.0,0.0,0.0,0.0,False,0,5.968842267990112,0.034921875
STABILIZE,2.5277881622314453,29.954821062554903,0.03233483632405599,0.03244757652282715,-10.0,40.0,10.0,1.9178829679937304,-1.2835919011917956,145.2291785105789,3.9924222537889156,2.0262041897122502,0.04442524181480294,0.5207753135960896,-0.25465180228150636,-0.09074397069112153,0.5615714677092856,0.2150748286896208,-1.1334942653775215,-1.1957749724388123,1.0670378804206848,0.8690211364391482,-49.838751554489136,-10.872302949428558,14.139589667320251,0.0,0.0,0.0,0.0,0.0,0.0,0.0,0.0,0.0,0.0,0.0,0.0,0.0,0.0,0.0,0.0,False,1,5.997568845748901,0.02993310546875
STABILIZE,2.561311721801758,29.828495028944488,0.032430203755696614,0.032572031021118164,-10.0,40.0,10.0,1.9182569208507887,-1.2884145483543537,145.22751194442142,3.993330072428585,2.0338176525525493,0.03923876549830822,0.5208087963560352,-0.26429632444521284,-0.05450819628192025,0.5574740508445686,0.18851138424307762,-0.7062010932713747,0.9571380913257599,1.0052680969238281,-0.40984993009740506,19.48580890893936,-4.458144307136536,21.531115472316742,0.0,0.0,0.0,0.0,0.0,0.0,0.0,0.0,0.0,0.0,0.0,0.0,0.0,0.0,0.0,0.0,False,0,6.054907560348511,0.034921875
STABILIZE,2.5947470664978027,29.90804335424986,0.03237131436665853,0.03250384330749512,-10.0,40.0,10.0,1.9194522039555408,-1.2846136548029472,145.22264884973237,3.9934115273374666,2.0563495184747267,0.03848940048540792,0.5208258646993781,-0.25178811340497226,-0.07117680646161127,0.5615661211954512,0.18414869799365333,0.36191241815686226,-1.0955690406262875,1.2767568230628967,0.0896172045524448,16.658012568950653,-37.577566504478455,24.55115020275116,0.0,0.0,0.0,0.0,0.0,0.0,0.0,0.0,0.0,0.0,0.0,0.0,0.0,0.0,0.0,0.0,False,0,6.083545923233032,0.034922119140625
STABILIZE,2.6281914710998535,29.901220485913083,0.03239014943440755,0.03251242637634277,-10.0,40.0,10.0,1.9196534810926447,-1.2866667669787708,145.2063793391294,3.9938062967559405,2.0670126172571317,0.03621167010184083,0.5208531539978931,-0.2471796180839878,-0.0651962651728363,0.5605494341174037,0.1721841822249865,-0.12487691128626466,0.25118766352534294,0.9737761691212654,-0.356382835748575,-32.6674610376358,44.37287449836731,20.491594076156616,0.0,0.0,0.0,0.0,0.0,0.0,0.0,0.0,0.0,0.0,0.0,0.0,0.0,0.0,0.0,0.0,False,0,6.1123480796813965,0.02993212890625
STABILIZE,2.6616451740264893,29.890352971358936,0.03238681157430013,0.0325009822845459,-10.0,40.0,10.0,1.9182125246211834,-1.2888864717373192,145.22274447238075,3.993892006776906,2.074220501918084,0.03572816742499285,0.5208767225021815,-0.2296141699414951,-0.08251114792098117,0.5613831175100862,0.169201180904326,0.554482638835907,-1.1654161848127842,1.2540156953036785,0.21796654425818074,35.932719707489014,-13.970795273780823,16.989880800247192,0.0,0.0,0.0,0.0,0.0,0.0,0.0,0.0,0.0,0.0,0.0,0.0,0.0,0.0,0.0,0.0,False,0,6.140981435775757,0.06984375
STABILIZE,2.6950981616973877,29.893761537200568,0.032382996877034505,0.03250885009765625,-10.0,40.0,10.0,1.920206512972004,-1.2859783052547746,145.20896115063567,3.993755395962119,2.0917330812236385,0.03631070775390621,0.5208538632993008,-0.2201443621783193,-0.10646409997768229,0.585414868618543,0.17153983424113817,0.554482638835907,-1.1654161848127842,1.2540156953036785,0.21796654425818074,35.932719707489014,-13.970795273780823,16.989880800247192,0.0,0.0,0.0,0.0,0.0,0.0,0.0,0.0,0.0,0.0,0.0,0.0,0.0,0.0,0.0,0.0,False,0,6.169647693634033,0.06984375
STABILIZE,2.728573799133301,29.873321795118336,0.032366307576497395,0.03258085250854492,-10.0,40.0,10.0,1.9214237807481473,-1.2844489832109265,145.19482265905373,3.9947058972556135,2.1066873546518403,0.030965316143294237,0.5208398405779789,-0.20883839945796012,-0.09890589009536356,0.6050232765837339,0.1443290750464531,0.393518665805459,0.565602071583271,1.1186120100319386,-1.2095843469354746,-15.37572592496872,31.1545729637146,24.38606023788452,0.0,0.0,0.0,0.0,0.0,0.0,0.0,0.0,0.0,0.0,0.0,0.0,0.0,0.0,0.0,0.0,False,1,6.1983959674835205,0.02990283203125
STABILIZE,2.7620887756347656,29.837407165011523,0.03243282636006673,0.03256988525390625,-10.0,40.0,10.0,1.919945258236251,-1.2865549226311117,145.21258115089577,3.994765876578047,2.1033670549329844,0.030778424963441325,0.5208929302028238,-0.2121572882542309,-0.09966775557206346,0.5910733983721701,0.14291634409315593,0.2059505321085453,-0.4202096723020077,0.9190123528242111,-0.5115717773238463,29.862144589424133,7.845001667737961,17.904405295848846,0.0,0.0,0.0,0.0,0.0,0.0,0.0,0.0,0.0,0.0,0.0,0.0,0.0,0.0,0.0,0.0,False,0,6.255587816238403,0.034921875
STABILIZE,2.795436143875122,29.986516339822554,0.032367976506551106,0.03251075744628906,-10.0,40.0,10.0,1.9241078316485507,-1.2836859230145892,145.16851277037085,3.994886967303576,2.1154060947488293,0.030048853123498358,0.5209166061564268,-0.19733115607515117,-0.09217981457031384,0.5918244156737184,0.1388041534580576,0.29304088093340397,0.20820510108023882,1.246904768049717,0.1503676017536092,-34.09317135810852,-19.950634241104126,8.183524012565613,0.0,0.0,0.0,0.0,0.0,0.0,0.0,0.0,0.0,0.0,0.0,0.0,0.0,0.0,0.0,0.0,False,0,6.28468132019043,0.039909912109375
STABILIZE,2.8326141834259033,26.90035915854284,0.032500537236531575,0.0361323356628418,-10.0,40.0,10.0,1.9221001829193902,-1.2835941423476172,145.18538333762078,3.9950092531773045,2.1207130582748097,0.029415161579908377,0.5209366677413682,-0.1831841442699308,-0.08513432125069369,0.5956905438861859,0.13513646166610727,0.29304088093340397,0.20820510108023882,1.246904768049717,0.1503676017536092,-34.09317135810852,-19.950634241104126,8.183524012565613,0.0,0.0,0.0,0.0,0.0,0.0,0.0,0.0,0.0,0.0,0.0,0.0,0.0,0.0,0.0,0.0,False,0,6.320777177810669,0.039909912109375
STABILIZE,2.865963935852051,29.981157700610446,0.032257827123006184,0.03251934051513672,-10.0,40.0,10.0,1.9221680579242673,-1.2869241797331157,145.1705345063652,3.994308988748869,2.111346219878986,0.03345854233190989,0.52096453493573,-0.20042968064260552,-0.0937124361256574,0.5943908543756667,0.1548334227151767,-1.307407207787037,-0.5960769020020962,0.9885497391223907,1.3303211740069667,-30.48240840435028,-23.671837151050568,13.711588084697723,0.0,0.0,0.0,0.0,0.0,0.0,0.0,0.0,0.0,0.0,0.0,0.0,0.0,0.0,0.0,0.0,False,0,6.349573612213135,0.0249453125
STABILIZE,2.8995206356048584,29.800943557096573,0.032496007283528645,0.03265261650085449,-10.0,40.0,10.0,1.9237846783234445,-1.2846957237946932,145.1576391092122,3.993693164644445,2.102506579070279,0.037079615019175935,0.5210097041448191,-0.21522453456068105,-0.10052726028942634,0.5844225683038877,0.17236140087121704,-1.307407207787037,-0.5960769020020962,0.9885497391223907,1.3303211740069667,-30.48240840435028,-23.671837151050568,13.711588084697723,0.0,0.0,0.0,0.0,0.0,0.0,0.0,0.0,0.0,0.0,0.0,0.0,0.0,0.0,0.0,0.0,False,0,6.3782665729522705,0.0249453125
STABILIZE,2.9329328536987305,29.92895777140329,0.03242972691853841,0.032540321350097656,-10.0,40.0,10.0,1.9223050885944906,-1.2837233823333185,145.17307533673642,3.9947086166299677,2.1120929383189053,0.031480292645985945,0.5210567406520006,-0.20740108570597302,-0.0888647705240832,0.5735090962701828,0.1438837977597235,-0.11725666699931026,0.3948940895497799,0.882259476929903,-1.1312159303375118,18.649233877658844,21.720901131629944,17.817021906375885,0.0,0.0,0.0,0.0,0.0,0.0,0.0,0.0,0.0,0.0,0.0,0.0,0.0,0.0,0.0,0.0,False,0,6.407205581665039,0.0349208984375
STABILIZE,2.9666213989257812,29.685570913929407,0.032453330357869466,0.0328059196472168,-10.0,40.0,10.0,1.9232021912532895,-1.286362396673882,145.15492069392252,3.995056647984617,2.0993214250410355,0.02983861665494047,0.5210549561776523,-0.222913842881642,-0.08671777087415923,0.5870731680516629,0.13522032831253447,-0.2015929203480482,0.4785788245499134,1.0423717088997364,-0.8121638136627588,18.11521351337433,-5.679813399910927,8.516864478588104,0.0,0.0,0.0,0.0,0.0,0.0,0.0,0.0,0.0,0.0,0.0,0.0,0.0,0.0,0.0,0.0,False,0,6.464287996292114,0.034922119140625
STABILIZE,3.0001208782196045,29.851210259987045,0.032395156224568684,0.03252410888671875,-10.0,40.0,10.0,1.9248647019859528,-1.2847340368870688,145.1492106557764,3.9947796522810974,2.113177264485557,0.031264429356975064,0.5210984670549773,-0.20038437114978516,-0.09606183826301037,0.5779339363752446,0.1418744647733923,0.7069159764796495,-0.6711923517286777,0.7433755788952112,0.6728855843156207,4.1146934032440186,-15.637528896331787,0.523681752383709,0.0,0.0,0.0,0.0,0.0,0.0,0.0,0.0,0.0,0.0,0.0,0.0,0.0,0.0,0.0,0.0,False,0,6.493013858795166,0.039910888671875
STABILIZE,3.033534049987793,29.92703583991552,0.03237608273824056,0.03254365921020508,-10.0,40.0,10.0,1.9231025131800896,-1.284746630048351,145.15373224100694,3.994749881167155,2.124852607648718,0.03136408305392514,0.5211201059254931,-0.2026405129280968,-0.08864113502618824,0.5797267802156627,0.14189778565461938,-0.5255230702459812,0.2190228085964918,1.1560449376702309,0.29831758334529834,-21.784277260303497,25.680431723594666,10.45280545949936,0.0,0.0,0.0,0.0,0.0,0.0,0.0,0.0,0.0,0.0,0.0,0.0,0.0,0.0,0.0,0.0,False,0,6.521812438964844,0.02494384765625
STABILIZE,3.0670714378356934,29.816196542311193,0.03246286710103353,0.03261137008666992,-10.0,40.0,10.0,1.9238529802151447,-1.2864375287547523,145.14038605136872,3.995122423193713,2.13406388375841,0.029319534088978062,0.5211583639432718,-0.2057746821975411,-0.08061249449095204,0.5732224446482292,0.13123565228259718,-0.696735642850399,0.19822216127067804,1.1444224044680595,-0.1942869720968341,1.7597537487745285,-17.16390699148178,17.755791544914246,0.0,0.0,0.0,0.0,0.0,0.0,0.0,0.0,0.0,0.0,0.0,0.0,0.0,0.0,0.0,0.0,False,0,6.550469398498535,0.034921142578125
STABILIZE,3.1006221771240234,29.807720734550003,0.032402785619099934,0.032535552978515625,-10.0,40.0,10.0,1.9244258623317796,-1.2855786324666232,145.14029042872036,3.9951941621652822,2.143182188378415,0.028908372946663485,0.5211883176284506,-0.1932557615713052,-0.0869911208936084,0.5708695597498464,0.12874891583024478,0.24135434068739414,-0.5231064278632402,1.0345201008021832,0.17442236741184372,9.903377294540405,-3.4335188567638397,13.331338763237,0.0,0.0,0.0,0.0,0.0,0.0,0.0,0.0,0.0,0.0,0.0,0.0,0.0,0.0,0.0,0.0,False,0,6.579259872436523,0.034921875
STABILIZE,3.1355602741241455,28.621269917090313,0.032294543584187825,0.03407001495361328,-10.0,40.0,10.0,1.9234877785379605,-1.2828498651714972,145.13452574906086,3.995237228985536,2.1632927608097354,0.028527576131543563,0.5212191053665001,-0.18090568489948325,-0.09338849929258541,0.56870319386745,0.126401732017159,0.24135434068739414,-0.5231064278632402,1.0345201008021832,0.17442236741184372,9.903377294540405,-3.4335188567638397,13.331338763237,0.0,0.0,0.0,0.0,0.0,0.0,0.0,0.0,0.0,0.0,0.0,0.0,0.0,0.0,0.0,0.0,False,0,6.607966899871826,0.034921875
STABILIZE,3.1691203117370605,29.796921065905103,0.03246668179829915,0.03261399269104004,-10.0,40.0,10.0,1.9239891571117218,-1.2839053428416758,145.13094672993577,3.995831757492464,2.1621783093471123,0.02545180150577157,0.521254404005282,-0.17192866529371464,-0.0705871102880094,0.563697423471482,0.11065220614099719,-0.1824836479499936,0.43811663053929806,1.076043676584959,-0.1314070633187199,-22.554104030132294,18.206456303596497,20.380020141601562,0.0,0.0,0.0,0.0,0.0,0.0,0.0,0.0,0.0,0.0,0.0,0.0,0.0,0.0,0.0,0.0,False,0,6.665911912918091,0.029932861328125
STABILIZE,3.202516794204712,29.9432732464751,0.03236988385518392,0.032500267028808594,-10.0,40.0,10.0,1.924553074605071,-1.2835754660491052,145.12310567276862,3.995865282349447,2.1650838226960323,0.0253172258202469,0.5212883767520111,-0.1765962840544009,-0.06844082345710846,0.5593369429793916,0.1096128386358312,-0.6905047688633204,-0.06179019110277295,1.0192733258008957,0.23426518988682946,-4.256816208362579,-19.076289236545563,16.52042120695114,0.0,0.0,0.0,0.0,0.0,0.0,0.0,0.0,0.0,0.0,0.0,0.0,0.0,0.0,0.0,0.0,False,0,6.694618463516235,0.034922119140625
STABILIZE,3.2359976768493652,29.869279742490495,0.032428773244222005,0.03256106376647949,-10.0,40.0,10.0,1.9244267161054258,-1.282622974825006,145.11899389888825,3.9961422014658443,2.1813982435389256,0.023761016719020103,0.5213136167958756,-0.1604826269219945,-0.06798248763326498,0.5593523368333321,0.10149219880927382,0.5212558433413506,-0.1425882219336927,1.0917986743152142,-0.18547418711809294,18.62439066171646,8.457137644290924,15.270383656024933,0.0,0.0,0.0,0.0,0.0,0.0,0.0,0.0,0.0,0.0,0.0,0.0,0.0,0.0,0.0,0.0,False,0,6.72326397895813,0.034900634765625
STABILIZE,3.2694666385650635,29.87842910976713,0.03237036069234212,0.03250741958618164,-10.0,40.0,10.0,1.9237123210069247,-1.2827051505384577,145.12180793682631,3.9963649217557227,2.183306737281547,0.022634486702606847,0.5213328614153646,-0.15528684478995552,-0.061006671798715315,0.5623572808399,0.09553997541086606,-0.08999271085485816,0.2301323926076293,1.2572617270052433,-0.07015810232878425,-20.061664283275604,-13.381564617156982,8.086323738098145,0.0,0.0,0.0,0.0,0.0,0.0,0.0,0.0,0.0,0.0,0.0,0.0,0.0,0.0,0.0,0.0,False,0,6.752030849456787,0.039910888671875
STABILIZE,3.3028953075408936,29.914229268744965,0.0323827584584554,0.03251314163208008,-10.0,40.0,10.0,1.924011568669936,-1.2822416581702487,145.10473246390126,3.9965815992802467,2.1852687635631898,0.021537730323209832,0.5213463626143776,-0.15056772132119797,-0.054089208162001065,0.5682246455698239,0.08975600135161511,-0.08999271085485816,0.2301323926076293,1.2572617270052433,-0.07015810232878425,-20.061664283275604,-13.381564617156982,8.086323738098145,0.0,0.0,0.0,0.0,0.0,0.0,0.0,0.0,0.0,0.0,0.0,0.0,0.0,0.0,0.0,0.0,False,0,6.780688762664795,0.039910888671875
STABILIZE,3.3363311290740967,29.90719032543282,0.03241113026936849,0.03253650665283203,-10.0,40.0,10.0,1.9237573575667646,-1.2818583138030817,145.10531986016989,3.997035039608826,2.1928724587181274,0.019151371535737982,0.5213637681298531,-0.13854592839849447,-0.04592449907211486,0.5721361476939187,0.07756475786472043,0.3160963533446193,0.2948150970041752,1.1583251878619194,-0.4267493655687504,11.904343962669373,14.507900178432465,19.74368840456009,0.0,0.0,0.0,0.0,0.0,0.0,0.0,0.0,0.0,0.0,0.0,0.0,0.0,0.0,0.0,0.0,False,0,6.8094987869262695,0.059865966796875
STABILIZE,3.3704254627227783,29.329566591611542,0.03241780598958333,0.03325629234313965,-10.0,40.0,10.0,1.9230081711921787,-1.2819765614530876,145.0997600861855,3.997104291364033,2.212015403759579,0.018708450864591164,0.5213899058033329,-0.1197223265502732,-0.036379484244126556,0.5719417692855084,0.07509379421165029,0.16360919689759612,0.09834910742938519,0.850512832403183,0.17821321578269336,-5.648235231637955,-9.209240972995758,12.357401847839355,0.0,0.0,0.0,0.0,0.0,0.0,0.0,0.0,0.0,0.0,0.0,0.0,0.0,0.0,0.0,0.0,False,0,6.8669655323028564,0.02993310546875
STABILIZE,3.403980016708374,29.803908192993674,0.032494576772054036,0.03262042999267578,-10.0,40.0,10.0,1.9238482844600904,-1.2820322701835056,145.08885910427017,3.9974298773259314,2.2137921470145883,0.01705186497521315,0.5214225363893075,-0.11183572904880455,-0.03020587735130013,0.5682560018932508,0.06658795416846486,0.08718606550246477,0.21112379617989063,1.1087647639214993,-0.2453243333701379,13.55879157781601,-5.144629627466202,12.0343878865242,0.0,0.0,0.0,0.0,0.0,0.0,0.0,0.0,0.0,0.0,0.0,0.0,0.0,0.0,0.0,0.0,False,0,6.89533543586731,0.0698427734375
STABILIZE,3.4373810291290283,29.93857113285795,0.03237584431966146,0.03250765800476074,-10.0,40.0,10.0,1.9225360343658016,-1.2817828615570943,145.09411834993108,3.9972284828016758,2.222096226932809,0.018090666489671427,0.5214135909387608,-0.10338564758530851,-0.03189829273796044,0.5853216639179593,0.0715427254692933,0.08416968630626798,-0.28505928348749876,1.0624590329825878,0.48784962320189285,-10.20750030875206,-6.931915134191513,18.9541295170784,0.0,0.0,0.0,0.0,0.0,0.0,0.0,0.0,0.0,0.0,0.0,0.0,0.0,0.0,0.0,0.0,False,0,6.924106121063232,0.02993310546875
STABILIZE,3.470926284790039,29.810898597695758,0.03243306477864583,0.03256845474243164,-10.0,40.0,10.0,1.9231055013878513,-1.283527334559798,145.0839550284461,3.9969968287713336,2.2300902665928577,0.019284065006851925,0.5214511347259556,-0.09585297794289323,-0.03548757636674091,0.579158228569463,0.07725124352016235,0.08416968630626798,-0.28505928348749876,1.0624590329825878,0.48784962320189285,-10.20750030875206,-6.931915134191513,18.9541295170784,0.0,0.0,0.0,0.0,0.0,0.0,0.0,0.0,0.0,0.0,0.0,0.0,0.0,0.0,0.0,0.0,False,0,6.952735424041748,0.02993310546875
STABILIZE,3.504274368286133,29.985873201978894,0.03233841260274251,0.03244924545288086,-10.0,40.0,10.0,1.9227341098517319,-1.2838583852911318,145.0759363863605,3.9974186537630163,2.226730097039936,0.01717619555391962,0.521486332844417,-0.09866403097045334,-0.030426897374031155,0.5741619991547775,0.06648964607098506,-0.43463222682476044,0.16204785788431764,1.0883045382797718,-0.3654562351328345,-7.187239825725555,12.608569860458374,16.736136376857758,0.0,0.0,0.0,0.0,0.0,0.0,0.0,0.0,0.0,0.0,0.0,0.0,0.0,0.0,0.0,0.0,False,0,6.981487989425659,0.034921875
STABILIZE,3.5379018783569336,29.7371354026346,0.03243115743001302,0.03276705741882324,-10.0,40.0,10.0,1.9202468537767896,-1.282023732447043,145.0821518585052,3.997550073587988,2.224621714005594,0.016552999310778603,0.5215248013720597,-0.09564770298517028,-0.02613995974176759,0.5676230553729026,0.06316113866117505,-0.12438255362212658,0.12638201005756855,0.8339012041687965,0.00544105942692174,10.515159368515015,-10.977211594581604,10.081759840250015,0.0,0.0,0.0,0.0,0.0,0.0,0.0,0.0,0.0,0.0,0.0,0.0,0.0,0.0,0.0,0.0,False,0,7.010346174240112,0.034922119140625
STABILIZE,3.5715694427490234,29.705123302029772,0.032466920216878255,0.032605648040771484,-10.0,40.0,10.0,1.9216171604790233,-1.2811536303798068,145.0705541972945,3.998241483764112,2.224983932337365,0.013014322744826352,0.5215638595161657,-0.09503147834799196,-0.012579031909643254,0.5607439201996571,0.04531593145360081,-0.377864483743906,0.41214823722839355,1.121644303202629,-0.6142175677180904,-10.489872097969055,10.824105888605118,16.955935955047607,0.0,0.0,0.0,0.0,0.0,0.0,0.0,0.0,0.0,0.0,0.0,0.0,0.0,0.0,0.0,0.0,False,0,7.067563056945801,0.06485498046875
