Mode,Time,Freq,North-Vision,East-Vision,Down-Vision,Yaw-Vision,North-Desired,East-Desired,Down-Desired,Roll-UAV,Pitch-UAV,Yaw-UAV,Roll-Control,Pitch-Control,Yaw-Control,Thrust-Control,northVraw,eastVraw,downVraw,N-Velocity,E-Velocity,D-Velocity,N-Acceleration,E-Acceleration,D-Acceleration,yawVraw,yawRate,Landing-State,Q-Size
GUIDED_NOGPS,0.005719184875488281,175.36915164945435,-10.380185039073487,47.250788248397534,86.01725522889875,-14.310277964144047,-10.647275320092612,47.267286445353086,86.1660722379583,-0.11449069911679495,-0.058235086657814635,-20.775379568238616,1.1701245471803843,3.69072000299067,-10.0,0.500297691962425,-7.1662150839809104,47.375117466510616,83.92087520926297,3.3127490431070328,-1.2093543075025082,-5.139612779021263,110.77582836151123,12.757070362567902,-9.418464452028275,-13.881223042590165,-0.8304214429227318,False,2
GUIDED_NOGPS,0.033852577209472656,35.55097474148161,-9.798850751472765,47.21225536152725,85.92304449053638,-14.295570057349492,-10.647266292529482,47.26718508834913,86.16581437135497,-0.18558712536323616,-0.13303090077325078,-20.72354013998551,0.46259256345895017,1.441930968131811,-8.369858805592395,0.5004861484028721,-7.075643054570348,47.32843735870241,83.71511882105068,0.8304084651172161,-1.277240738272667,-5.238332971930504,20.44459879398346,20.137670636177063,65.257728099823,-13.889592416698001,-3.1291077342687714,False,2
GUIDED_NOGPS,0.05446648597717285,48.51935312218032,-9.726398544844093,47.21624183666179,85.6880046220166,-14.332549072802822,-10.647204320866246,47.266489301233136,86.16403011458316,-0.21446697944304835,-0.06434424397324807,-20.693543656698107,0.07077264400342033,0.3214589040656557,-9.317773591182043,0.5009534438924583,-6.478516672611876,47.32531319528186,83.62647993232137,-1.2042034417390823,-0.3407454816624522,-7.479464262723923,5.16691654920578,12.218084186315536,-19.686873257160187,-13.889089203617363,-3.240112822433465,False,1
GUIDED_NOGPS,0.06805610656738281,73.60881697407908,-9.70328207816751,47.22966004901526,85.43990923883169,-14.335313956702139,-10.647039781962778,47.264641939985474,86.15924992332063,-0.21446697944304835,-0.06434424397324807,-20.693543656698107,-0.017739676770147747,0.21386889682362098,-8.682293130453372,0.5014408589971266,-6.809736216533706,47.3377421093884,83.45590567718187,-3.1511086970567703,0.2728305757045746,-10.499568283557892,-74.92032051086426,20.717504620552063,-92.55767464637756,-13.910768367402643,-1.404760844449997,False,1
GUIDED_NOGPS,0.07985091209411621,84.8122295466494,-9.66737385307115,47.236431573807906,85.21309702590007,-14.334875373033372,-10.646726599672846,47.26112568447579,86.15006549892472,-0.21446697944304835,-0.06434424397324807,-20.693543656698107,0.021009452936626642,0.3038472064814902,-8.586042408049742,0.5018769981469343,-6.7466102724106225,47.23343559453784,83.04404502215775,-3.1511086970567703,0.2728305757045746,-10.499568283557892,-74.92032051086426,20.717504620552063,-92.55767464637756,-13.887435075370837,-1.404760844449997,False,0
GUIDED_NOGPS,0.11287164688110352,30.286844879626823,-9.589499388241506,47.25897017719646,85.00172668641052,-14.354529020899877,-10.646222161385435,47.25546210143033,86.13512894366424,-0.22794886573015438,-0.0050669298120383415,-20.60991311295318,0.010232924350986224,0.2649686362117005,-8.85080761005767,0.5022728596044764,-6.95388320881514,47.2434097091371,82.62383965346766,-0.7767339702695608,1.7401790246367455,-9.640230238437653,2.446841448545456,13.671176135540009,-49.95522499084473,-13.91329279270126,-3.0709258350410757,False,0
GUIDED_NOGPS,0.13803672790527344,39.7481473057751,-9.458532247211433,47.278748770409884,84.79620168264496,-14.408889750521192,-10.64548723456607,47.24721070739925,86.11315191595162,-0.18710238682234762,0.08950597385459409,-20.56582765695533,0.0444069673485666,0.4741275021093273,-9.511895717532758,0.5026425992132034,-6.9313532266100415,47.2991307472425,82.4678916101974,-1.4094866812229156,1.6117451712489128,-6.67891725897789,-47.0829963684082,6.636452674865723,3.064623475074768,-13.952049215381225,-5.548860195870345,False,0
GUIDED_NOGPS,0.1701676845550537,31.124250519441972,-9.384710002250753,47.30226561521966,84.58702321138632,-14.436472817120233,-10.644485883298142,47.23596803172389,86.0829047855748,-0.18219820427657268,0.14349272286930045,-20.533817975410066,-0.004971443313815299,0.28189938010274923,-9.004311390023139,0.5030043177513586,-6.9313532266100415,47.2991307472425,82.4678916101974,-4.601681977510452,1.877852901816368,-7.914765924215317,-141.97040796279907,10.37592738866806,3.91356498003006,-13.952049215381225,-3.339020578361008,False,0
GUIDED_NOGPS,0.20638132095336914,27.618453109978535,-9.294057415436551,47.34201418757221,84.32364345974896,-14.452434704008109,-10.643185384824207,47.22136667950414,86.04321578892929,-0.09690221495207164,0.5547172285371705,-20.310863525427926,-0.030814460099803764,0.31555758616756846,-8.851364771943317,0.5034565814432549,-6.686502644368384,47.48348814395784,82.11960547713595,-5.062570795416832,2.493201568722725,-9.806474298238754,-83.52211117744446,-7.5694262981414795,-44.77429986000061,-14.017198147028502,-1.745511191457411,False,0
GUIDED_NOGPS,0.23864436149597168,30.997967614866713,-9.184672391239296,47.39565335254101,84.03958795406727,-14.492253717386536,-10.64155614608733,47.20307439456572,85.99297018425018,-0.20158369520367048,0.893281221319093,-20.063436507649627,-0.061361045708955245,0.38845672742335674,-9.179651565193456,0.5039293406619851,-7.182903945598083,47.601352372214215,81.07778127144286,-1.5245666727423668,3.05910911411047,-7.842042297124863,-170.29457092285156,-12.079782038927078,-120.1711893081665,-14.321754912985913,-2.542644213356205,False,0
GUIDED_NOGPS,0.2730424404144287,29.07521992000388,-9.119759212964981,47.44818931844764,83.71729291546914,-14.502318953276156,-10.639571620272394,47.180793122427474,85.93110940684416,-0.30885277661407273,0.8530197107611008,-20.068641111797177,-0.08965154747403131,0.29676106445295647,-8.818152283980893,0.5044563160459393,-7.182903945598083,47.601352372214215,81.07778127144286,-3.952077403664589,2.914991043508053,-11.452716588973999,-26.145628094673157,-2.394719235599041,-31.556540727615356,-14.321754912985913,-0.35663107043622266,False,0
GUIDED_NOGPS,0.305553674697876,30.76153107100162,-9.04856485005234,47.498492906749284,83.38452190544358,-14.516289108194254,-10.637208223347415,47.15425807326874,85.85663022432142,-0.3517757130708427,0.7942739474009087,-19.876927947078673,-0.10073606775162462,0.32734763438381353,-8.881765412473971,0.5049793252550117,-6.83324870020715,47.52125162659908,80.78449291342716,-3.952077403664589,2.914991043508053,-11.452716588973999,-26.145628094673157,-2.394719235599041,-31.556540727615356,-14.439313769718773,-0.35663107043622266,False,0
GUIDED_NOGPS,0.3393270969390869,29.613889418426496,-9.058269182926894,47.55762977932414,83.03175049530059,-14.525465457048949,-10.634445250604871,47.1232367848966,85.76858389182784,-0.3477426998093618,0.6960334689387642,-19.861068247825905,-0.170541743068676,0.16444384319568825,-8.824081164579521,0.505516161793153,-6.926567887765231,47.5779879682142,80.45110677237889,-8.903301507234573,3.4059397876262665,-12.538239359855652,-109.03058052062988,-10.780373960733414,-150.42028427124023,-14.570009736821008,0.2503494849694161,False,0
GUIDED_NOGPS,0.37580394744873047,27.4166187313706,-9.076058804128722,47.61937733335266,82.66581751492443,-14.559707699141237,-10.631264793203021,47.08752818571322,85.66607530727683,-0.41303642678862756,0.5137527954640488,-19.84150829359028,-0.18152308965842298,0.1506915054679369,-9.111234337779594,0.50605176778409,-6.91798567303916,47.67269510127457,80.27223880848206,-8.972495049238205,3.2539095729589462,-13.008369505405426,-49.075695872306824,-5.107514560222626,-111.87238693237305,-14.615738823045954,-1.475708260514741,False,0
GUIDED_NOGPS,0.40628933906555176,32.810294520280046,-9.112412537376972,47.680915286727945,82.27932627709869,-14.597127501142472,-10.627651654707222,47.046961657683156,85.54826216658141,-0.43473012144879297,0.5200550857164137,-19.814508555801222,-0.24578084812850443,0.11048742806014586,-9.250070868984377,0.5065970832681107,-7.236396018327751,47.59189094743119,80.07777001185292,-8.972495049238205,3.2539095729589462,-13.008369505405426,-49.075695872306824,-5.107514560222626,-111.87238693237305,-14.65293214096926,-1.475708260514741,False,0
GUIDED_NOGPS,0.44118499755859375,28.660384707369573,-9.128762790494562,47.736539409083335,81.96264122100295,-14.57232846164196,-10.623593267631248,47.00139609930067,85.41435411888622,-0.4260016199371927,0.1210653965231669,-19.863177068732146,-0.2121648461131579,0.15246978944479692,-8.459176699153547,0.5069722747827045,-7.126759179232218,47.721882902280015,79.78368571570009,-7.162085175514221,2.9289841651916504,-10.272862762212753,-4.417455196380615,-26.679936051368713,-35.753029584884644,-14.733728680317977,2.7570489740447828,False,0
GUIDED_NOGPS,0.4740443229675293,30.439386901997214,-9.133462620430047,47.814278143153196,81.68578936549099,-14.526958829984707,-10.619079609978613,46.95071898855702,85.26361192179954,-0.3794439022640652,-0.07833815432426705,-19.919679808641078,-0.2797515329685495,0.19100323974152977,-8.164342484110342,0.5072339070659423,-7.525285732598787,47.8512951172637,79.47093107628723,-5.007340386509895,3.9110157638788223,-5.802168697118759,18.71906667947769,3.2506145536899567,35.73136031627655,-14.78468375497793,4.347169946789819,False,0
GUIDED_NOGPS,0.5074245929718018,29.963808857042842,-9.18339049251985,47.884160391553,81.40826557339155,-14.485599601989986,-10.61410312178389,46.89484544590782,85.0953465966252,-0.3794439022640652,-0.07833815432426705,-19.919679808641078,-0.3059552038660769,0.09362474969390175,-8.194938480700719,0.5074622540263876,-7.814646881907779,47.93763789743172,79.21362825105888,-7.105600088834763,3.2431554049253464,-6.162510439753532,68.72924566268921,17.196157574653625,-9.628500044345856,-14.785176430202117,3.8951911430875104,False,0
GUIDED_NOGPS,0.5405216217041016,30.21506321362965,-9.291618214316864,47.96619287356093,81.16178278602743,-14.41940940175947,-10.60865862165403,46.833717297240284,84.90891858359471,-0.3595594606820127,-0.2680957038152844,-20.08067078247286,-0.38443580834197444,-0.025884429211405838,-7.85288907840914,0.5075922999659035,-8.560345121648115,48.10294477713117,78.5631062035919,-8.853409439325333,3.7071451544761658,-2.9296068474650383,11.191382259130478,-6.491045653820038,29.685360193252563,-14.80079252327225,5.537152397859297,False,0
GUIDED_NOGPS,0.5740337371826172,29.84632462819327,-9.258239986751624,48.06557542079404,80.94831524825672,-14.373685758407246,-10.602743223309687,46.76730213684059,84.70373689709922,-0.3429841390311256,-0.36745854777670606,-20.19768387578623,-0.36153514695382133,0.27755983117347427,-8.078594623251679,0.5076189424170147,-8.614785968213052,48.04903427284026,78.49178121617629,1.120143011212349,5.104497820138931,-1.1024156585335732,65.99762439727783,12.526354193687439,69.98026967048645,-14.769562250942615,3.940075304331426,False,0
GUIDED_NOGPS,0.6080155372619629,29.431646901971792,-9.377705060487116,48.156005012165615,80.7290591413897,-14.294641019260748,-10.59635625212653,46.69559239036118,84.47925828092147,-0.4305707496876668,-0.40737227897598294,-20.307475751599597,-0.44445130540620975,-0.04081964154864502,-7.6444252494227705,0.5076186714501513,-8.85888972313183,48.10086542465098,78.40845207974755,-8.627443015575409,4.413815587759018,-1.9612187519669533,1.7634324729442596,2.259998954832554,18.597832322120667,-14.743121059880462,6.0654419169503955,False,0
GUIDED_NOGPS,0.6415369510650635,29.834435861323318,-9.4814444366665,48.24893555113977,80.60914169488555,-14.233576553516036,-10.589499161676565,46.61860437778803,84.23498636346791,-0.4441083447051907,-0.47883014495947945,-20.534815183028886,-0.4704353994289339,-0.015267719327198212,-7.811203791354961,0.5073796822489092,-9.065348184263344,48.19411686022068,78.32405338595065,-6.856216490268707,4.3369825929403305,4.548148065805435,19.315172731876373,-7.026354968547821,126.10514163970947,-14.70613066461232,4.640181647088781,False,0
GUIDED_NOGPS,0.674940824508667,29.93942595275995,-9.632701770235373,48.338640664417134,80.46459037089575,-14.113701504965011,-10.582175450269466,46.53637737640804,83.97047081300057,-0.4020763744091372,-0.500931036288054,-20.8056304760726,-0.5152032813358998,-0.1234821566944795,-7.0353557116488314,0.5071491395797,-9.606636297339262,48.40575700388679,78.12395046154566,-8.63371193408966,3.7857938557863235,2.283357083797455,-23.264804482460022,-24.04910773038864,124.77262020111084,-14.61098318052196,8.356663024977022,False,0
GUIDED_NOGPS,0.726588249206543,19.364373796739596,-9.828762051858659,48.441555053356964,80.35613344337527,-13.995189167611485,-10.574390577493878,46.44897268377626,83.6853064928692,-0.5074247319197378,-0.46844703012144356,-21.16039562420494,-0.42903301281306305,-0.1084046468272387,-7.476975833299404,0.5068094461526995,-9.88803815255971,48.55566000294597,78.07375772541332,-10.902103036642075,4.400969296693802,4.178553447127342,38.4450763463974,13.680842518806458,132.80483484268188,-14.42938701475089,7.730124649769876,False,0
GUIDED_NOGPS,0.7456765174865723,52.39736158305017,-10.038789953306157,48.55294868698764,80.25489956472708,-13.819773832328291,-10.56615188075875,46.356472680683275,83.37913261674319,-0.6235383746967778,-0.5267807943364664,-21.2514215552737,-1.007737418449279,-0.5202552175621613,-4.644098499426016,0.5064043738206774,-10.184530586682904,48.60132885623038,78.06850506483394,-10.610832273960114,4.565414786338806,4.891731217503548,-96.58896327018738,-5.388162285089493,104.19329404830933,-14.294254154455642,10.825677372193667,False,0
GUIDED_NOGPS,0.7769732475280762,31.961228673103154,-10.160500468938439,48.62095069728708,80.23435702897072,-13.688519947616209,-10.557468491834644,46.258979894122454,83.05163190384361,-0.5408262245909513,-0.4836538059782423,-21.536834670121024,-0.5810251394427473,-0.13134983394416383,-6.477281309060264,0.5057972743206891,-10.874643142010969,48.83903118107813,77.97450046281207,-6.758125126361847,4.474193975329399,3.936554491519928,-6.994755566120148,-13.800601661205292,83.53409171104431,-14.050962536976602,10.265663331955151,False,0
GUIDED_NOGPS,0.8102688789367676,30.037841786384405,-10.41313944414712,48.7270536626916,80.14813279791132,-13.525544833799577,-10.54835125339507,46.156616060257306,82.70252973417519,-0.5548050071401758,-0.5867430250600083,-21.967770087877344,-0.6938703249345428,-0.36878460049103245,-6.215618924147974,0.5052785309424302,-11.07688020415738,49.067629499220644,78.02820339153357,-12.966355681419373,4.303903505206108,3.362555429339409,-92.69786477088928,-13.47186416387558,-30.663245916366577,-13.843939402784285,10.039457711928085,False,0
GUIDED_NOGPS,0.8596117496490479,20.269878167240954,-10.66340966394607,48.853269951063986,80.09896840894648,-13.319528442356926,-10.538812635557791,46.04952118738877,82.33159330375834,-0.694900191145071,-0.6719769023517446,-22.41285424249935,-0.5920390314628559,-0.24937903728197877,-6.3206759230945355,0.50464379492176,-11.660339290932306,49.3014298122453,78.09868481646689,-10.361245274543762,4.478888586163521,6.42741322517395,25.10160207748413,-8.274298906326294,26.683512330055237,-13.58470949312866,11.604149890393163,False,0
GUIDED_NOGPS,0.8805680274963379,47.72111227415464,-10.978837919459767,49.014896981362654,80.01489338237928,-13.057594713987529,-10.528866652426151,45.93785261892252,81.9386307798612,-0.691935568880168,-0.7288821965348826,-22.639251107823178,-1.306110287038784,-0.8535419242359332,-2.834251044084941,0.5040292446368241,-11.846724579052946,49.24445371505034,78.1711562025501,-10.361245274543762,4.478888586163521,6.42741322517395,25.10160207748413,-8.274298906326294,26.683512330055237,-13.456542054046658,11.604149890393163,False,0
GUIDED_NOGPS,0.9144101142883301,29.55191996054393,-11.158229877743771,49.11257837435461,80.09070125497925,-12.901013343549998,-10.518528778630396,45.82178409633631,81.52349045623157,-0.7367959311836945,-0.6994431740776286,-22.936857817886263,-0.7420466441413955,-0.29077857803229323,-5.8898654732777525,0.5030512273031569,-12.51988100037973,49.53276009702262,78.33204631246397,-7.576663792133331,4.9652740359306335,10.246328264474869,42.1669602394104,-3.3221304416656494,121.26486301422119,-13.056238357045487,10.364698513599398,False,0
GUIDED_NOGPS,0.961071252822876,21.43351951310498,-11.397933451932996,49.239803113916885,80.0910171969717,-12.673083098159237,-10.507815865868986,45.70150482214723,81.08605990832898,-0.7634574678871334,-0.7143652164234023,-23.57655455252944,-0.6958714147971128,-0.30943977028923675,-5.651745924679517,0.5021794521635969,-12.51988100037973,49.53276009702262,78.33204631246397,-8.16335678100586,4.601285606622696,7.304666191339493,21.28855288028717,-16.802996397018433,62.626051902770996,-13.056238357045487,12.020591646730718,False,0
GUIDED_NOGPS,0.9800183773040771,52.790414338216785,-11.662053514534014,49.38811384257507,80.17192428135411,-12.399446053358618,-10.496746059449926,45.577218522879086,80.62626514855664,-0.8413729575657597,-0.8243624247986958,-23.84167176025807,-1.4335028462228598,-0.8315024431314305,-1.6673871871411388,0.5010987376974743,-12.69145764725221,49.66217475692514,78.42239462737322,-5.948676913976669,3.5024572163820267,13.17501962184906,24.185746908187866,-12.945492565631866,80.28476238250732,-12.896184023748738,11.208531673287684,False,0
GUIDED_NOGPS,1.014258623123169,29.211093003496163,-11.85478119866354,49.47824525413127,80.28386348226424,-12.171837560506658,-10.485338714832077,45.44914251202963,80.1440697814935,-0.8717571608102672,-0.8056839384919737,-24.261624233829014,-0.8271514703834308,-0.3838792573631431,-4.581278942063353,0.4999100944801672,-13.311028157903126,50.10470216875643,78.82036988644384,-8.565996587276459,4.154842719435692,11.436036974191666,18.07016134262085,-15.044362843036652,55.90587854385376,-12.205419452535988,15.012972654194174,False,0
GUIDED_NOGPS,1.047677755355835,29.92596820685522,-12.133674751669345,49.63945649431919,80.3943033910167,-11.90282494642386,-10.473614314166483,45.317506753037954,79.63947415912622,-0.8487092210645881,-0.7760212273394017,-24.698857086000086,-1.0165914455492475,-0.5454911423231237,-3.995673266201061,0.49867795799202425,-13.679920282181705,50.5065768650433,79.29212078093587,-9.063515067100525,5.094250291585922,10.835178196430206,-55.682581663131714,-2.4086173623800278,46.14272117614746,-11.521660219555363,11.429959575990328,False,0
GUIDED_NOGPS,1.0833015441894531,28.075075637901953,-12.528416479207406,49.79235334998765,80.49727028389624,-11.583952221412734,-10.461594382837681,45.182552922251745,79.1125145360812,-0.9658640941640847,-0.7617740397001369,-24.993226286396588,-1.0572215970729797,-0.7939597745852296,-3.3454842785766923,0.49741418529594483,-13.502424095627978,50.53409298248849,79.50364574156893,-17.51708984375,4.549429938197136,9.45071130990982,-54.084157943725586,-9.745779633522034,46.01067006587982,-11.303425777873214,14.225700291022763,False,0
GUIDED_NOGPS,1.118814468383789,28.16500245099685,-12.876127005879782,49.9517263353189,80.56392883123821,-11.251656036987164,-10.449301406005036,45.0445334718946,78.56326222485656,-1.1509013892991349,-0.8574361217506017,-25.484057340532043,-1.1455362991739086,-0.790793709513893,-2.6301210608348766,0.49617720106921426,-13.502424095627978,50.53409298248849,79.50364574156893,-14.288544654846191,5.0785452127456665,6.754443049430847,-36.99760138988495,-12.02676147222519,-8.334672451019287,-11.303425777873214,15.088065461476587,False,0
GUIDED_NOGPS,1.1510679721832275,31.007592391344527,-13.1415073770594,50.096136587883365,80.66184708611723,-10.949852984962359,-10.436758745144045,44.903710693033375,77.99182275105417,-1.2041967150625097,-0.8335944926790259,-25.771031153604717,-1.0434212452207003,-0.6001860419877992,-3.191013000635217,0.49483085404624805,-14.196809736993627,50.80900132808619,79.62329985302321,-8.376483619213104,4.199191182851791,8.501163870096207,19.683386385440826,-15.414868295192719,40.78629016876221,-10.878422808896126,13.34472627017524,False,0
GUIDED_NOGPS,1.2015295028686523,19.819229969569243,-13.489382975464318,50.26140534913315,80.77079865591396,-10.599714565069686,-10.423990554587672,44.76035577854545,77.39833500861165,-1.1684716240521695,-0.75784742797932,-26.228167177017205,-0.9411527589762881,-0.6130100868343289,-3.585232268985713,0.49341235667346817,-16.087727710215002,51.16060273931792,79.81339697807964,-7.902263849973679,4.238223657011986,8.391538262367249,-64.50690031051636,-14.512492716312408,-94.28176283836365,-10.061831833717772,13.399768203375434,False,0
GUIDED_NOGPS,1.2270355224609375,39.21376215407629,-13.76452319592262,50.39505382087019,80.82752958419208,-10.288367472148067,-10.411021698067655,44.61474788608608,76.78297041503438,-1.169577474367477,-0.848313710422962,-26.30685607889763,-1.3250954124441379,-0.8703409811894944,-1.285682999856113,0.4920599205728528,-15.490500507023711,51.28280866238002,80.09842232096742,-7.242793589830399,3.113231249153614,4.4583819806575775,-3.7993725389242172,-5.030312761664391,-140.12540578842163,-9.856141698645889,12.7136765550213,False,0
GUIDED_NOGPS,1.2540953159332275,36.96105887432917,-13.948549933394693,50.49902930492581,80.89611188846507,-10.095173452052647,-10.397877665255832,44.467173201055665,76.14593206662748,-1.2172592384067475,-0.7973293898374316,-26.65835981170129,-1.1876558162567363,-0.630583034744373,-3.203884172420662,0.4906383868246417,-15.4927867510761,51.82583753337841,80.36848522718668,-7.391718775033951,2.919534780085087,5.910209566354752,30.57355284690857,-18.26646476984024,-14.938987791538239,-9.429168668570105,10.4127463330895,False,0
GUIDED_NOGPS,1.308588981628418,18.352201973353168,-14.150225129951293,50.63950695806182,80.99514028822759,-9.773156381859739,-10.384584488305466,44.3179239995671,75.48745389372785,-1.1994236934931402,-0.9268075783860709,-27.851967812559575,-0.9152884401253496,-0.4665826685340302,-3.4994772832487384,0.4890993702061305,-15.647625152541385,52.14609141938577,80.8021692570673,-4.998519644141197,2.9143575578927994,6.087344512343407,35.787492990493774,-7.1121178567409515,-62.66355514526367,-8.762539996032263,13.940851520555613,False,0
GUIDED_NOGPS,1.3220446109771729,74.34600113442995,-14.392745648383547,50.78475714687611,81.17679711949056,-9.450620610607954,-10.371168658392556,44.16729771141306,74.80779981593616,-1.2689821265571384,-0.9647413818192638,-27.994278219011377,-2.1780953126422724,-1.3521888225707506,3.903168142839937,0.4873698820314654,-16.726942945560474,52.17686665755855,80.97160910905465,-2.367508225142956,1.9227806478738785,10.603131353855133,30.229628086090088,-20.934224128723145,77.33910083770752,-8.156427250828209,9.38908709915947,False,0
GUIDED_NOGPS,1.3642113208770752,23.718609332941256,-14.54328953255092,50.86384846849472,81.31657467580462,-9.228458210416786,-10.357657042257157,44.015595983033336,74.10726289734889,-1.2224617081201816,-0.9099730830726934,-28.401739984137656,-0.9663058829549255,-0.5013425593911692,-3.4258235171963736,0.4856649772346225,-16.752342923018148,52.43515025382926,81.32405890222856,-6.395528465509415,2.207370474934578,10.56545376777649,86.65773868560791,-22.011327743530273,76.75060033798218,-7.77108187768949,14.035430857540073,False,0
GUIDED_NOGPS,1.3888514041900635,40.592919497512725,-14.84943667156789,51.04816337697073,81.55354100189176,-8.794568210504378,-10.34407679874471,43.8631237404821,73.38616450179023,-1.2224617081201816,-0.9099730830726934,-28.401739984137656,-1.6133500103338507,-1.0787542490762017,1.7556764983401196,0.48373272250058125,-16.540772661195923,52.58221288755005,81.56644409579823,-4.68960627913475,2.1724019199609756,11.480281502008438,43.35449039936066,-10.152021795511246,54.7595739364624,-7.557524543669484,11.876224499565097,False,0
GUIDED_NOGPS,1.4222393035888672,29.95460713316479,-15.03630672221967,51.15272514246389,81.75951913286882,-8.54294864294287,-10.330455295347358,43.71018825239528,72.64485344804427,-1.334163689023628,-0.9008517923229645,-29.086370825783057,-1.176547040114055,-0.6768649665596613,-2.1133341518298563,0.4818137818784088,-17.223144555618177,52.31418320219723,81.86223745800964,-3.506161645054817,2.2272149100899696,12.46233806014061,39.291220903396606,-17.745624482631683,134.13434028625488,-6.955045505217669,8.782234182913946,False,0
GUIDED_NOGPS,1.4556667804718018,29.917643282570705,-15.313749025569098,51.35908159984039,82.06473915830004,-8.192796117574028,-10.316820024745255,43.55709819295781,71.88370516508681,-1.4715691658777132,-0.9124145555358557,-29.394101583743396,-1.424519570344263,-0.8645987577849212,-0.7339727304032388,0.4796537651751433,-18.25172847207652,54.21044202042242,83.67413967579768,-3.506161645054817,2.2272149100899696,12.46233806014061,39.291220903396606,-17.745624482631683,134.13434028625488,-6.1406381121455365,8.782234182913946,False,0
GUIDED_NOGPS,1.4906692504882812,28.574472868481113,-15.627904439821418,51.51977677281016,82.20308555531014,-7.846938777401357,-10.303198521347902,43.404162704870984,71.10312084731747,-1.5615415402669985,-0.9642116152717647,-29.67457988691538,-1.3405229349363272,-0.9628528262844871,-0.7484236076066693,0.47778487944923625,-18.33823660387093,52.91996335657963,82.15454265893032,-6.353265792131424,2.965444140136242,4.964364320039749,-18.420861661434174,-22.01942950487137,-30.30645251274109,-6.037789032021832,8.635106785549993,False,0
GUIDED_NOGPS,1.524207592010498,29.82086029150373,-15.92575917099779,51.67177733795981,82.37948029675196,-7.4962588912223636,-10.289618277835455,43.25169046231975,70.30352660979173,-1.6277533940811022,-0.8089453538206548,-29.93954683048227,-1.36750451568482,-0.9890256864310537,-0.31133178683082186,0.4758005317588764,-18.294227166915647,53.06887156720198,82.3098930445301,-6.090785190463066,2.356165461242199,7.543914020061493,17.553655803203583,-27.222537994384766,88.88052701950073,-5.903190633377816,9.493156130222015,False,0
GUIDED_NOGPS,1.5581562519073486,29.45872635711727,-16.22362292984316,51.8000446769673,82.5036599237134,-7.183445931269558,-10.276106661700057,43.099988733940016,69.48537264345285,-1.6225528453583722,-0.8175545938260443,-30.209653491399596,-1.3308856096337676,-1.0195601572317192,-0.627944078282141,0.4738804737854171,-18.294227166915647,53.06887156720198,82.3098930445301,-7.366199791431427,1.4123334549367428,4.539332166314125,-41.155266761779785,-3.6687668412923813,-78.9176344871521,-5.903190633377816,8.412936953548758,False,0
GUIDED_NOGPS,1.5910134315490723,30.4411542704523,-16.52727008549879,51.93992648731105,82.64795914739379,-6.884302034760236,-10.262690831787147,42.94936244578599,68.6491323703639,-1.5826493861232767,-0.716709785577715,-30.373274088061837,-1.395309607511109,-1.082819266692397,-0.4809151746219116,0.4718826776695064,-18.20720823306489,53.415616961081184,82.43471323867459,-8.291526883840561,1.452550757676363,5.672457069158554,58.65744948387146,-20.375104248523712,79.62870597839355,-5.69414110524394,7.190955493104593,False,0
GUIDED_NOGPS,1.62459135055542,29.782533675114145,-16.871509782674828,52.08426875351379,82.83464453437382,-6.619924660696737,-10.24939765483678,42.80011324429742,67.79530159893983,-1.6591611652057596,-0.7229344891499767,-30.576639555504382,-1.4149741684902877,-1.1860578780945843,-0.8300980157018141,0.4697611489225127,-19.96011114169756,53.97731519310523,84.0588647738258,-7.482689619064331,0.9278798475861549,4.77183423936367,-81.38360977172852,-10.879233479499817,-8.388446271419525,-4.831771298991611,4.026253081749946,False,0
GUIDED_NOGPS,1.657491683959961,30.400115967239255,-17.07853511854101,52.183372023202175,83.0286650342096,-6.337795374319529,-10.236253622024957,42.65253855926701,66.92439767917936,-1.6073691213900223,-0.6283619289938348,-30.719038754415394,-1.3227119079494931,-0.947879720603305,-0.3585920801032576,0.4675890852342359,-18.436008915460658,53.38607295550409,84.45672044053259,-2.8196120634675026,-0.2189207123592496,4.428635537624359,40.26937782764435,-26.117059588432312,36.61195635795593,-4.519700718325884,4.930704170322096,False,0
GUIDED_NOGPS,1.6918449401855469,29.11295897827445,-17.336677952095336,52.28996624751145,83.13332554047697,-6.082379068592604,-10.22328476550494,42.506930666807634,66.03695865789715,-1.6503696445268954,-0.6676698277498169,-30.90719339057632,-1.335350909988895,-1.0577385608949725,-0.6837855936721668,0.4655577685179213,-18.690513994169187,53.68549662713964,83.32515163208348,-6.3435085117816925,-0.12764749117195606,1.9471855834126472,-46.59160375595093,-12.72653341293335,-58.72000455856323,-4.356733907424374,3.55207659013192,False,0
GUIDED_NOGPS,1.7260785102844238,29.213331011666376,-17.58046522352162,52.42369177466244,83.36235821979513,-5.828956737310316,-10.210516574948567,42.363575752319704,65.1335424339556,-1.6288451571312463,-0.7216433165925799,-31.02521222924497,-1.4005499815583526,-1.0528018996187352,-0.5404571772946261,0.463242877135485,-17.45535761194916,54.05430392666102,85.15605250696427,-8.8997483253479,0.8337957784533501,5.350429192185402,-16.46135151386261,-7.640860974788666,76.40723586082458,-4.078316325188625,2.8437420038588157,False,0
GUIDED_NOGPS,1.761066198348999,28.586937111933533,-17.804806351758334,52.53298186994619,83.45091404402105,-5.575528083244384,-10.197973914087576,42.22275297345848,64.21472591349703,-1.7496756858604148,-0.6548126903283554,-31.08961408292902,-1.3534789909848444,-1.036276716419291,-0.43808452867933934,0.4611744731498116,-18.396494592667047,53.96340329703662,83.76468592487893,-5.505932122468948,-0.16163107939064503,0.20017875358462334,-27.423816919326782,-13.586919009685516,-92.51241087913513,-3.977456117601266,3.4459873171789317,False,0
GUIDED_NOGPS,1.7934041023254395,30.926199833361597,-18.051882918881603,52.645037333443824,83.59876481522106,-5.365537114810333,-10.185680937254931,42.08473352310134,63.281104165175634,-1.7937632762923779,-0.7573572018238129,-31.142367048983612,-1.4135235160099398,-1.143517449759308,-0.6296339112707097,0.45895880794188915,-18.653826125840965,54.250256262027314,85.26669981949253,-6.942812353372574,-0.3772290423512459,0.4549050237983465,-56.04821443557739,-14.501616358757019,97.44921326637268,-3.7058725382953828,0.6259025272841012,False,0
GUIDED_NOGPS,1.834557056427002,24.30226723603474,-18.289208669674462,52.73932683428028,83.7550483663849,-5.201125417170367,-10.17366100592613,41.949779692315126,62.33328957538944,-1.7423789093927256,-0.7696155771149875,-31.154282313990702,-1.278955794384092,-1.046068975706736,-1.5230924053694948,0.45668006532951627,-18.653826125840965,54.250256262027314,85.26669981949253,-7.975023239850998,-0.7223079446703196,2.1575331687927246,-34.46002900600433,-16.79171323776245,8.853515982627869,-3.7058725382953828,-0.4019458537629665,False,0
GUIDED_NOGPS,1.8744657039642334,25.06141813206183,-18.61543934018835,52.831356445353116,83.87998636859808,-5.022620769761774,-10.161936605260536,41.81814393332345,61.37191100351236,-1.70652468511839,-0.7367417699180104,-31.155959125431938,-1.3140650854115359,-1.2490581663699358,-1.2181544978049788,0.4544358224077929,-20.815138466257608,54.25413092304576,84.56933150231013,-7.975023239850998,-0.7223079446703196,2.1575331687927246,-34.46002900600433,-16.79171323776245,8.853515982627869,-3.2821327454342124,-0.4019458537629665,False,0
GUIDED_NOGPS,1.894151210784912,50.81356383945337,-18.78059313260757,52.89375000170232,83.95609962129707,-4.927529720538915,-10.150529260642687,41.690067922474,60.397612937126205,-1.6947003470046285,-0.8098762872601863,-31.170838692538812,-1.5926501936507893,-1.275910797301322,-1.025389471800734,0.45229787823984435,-20.41437009310097,54.47781958429039,84.73422595712927,-2.6053449138998985,-1.6814343631267548,0.7839781232178211,38.97782564163208,-28.608298301696777,-24.254117906093597,-3.233829951638027,-2.004530747804512,False,0
GUIDED_NOGPS,1.9277958869934082,29.725122782648135,-18.96195460682842,52.93944440438029,83.98778243087186,-4.855037317760048,-10.139459454223626,41.56578162320585,59.41105464725266,-1.6609244212286807,-0.8087447703746385,-31.13109382175851,-1.2861321252733784,-1.0922704307342541,-2.053939591952862,0.4501950322007342,-20.74278666123559,54.503614062888104,84.64128426160946,-6.3935063779354095,-1.62773746997118,-0.15873319935053587,-58.25205445289612,-9.99375656247139,-14.198362827301025,-3.2086927643293692,-0.5241041072337619,False,0
GUIDED_NOGPS,1.9617226123809814,29.479845653197636,-19.241607914162717,52.99981433057022,84.0418102806577,-4.6891035149439375,-10.128746541462217,41.44550234901678,58.412909343585284,-1.639684027013822,-0.8637966286934703,-31.027384229401033,-1.336507506593049,-1.3225417413657747,-0.8449931313829846,0.44802155275869926,-20.950461191746175,54.37384985870719,84.52979718672339,-6.418997794389725,-2.3414865136146545,-1.6977841034531593,-14.61264193058014,-25.871756672859192,-26.287037134170532,-3.262241483067548,0.4007173802077162,False,0
GUIDED_NOGPS,1.9969050884246826,28.425360035241095,-19.505093810787947,53.071656539624975,84.0940392930838,-4.548025626871931,-10.118408667666461,41.32943382643056,57.403863329721595,-1.6096461357045753,-0.923858110603389,-30.95388114864794,-1.3474987437899109,-1.2964579853241072,-1.110492571583261,0.44582454747587036,-20.517156114931424,54.6377380167473,85.16369216427485,-7.348433136940002,-1.8920129165053368,-3.123449720442295,-70.90402245521545,-14.278139173984528,-66.42162203788757,-3.1522282894382174,-0.8219684434946064,False,0
GUIDED_NOGPS,2.029881477355957,30.329770771567,-19.734707660373154,53.092015049506706,84.05586860059458,-4.429563775337051,-10.108462684534821,41.217765257964324,56.38461515839494,-1.5531391269274135,-0.8975571865437855,-30.862998651551752,-1.2594697778629922,-1.279072961623002,-1.2417650029048444,0.4437883122963871,-20.38809050499386,53.90712041676392,83.69559946042648,-5.43462336063385,-3.2086703926324844,-5.021185427904129,42.223504185676575,-33.99709761142731,75.94623565673828,-3.31502638389156,-1.692964625181799,False,0
GUIDED_NOGPS,2.065514326095581,28.06643380040417,-19.966304545884753,53.128634616002834,84.00386278246978,-4.332631055138378,-10.098924066697542,41.11067038509577,55.35587478670668,-1.4973874943837728,-0.93016365586778,-30.74580626577267,-1.274475075285594,-1.2756642459302343,-1.508874830155703,0.441753371320628,-21.084516436121994,54.51938598958914,83.64541641948736,-5.43462336063385,-3.2086703926324844,-5.021185427904129,42.223504185676575,-33.99709761142731,75.94623565673828,-3.287424545244301,-1.692964625181799,False,0
GUIDED_NOGPS,2.0970160961151123,31.749534464748006,-20.190129610162668,53.13611449003964,83.93703558760174,-4.250255937177045,-10.089806828257968,41.00830655123063,54.31836273135799,-1.4892089831829174,-1.0007836497391864,-30.67589244942842,-1.2492255114207913,-1.3420553312072632,-1.5070684814250073,0.4397371515851438,-20.59036672786384,53.88962724736591,83.59589381125186,-6.470945477485657,-3.255833312869072,-5.787479504942894,-27.157917618751526,-10.951212048530579,-162.92203664779663,-3.397604942723275,-2.151446836191017,False,0
GUIDED_NOGPS,2.1305789947509766,29.797344434893187,-20.428388889691103,53.16318890287494,83.88341923629967,-4.183383307134594,-10.081123439333863,40.91081376466981,53.27280922388205,-1.5356826575127418,-1.1764165214390694,-30.589937933818398,-1.2739598798425107,-1.362744892200491,-1.7135338010689685,0.4376710365975233,-21.620724886497417,54.583308623106944,83.31277157481999,-6.403728574514389,-3.391598165035248,-3.5441022366285324,-62.48981952667236,-4.125892743468285,4.920097440481186,-3.428704346808236,-1.7609974714616514,False,0
GUIDED_NOGPS,2.164398193359375,29.57296462641632,-20.64631643521206,53.152134977549544,83.82280098362922,-4.124431594560276,-10.072884742598735,40.81831376157682,52.21995336587591,-1.4402196648044123,-1.248820795509436,-30.45251452771774,-1.1930218961062151,-1.344233582471219,-1.776821085128706,0.4356011298760628,-20.841524509804362,54.02165201290272,83.32801674068466,-6.8266429007053375,-4.364557564258575,-4.177745804190636,-111.1929178237915,10.156319290399551,38.74324560165405,-3.5172277708110293,-2.251268770250284,False,0
GUIDED_NOGPS,2.1985244750976562,29.305999818335533,-20.854741105732582,53.122388550226134,83.73582612704523,-4.068750656504996,-10.065099869823145,40.73090906894504,51.16054228423263,-1.3797041887580994,-1.3116526661797352,-30.354238350845012,-1.1492883535993013,-1.3429971794143913,-1.7889008119614904,0.43356728317473925,-21.237380532114802,53.67565192673933,83.15391708004006,-5.456521734595299,-4.473279044032097,-5.356629192829132,-14.464369416236877,-19.57411766052246,1.591133326292038,-3.6275966846820995,-1.804580801833797,False,0
GUIDED_NOGPS,2.2342214584350586,28.017314166622135,-20.956118917355084,53.05335228784983,83.65784294325024,-4.043450267807395,-10.057776158416047,40.648682067565055,50.09533028637318,-1.1549104968985207,-1.244418098259128,-30.2093563781707,-1.0491180513936849,-1.1302759132921,-2.1422499956201078,0.43149708665609765,-21.610018538903923,53.265429330550006,82.95676786661708,2.085604891180992,-5.7893916964530945,-4.036214202642441,-101.8897294998169,3.2292649149894714,-11.427481472492218,-3.7072185097840205,-3.1271775654980085,False,0
GUIDED_NOGPS,2.2672197818756104,30.30763561214241,-21.14438976010047,52.982998367530435,83.55717797754356,-4.049414914826951,-10.050919067966085,40.571694054991916,49.02507801547846,-1.1097132141698423,-1.1688047024959134,-30.12013020194824,-1.0546044770179128,-1.3486692269199225,-2.5019299620065842,0.42946672492888216,-21.871274993531173,53.03987181965033,82.89643918918523,-3.0567407608032227,-5.1238130778074265,-5.352894961833954,-16.352611780166626,-6.556503474712372,-30.0106942653656,-3.7950018495205065,-4.91739469295068,False,0
GUIDED_NOGPS,2.299696207046509,30.796087990836735,-21.298098703865918,52.9187288733097,83.45913055815602,-4.043552288766295,-10.044532096782925,40.49998430851249,47.950551605721365,-1.0511040012321975,-1.1675795373135422,-30.034325950499955,-1.0534800074580835,-1.2950799820748555,-2.353855150147471,0.4274215989797001,-21.397167977268296,53.15731799870423,82.68098997576898,-4.184156283736229,-4.91613857448101,-4.428621381521225,33.776575326919556,-20.446205139160156,107.65014886856079,-3.9879774547315954,-2.4480708527872697,False,0
GUIDED_NOGPS,2.3455450534820557,21.81318161251905,-21.42552966311257,52.840939575962324,83.36769391518098,-4.047565132074231,-10.038616698438583,40.433569148112795,46.87252183749871,-1.0086240665761264,-1.1506691628673544,-29.976119078393108,-1.0132028141467737,-1.1687291627154088,-2.4636307061419,0.42531486574265137,-21.254152494659042,53.0190063060993,82.53225696403649,-3.0807675793766975,-5.401775613427162,-3.6082543432712555,18.752995133399963,-13.540761172771454,44.35880184173584,-4.073862808990513,-2.731677382599124,False,0
GUIDED_NOGPS,2.3770999908447266,31.6998632031622,-21.604280201059407,52.73896822327768,83.24421838081213,-4.031256847177995,-10.033172198308723,40.37244099944526,45.791763292663354,-1.0175810058989518,-1.2192666736924964,-29.914609809822558,-0.9580649623653333,-1.3942365164976565,-2.212368384209002,0.42330559777501175,-21.264666319270816,52.80412581641361,82.34898372570066,-2.383744530379772,-5.927807465195656,-4.952612146735191,41.24578833580017,-18.045003712177277,-82.8062653541565,-4.190372780525762,-2.6153951195269496,False,0
GUIDED_NOGPS,2.4139201641082764,27.161135323106013,-21.699311454709218,52.61943826096353,83.05213366096694,-4.012315815759191,-10.028195710114,40.31656745679606,44.70905350975605,-0.8229075411446303,-1.0871408263451252,-29.72878768326319,-0.9104820527293966,-1.1888181623311542,-2.201789256941448,0.42141131159215434,-21.771291236024602,52.23647471545509,81.70109146696129,-1.7116956412792206,-5.979837477207184,-7.997380197048187,26.290279626846313,-9.382233768701553,-9.289908409118652,-4.345463774258091,0.5448217785337031,False,0
GUIDED_NOGPS,2.444044351577759,33.20117153486899,-21.797542446152033,52.50192166725803,82.85816412628508,-3.988644729768144,-10.023682052461364,40.26589034605242,43.6251721392376,-0.8328598738172793,-1.0822706880234947,-29.696894114933816,-0.8746348281900544,-1.2556506486793195,-2.0716773718334833,0.41953905518053247,-21.471910750866932,52.336359608680844,81.6766508542718,-1.7116956412792206,-5.979837477207184,-7.997380197048187,26.290279626846313,-9.382233768701553,-9.289908409118652,-4.388314186275049,0.5448217785337031,False,0
GUIDED_NOGPS,2.481116533279419,26.97839440660196,-21.81812100167784,52.39342401988385,82.69466178332401,-4.034055038576819,-10.01962366538539,40.22032478766993,42.54090009872078,-0.7279383497689516,-1.0366401151693436,-29.627116902372965,-0.8917984630601234,-1.0595591767403996,-2.9238416127521676,0.417581608682963,-20.90495112102371,52.39054704341339,81.70786407010895,-0.21155597642064095,-6.023351103067398,-6.693661212921143,129.2677879333496,-27.665889263153076,62.29090094566345,-4.434124939532048,-3.1392251654202648,False,0
GUIDED_NOGPS,2.5112478733062744,33.19328901551124,-21.89640684010801,52.30105158115143,82.51836564368888,-4.0714713138024266,-10.016010526889591,40.17975825963986,41.45701872820234,-0.7205762596173241,-1.0099815666736665,-29.588755144899586,-0.9062796906953334,-1.1988404792394773,-2.9141986862726363,0.4156621268554141,-21.86272640275888,52.87601205402156,81.49216493036828,-0.21155597642064095,-6.023351103067398,-6.693661212921143,129.2677879333496,-27.665889263153076,62.29090094566345,-4.391725687860337,-3.1392251654202648,False,0
GUIDED_NOGPS,2.5487842559814453,26.644881364545945,-21.964146199619048,52.23018296049045,82.30743296631738,-4.1049077481008425,-10.012830069487741,40.14404966045649,40.37430894529503,-0.700940639692301,-1.0477932804754455,-29.55931361448225,-0.9446455078992168,-1.159752091772818,-2.834625371121671,0.41379785878970066,-21.675370969857784,52.9849138116887,81.37926244397713,-1.2228390201926231,-5.238160118460655,-9.201087057590485,89.28663730621338,-14.806747436523438,28.105032444000244,-4.4181077786892065,-2.442939459729886,False,0
GUIDED_NOGPS,2.578843116760254,33.27703463924723,-22.03377447875932,52.15761872239934,82.09661953910506,-4.13761495655153,-10.010067096745198,40.11302837208434,39.293550400459665,-0.6767134250977368,-1.0617636853707662,-29.53958802815925,-0.9226364583712204,-1.1905987924217052,-2.8975517698972224,0.411950014669657,-21.675370969857784,52.9849138116887,81.37926244397713,-1.2228390201926231,-5.238160118460655,-9.201087057590485,89.28663730621338,-14.806747436523438,28.105032444000244,-4.4181077786892065,-2.442939459729886,False,0
GUIDED_NOGPS,2.6138696670532227,28.553852856880273,-22.06840285606434,52.052675094160755,81.8682395356263,-4.1221851054571435,-10.007703699820219,40.08649332292561,38.215520632237,-0.5961557727882264,-1.0311696672526922,-29.53155231060073,-0.8516238268237738,-1.112447589897729,-2.297636892439751,0.4101280234639881,-21.214555575350275,51.951583392800444,80.62042245404837,-1.1458709836006165,-4.85890656709671,-8.910861611366272,-4.748158156871796,-6.760311871767044,65.70181846618652,-4.639935043333618,1.5998943331170896,False,0
GUIDED_NOGPS,2.647753953933716,29.51573495468108,-22.086852269702536,51.928139584892634,81.55147095702617,-4.125656692944946,-10.00571917400528,40.06421205078736,37.14099422247989,-0.5649725441325332,-0.944889330274916,-29.514241196149335,-0.7915351610131168,-1.0873843696393495,-2.5163434249376677,0.4084920275439268,-21.332808717421788,51.72415953788706,80.1966071368433,0.9008090011775494,-5.218926817178726,-13.216796517372131,-22.54767119884491,-9.210225939750671,-67.52850413322449,-4.686783680100296,0.2867232305074959,False,0
GUIDED_NOGPS,2.680070400238037,30.946279558785555,-22.089466483778057,51.795909729816145,81.231058170108,-4.132753432618702,-10.004089935268404,40.045919765848936,36.070741951585205,-0.4783265785907497,-0.8964811115843911,-29.531900650248403,-0.7471860842946467,-1.05823644049362,-2.5678518435617765,0.40687607037454077,-21.18459916175089,51.418998506768716,79.90727523910155,0.9008090011775494,-5.218926817178726,-13.216796517372131,-22.54767119884491,-9.210225939750671,-67.52850413322449,-4.7263616290976005,0.2867232305074959,False,0
GUIDED_NOGPS,2.7139580249786377,29.512827368806203,-22.03259154112991,51.66547673868652,80.85705978534762,-4.108331419779121,-10.00278943679447,40.03131841362919,35.00552995372573,-0.4348132576575967,-0.7730000959312875,-29.514760290526254,-0.7378503085036446,-0.9305885187385197,-2.1775957314693253,0.40536896401208705,-20.520903395483316,51.13263083181663,79.37509957900944,2.481203153729439,-4.689137637615204,-15.987706184387207,25.679093599319458,-0.02785623073577881,-81.96513056755066,-4.82166529115149,2.744134366984758,False,0
GUIDED_NOGPS,2.7472081184387207,30.080711442607665,-21.854573664866198,51.532398373870926,80.54298228299355,-4.1077395887537556,-10.001788085526542,40.020075737953846,33.94611887208245,-0.5180563482496858,-0.795898892093137,-29.5417634434099,-0.6928740843308965,-0.6593670144874928,-2.457523950478652,0.4037543497372045,-20.520903395483316,51.13263083181663,79.37509957900944,10.587262362241745,-4.903649538755417,-12.08990067243576,85.86540818214417,-12.035208940505981,30.121642351150513,-4.82166529115149,1.102161586268747,False,0
GUIDED_NOGPS,2.779996395111084,30.501145346258173,-21.799737035256054,51.42038653219393,80.22376170022437,-4.106262133350734,-10.00105315870718,40.01182434392276,32.893263014076354,-0.4454005311187925,-0.7418588089059664,-29.586422635298028,-0.7365180966252047,-0.9098884015346735,-2.4457802785767395,0.402162602452353,-20.527901070987003,51.028267209092,78.93928971401976,2.1539879962801933,-3.5394154489040375,-11.84871420264244,52.488505840301514,3.4378595650196075,41.67884588241577,-4.823542415294092,1.2208741160249768,False,0
GUIDED_NOGPS,2.8142356872558594,29.20824512534819,-21.78557740023202,51.29916010370976,79.8513698499021,-4.083736803989349,-10.000548720419769,40.00616076087729,31.84770950660038,-0.5221408547342063,-0.7048248828959226,-29.656654055438686,-0.7198036184257155,-0.9980148643457084,-2.187015121025137,0.4006848277694881,-20.72766158679765,50.948084878856676,78.11320650642205,-0.06399331614375114,-4.143615439534187,-13.502740859985352,34.651756286621094,-14.079079031944275,23.981064558029175,-4.786612736407794,2.519552197546038,False,0
GUIDED_NOGPS,2.8489320278167725,28.82722786567513,-21.759553772206477,51.18351451859455,79.4559918110897,-4.056555345614644,-10.000235538129834,40.0026445053676,30.810197451251696,-0.5218418205146067,-0.7239770001329028,-29.74366042018089,-0.7183061787540794,-0.9723760668923606,-2.119755323560702,0.39926588305010324,-20.636707273045214,50.74533691261741,77.19385727536356,0.44729686342179775,-3.325054422020912,-12.722504138946533,-12.335023283958435,-2.8032243251800537,139.21291828155518,-4.748843079061334,2.6907246355527854,False,0
GUIDED_NOGPS,2.8965442180633545,21.004602248541453,-21.727756664427947,51.07189737805926,79.0615577511824,-4.028766145908897,-10.000070999226365,40.000797144119936,29.781457079563438,-0.44494045384516867,-0.6925782469923839,-29.81806167080984,-0.771122334383157,-0.9722352370968599,-2.1840222025256226,0.39780938233519547,-20.548894581760145,50.72444580966332,76.94296485796664,0.44729686342179775,-3.325054422020912,-12.722504138946533,-12.335023283958435,-2.8032243251800537,139.21291828155518,-4.721037163372433,2.6907246355527854,False,0
GUIDED_NOGPS,2.915241003036499,53.507647951828744,-21.684705677004025,50.94416452460434,78.6160183706109,-4.000706353499521,-10.00000902756313,40.000101357003956,28.762208908236772,-0.45431542208954007,-0.6391871918589231,-29.875172297554904,-0.45514546585808546,-0.873845479554922,-1.791168873939196,0.39658849074696845,-20.291447688744157,50.70465899205323,76.49710187891179,1.2317593209445477,-2.8507350012660027,-11.161105334758759,-22.93688952922821,-1.7734454944729805,36.96993887424469,-4.666375479625735,1.9329708558702885,False,0
GUIDED_NOGPS,2.94891095161438,29.702598966078888,-21.589395325387702,50.87692786642423,78.27961461042344,-3.9440337593909107,-10.0,40.00000000000001,27.75316289437309,-0.4610083671459179,-0.5939950317721222,-29.96378034165748,-0.7658035519347792,-0.8115041311219361,-1.6991067146222938,0.3951058931517739,-19.8623190531897,50.47916252232534,75.89309436736693,1.2100602500140667,-3.2539118081331253,-15.015147626399994,-60.218971967697144,-7.533431053161621,25.57392716407776,-4.613408863504404,5.5619050034114235,False,0
GUIDED_NOGPS,2.9856176376342773,27.246355723008964,-21.51626289761974,50.76876932030022,77.84232814641926,-3.8701036960517743,-10.0,40.0,26.755017590705734,-0.47973333075550784,-0.6230415851563651,-30.12836399499269,-0.6975225088434467,-0.8678862837505492,-1.5162904212960768,0.39383418211214816,-19.8623190531897,50.47916252232534,75.89309436736693,1.2100602500140667,-3.2539118081331253,-15.015147626399994,-60.218971967697144,-7.533431053161621,25.57392716407776,-4.613408863504404,5.5619050034114235,False,0
GUIDED_NOGPS,3.0200023651123047,29.08610777861764,-21.505679414364977,50.68386258177891,77.37726371573598,-3.7926253731040465,-10.0,40.0,25.76845930083215,-0.5823738384253158,-0.630598282338485,-30.26986843912243,-0.7291669846144372,-0.9843043334213537,-1.3745704623323785,0.3926491817861143,-20.123388527615397,50.49135684467629,75.18950736119415,-2.2606410086154938,-2.1253861486911774,-15.979921817779541,-137.8161072731018,30.464860796928406,-49.561965465545654,-4.515424007871475,5.604203511167666,False,0
GUIDED_NOGPS,3.056405544281006,27.474086883613687,-21.442699491386396,50.62780502087906,76.91273783259398,-3.6901636490845475,-10.0,40.0,24.794161234445994,-0.5694661682761668,-0.5618237735643044,-30.39320116496535,-0.7737296300160936,-0.8738070649488178,-1.0533259209386976,0.3914824206920993,-19.805480208141546,51.150822059415724,76.18585580071874,0.2618631813675165,-2.714735269546509,-20.825761556625366,-31.366261839866638,3.165345638990402,-122.43696451187134,-4.270817729306916,6.8761725648262155,False,0
GUIDED_NOGPS,3.08813738822937,31.517399439430715,-21.433530768339565,50.56068560115066,76.39472817661483,-3.628507532545381,-10.0,40.0,23.832782662568917,-0.6540064612020294,-0.5565538023719635,-30.482751775173387,-0.7448833949259016,-0.9814461363018925,-1.4245870892024324,0.39045787277133887,-20.16369648895907,50.7534012872528,74.98625715366278,-2.0192258059978485,-1.6988998278975487,-19.040794670581818,-104.01146411895752,21.103712916374207,-44.89259421825409,-4.168340051562378,3.387564653782993,False,0
GUIDED_NOGPS,3.125145435333252,27.025851181731486,-21.406954476262573,50.48927078181391,75.84706143476251,-3.574920449123313,-10.0,40.0,22.884968072782726,-0.6607883054393232,-0.4273253959757058,-30.631800163241405,-0.7446649107473786,-0.9493882778577729,-1.5658516862896263,0.3895007499295082,-19.795293093711734,50.39300377588383,73.40877563089805,-2.0192258059978485,-1.6988998278975487,-19.040794670581818,-104.01146411895752,21.103712916374207,-44.89259421825409,-4.202586305687227,3.387564653782993,False,0
GUIDED_NOGPS,3.1568822860717773,31.513373805373565,-21.34738205816805,50.40807045267331,75.26054956575685,-3.5061316536438976,-10.0,40.0,21.951346324461326,-0.6650510905333517,-0.39287397516301437,-30.84907531092868,-0.6916674265913331,-0.8671444068558675,-1.236578696809302,0.38867119815824613,-19.750132103909348,50.37812626745624,73.1197062246186,0.26748545933514833,-1.9641883671283722,-19.432571530342102,-48.917388916015625,3.7471674382686615,-76.25470161437988,-4.117346601500239,3.8241452228883306,False,0
GUIDED_NOGPS,3.183716297149658,37.27176916993238,-21.28917582840892,50.37013135639332,74.76909419524006,-3.439608574566502,-10.0,40.0,21.03252980400279,-0.6905364473173733,-0.3492360566383616,-30.965113394738026,-0.760816943424368,-0.8382436067243925,-1.0716305336861873,0.38770117789996006,-19.809637016595694,50.34062216163814,72.79848473884508,-0.11856397613883018,-1.2715878896415234,-21.78945243358612,-12.27199137210846,-0.7464384660124779,-40.408411622047424,-4.06030615730198,5.225338894322582,False,0
GUIDED_NOGPS,3.222698450088501,25.654961495880457,-21.26260571365018,50.37339783755995,74.29640553229909,-3.3517433016876224,-10.0,40.0,20.129113580061244,-0.636447325506396,-0.38388848778389234,-31.171747107698422,-0.8633839050604164,-0.9357644973330914,-1.109627531146851,0.3866707651041344,-20.47570847821843,51.41538296143817,73.3005379191836,-0.11856397613883018,-1.2715878896415234,-21.78945243358612,-12.27199137210846,-0.7464384660124779,-40.408411622047424,-3.5898904919218078,5.225338894322582,False,0
GUIDED_NOGPS,3.2620949745178223,25.3849468613068,-21.168707531224545,50.30130311916502,73.58921289768605,-3.198433004729008,-10.0,40.0,19.24167455877901,-0.7055705474542175,-0.37620713964941965,-31.37291666932281,-0.7246870076273791,-0.8184638313655724,-0.3636588056016701,0.3861388533898229,-18.87210424960481,50.44357132162122,70.56358857211444,0.3676216583698988,-1.704871654510498,-21.090050041675568,18.05422157049179,-10.830707103013992,-50.99537372589111,-3.4797976306763325,7.597795711016403,False,0
GUIDED_NOGPS,3.291942834854126,33.50725378666837,-21.04326692503934,50.24653043665397,72.95658024825936,-3.107530404306646,-10.0,40.0,18.37077063901856,-0.6995616885318988,-0.3925166175312052,-31.615921139613523,-0.7115230066879599,-0.6813065753210344,-0.6450197960526252,0.38553210671013405,-18.87210424960481,50.44357132162122,70.56358857211444,2.411084994673729,-1.2768397107720375,-19.502754509449005,104.01406288146973,-31.79207742214203,-11.99776977300644,-3.4797976306763325,3.9560255035906984,False,0
GUIDED_NOGPS,3.3334779739379883,24.078625884081934,-20.921316588501192,50.2237514464155,72.43144555113064,-2.9750372290510536,-10.0,40.0,17.516939867594488,-0.6359519233481585,-0.29309067436124026,-31.76854513171204,-0.7962601448587803,-0.7564930508201113,-0.50579980392949,0.38469270908155695,-19.43079996437491,50.89239142166022,70.24243265631836,3.8078494369983673,-1.6151122748851776,-18.175150454044342,-80.44164180755615,1.1525364592671394,22.035247087478638,-3.3549602752900443,7.701243194864477,False,0
GUIDED_NOGPS,3.3606691360473633,36.783751074316385,-20.77997686488558,50.191828526063006,71.74568246350385,-2.781452312051084,-10.0,40.0,16.680699594505455,-0.6359519233481585,-0.29309067436124026,-31.76854513171204,-0.7433356186240958,-0.5932635953548059,1.1626784395804186,0.38427128640695096,-18.989522735620874,51.22138670513371,69.56826671540495,3.8078494369983673,-1.6151122748851776,-18.175150454044342,-80.44164180755615,1.1525364592671394,22.035247087478638,-2.6267787180664843,7.701243194864477,False,0
GUIDED_NOGPS,3.4083895683288574,20.9568502048566,-20.718253581475395,50.20788453314161,71.28708088790694,-2.6922541329652843,-10.0,40.0,15.862545628166629,-0.7615990161026553,-0.3193611560542696,-32.15647255581209,-0.8542542588016103,-0.8556012986332304,-0.8672011807834684,0.38334072631674626,-18.989522735620874,51.22138670513371,69.56826671540495,-1.0629594326019287,-0.8108766749501228,-18.396426737308502,110.10556221008301,-17.87928193807602,14.694216847419739,-2.6267787180664843,4.128570169290383,False,0
GUIDED_NOGPS,3.4342567920684814,38.662881162199035,-20.6948409653809,50.19688423045096,70.61061925263786,-2.5466077415222195,-10.0,40.0,15.062951390640933,-0.6734510492737037,-0.29063308692050505,-32.355972136184405,-0.8032098282676247,-0.8854657304022052,0.721182533331792,0.3829793551918318,-18.82942171820522,50.534578170175664,67.22365344508293,-4.064115509390831,0.31661633402109146,-20.868900418281555,-116.41459465026855,15.278317034244537,-107.00982809066772,-2.5676583207538304,6.462661386529419,False,0
GUIDED_NOGPS,3.4608421325683594,37.6201128342198,-20.617019880636793,50.189532222830145,70.0831490543282,-2.4667752346417386,-10.0,40.0,14.282367072871637,-0.6795946977104244,-0.36350792367208834,-32.59608060626703,-0.8048438752173751,-0.7373149201149214,-0.27509976683960446,0.38235482403313625,-18.82942171820522,50.534578170175664,67.22365344508293,-0.08397235069423914,-0.391234178096056,-18.568246066570282,41.05445742607117,-7.905702292919159,109.30167436599731,-2.5676583207538304,3.7077946579244556,False,0
GUIDED_NOGPS,3.4946696758270264,29.56712745934286,-20.538586923146063,50.2034587215054,69.59832800128888,-2.311983836703483,-10.0,40.0,13.521218789914087,-0.6664129662208287,-0.324609115894793,-32.84643436010468,-0.8504814436856052,-0.7740325741260826,0.44442122390576544,0.381650517256126,-19.22938692948041,51.22574232205421,66.96188614014102,1.352915447205305,-0.9678931906819344,-16.713441908359528,12.327726930379868,-9.024151414632797,145.57433128356934,-2.3596023338001473,8.621568496841382,False,0
GUIDED_NOGPS,3.5272507667541504,30.698939448278892,-20.503166860365255,50.22672130788272,68.98855956120033,-2.1580374911878,-10.0,40.0,12.779907736168184,-0.7847950855759591,-0.24086960928826154,-33.06243909260633,-0.8732000426141399,-0.8589710184818199,0.5936382385981676,0.3812408048184964,-19.135156884715716,51.46285132647856,66.37182538521265,-1.8844913691282272,-0.2253183163702488,-18.43334138393402,-12.148891389369965,0.8779368363320827,65.4139757156372,-1.862712867087108,5.869967452433332,False,0
GUIDED_NOGPS,3.5606088638305664,29.981372009406922,-20.461598862461614,50.2598676274191,68.40734782278402,-2.0092247219363117,-10.0,40.0,12.058809340609486,-0.7498330547619563,-0.30819118207950713,-33.28855933526877,-0.8914668683207184,-0.8459524663598474,0.5783317363021783,0.38081060981329196,-19.137106700508305,51.50403030988624,66.05302014869098,-1.296865288168192,0.26272854302078485,-17.147433757781982,-9.035693109035492,8.606365323066711,99.57444071769714,-1.7806903742362388,5.629536682799244,False,0
GUIDED_NOGPS,3.5989770889282227,26.067930813740297,-20.381415812935924,50.26358229920869,67.74254361479409,-1.844016725607978,-10.0,40.0,11.358272422022196,-0.8059454066711382,-0.2946302683692699,-33.33053426281309,-0.8293352962416127,-0.7840191266233542,0.6215905627160618,0.3805666419986877,-18.729032610309446,50.89482888919622,64.41832121846295,0.32708076760172844,-0.013133462925907224,-18.907926976680756,7.3129162192344666,-15.817636251449585,27.146422863006592,-1.7084628842591534,6.671444474644253,False,0
GUIDED_NOGPS,3.635331869125366,27.509946545108715,-20.34826131920647,50.291952232325556,66.98983087021503,-1.6429371607098817,-10.0,40.0,10.678618344230529,-0.817459504786193,-0.27016365030821154,-33.56130586430031,-0.8757960425626053,-0.8658401726484202,1.2276533304071569,0.38054905890146995,-18.871272863491534,51.33937502534198,64.21488192494007,-2.443956583738327,0.6663308013230562,-21.36208415031433,19.258445501327515,3.8245931267738342,42.60819852352142,-1.2229572803206623,6.90648323681544,False,0
GUIDED_NOGPS,3.664423942565918,34.37785026965887,-20.323804778123833,50.32355265520389,66.31768516785556,-1.4680861540173729,-10.0,40.0,10.020140171330866,-0.9601068850239987,-0.43441203740471135,-33.92261262611023,-0.8954686206576951,-0.8713001709348241,1.5134033512121345,0.38044482993249634,-18.980139941377583,51.225341634963485,63.634135207425324,-2.443956583738327,0.6663308013230562,-21.36208415031433,19.258445501327515,3.8245931267738342,42.60819852352142,-1.2279054775032974,6.90648323681544,False,0
GUIDED_NOGPS,3.696950912475586,30.747098883537493,-20.32662731461884,50.38041156198701,65.70118049408916,-1.2738364255963288,-10.0,40.0,9.383101822924061,-0.9634933781918555,-0.43761945155026705,-33.99298406512887,-0.9417304836356728,-0.9385154746451136,1.6217708269388247,0.3802570475689649,-19.08241600574732,51.57542730624892,62.55193281170693,-3.8264870643615723,1.054033637046814,-21.473871171474457,-29.18558120727539,-1.0066363960504532,26.052623987197876,-0.7647116579708041,8.701679785616463,False,0
