Mode,Time,Freq,North-Vision,East-Vision,Down-Vision,Yaw-Vision,North-Desired,East-Desired,Down-Desired,Roll-UAV,Pitch-UAV,Yaw-UAV,Roll-Control,Pitch-Control,Yaw-Control,Thrust-Control,northVraw,eastVraw,downVraw,N-Velocity,E-Velocity,D-Velocity,yawVraw,yawRate,Q-Size
GUIDED_NOGPS,0.004881620407104492,205.65354253493504,10.928303130955483,61.11080639954154,96.06971752505011,12.672743918255913,16.951474367363378,58.09326017954032,99.68425679076373,-0.2707483251733352,-0.743393787200221,21.31801760722862,-3.025027626761955,-4.780084503157547,10.0,0.5072296690185032,21.83644609522549,57.59928843308411,103.86753384038114,6.721710413694382,4.8282962292432785,17.90156066417694,11.392419729623255,-5.070480576591822,1
GUIDED_NOGPS,0.01571059226989746,92.39572640158607,17.534946172994132,61.44144892808517,106.6564132919809,11.861411971871902,16.95109847455737,58.093007832442495,99.68395846869754,-0.2650973041305017,-0.7432659345966949,21.414295953769116,-3.0826237447970217,3.439830214313746,-8.414040626863807,0.4860527669180538,21.83644609522549,57.59928843308411,103.86753384038114,9.641042351722717,4.669284075498581,14.423948526382446,11.392419729623255,-3.639651568122531,0
GUIDED_NOGPS,0.02780008316040039,82.744209903334,17.822727774828753,61.01337619403555,106.47141961222513,11.718354555391727,16.948518076940886,58.09127554111011,99.68189428838153,-0.2809701301530824,-0.7317348677304208,21.457761570099787,1.579568270222866,2.04126951045414,4.779802595082576,0.48641517429085723,20.13702575636134,58.02651613809059,104.67935523238174,2.7575384825468063,3.615407273173332,16.112811863422394,11.173995530495748,-4.453927084177588,0
GUIDED_NOGPS,0.06455659866333008,27.21135605755881,18.25830868076878,60.730383239019346,106.45534286880093,11.559917961148512,16.941666948987134,58.08667619196501,99.67636415568607,-0.25578348742354307,-0.682567270742408,21.604293033458653,0.09588436839512296,1.0020968827362438,6.072379253092176,0.4864263177789536,21.53664871947784,58.324605829770604,105.35702485237249,2.9303502291440964,3.7423253059387207,13.442286849021912,10.821078835239117,-4.5577075397477,0
GUIDED_NOGPS,0.09526324272155762,32.57661240213744,19.353943213749353,60.43586360036323,106.77717176073048,11.38938441776733,16.928626556131988,58.07792182040242,99.66573883070399,-0.44652052206011594,-0.8078371556278202,21.740177939448767,-0.1226595089120261,2.778827512728748,5.721763770816673,0.48575268356776935,26.96141004665688,57.09355626474008,105.08171408364646,4.600004106760025,3.5743992775678635,13.82528692483902,10.882076287440682,-2.510762384414466,0
GUIDED_NOGPS,0.12920045852661133,29.469903390128227,19.719548041863067,60.29199681774971,107.08007202015249,11.227383897835283,16.907622579692525,58.06382127787387,99.64845895045087,-0.47787802726135026,-0.7185871271041165,21.86562802393439,-0.1250334979287925,1.0453060456582168,5.782928898578434,0.48510222220094873,21.825132116167808,58.083711522466984,106.17971083335786,2.8282884508371353,3.6461643874645233,10.966163873672485,10.693154733635666,-3.5140990307993567,0
GUIDED_NOGPS,0.16292524337768555,29.660589774414824,19.959766668502755,60.172236060735614,107.43408445806789,11.068345993711787,16.877021441785537,58.04327789897021,99.62303405156545,-0.3883686649925976,-0.37352642380232187,22.004892166016365,-0.13041955660069174,0.8309747356864309,5.696567500492578,0.4843328248645227,20.794518206134136,57.96045736455414,106.65862274272874,3.4536559134721756,3.425118327140808,11.140332370996475,10.65435666667,-3.7401646319484385,0
GUIDED_NOGPS,0.19614934921264648,30.101436065997316,20.33553011649379,60.072115466699685,107.75449666835796,10.955067346940908,16.83532683024607,58.01528716850457,99.58804159301008,-0.3133660909124231,-0.06919557926434136,22.087523794595178,-0.24024163209565189,1.1686925151323029,5.892540434996845,0.4836111401702843,22.171107719482485,58.03133612860492,107.06741011358329,7.212290167808533,2.782944217324257,9.044139087200165,10.465596210410741,-0.8381839529144514,0
GUIDED_NOGPS,0.23651814460754395,24.777754804255746,20.60153187656871,60.000954218558334,108.10719060249677,10.822284311607199,16.781176223545952,57.97893438859537,99.54212597877095,-0.2093281692271129,0.35869786967081263,22.225860738497325,-0.27277534208798426,0.974197558152081,5.706692879719766,0.48280235552114936,21.876820250892923,58.381130106939494,107.64720920091253,4.12321500480175,1.827005296945572,10.909800976514816,10.238270320979147,-2.015026187237883,0
GUIDED_NOGPS,0.2649714946746826,35.15231566067148,21.01348614873757,59.94975694885365,108.45213146911047,10.701570845498972,16.713337415712285,57.933392345749255,99.48399758055864,-0.09792359503725301,0.625125753348571,22.324773830510157,-0.3893332821279183,1.3002173125791736,5.729135994142452,0.48198369817872966,23.511422321637962,58.316068425599255,107.65642523865932,7.279498130083084,2.635088935494423,11.403083056211472,10.108861564414461,-1.4029532989191766,0
GUIDED_NOGPS,0.2999145984649658,28.623027788393294,21.268222601958094,59.87121097141912,108.73713574095244,10.558039010981112,16.630705041246024,57.87791897794413,99.41243176050837,-0.14698617786677687,0.8795325307675333,22.45252910384066,-0.3072761059400565,1.0689810775071098,5.497060885512129,0.48125777736239145,22.376409807149876,58.0530041866044,108.23970271628966,5.00611737370491,1.4950535260140896,6.442097574472427,10.011737974492489,-3.032409757981139,0
GUIDED_NOGPS,0.3316655158996582,31.502249461105727,21.567404413476087,59.819939306109084,109.07650361523696,10.417728950088065,16.532297100040456,57.81185504171208,99.32626789388047,-0.1951469889628739,0.9982389773865336,22.563026196685833,-0.414321518325951,1.2544527622430224,5.388740695120284,0.4803940157815246,23.721302037354103,58.21965847403415,108.28227954483742,3.353656828403473,1.9932573661208153,11.789963394403458,9.915327973616826,-3.171082661813085,0
GUIDED_NOGPS,0.36356449127197266,31.358109977197113,21.751683989946578,59.751984578849786,109.27643644192698,10.307020313375315,16.417251482299747,57.73462177922239,99.22440839176069,-0.257718725475331,1.1386640381839992,22.69980756500451,-0.3719477182273892,1.0905445022695712,5.4882869475944,0.479777638412769,23.025595493014873,57.890852536984575,108.48631674457414,1.4584400691092014,2.2190844640135765,5.750254541635513,9.9162342377136,-2.4451443301713307,0
GUIDED_NOGPS,0.40019822120666504,27.30009047299804,21.982433042134996,59.68017650860915,109.47673088973318,10.211618464334869,16.28482249345746,57.64571858536453,99.10581772376062,-0.27206591135291297,1.029913872940762,22.801778874218215,-0.3941520816331444,1.1534677144794425,5.608128513801105,0.4791246126202693,24.702950820672598,58.04837989160658,108.38901865927133,-1.5956073999404907,0.7207879796624184,6.6986218094825745,9.725912249294367,-1.251960654815232,0
GUIDED_NOGPS,0.43109822273254395,32.368451921592836,22.097871816421517,59.55537508294045,109.67461331918602,10.092517315224343,16.1343773790951,57.544720674831105,98.9695214407181,-0.373923615310814,0.9837128725692089,22.91374958037682,-0.29977572928793045,1.1064430078444185,5.282458042927746,0.4784430608624465,24.36011863386335,57.394815304054895,108.84361194163726,-6.740213185548782,-0.8162064477801323,3.5622570663690567,9.668243752822832,-2.4302308255620195,0
GUIDED_NOGPS,0.46965742111206055,25.938158610795032,22.232815367875332,59.47140373322889,109.80757106905301,9.929936788595707,15.9653928498606,57.43127674920085,98.8146051973975,-0.3884551095742806,0.8956477217839438,23.045326344547945,-0.3929226345665653,1.0650137837806335,5.1151223097755025,0.47785034887168254,24.05201436669575,57.88358857581001,108.90079904121185,-1.9227007403969765,-0.09928456274792552,3.578256443142891,9.504352712914178,-5.665447683021054,0
GUIDED_NOGPS,0.5000381469726562,32.925424686783686,22.45272435706328,59.40487921294761,109.90059565404371,9.778067884991826,15.777451606386883,57.30510666402161,98.6402137751902,-0.31758047771287967,0.9172345346557691,23.177678335189867,-0.5447926576248472,1.4748504404633027,4.862790779683452,0.47730189122563055,24.734894298603372,57.99055143760643,108.91694783342325,1.3453342951834202,0.03728757728822529,0.3306867787614465,9.316180732469906,-4.406015014697241,0
GUIDED_NOGPS,0.5333902835845947,29.988017102083422,22.569552759349826,59.328116973940205,109.97125374659579,9.621403064574707,15.570238864210372,57.165999095893326,98.44555010481496,-0.2666598699857008,0.8401285291154951,23.272583813707193,-0.49873594474102684,1.2429659899952918,4.8372419313867425,0.4767558080035808,24.2470561244855,57.977295812327704,109.03072594012963,-1.7101382836699486,-0.6039725150913,0.9637210518121719,9.288152179068685,-5.639857098635132,0
GUIDED_NOGPS,0.568840503692627,28.213123465509703,22.696019653392185,59.256112647902725,110.03640303156374,9.493758093609848,15.343538878689518,57.01380920955101,98.22987428901821,-0.34653541051270914,0.888229122489105,23.36315553719615,-0.5428657076142007,1.3071136269356787,4.9576392731132675,0.4761778348968421,24.71624935242522,58.035584964369384,108.96620692578945,-2.8071561828255653,-0.9949563071131706,-0.33017722889781,9.197089669114364,-3.3496340520009733,0
GUIDED_NOGPS,0.6003875732421875,31.705374555899915,22.667681284806083,59.2261340946055,110.34002172707432,9.37308044663612,15.09723146992332,56.84845632494772,97.99250262527457,-0.31624939123752055,0.7689082256490681,23.51233540640569,-0.6328782155884429,1.0654825044497995,4.8787246656991625,0.4750798560857047,21.96093339231227,58.95625835855466,112.98362602790345,-2.4393275380134583,-1.7007824033498764,1.3625288382172585,9.117338112154293,-3.0865432760217213,0
GUIDED_NOGPS,0.6479740142822266,21.017969713065877,22.733536448676553,59.127672816553876,110.35983704248423,9.23943771513285,14.831288547669862,56.669921584337544,97.7328066284871,-0.4230970819926448,0.8087181433090461,23.704705976831807,-0.5623557294732415,1.3343154234960461,4.745038586059402,0.4745039292786718,24.449885612209492,57.80374196144597,108.99752200118924,-4.521194472908974,-2.0744748413562775,-0.9198336862027645,9.029809770327573,-4.207294075890305,0
GUIDED_NOGPS,0.6689541339874268,47.67879959076958,22.540742850868657,59.081132807928626,110.42387499725899,9.047965967895399,14.545770636264825,56.478245619358574,97.45021205368778,-0.48035525149594926,0.778391356342249,23.76716634924428,-0.6109247200302732,0.8267005834256893,4.3041208049433415,0.4737929942206558,20.479675675684724,58.78708428534249,109.18681751008376,-7.62987807393074,-2.2984379902482033,1.2888859026134014,8.728940381927263,-6.958712839624881,0
GUIDED_NOGPS,0.7054691314697266,27.394235479299063,22.46082098091237,58.99146218113215,110.44118303653157,8.894151835601114,14.24082339954002,56.273526218115904,97.1441979187378,-0.5313560605850229,0.8118639790303659,23.88286633868971,-0.5797764733721827,1.0866916552409456,4.514422202639439,0.4731264462925355,22.70660340969295,58.16694888965965,109.0318128605629,-7.749198377132416,-3.0049048364162445,-0.7542692590504885,8.788270844374221,-5.168888234606073,0
GUIDED_NOGPS,0.7354001998901367,33.41515762302722,22.41038225858926,58.89212423720117,110.39805926334921,8.740990055864605,13.916674165741913,56.055915992264595,96.81429552702804,-0.6405565914266579,0.8622901450946593,24.012537480082404,-0.6773629219118692,1.3164144625920795,4.226298414969693,0.47253654399110856,23.48840853167853,58.145280784492556,108.74275633295846,-8.030836284160614,-3.6662522703409195,-3.4939922392368317,8.633271323853261,-4.684474570082667,0
GUIDED_NOGPS,0.7694635391235352,29.362212717102913,22.349470355325586,58.752117235942485,110.24871086536052,8.649283523232622,13.573628452450153,55.82562004409265,96.46008749017935,-0.6451328715314193,0.88284591956693,24.17375555770409,-0.5949521029098017,1.2978090648855345,4.6511305425067615,0.47210803698816783,25.486298516662647,57.5773194613443,108.48610678695063,-14.881044626235962,-4.683421179652214,-7.1816518902778625,8.620673478277334,-2.52646562964656,0
GUIDED_NOGPS,0.8018302917480469,30.901819789287558,22.34723151518732,58.62874097626454,110.1315402463608,8.512036617424757,13.212066491496087,55.58289363360401,96.08120675074304,-0.707132953226858,0.8436944214707707,24.28583383934212,-0.7012295024955706,1.514828431925383,4.259660542846154,0.4715664152130103,25.486298516662647,57.5773194613443,108.48610678695063,-10.471803694963455,-3.7195421755313873,-6.324294209480286,8.620673478277334,-4.7829428460258026,0
GUIDED_NOGPS,0.8398425579071045,26.311588429762434,22.311385099874016,58.508244030776225,109.98332269572452,8.377993784195386,12.832439753881296,55.32803984560152,95.67733560490113,-0.751093544828941,0.9418115830018848,24.46024954998757,-0.6817581827163159,1.4053865146848161,4.321353918125946,0.47103336149677394,24.35002747905299,57.76976315923983,108.33074416162295,-8.557133376598358,-4.461082071065903,-7.069884240627289,8.376284731137932,-4.6068298333716085,0
GUIDED_NOGPS,0.8690574169158936,34.23642151661089,22.10063268613219,58.38137860052887,109.91322250110548,8.2589649996377,12.435267474696111,55.061407256769925,95.24820472516686,-0.8088229440241235,0.9730749596586199,24.57075859566379,-0.7486783397561769,1.2294685566784989,4.132984331734251,0.4702983198681911,20.6825548952576,58.22669440840315,108.43167434876818,-8.220914751291275,-6.376117467880249,-2.7307817712426186,8.053393318666414,-2.5784196770116736,0
GUIDED_NOGPS,0.9033663272857666,29.153227544119385,21.97683225145134,58.228032439413774,109.80148532675172,8.134778751009216,12.021133178038156,54.78338760275882,94.79359218308498,-0.8211840923179656,1.0347483662126615,24.7431781835243,-0.7004443491377684,1.4038399476008707,4.161049004333396,0.46959185530438746,23.069583329014293,57.69719505975159,107.9037892506406,-10.677233338356018,-7.044440507888794,-2.7646608650684357,7.996642906790404,-4.370641464985744,0
GUIDED_NOGPS,0.9360413551330566,30.60999532928538,21.779331061698187,58.04566924587967,109.7356036756362,8.0224054960859,11.590681201930849,54.494413445265685,94.31332247193218,-0.9390065096871252,1.021071872895063,24.820871585333194,-0.6731011963697858,1.338463111020422,4.1266921810099335,0.46874289077083725,22.17141261711024,57.34581310014976,107.99611727730539,-12.355537712574005,-7.6051004230976105,-0.9489201940596104,7.949180222383058,-2.7215016813962745,0
GUIDED_NOGPS,0.9701597690582275,29.31521708742207,21.579500998567735,58.010954277471626,109.76893574308335,7.869822909396776,11.144613223241945,54.19495583911879,93.80726552941742,-0.957425395444534,1.079247368820412,25.014268391682105,-0.9833570566072947,1.3266527586833063,3.827176599772373,0.46764233627829,20.561974009754117,60.19316139955383,110.79779485651144,-7.702258229255676,-7.111436128616333,-3.08965053409338,7.44214445844865,-4.385908645328016,0
GUIDED_NOGPS,1.0047197341918945,28.940405301906452,21.32595924656326,57.93305922660018,109.7951455145709,7.742666806105393,10.683684782602061,53.88552199936025,93.27533576038239,-0.937119243042086,1.2003741570048296,25.14821010885335,-0.9436778976342857,1.2870873812570918,3.8745557687008816,0.46650426239666387,20.57080162215696,59.90657322309244,110.74124395314124,-11.505375057458878,-8.793001621961594,-3.1433943659067154,7.421386516706999,-2.8910820449961743,0
GUIDED_NOGPS,1.037966012954712,30.085458314504386,20.98449319925915,57.85685047502137,109.8944971066591,7.603114798029471,10.208701809323177,53.56665296832893,92.71749105950181,-0.9653078606335518,1.2687472320827133,25.317901036140437,-0.9341282863258284,1.1292799961285185,3.7605936448228663,0.4651659371036123,19.130144976084022,60.10252374721752,110.85423494222991,-13.457798957824707,-9.317319095134735,1.5719568356871605,7.300270096989307,-3.8925978056370214,0
GUIDED_NOGPS,1.0710959434509277,30.191139103833002,20.721387496770024,57.66530228659743,109.77911550380608,7.475408419062403,9.720517146317203,53.23892128274351,92.13373183398384,-1.0274143438696546,1.257027908127441,25.388202465720084,-0.7882547970796189,1.3811186592863933,3.712316658757663,0.46420585832067873,21.05094601447103,57.88426342612145,107.39504618114165,-14.361068606376648,-9.972493350505829,-1.3864429667592049,7.370526289154171,-3.6984471171584703,0
GUIDED_NOGPS,1.1107723712921143,25.206911265362542,20.54559151676152,57.442908408900095,109.71308133605616,7.354549955161944,9.220027075014478,52.90292864078539,91.52410002627052,-1.1237037894675557,1.373946125844367,25.616714982139325,-0.7286283501683648,1.5161437062318113,3.8041311934092557,0.46308976659975487,23.006879523318567,57.54557339493407,107.18899023865269,-14.844730496406555,-11.301447451114655,2.2960904985666275,7.389908542248074,-3.78264328594404,0
GUIDED_NOGPS,1.1436285972595215,30.44181708653588,20.17212129011633,57.14413575724605,109.66016033333125,7.187512187337781,8.708167840282279,52.55930356918171,90.88867813673801,-1.142531632801519,1.2950057876251218,25.719022678169654,-0.597863440256416,1.2668022495969002,3.297737570168404,0.46190004555157427,19.995435159436248,56.91023328918645,107.40876709302117,-16.850532591342926,-12.931971251964569,1.8087752163410187,7.234707771850758,-5.0278157999413375,0
GUIDED_NOGPS,1.1778614521026611,29.217197469976874,19.651037513471863,56.83973301389119,109.54289239146446,7.051546205769405,8.185912175343395,52.20869909028832,90.22758824639713,-1.1534430734440257,1.3598536313176326,25.867273641652073,-0.5618688029338558,0.9786005153927715,3.4359203205143745,0.4607859744865002,17.975138487678244,56.863141827805606,107.40611705001702,-23.205815255641937,-15.106166899204254,-1.7675306648015976,6.958108460518979,-4.304620856468401,0
GUIDED_NOGPS,1.212867021560669,28.57213703277315,19.210880660989588,56.55367828828531,109.49654083222468,6.953720770849049,7.654265826694607,51.85179038917275,89.54099103959364,-1.1723784922574167,1.3352219414581568,26.006836604510237,-0.6328790319506039,1.1623176998669862,3.6098139509876055,0.45947771511052127,18.00856045605245,56.984109939988635,107.26017570858777,-18.095476925373077,-14.278726279735565,2.8855467215180397,6.840228088996632,-1.6782278517172617,0
GUIDED_NOGPS,1.2454354763031006,30.71130246316961,18.872603258881846,56.242617388838525,109.37218540474315,6.832593237180885,7.114264079025235,51.489272480697224,88.82908482670862,-1.0988325093786004,1.316596976086884,26.10738040418741,-0.6357300127406801,1.4299286075143445,3.360666360042443,0.4582756721924101,19.345506661004666,56.333442359047595,107.07260568659508,-15.805412828922272,-14.141848683357239,-1.59719567745924,6.8647687169466405,-3.4616764751458624,0
GUIDED_NOGPS,1.2794790267944336,29.37907750499072,18.36712803797711,55.896058838443665,109.27560077544015,6.70690655676411,6.566968280135654,51.12185787660158,88.09210456685894,-1.040314863664516,1.2065266633431302,26.17645581481104,-0.5327126227854903,1.1000794954445072,3.285637361879097,0.4569660391209023,16.59122133066481,56.58238305455579,107.0851892804308,-19.98566836118698,-18.165798485279083,0.021349661983549595,6.570678328712427,-3.6522861374265854,0
GUIDED_NOGPS,1.325941562652588,21.525920071439934,17.90563356767155,55.5200718210002,109.25030134011935,6.6121486368359,6.013462365855833,50.75027425258633,87.3303208905975,-0.945789314419771,1.108657523056252,26.260765962378386,-0.49225655235206667,1.1694800080736965,3.55252511194524,0.45545300753998774,16.74222889876203,55.76086073221715,107.05496053208279,-17.913757264614105,-17.729443311691284,4.344767332077026,6.532692638915164,-1.8044873136195325,0
GUIDED_NOGPS,1.3571019172668457,32.10188586823414,17.35369147128954,55.0769087098879,109.15481884640619,6.433167134566387,5.454849384963849,50.37526211539556,86.54403912261378,-0.9139424901975287,1.1353505426628967,26.36309756407081,-0.33763003978044026,1.061802480940487,2.73633753478644,0.4540425941427021,15.836364381183687,55.74732251863081,106.95220530313867,-15.591272711753845,-17.450538277626038,-0.21848957985639572,6.333185047345849,-4.357648310750265,0
GUIDED_NOGPS,1.3910419940948486,29.469075170906844,16.808994938649036,54.72309546790011,109.07232087120211,6.321875387774321,4.892248024104415,49.99757246989996,85.73359830443404,-0.7970139738359946,1.0179186733760444,26.528393264626995,-0.5238884599912051,1.0659990987204135,3.1356586400789044,0.4525551034172657,13.935742844199023,55.834250667111355,107.07151795586192,-18.158958852291107,-18.48447471857071,0.5668819416314363,6.2264826761771035,-3.215262459798843,0
GUIDED_NOGPS,1.423705816268921,30.63839236798469,16.235024683352588,54.327881290098915,108.97171771327879,6.222378652477203,4.326789132707386,49.61796448617978,84.89937021712186,-0.7366709600662243,0.9536030508302655,26.584819164907763,-0.4385816513539445,1.0199714403908655,3.125864600267189,0.45105631613309116,14.189785742245647,55.54001153357322,106.82017451939294,-21.271322667598724,-20.350217819213867,-0.03486608620733023,6.1354420963437715,-2.2394533967598083,0
GUIDED_NOGPS,1.4573643207550049,29.700705995652143,15.557807636006213,53.943114542226986,108.86460754248527,6.096635516000757,3.759612247906336,49.23720316660784,84.0417584039784,-0.6757994604094245,0.9054631305080753,26.69135474803433,-0.4356811779181624,0.7981589790412343,2.9065851843750607,0.44952208081216255,10.822870117522207,55.2035541042366,106.78219974551784,-19.474616646766663,-19.4589763879776,-0.5198327358812094,5.962581494028911,-3.826082435291675,0
GUIDED_NOGPS,1.4905059337615967,30.17832268462557,14.892264559396441,53.51260509638554,108.76225731895403,5.972919771643959,3.191862119457035,48.85605701293248,83.16119719324288,-0.5828182809690426,0.9320643694477477,26.809342850851714,-0.34333789508091406,0.8236210637473043,2.8367925340549944,0.4479317372670649,10.44080689695734,54.423478276772954,106.88333729580262,-18.356363475322723,-20.2536940574646,-0.7316009141504765,5.904893544475778,-3.7228757156118437,0
GUIDED_NOGPS,1.5250749588012695,28.93461554381269,14.18903634494558,53.094018331304724,108.60722427583394,5.837856849563966,2.6246852346559884,48.475295693360536,82.25815072079288,-0.6056246027728326,0.7880867565082292,26.895942819338305,-0.35677210818397637,0.7435917493567149,2.7268317951754932,0.4463990163603347,9.450827066585882,54.64194517997466,106.7128951431288,-19.53730285167694,-20.965862274169922,-3.6604829132556915,5.743673076869321,-4.352879131162303,0
GUIDED_NOGPS,1.5700454711914062,22.239977093529454,13.420269440220311,52.63362495572022,108.51251025902562,5.751329835191095,2.0592263432589597,48.095687709640366,81.33311195284473,-0.45171605486267424,0.7720401875486362,27.00670628956111,-0.29324402882931666,0.6795598511409862,3.054271703363014,0.444690919759705,9.338717661469158,54.25889736333179,106.71675479569807,-24.644312262535095,-22.995902597904205,-0.15771682374179363,5.757262371369485,-1.7185986453019741,0
GUIDED_NOGPS,1.5928559303283691,43.85512337933919,12.639485503506332,52.16489931435133,108.42561715767218,5.667912085730428,1.4966249823995206,47.717998064144766,80.38660170865398,-0.37060104844472014,0.6923063200860529,27.125840156611766,-0.1283850656131435,0.36705377801632205,2.707930475069725,0.44294467744944865,7.667542241259408,53.49707538919242,106.75001723306745,-22.958751022815704,-22.43960201740265,0.009948492515832186,5.691244659439825,-1.7300611968331365,0
GUIDED_NOGPS,1.6287734508514404,27.847850479699897,12.012684608290298,51.795127529702796,108.368699230331,5.577576870728322,0.9380120015075413,47.342985926953986,79.41916768321568,-0.339885581025467,0.5442596753093522,27.205500652901623,-0.4299396939299436,0.8158575471928606,2.769334347012425,0.4410873998089601,7.522449532021534,53.158379292792006,106.6441443937847,-22.950316965579987,-23.15373569726944,1.687006838619709,5.506532636445623,-3.9355131648526807,0
GUIDED_NOGPS,1.6588571071624756,33.24722761682058,11.127136571555269,51.278000479379315,108.27245883962642,5.479631669881324,0.3845060872277166,46.97140230293873,78.43138346996474,-0.23062133732548054,0.4454440468943249,27.36384492843003,-0.08293439441316196,0.2994779309511004,2.7225801662852023,0.4392629420840123,5.428215151025084,52.527282046583764,106.62863011610395,-27.86518931388855,-25.512832403182983,-0.7801633328199387,5.382357723192838,-2.665054650217762,0
GUIDED_NOGPS,1.6972579956054688,26.047209474187557,10.096247356777726,50.72077016952816,108.16542123451904,5.404961688565744,-0.16278971166186196,46.6039876988431,77.42384758347647,-0.28330898969613577,0.29218335309911286,27.45742876534296,0.06345503390469433,-0.0734706137484748,2.796304925011398,0.4374208330758366,2.0186374205798345,51.75577053856102,106.53795448973585,-26.95716619491577,-24.710945785045624,-1.3162657618522644,5.2655968044364965,-0.6187417142695776,0
GUIDED_NOGPS,1.730180025100708,30.37897816986079,9.045921792673523,50.34118114336511,108.17822519537351,5.342414059326765,-0.7027914593312197,46.241469790367574,76.39718248216678,-0.10009692921463932,0.23721188290516104,27.55108261169488,-0.2761720864104387,-0.07945988155212647,2.8758894640459975,0.4352936406711383,0.17765310354913488,54.93883112551498,109.55462062059522,-26.298946142196655,-24.209846556186676,-2.6550522074103355,5.299430246830934,-0.5292670899160569,0
GUIDED_NOGPS,1.7645847797393799,29.073003022153216,8.290425729672062,49.73663863595875,108.08779622860322,5.196366033573857,-1.2344378079800258,45.884561089252,75.35203359099268,-0.028497950455673278,0.016432192835694318,27.688838989517578,0.13732296419103013,0.42593095120672214,2.2677130135114294,0.4333392088792738,5.5814343357736025,50.51362538113368,106.72397695794206,-19.108591973781586,-22.906886041164398,-0.737990252673626,5.0597624489878115,-4.46603017938685,0
GUIDED_NOGPS,1.7989685535430908,29.0917565458644,7.371040230388058,49.167950927394884,107.9606067943743,5.064720390575471,-1.7566934729189008,45.533956610358615,74.28906832415254,0.17759768500438564,-0.19389071440326758,27.835110905687984,0.14972145741838822,0.008615663762008986,2.2461966364745765,0.43142291825612855,1.9265524849320699,50.31971215311323,106.56161326287159,-26.25386416912079,-24.981790781021118,-2.9081586748361588,4.9852883120297715,-4.401569415321208,0
GUIDED_NOGPS,1.8379814624786377,25.637241598513466,6.507140580929998,48.62430195522568,107.84562566782638,4.96729534150035,-2.268552707651107,45.19033153875493,73.20897510778664,0.27600762419509794,-0.3067762390238302,27.983151840853427,0.10125302497698868,0.10505052043726464,2.4230185658184644,0.4294442588013359,2.2116190707461,50.19195283893468,106.58088956438176,-26.575341820716858,-24.927757680416107,-2.4537600576877594,4.950627498442154,-2.750552610370454,0
GUIDED_NOGPS,1.864759922027588,37.35275939762577,5.325786303510828,48.08181977460831,107.70714560334073,4.85295408652802,-2.7690427789538354,44.854338896796804,72.11246240267744,0.38078267270224064,-0.5568110016828969,28.072014309502585,0.23512418046356065,-0.7308098134751417,2.197917575468562,0.4274825826724862,-6.175371935547828,49.850660536740975,105.8045532062722,-24.542200565338135,-24.488826096057892,-1.8814245238900185,4.588425498485382,-2.9573267690956584,0
GUIDED_NOGPS,1.899275302886963,28.977594771422453,4.277713082631994,47.565092220268035,107.58993163463022,4.722795038753403,-3.2572274419598095,44.526607211211385,71.00025772694993,0.4998999445276465,-0.6848367611767034,28.198357441222186,0.1601033322474915,-0.4350682253503911,2.0789675912717445,0.4254421184960814,-4.646498319383597,49.587827948060564,105.99380448592655,-24.979636073112488,-24.80236440896988,-1.4973771758377552,4.532044748929822,-4.384762027321099,0
GUIDED_NOGPS,1.9332542419433594,29.440943389604463,2.8979794488378223,47.00992353560178,107.44368167165503,4.5498382269043365,-3.7322104152386935,44.20773818018007,69.87310667877207,0.7036837076960015,-0.7239741186468467,28.391173681491647,0.3467958439402742,-1.2653718401355487,1.6937322661539052,0.4234301463136631,-11.433163967186331,48.882720982428594,105.09925303994987,-26.69127583503723,-23.83667081594467,-0.8055101148784161,4.448065929019951,-6.573202875604198,0
GUIDED_NOGPS,1.9700379371643066,27.189835342927523,1.63219074377068,46.476695337163186,107.23449762241091,4.398401915095289,-4.193138855878569,43.89830434042153,68.73177195905524,0.7393385224630846,-0.8135279305060573,28.48548322600389,0.2648660330374676,-0.9532831327871997,1.8290665533100796,0.42150825589968083,-10.628730503656598,48.30174686864039,105.21087267217527,-25.962090492248535,-23.209288716316223,-5.488445609807968,4.2765892311028,-5.301779383305603,0
GUIDED_NOGPS,2.0002784729003906,33.07549877769892,0.13832172029442624,45.90647633852061,106.96543731007499,4.236499992557152,-4.639206834567485,43.59884673427462,67.57703239415441,0.7240622707758222,-0.9563618069247161,28.577318534489297,0.5643239844495844,-1.994361379992751,1.450434968355756,0.41969015611875893,-15.332888751281732,48.2725242793985,104.26446904084474,-23.87854754924774,-22.170817852020264,-6.302257627248764,4.146410457587405,-5.029870833107865,0
GUIDED_NOGPS,2.0387637615203857,25.98846280151929,-1.0960968122087613,45.51380414368488,106.6813173051523,4.114745584985295,-5.069658810674806,43.30987257678148,66.40968195856877,0.7735827964448543,-1.1466326277895826,28.742798650153073,0.08086519885224593,-1.0761579937847974,1.8420253740838652,0.41786111609736254,-13.9502697266457,48.65480903684475,104.47565861495286,-26.302215456962585,-21.677888929843903,-9.263966232538223,4.024466819175684,-4.321177235016512,0
GUIDED_NOGPS,2.0693888664245605,32.661848990779966,-2.5227708938991475,44.99169472846019,106.38341224444959,3.9752688750110794,-5.483793107332712,43.0318529227704,65.23052879764188,0.8398661538018314,-1.1763868528048622,28.88253407528778,0.5232552675607641,-2.061810263557359,1.45179971589382,0.41604942251203725,-15.175414170741265,48.417106900290825,104.23048375923413,-24.07830059528351,-20.582619309425354,-8.299160748720169,3.988721282895442,-3.582777436677481,0
GUIDED_NOGPS,2.1009767055511475,31.662532366063004,-3.9164403742688174,44.584231321509,106.00746641771556,3.821589537910177,-5.880965386517925,42.76522033393881,64.04039425026231,0.818208104191397,-1.3633427907664513,29.044385652954986,0.26955070221784205,-1.9388863039193263,1.3494366246517036,0.41436636055601894,-21.612967041626316,46.63979966999133,102.79772851907158,-23.993372917175293,-20.733849704265594,-11.441323906183243,3.680214511830997,-6.0448369437717595,0
GUIDED_NOGPS,2.1413414478302,24.777754804255746,-5.44657696170996,44.086288872323436,105.65702618384992,3.6997671099920937,-6.26059212413271,42.51036654593631,62.840111871563714,0.8659625457123048,-1.629004492637978,29.131815489425733,0.3913097115849944,-1.8896714733419042,1.6159418229417097,0.41259758004294766,-20.97924455402965,46.44765753023791,102.95894120530157,-32.03563094139099,-23.018714785575867,-10.232418030500412,3.6235809146746147,-3.572617103400264,0
GUIDED_NOGPS,2.1698076725006104,35.13729695314529,-6.831844376121406,43.65891062976,105.31986961461725,3.5373787931501917,-6.622154085086759,42.26764013544768,61.630526455625464,0.9223047761757399,-1.9206940177240137,29.254574479378373,0.47051539535612036,-2.513120686369364,0.9755621978307987,0.41080323343206754,-21.536779719114225,46.757374686182004,102.76002205117635,-21.23798429965973,-18.74656081199646,-8.986406028270721,3.540557544503205,-4.461467613021282,0
GUIDED_NOGPS,2.2028913497924805,30.232486394925576,-8.124976913835548,43.32624646198415,104.95721810096985,3.425232853933748,-6.965199798378546,42.03734418727572,60.4124930581729,0.8284311898316136,-2.0326546920422746,29.4181984911352,0.2242487194201474,-2.088622924538765,1.3786635622742656,0.4090333928142069,-23.622973383207587,46.172851920154145,102.03705245012989,-23.520010709762573,-18.55279505252838,-10.9188012778759,3.271078158089502,-3.7860711871337407,0
GUIDED_NOGPS,2.2365033626556396,29.756755798031968,-9.546350221726275,42.946178486185374,104.56810226338611,3.2886038640350987,-7.289349032176656,41.81973396142439,59.18687601927778,0.8318111729754178,-2.28685533648652,29.54315680200058,0.3655078218008983,-2.4548792113440876,1.16178515644273,0.4072992559218041,-25.212988756055026,45.62771885991363,101.55986699803671,-21.793873608112335,-15.531520545482635,-10.439828783273697,3.228282753259726,-4.336630538013666,0
GUIDED_NOGPS,2.2697410583496094,30.09085430596608,-10.911361978157272,42.58674841335992,104.1694098960091,3.085583656227033,-7.594296268901427,41.61501456018175,57.95454798605862,0.8699103416917192,-2.452376433285316,29.729255551221335,0.3596899749604898,-2.5021646161529696,0.6304683354624561,0.4055705041066139,-25.96317316898098,45.70304033515002,101.33752105504061,-19.072890281677246,-15.271243453025818,-10.948055982589722,3.16707875033796,-8.468647391513967,0
GUIDED_NOGPS,2.304020404815674,29.1775639821636,-12.236585733502427,42.22918497945908,103.77150662957628,2.8763582103609147,-7.8798141803064645,41.423338595202765,56.71638893538101,0.860766265857806,-2.6148935275097767,29.87361501442414,0.3746531302257611,-2.489114292602478,0.5043843422659828,0.4038255099347953,-26.244917112788848,45.31458489466472,101.07955064820435,-19.072890281677246,-15.271243453025818,-10.948055982589722,2.8875042821760397,-8.468647391513967,0
GUIDED_NOGPS,2.3394525051116943,28.228123780167714,-13.504217950747467,41.908913708863366,103.38740140430593,2.6951392643528442,-8.145757102559937,41.244803854592604,55.47328519655818,0.9389344725357227,-2.6701580821882307,30.062913707271044,0.3202775948848265,-2.4381305446633914,0.593727673487122,0.40203963469824794,-26.141577053358937,45.35206050245782,101.03388360072398,-18.565815687179565,-13.800333440303802,-10.40448546409607,2.8098789860264075,-6.698388717146307,0
GUIDED_NOGPS,2.3723883628845215,30.36864017145381,-14.866825078163687,41.52467808962323,102.96285392469566,2.504930321502109,-8.392064511326137,41.079450969989324,54.226128474051166,0.9390688351633015,-2.9649219394527124,30.268632174882658,0.521913093676574,-2.924247301317203,0.347714262270552,0.40033022086267467,-28.452261038110002,44.09401169828008,100.0992272967114,-18.565815687179565,-13.800333440303802,-10.40448546409607,2.608994351171538,-6.698388717146307,0
GUIDED_NOGPS,2.4055867195129395,30.131061335325644,-16.10998805783353,41.26738636037949,102.56382627299843,2.3681035903033876,-8.618764496847003,40.927261083647,52.97581487016937,0.9192847653455365,-3.2025386711487553,30.42018724237607,0.29357682743168,-2.81515385272618,0.5893803393969741,0.3985623682473027,-30.12375423093925,44.633088281295926,99.34612781202377,-14.905263483524323,-11.413198709487915,-8.644502609968185,2.41525350148794,-3.999551737850251,0
GUIDED_NOGPS,2.439910650253296,29.139050027441797,-17.32292524783773,41.0239531456135,102.18487926840922,2.1470163205860215,-8.825977239023498,40.788153515518715,51.72324390777082,0.9746612710933553,-3.235350259591262,30.697434866070644,0.2774371469091634,-2.7788797188383603,0.010909526887037169,0.3967452452961015,-29.988070844589373,44.43923535213048,99.33425481495271,-17.248165607452393,-11.305749416351318,-8.475600183010101,2.341953143882289,-9.414065954727853,0
GUIDED_NOGPS,2.4739394187927246,29.392665680908767,-18.532866108320263,40.78249567939071,101.77854052417406,1.9855896294721473,-9.013918482497242,40.661983430339475,50.469317552962565,0.9843834050466338,-3.4111704278847914,30.91349765518024,0.3088181643651443,-2.9441859088399047,0.24037570086080573,0.39498039294325493,-30.121538243745956,44.45414785109507,99.14552190529122,-17.167437076568604,-10.644737631082535,-9.754519909620285,2.2465393462809438,-5.39360103141267,0
GUIDED_NOGPS,2.5076775550842285,29.64654325438057,-19.678486616797418,40.56895674867036,101.37995223647668,1.8331055224738801,-9.182903011731693,40.548539504709225,49.214939237801204,0.995305944746542,-3.5735637249305454,31.06927719467531,0.28077840750970734,-2.9523651527516166,0.19616594740839388,0.39319839696616316,-30.48812520789933,44.39826720387956,98.86262869721273,-17.167437076568604,-10.644737631082535,-9.754519909620285,2.181651958226525,-5.39360103141267,0
GUIDED_NOGPS,2.5404062271118164,30.560482637016744,-20.814796882917662,40.362242127101894,100.87968262336484,1.6640760080692263,-9.333348126094076,40.44754159417579,47.961012882993,0.9295183097129196,-3.6454606440116266,31.287802266980695,0.3040138444432052,-3.138674331549524,-0.041620658468810356,0.3916222815814709,-30.758872100726386,44.33789006801595,98.61567848084562,-19.5572629570961,-11.115191131830215,-16.36715829372406,2.0224863292336988,-6.384650807810941,0
GUIDED_NOGPS,2.573979616165161,29.79416946070353,-21.8041412594619,40.22463955877107,100.3460066058594,1.5144858870209261,-9.46577711493634,40.35863840031793,46.708441920594424,0.9407166183005671,-3.7696368982170436,31.371297914489517,0.17443501351874874,-2.8695140663679997,0.024531557192658537,0.39011189261440726,-31.946543537147647,44.03178543422793,97.85496027482318,-10.450710356235504,-7.26064071059227,-17.714399099349976,1.788044337371328,-5.308025164414757,0
GUIDED_NOGPS,2.607323408126831,29.995094148019422,-22.775072417516604,40.095757365946845,99.8042094129736,1.3431108788229724,-9.580822732677088,40.28140513782823,45.45812831671262,0.9787054901339434,-3.798217397912139,31.671689634186677,0.17974689256383775,-2.9775468283506648,-0.22571217574614943,0.38862263216642057,-32.91994995157434,43.77646443980517,97.09118775914122,-7.875362783670425,-5.738415569067001,-16.223469376564026,1.4909985300992323,-5.751531545338487,0
GUIDED_NOGPS,2.6409642696380615,29.72933663162819,-23.682316295041332,40.010549571869774,99.28295162595481,1.1154515385783919,-9.679230673882639,40.21534120159619,44.21097159420562,0.9602345241841133,-3.887577189710239,31.82761943784348,0.10456680703161222,-2.9364783788061573,-0.6874481934117027,0.3870969050613855,-33.83934089113479,43.19482764217635,96.23585828223386,-4.620848223567009,-2.6048624888062477,-13.89150321483612,1.1410008985750468,-8.809842661312784,0
GUIDED_NOGPS,2.674454927444458,29.866940106670086,-24.50471339485505,39.95338481862825,98.77450523814936,0.9721923625185132,-9.761863048348939,40.159867833791054,42.967867855382764,0.9436807069569411,-3.8484773449196776,32.04918735942411,0.06211501897391961,-2.853112579824561,-0.2665209227284152,0.38555233057097427,-34.15378469134514,43.00596269683362,95.90196551251577,-0.7897675037384033,-0.9231383912265301,-13.124880194664001,1.0079959956988145,-3.6667153389350604,0
GUIDED_NOGPS,2.709150791168213,28.825841036390504,-25.302015140288102,39.949461613905754,98.25607928299702,0.8328852172337748,-9.829701856182592,40.114325790944946,41.72970880470518,0.9899538512016023,-3.7417022782853375,32.260926638789094,-0.030078509396277833,-2.880834855485855,-0.31667893085432924,0.38403570190798547,-34.70242424617018,43.913240359089656,95.30332752314527,-0.7897675037384033,-0.9231383912265301,-13.124880194664001,0.9349941897179422,-3.6667153389350604,0
GUIDED_NOGPS,2.741900682449341,30.540010776332842,-26.059117174051064,39.91876151447094,97.76684070263397,0.6733255450354647,-9.883852462882711,40.07797301103574,40.49738077148599,0.9413277067878717,-3.806121207442313,32.43790708546788,0.030255822515836323,-2.9287690212184985,-0.5567652103796629,0.3824734341464315,-33.391869416539954,43.21696756923217,95.57376078275593,-5.0207797437906265,-1.5083182603120804,-13.503026962280273,0.6598301806026821,-4.775354932744741,0
GUIDED_NOGPS,2.7753214836120605,29.9274629144696,-26.785329318270904,39.89284632109638,97.28975363689902,0.5183356456748299,-9.925547074422152,40.049982280570106,39.271763732590856,0.9944665785305709,-3.699505796479822,32.62188506095134,0.02930918164358916,-2.938868398668607,-0.6137926986449895,0.38089858648453623,-34.13890371852534,42.922412658343845,95.01910205501083,-4.475914314389229,-1.216849498450756,-12.336209416389465,0.5801138699449881,-4.701944059545444,0
GUIDED_NOGPS,2.809556484222412,29.214551887942385,-27.44557391581465,39.913823581602884,96.7778285364345,0.4269372479431144,-9.956148212329108,40.02943890166648,38.05373033513834,1.0056060834583327,-3.5241280963784622,32.80371494194083,-0.05432620806820011,-2.8618513721711247,-0.2808439201622631,0.37940641121902285,-33.98835797516306,43.313790191712414,94.37415426971157,-2.7146339416503906,0.12782925041392446,-13.83892148733139,0.27096778129321275,-0.34863377269178397,0
GUIDED_NOGPS,2.84216570854187,30.673121645141947,-28.04340363326343,39.92784427949391,96.2661020998136,0.3292453919790674,-9.977152188768624,40.0153383591379,36.84414491920009,1.0760026020778328,-3.4662330650959072,32.98379287940822,-0.03791823792423468,-2.8526107994466186,-0.399306937317787,0.37793288475640974,-33.43293638894785,42.951275108636075,93.87641872156115,-2.7146339416503906,0.12782925041392446,-13.83892148733139,-0.08624799006261553,-0.34863377269178397,0
GUIDED_NOGPS,2.8765392303466797,29.097609368279382,-28.466562854890324,40.038303262409386,95.76971493688266,0.19894589349569874,-9.99019258162377,40.00658398757531,35.64386254050149,0.9598707098891043,-3.453317604262236,33.122893096950115,-0.2244865132182449,-2.493331243057286,-0.6397716785137321,0.3764425337798535,-33.20585748325979,42.939193266383185,93.7159832394637,5.20455539226532,5.6905347853899,-13.801126182079315,-0.17043098361210685,-2.6204763533826156,0
GUIDED_NOGPS,2.9100072383880615,29.884815709410113,-28.966628466990564,40.11382207495106,95.1993414445616,-0.007292596567361982,-9.99704370957755,40.00198463843017,34.4537279931219,0.926923264715138,-3.3859841053203694,33.25701410658707,-0.16891695450437472,-2.7296103225855877,-1.233202985971664,0.37512145044601763,-33.98741813582019,43.006294401469106,93.04937284083309,1.171230524778366,3.1678348779678345,-17.12084710597992,-0.23944356772262232,-7.157156301996785,0
GUIDED_NOGPS,2.943279504776001,30.064324676907198,-29.38413806417707,40.24546573261678,94.62217821428473,-0.15195593087304388,-9.999624107193991,40.00025234709781,33.274574832195015,0.9720247113520246,-3.2931031375617166,33.41675857089533,-0.2917046388519159,-2.613666242787511,-0.9633402432515574,0.37383606643101797,-33.98741813582019,43.006294401469106,93.04937284083309,3.6053553223609924,6.109358370304108,-19.117724895477295,-0.23944356772262232,-4.014662250728435,0
GUIDED_NOGPS,2.9796135425567627,27.52619524200164,-29.682742454948855,40.414140871916224,93.9934119938603,-0.3025361669925796,-10.000000000000025,40.0,32.10722439660941,0.9498391897107654,-3.2146225564509776,33.53657033422111,-0.35004969844347084,-2.337786513364525,-1.0086941949923014,0.37266877085744987,-32.929812679776184,43.114357570142765,92.02647854758862,6.35017603635788,7.789859175682068,-20.868222415447235,-0.696065756056434,-3.607057051629584,0
GUIDED_NOGPS,3.010122299194336,32.78439219609805,-29.89655710651292,40.64065946980202,93.33916547427394,-0.44308152326673655,-10.0,40.0,30.952484831708546,0.9157581465779885,-3.056281055686922,33.689361665954294,-0.5572810028150144,-2.276227453479387,-1.194713458150201,0.371592267549052,-32.85214706255436,43.423240837869926,90.82671301787073,10.182351619005203,10.426568984985352,-19.928723573684692,-0.982363294320385,-1.8182482238064042,0
GUIDED_NOGPS,3.04384183883667,29.66184832112246,-30.0940009949037,40.85544214824994,92.7374827145905,-0.5915457946453088,-10.0,40.0,29.81115011199165,0.8845392728725643,-2.886080852419844,33.79271950356951,-0.5027194160117082,-2.205621841694874,-1.22837740111335,0.370427396620641,-32.82292280737609,43.212115115178236,90.12899059692299,6.694698333740234,9.489668160676956,-18.8603013753891,-1.135128513804807,-3.9375238017896033,0
GUIDED_NOGPS,3.0775177478790283,29.701126634895232,-30.247504627715834,41.07308706346243,92.10669267433039,-0.7565224306613588,-10.0,40.0,28.6839990638139,0.811329676810371,-2.8172024500650847,33.867930131615104,-0.5341846276471335,-2.130876748439173,-1.43444649559203,0.36934930664887133,-31.090289026970456,43.51186107287647,90.11269072833244,6.694698333740234,9.489668160676956,-18.8603013753891,-1.3075157941907247,-3.9375238017896033,0
GUIDED_NOGPS,3.115199327468872,26.54353989469421,-30.39339361402869,41.297914302541706,91.46652969997298,-0.8847609269745152,-10.0,40.0,27.571794388086346,0.7477875198272432,-2.668212545491835,33.951497496110214,-0.5238588935913944,-2.0960455452883,-1.213460256884301,0.3683091937078168,-31.859412632503208,43.3784738832388,89.38306727607994,7.291287183761597,10.095061361789703,-19.096973538398743,-1.3553084976676029,-2.0897510180787613,0
GUIDED_NOGPS,3.145339012145996,33.18593537361142,-30.446297468148202,41.57148747347048,90.78916052704331,-1.0434927554296398,-10.0,40.0,26.475281682977112,0.6196809186413073,-2.4774056614988282,34.0135907458548,-0.7481053521224001,-1.946746461590874,-1.678496056369672,0.3673933037877098,-30.09861368727656,44.02560086667914,89.35059000314007,9.724396467208862,11.46906390786171,-19.737006723880768,-1.4269056450915834,-3.337822947378729,0
GUIDED_NOGPS,3.178098440170288,30.53134076300982,-30.394405384555224,41.86213221824164,90.18253133256859,-1.168327171146923,-10.0,40.0,25.395188466611188,0.5551122055702677,-2.269819350592627,34.05344831475641,-0.7559330493443261,-1.707256421523177,-1.4623265958689045,0.3663613909202314,-30.784523077478028,44.06587907243058,88.2165802384972,11.826026439666748,12.154427915811539,-20.835022628307343,-1.5037704711863098,-3.536360324851721,0
GUIDED_NOGPS,3.2119147777557373,29.576092628372376,-30.3376315015294,42.15717212391636,89.54486048964934,-1.2386272050967486,-10.0,40.0,24.332223199771107,0.5127168478660283,-2.2221952162744785,34.06191433423264,-0.7705635539840368,-1.6947579624427227,-1.1586413913195779,0.3654225260469781,-30.47207852675328,43.958236012257316,87.52573967043327,12.839925289154053,13.054528832435608,-19.0997451543808,-1.6183627844857842,0.6148139286099972,0
GUIDED_NOGPS,3.2444803714752197,30.736508867067272,-30.22451414508498,42.481736111090854,88.82933579095777,-1.326756445469958,-10.0,40.0,23.287074308597,0.3434379197241083,-2.0614149110899054,34.0222445955332,-0.8749415615131979,-1.5559719761795172,-1.3367925104855471,0.3646778213730737,-30.068580545190883,43.98417726339636,87.2525546340096,15.033169090747833,14.95899111032486,-23.748138546943665,-1.6870792005685287,-0.45253332968554855,0
GUIDED_NOGPS,3.2794604301452637,28.5723316711627,-30.14083063679011,42.789472533275,88.07417389159701,-1.4116638783670434,-10.0,40.0,22.260409207287324,0.38076052794829096,-1.8208223513498527,34.01889438774531,-0.8290870073567389,-1.623598682389179,-1.334490401856272,0.3640431116886987,-30.247484499896068,44.15430072969482,86.72748514636571,12.540513277053833,13.612893223762512,-27.146553993225098,-1.7420651330668462,-0.7202430210910215,0
GUIDED_NOGPS,3.3132362365722656,29.612216801632297,-30.089886851024282,43.1918589878122,87.26918670546141,-1.4688535287493774,-10.0,40.0,21.25287332079904,0.1757334835880085,-1.7596155320934874,33.89004628414761,-1.0609015551378944,-1.675583430538672,-1.2192391974761945,0.36354863524492953,-31.706892374899695,46.225992849477976,85.63333895758504,14.144425094127655,13.86515200138092,-27.297985553741455,-1.5037184642056776,0.2560104311308873,0
GUIDED_NOGPS,3.3454346656799316,31.06316608035549,-29.846904924216634,43.53103950123979,86.50201911544421,-1.4926818978690044,-10.0,40.0,20.265089107548107,0.07581007052675659,-1.5595985648915416,33.80155776835551,-0.9862318242402273,-1.2336759505347397,-1.0433298829340165,0.3630219262299237,-28.146944225482642,44.780486689596586,85.1218062799358,15.700487792491913,14.452168345451355,-25.883963704109192,-1.8392707432706459,2.7273756440824855,0
GUIDED_NOGPS,3.381639003753662,27.62554749813933,-29.585359878423183,43.88142959603922,85.79062077115026,-1.4761567044301522,-10.0,40.0,19.297655082109742,-0.016606404347695964,-1.4106275500602148,33.66178136208578,-0.9585726973592407,-1.232613890611765,-0.7943092628271821,0.3624136629754754,-27.953270411470193,44.88041526136202,84.15556454687726,15.789838135242462,15.462204813957214,-22.504805028438568,-1.8133378649235734,4.516927895308139,0
GUIDED_NOGPS,3.4127817153930664,32.11860201549913,-29.27019656016847,44.22838582885036,84.96970827040492,-1.4743018618543393,-10.0,40.0,18.35114483791901,-0.09115927984013385,-1.2411070573372585,33.60427116927428,-1.0723172766651163,-1.0003068041835559,-0.8726824368108418,0.36207938805815343,-26.732413269639302,45.08796693407824,83.62097819922673,15.89777022600174,14.634963870048523,-25.400951504707336,-1.8033988684891913,3.842227294942293,0
GUIDED_NOGPS,3.4470322132110596,29.20153446631345,-28.87825166611843,44.59705973940895,84.24467244126868,-1.399575991543954,-10.0,40.0,17.426106069970928,-0.23259638257352494,-1.1008373833434106,33.430582873775435,-1.0723424695862966,-0.8729165946067242,-0.4031442370951076,0.3615878923042767,-24.822619056304667,46.1012517450954,82.784626868873,15.165837109088898,14.508673548698425,-24.59724098443985,-1.692639714431898,6.974645963411228,0
GUIDED_NOGPS,3.480412006378174,29.964451048751215,-28.4958511090483,44.96414200848735,83.47085451936147,-1.3602570530786051,-10.0,40.0,16.52305959752087,-0.4661077436915671,-0.90446069352567,33.24130467149604,-1.1181251372647032,-0.8325819554842827,-0.5789373033205784,0.36124066190205195,-25.082263275509597,45.974322368640806,82.14932959531242,15.666060149669647,14.433568716049194,-24.561119079589844,-1.6422985004439967,4.7405474349607095,0
GUIDED_NOGPS,3.5143048763275146,29.51033560824597,-28.15307024579176,45.30958445451327,82.68333480075009,-1.265923568834708,-10.0,40.0,15.642498386785377,-0.5544146191404272,-0.718022355837121,32.995411031186414,-1.0831021649439485,-0.9086089756646939,-0.20629495050432745,0.36096313251017764,-25.052436872000406,46.12870898342798,81.0651276807784,13.053548336029053,13.353312015533447,-24.9088853597641,-1.555740340248103,7.57923979458877,0
GUIDED_NOGPS,3.5486369132995605,29.135406608826123,-27.686294750034918,45.664755915027946,81.91546425232234,-1.1801506950278127,-10.0,40.0,14.784886573641955,-0.6573842031900123,-0.490379514598295,32.75455465538967,-1.1207891926418192,-0.6134821904869313,-0.2051616675674779,0.3606920587551642,-23.396394222047213,46.60441067214309,79.991946096861,16.781270503997803,13.191591203212738,-22.30536937713623,-1.3538575893566696,6.320606258397848,0
GUIDED_NOGPS,3.5865910053253174,26.352420803960744,-27.186610491193445,45.99672165316675,81.02515313496019,-1.0739814801878182,-10.0,40.0,13.95065848632973,-0.7735158819353293,-0.5057973326282765,32.69337665099386,-1.0338040567869764,-0.613111699775497,-0.08742573814208587,0.360701938027594,-21.664387443713274,46.938389824935726,79.46340303233598,14.378440380096436,11.217278242111206,-29.981783032417297,-1.2063616197976263,7.024324063678846,0
GUIDED_NOGPS,3.615143299102783,35.03281687199833,-26.670796331014653,46.346295928779895,80.08105889618363,-0.9701915868027838,-10.0,40.0,13.140217668149972,-0.804486947839929,-0.14632023442270062,32.315991623877736,-1.2854046823022538,-0.2121522771417094,0.14793706073819812,0.36089311020821924,-21.550073889284405,46.842369210493445,78.99435888067728,14.789927005767822,11.367850005626678,-28.341487050056458,-1.136302898409235,6.522425968653854,0
GUIDED_NOGPS,3.6503937244415283,28.376512932230106,-26.129806909183557,46.6412874200772,79.2781939674008,-0.8882470326430778,-10.0,40.0,12.353935900166249,-0.8323778118722645,0.08591905065317297,32.1054032313879,-1.0595424416262225,-0.354534279198408,-0.06358211402259889,0.36083280444608945,-20.13463045957688,47.55156154609969,77.67333856430491,15.433110296726227,11.265233904123306,-31.007027626037598,-0.8008138289884716,4.357633369711455,0
GUIDED_NOGPS,3.6852335929870605,28.706677891163448,-25.51099610243772,46.998736764923336,78.27469066835802,-0.7849626082767773,-10.0,40.0,11.592152223904833,-0.8708722244259274,0.0953156767337114,31.89837678255023,-1.1915443776542711,-0.1580177711897185,0.11359500863715544,0.361221989969743,-18.66708662194594,48.041936655385996,75.74750315994379,15.433110296726227,11.265233904123306,-31.007027626037598,-0.3900453001890389,4.357633369711455,0
GUIDED_NOGPS,3.715975046157837,32.53870382150781,-24.891491828012548,47.33726875718169,77.30595101551772,-0.6342388474147957,-10.0,40.0,10.855171964055131,-0.8150195264269118,0.3299648379777293,31.706205995157337,-1.2738393371119685,0.08314613054457382,0.60221099271074,0.3616039769928489,-18.51830350819148,48.22941897758385,75.23569107037616,15.842024981975555,10.220694541931152,-29.140830039978027,-0.2887628040657832,6.9570714597899626,0
GUIDED_NOGPS,3.7493996620178223,29.92191189584448,-24.336939890036838,47.61648186300315,76.47649142560601,-0.4916785515993203,-10.0,40.0,10.143265751170105,-0.7666125883968562,0.43331397777392605,31.56206509800797,-1.1214981368674168,-0.12635530661769556,0.5563971392668525,0.36175022833844134,-18.29552561930315,48.22107345136331,74.18209419895592,13.736976683139801,9.508346021175385,-26.16637945175171,-0.10003157603132384,6.346692885272242,0
GUIDED_NOGPS,3.783168315887451,29.61995423858083,-23.778925190583795,47.89295503490619,75.60355332614012,-0.3413893924881611,-10.0,40.0,9.456668544366636,-0.8601194789599175,0.5054519278275148,31.302466683128713,-1.1346624204835398,-0.07596153837857167,0.6897422448675281,0.36203400846737305,-18.29552561930315,48.22107345136331,74.18209419895592,13.908618688583374,8.744340389966965,-27.402690052986145,-0.10003157603132384,6.762341059005606,0
GUIDED_NOGPS,3.8165478706359863,29.962738598696994,-23.22263266851675,48.15295748788329,74.78247201742722,-0.23570032345170963,-10.0,40.0,8.795578654025775,-0.7664915659825001,0.6677955992800803,31.18569435398359,-1.1227575126236968,-0.030543123690907812,0.4884349991882304,0.36226541102848775,-16.824346399389363,48.38898708196808,73.47094595518566,10.612685978412628,7.891073822975159,-24.19217973947525,0.13176441602014805,3.506996914723013,0
GUIDED_NOGPS,3.854708194732666,26.227677761866946,-22.638277603290025,48.41322576400464,73.83003421165577,-0.15218549871009202,-10.0,40.0,8.16015676449328,-0.8941810987422422,0.6995840467292601,30.946190355642507,-1.082964119842983,-0.06681056037869619,0.34705925069549787,0.36279935569394617,-15.807722530250295,48.91561331589472,72.00900401307968,10.568732023239136,6.9862812757492065,-30.25721311569214,0.4253283963194189,1.5178528755712468,0
GUIDED_NOGPS,3.8839852809906006,34.13083351642539,-22.01302454686478,48.7057657649178,72.75383618467043,-0.05527084657810706,-10.0,40.0,7.550524956779981,-0.8830102176329806,0.7260288316482569,30.812154723370178,-1.3083277033288234,0.405148942144213,0.6271840214418212,0.3636559324945726,-15.381900369272921,49.09359772194063,70.91550204013765,10.568732023239136,6.9862812757492065,-30.25721311569214,0.6056364905908627,1.5178528755712468,0
GUIDED_NOGPS,3.9233179092407227,25.4280379271043,-21.455701958937773,48.93451756712743,71.92057537625907,0.09135596729510068,-10.0,40.0,6.966765731261972,-1.0563154355689173,0.7851942247555816,30.574313876091992,-1.056718274071276,-0.04599180926733726,0.8012874560317763,0.36405286676854376,-15.197493947620021,49.71365998762026,69.4301091319914,11.711899936199188,6.3141003251075745,-26.26659870147705,0.8866000898646097,5.005058463400501,0
GUIDED_NOGPS,3.9537153244018555,32.90579300822193,-20.906792269072938,49.164694017972444,70.93867709858561,0.244344992341623,-10.0,40.0,6.408921030381379,-1.0609055361345774,0.7961625480672702,30.36665221966151,-1.1895106708335972,0.2717583916084779,1.1539815485086242,0.3648225733356787,-15.199859774853643,49.80951876217314,68.833574971831,10.013707727193832,4.702376201748848,-29.44537103176117,0.9806097869321251,4.130504820372789,0
GUIDED_NOGPS,3.985039234161377,31.92886940105356,-20.447201413492298,49.36339575230807,70.12694989812194,0.3761012697003374,-10.0,40.0,5.876991261346376,-1.0988455294267057,0.8463381849272417,30.232633662862106,-1.1231962782708864,0.07139326434790269,1.0659071999879934,0.36530156960282983,-14.972789008015912,50.299727507489365,68.6076003265247,8.30376148223877,4.901367798447609,-29.593265056610107,1.1067680880736568,4.242931868545315,0
GUIDED_NOGPS,4.0193259716033936,29.17269344461833,-19.825186371789883,49.571367961441155,69.16850323491255,0.5395008635018039,-10.0,40.0,5.370934318831615,-1.2144454139121137,0.7383247729798667,30.050158328996044,-1.1265512738086376,0.374471548484074,1.2816926482099253,0.3661192961633548,-12.987134011924514,49.950996849027504,66.43859305280236,12.667834758758545,5.409889295697212,-29.380056262016296,1.4401889829643935,5.06235307836633,0
GUIDED_NOGPS,4.052597761154175,30.05979990253132,-19.263849481048467,49.771951843266585,68.27396850976515,0.7078478410931494,-10.0,40.0,4.890664607678815,-1.1456848323205375,0.6516142408060853,29.87679446748278,-1.1356839862675954,0.31939562389194126,1.431027106598826,0.36686299906210884,-12.815681689434085,50.78300772516526,66.79587307849181,8.176904171705246,2.2826625034213066,-25.57562291622162,1.690977955153961,4.566328946027548,0
GUIDED_NOGPS,4.086505651473999,29.49850548925007,-18.770016703635434,49.93796287265691,67.42686534213892,0.847307023832771,-10.0,40.0,4.436052065596954,-1.2241978568298342,0.6268298321856363,29.775376403591846,-1.0763855094665615,0.20777352460912724,1.3317423562590898,0.3675626259878611,-12.549585566769956,50.848312775941324,65.84226005378837,4.628867283463478,0.8390759117901325,-23.041875660419464,1.8381738199735613,2.8218764338914895,0
GUIDED_NOGPS,4.119582891464233,30.236627353729922,-18.216180053379755,50.083613076046014,66.57312171417982,1.0100054102363312,-10.0,40.0,4.006921185862581,-1.0958972355827874,0.49430623304081767,29.592457107429734,-1.0589715710353476,0.40485942218881094,1.58851218047529,0.36832896637649204,-11.853379259990003,50.56342089125576,64.8215533629995,8.041000366210938,0.9894401766359806,-22.154827415943146,1.9625970256383403,4.160085089007645,0
GUIDED_NOGPS,4.154079437255859,28.994621797619214,-17.69352546714148,50.18334148681262,65.67992301191862,1.133323866732213,-10.0,40.0,3.6030500400205767,-1.1096220738331048,0.3015028260564779,29.4614062678247,-0.9684241236658121,0.3413768206726645,1.3950691757130909,0.3692219775979449,-11.891753706880685,50.038565297569406,63.28655244086198,7.732400298118591,0.4799564369022846,-24.38526451587677,2.204233613559496,1.5449785449731293,0
GUIDED_NOGPS,4.1879942417144775,29.491038720881996,-17.223652131835674,50.28317524082462,64.7550244634971,1.2736479665762435,-10.0,40.0,3.2241693005842365,-1.073256225701253,0.19798752056437943,29.356180373471485,-0.9796051321428467,0.29136910096320345,1.5928983020935696,0.37023066182069064,-11.577139470793881,50.503517572489116,61.70740197928451,3.72256338596344,-0.8337641134858131,-21.89745008945465,2.2402928116716114,2.6136331441644978,0
GUIDED_NOGPS,4.223322868347168,28.317123394027774,-16.781971708844416,50.356172291243865,63.86071701989982,1.4089382458215658,-10.0,40.0,2.869961263735746,-1.1098933604092014,0.08255305472293267,29.244889271135296,-0.927774964269209,0.2362992355543915,1.613415246647359,0.371224913816382,-11.22440437036487,50.51027360899653,62.157675629058616,2.9307371005415916,-1.5338342636823654,-25.316205620765686,2.3762438699383495,2.4713050219095374,0
GUIDED_NOGPS,4.2556328773498535,30.95541532897893,-16.35144748219292,50.43285230981276,63.021194664270766,1.5528493189720518,-10.0,40.0,2.5400588720259805,-1.1602282260541987,0.10644846486411566,29.17690839832616,-0.9557886066689828,0.32348500336903424,1.8191773956887483,0.3721656931612901,-11.27121849742198,51.034905178017134,61.603781032742575,3.896516188979149,-2.0642854273319244,-23.548872768878937,2.6369935220364713,2.3295329197416983,0
GUIDED_NOGPS,4.288873195648193,30.089343233258006,-15.944543298543781,50.48227031798143,62.17857635454233,1.6263046988979637,-10.0,40.0,2.2340447370759478,-1.0804733877764292,0.17150572989390284,29.158193680000323,-0.9021201748087123,0.2880016036219093,1.4177895963941225,0.37315920593018137,-10.666020088396355,50.73940577330693,60.2391277201593,2.7683595195412636,-2.0409947261214256,-24.127253890037537,2.8059648744118073,-1.4737742497625694,0
