Mode,Time,Freq,North-Vision,East-Vision,Down-Vision,Yaw-Vision,North-Desired,East-Desired,Down-Desired,Roll-UAV,Pitch-UAV,Yaw-UAV,Roll-Control,Pitch-Control,Yaw-Control,Thrust-Control,northVraw,eastVraw,downVraw,N-Velocity,E-Velocity,D-Velocity,N-Acceleration,E-Acceleration,D-Acceleration,yawVraw,yawRate,Landing-State,Q-Size
GUIDED_NOGPS,0.004784822463989258,209.95665014766982,-11.800240528727695,55.217394131626854,83.60806601353568,-5.584497465365241,-12.162493203879047,54.246814212587296,83.63775203127936,-0.11042078682554005,0.2721194856492153,-95.57677682971271,-3.591760597365515,4.370269535304718,-10.0,0.5000593813208611,-12.58942546526517,59.348306976517605,86.82831582132883,14.995402097702026,26.03549361228943,-21.06644958257675,5.636530369520187,28.060805797576904,-127.49284505844116,-5.778690701202473,-3.6830185735970575,False,1
GUIDED_NOGPS,0.009435176849365234,215.1587155022058,-10.940720731468865,57.22790228130595,83.79563953922069,-5.731842830872845,-11.617248805750892,54.92890570775548,83.17127984564118,-0.11042078682554005,0.2721194856492153,-95.57677682971271,-3.5805098777361875,4.379491867264237,-10.0,0.4987510485323573,-10.939189877933828,60.639960646478436,85.5865169004913,14.99151736497879,26.310721039772034,-21.949046850204468,-64.38101530075073,32.761019468307495,-56.34533762931824,-6.030397931984811,-3.101591463423729,False,0
GUIDED_NOGPS,0.024310827255249023,67.2476631767969,-10.797121007538625,57.64373692591386,83.48048764429188,-5.77718893366282,-11.074221408377205,55.606836135374486,82.70406655744254,-0.18108144166684914,0.24886749400208202,-95.49955471095655,0.8002296850404311,-1.9441219449913159,-4.685045516524768,0.49844600130524436,-10.20612348700729,64.16176733356794,85.63725906189005,16.668996214866638,28.60834300518036,-20.235219597816467,-0.8476816117763519,35.70686876773834,-72.04605340957642,-6.217418962795893,-2.8789027504889835,False,0
GUIDED_NOGPS,0.05684351921081543,30.741014365288773,-10.228728638548157,58.4399552417904,83.1878155520224,-5.922755631962067,-10.535506020360335,56.276684071231685,82.23540177053015,-0.3274491405681961,0.2153405499657224,-95.41372655384616,-0.402878259621272,0.13368760015047063,-5.341137598936957,0.4980915339520353,-2.7876769292496206,68.4654393954967,85.84156101978519,18.77143532037735,29.943853616714478,-26.065286993980408,-6.903906911611557,36.97478771209717,-113.38019371032715,-6.759818275751464,-7.638431067709748,False,0
GUIDED_NOGPS,0.09162211418151855,28.75785229929585,-9.691487913036486,59.43958369154264,82.84125448853143,-6.085049978181485,-10.003067160515428,56.934784288659976,81.76460815086449,-0.6675698828723525,0.4675466724506184,-95.09942173880968,-0.8169907809309,0.12503495554241112,-5.515508617198237,0.49784006989105734,-7.774404023409865,63.60828739860459,83.04062332008641,18.77143532037735,29.943853616714478,-26.065286993980408,-6.903906911611557,36.97478771209717,-113.38019371032715,-6.486815955932429,-7.638431067709748,False,0
GUIDED_NOGPS,0.12426447868347168,30.639959091241142,-9.130385286427973,60.476524190452864,82.46331615653347,-6.204845158810375,-9.478741709687053,57.57772200383396,81.29104094715655,-0.8261710375465741,0.5171659156974983,-94.95407531327182,-0.9861533109340298,0.2182959237821248,-5.194048769579988,0.49764575747687856,-7.402819495187298,64.12157207980539,82.6093953607157,19.459132850170135,31.60712718963623,-26.043331623077393,85.98231077194214,70.85504531860352,-7.424063980579376,-6.545293656235938,-4.490635082098175,False,0
GUIDED_NOGPS,0.15794134140014648,29.696290002832058,-8.627784273335527,61.4884319355532,82.12244426518973,-6.394237959222494,-8.964241762565832,58.20232712106613,80.8140875115043,-1.0422793968245412,0.5282291146056265,-94.81683632227875,-0.9862960185104778,0.11620937186997429,-6.08216206170847,0.4973700633412878,-6.760855281136178,64.9880069837275,81.94170625080496,15.793569386005402,32.025399804115295,-21.00052982568741,14.085204899311066,34.25076603889465,62.45543956756592,-6.670876775287269,-9.208425180518049,False,0
GUIDED_NOGPS,0.1916825771331787,29.64172438162544,-8.047590803438437,62.57704140994698,81.80856736126468,-6.479885682829046,-8.46115747950506,58.805668478103044,80.33316682002943,-1.4278749516532607,0.7663577903243031,-94.51082335689466,-1.1895437528562753,0.33387720071921323,-4.90480249282407,0.49703199918509,-5.405216641412553,66.70487788643656,83.16705736731434,17.5044447183609,33.03487300872803,-22.297850251197815,68.21783781051636,33.42014253139496,-33.53045880794525,-6.381829212709398,-3.053832646312884,False,0
GUIDED_NOGPS,0.2275834083557129,27.858948557005746,-7.756495969788176,63.646227143669805,81.42882068114376,-6.616192003873166,-7.970959938337331,59.38504809142152,79.84772899351391,-1.5783572525601584,0.7415991549958002,-94.35011583591344,-1.2399848543632128,-0.22682366328412876,-5.485845909142348,0.49681606820181745,-10.255928578772325,67.54617579891928,80.96030389390567,13.33291083574295,32.00545907020569,-20.150193572044373,-30.81728219985962,7.591264694929123,45.329901576042175,-6.720410131131403,-5.704953070293585,False,0
GUIDED_NOGPS,0.25890421867370605,31.931543246062137,-7.457236354529347,64.74897737306476,81.14327757396377,-6.791856919668012,-7.495003986191167,59.93799540152481,79.35725481803658,-1.8520414384986885,0.83413007555949,-94.05633573933285,-1.5392765278791574,-0.21116214661483443,-6.320182243420524,0.49640173416113115,-10.329924037131025,69.23522980235941,81.82832105504085,14.993919432163239,32.01313614845276,-16.420479118824005,33.216020464897156,11.9988813996315,94.17821168899536,-6.666537835782767,-8.662038221447354,False,0
GUIDED_NOGPS,0.3007330894470215,23.90938577739775,-7.033963804692113,65.66983351510632,80.76277265600307,-6.98713941361159,-7.034531091307633,60.46226151823882,78.86125526560984,-1.961568857925132,0.7837008679265819,-93.89209018036155,-1.0095562673707463,0.060975238205675714,-6.064485218428217,0.4961643980019638,-6.411831932726661,67.41185784428981,79.27754787279291,14.993919432163239,32.01313614845276,-16.420479118824005,33.216020464897156,11.9988813996315,94.17821168899536,-7.385729288210543,-8.662038221447354,False,0
GUIDED_NOGPS,0.32683610916137695,38.32269500306084,-6.459630879061032,66.81200188850106,80.32133330319213,-7.18676135975376,-6.590672194856975,60.95581346600825,78.35927101481622,-2.037380329174277,0.7178889537048943,-93.76367579377614,-1.9924938070766423,0.6154931708739982,-7.367777574574846,0.4960392065674168,-3.490755042217392,70.11047751242192,78.71762143705976,12.830361723899841,30.70814311504364,-17.180097103118896,-18.219615519046783,-5.930089205503464,5.291073769330978,-7.756004505375361,-6.776736536455054,False,0
GUIDED_NOGPS,0.35913991928100586,30.956557679533546,-6.081689287927936,67.6724674851836,79.98607046214185,-7.3115576083900455,-6.1644505627552375,61.416828429192805,77.85087197144493,-2.190572721077789,0.6136212601870366,-93.47622728255615,-1.2745117324802882,0.0658815027153623,-5.928745959513043,0.49568740373771375,-3.53888303801639,72.19540618120837,79.36261226668836,11.245127022266388,29.965877532958984,-17.02868938446045,-34.63173508644104,-2.6256896555423737,7.564704120159149,-7.841205389190527,-4.809406413965017,False,0
GUIDED_NOGPS,0.39345836639404297,29.14411184301954,-5.552933129478924,68.7171071347893,79.64161070377806,-7.484907102757811,-5.756784637480886,61.84368799736338,77.33565678912865,-2.1654754044159885,0.5388875714445784,-93.37124727501306,-1.6385828776579225,0.4830545663962891,-6.511945554520663,0.49533956357656705,-2.5074114315559113,72.90770101757971,78.59617645943698,13.533595204353333,29.77887988090515,-13.212105631828308,59.084612131118774,0.8608408272266388,170.17323970794678,-8.033126357820832,-6.06673581091129,False,0
GUIDED_NOGPS,0.42875194549560547,28.338360088643856,-4.996083365403559,69.75735761402912,79.34854585511192,-7.653221082796145,-5.368490889891441,62.23497241059824,76.81325238997998,-2.2170708668496766,0.3136797993665677,-93.18733760142129,-1.6994957318269124,0.6004575417395379,-6.504364839768793,0.49487374424299735,-1.5513537603171967,72.5740024574736,78.40133810014828,12.69562840461731,30.194097757339478,-9.142331033945084,19.840800762176514,-0.940404087305069,243.53244304656982,-8.117424223825022,-5.438802796452991,False,0
GUIDED_NOGPS,0.4612555503845215,30.769655131938993,-4.5325869402402645,70.80594649972123,79.06400229807053,-7.797271918408295,-5.000286671040092,62.58945480477921,76.28331348522813,-2.2570556480245774,0.2901656992100352,-93.09580623635395,-1.9686962435776425,0.5215278404105332,-6.469971364935528,0.49437579911648666,-2.465853684172336,74.54272062495576,77.40452492708583,11.390650272369385,29.78614568710327,-6.912820786237717,26.436138153076172,3.7054285407066345,239.70873355865479,-8.325336210398259,-3.897779784782945,False,0
GUIDED_NOGPS,0.5034730434417725,23.68953929049494,-3.8926959821635343,71.86714281880936,78.8506178772122,-7.9561670548182395,-4.652793063992335,62.90609545688784,75.74552209585555,-2.2313382782521867,0.2358923757348792,-92.93841818730935,-1.7159861493821895,0.7935961863431458,-6.263858160669312,0.4937163901227373,2.2505237402013254,76.91779837283589,76.04404077422873,12.301783263683319,29.164546728134155,0.23935865610837936,3.31466943025589,-8.991482853889465,312.87841796875,-8.808316097206472,-4.269463311489407,False,0
GUIDED_NOGPS,0.5364975929260254,30.284439374138067,-3.093138370310555,73.21334128621133,78.58405688958949,-8.15295077022731,-4.326537735642586,63.184036030301634,75.19958707323447,-2.240177183368418,0.1429419321457624,-92.91766807261085,-2.6852813098956814,1.5181063613107197,-7.29312836465632,0.4931487669602679,2.61427285140961,77.7359963427107,75.83209319226117,14.010588824748993,28.665050864219666,1.0496539063751698,-3.6283425986766815,-4.5872122049331665,233.4254026412964,-8.930878873068671,-3.9996588864428557,False,0
GUIDED_NOGPS,0.5693292617797852,30.46193623356816,-2.4643442553210444,74.23645606889733,78.34157040716187,-8.280397562305753,-4.021957788530811,63.4225938200902,74.6452436197636,-2.255585022918909,0.15422940671859026,-92.90139173181872,-2.211256554037283,1.1565051744606039,-6.5081865090700495,0.4925152639084154,2.607929464066127,78.19342656057445,75.42540775642954,13.320556282997131,27.997633814811707,-1.4652629382908344,18.64217221736908,-2.1542973816394806,34.02769863605499,-9.389578148135193,-1.3351693276572065,False,0
GUIDED_NOGPS,0.6031332015991211,29.58694149348909,-1.8294925382387492,75.27548818855581,78.09903519297633,-8.405545992911497,-3.739402612659152,63.62125599831144,74.08225280950475,-2.215264922144443,0.3440079737155399,-92.85623735121575,-2.335763705239633,1.2570278437673115,-6.524943433625978,0.4918634955102692,3.063432825273306,79.02379158157265,75.2544384931899,13.320556282997131,27.997633814811707,-1.4652629382908344,18.64217221736908,-2.1542973816394806,34.02769863605499,-9.421373002183925,-1.3351693276572065,False,0
GUIDED_NOGPS,0.6374716758728027,29.13034781642405,-1.1401002462087884,76.41898019900526,77.92466587999948,-8.537669421899318,-3.4791367373085524,63.779673859307735,73.51040110881934,-2.2628318536282923,0.351363447121409,-92.87623614510555,-2.645678455667728,1.5060664156349404,-6.68087773330025,0.49105655385233776,4.654041170441101,82.00294663428542,74.90365436856261,13.410089910030365,28.020796179771423,3.3552631735801697,-60.18052101135254,-7.178414613008499,14.21554684638977,-9.434790034008287,-2.0200335696731484,False,0
GUIDED_NOGPS,0.6725788116455078,28.486365704738553,-0.4757715086574391,77.49909865201994,77.81788101692125,-8.6554263467881,-3.2413426828553806,63.897657065002164,72.92949989700513,-2.430524950583153,0.524501538866092,-92.9489093578745,-2.631849535564998,1.5254303075461202,-6.554091034040209,0.49009478498020176,4.654041170441101,82.00294663428542,74.90365436856261,13.923324644565582,27.819466590881348,6.694993376731873,-23.620977997779846,-10.947427153587341,62.61279582977295,-9.434790034008287,-1.6361455621369323,False,0
GUIDED_NOGPS,0.704531192779541,31.29984179576729,0.13364874664561263,78.51067271703617,77.73329988741237,-8.71333118603266,-3.0261238125880503,63.975167890194626,72.33938498693277,-2.418549921420828,0.7227372674376926,-92.96970728389718,-2.742182852012595,1.5599550545304182,-5.934397498359006,0.48906956863938494,3.7269050970487374,81.38783445064466,74.93472197455716,14.218556880950928,27.20750868320465,7.396896183490753,13.710656762123108,-7.114896178245544,49.35923218727112,-9.658927537594504,2.527267749987214,False,0
GUIDED_NOGPS,0.7397081851959229,28.43133320680025,0.7547068944361551,79.47102487611954,77.65914602796856,-8.745738601446135,-2.833507184523656,64.01231546785809,71.73991614568249,-2.427504726309538,0.8514252351158731,-93.10534801062447,-2.655771379336201,1.5970312476501993,-5.615272006650317,0.4880022503105023,4.878109110872277,82.31543929695576,74.9646447506747,13.988406956195831,25.479447841644287,7.039924710988998,-12.388664484024048,-8.66190493106842,-15.94603806734085,-9.673402354710712,3.6213061068987,False,0
GUIDED_NOGPS,0.773747444152832,29.3807238874451,1.4903759188905386,80.44978807509673,77.59172424099994,-8.766337733865738,-2.66344640322459,64.00935003443472,71.13097661518057,-2.4434485222664635,0.9246318429703044,-93.2185857168741,-2.842708439569131,1.9941267213734994,-5.501813322254068,0.4869016174784181,7.527726958632275,82.62673387074341,75.0382212276948,13.988406956195831,25.479447841644287,7.039924710988998,-12.388664484024048,-8.66190493106842,-15.94603806734085,-9.427928872575228,3.6213061068987,False,0
GUIDED_NOGPS,0.8081300258636475,29.090747676515466,2.117918625026458,81.42876799729034,77.60736978712926,-8.79346920623042,-2.5158244716151668,63.966657175132134,70.51247263283615,-2.4605969928382496,1.0676705183423578,-93.43415331726888,-3.0004117507342305,1.878117933246571,-5.592445330371667,0.48561384767271504,7.019198902350192,84.98201074373549,75.08426344703588,11.670397967100143,24.444590508937836,11.241161823272705,-22.375841438770294,-28.301072120666504,58.14830660820007,-9.49619987875897,2.760892449556796,False,0
GUIDED_NOGPS,0.839280366897583,32.1060632736013,2.6940225317860604,82.36057522906748,77.60366181395065,-8.79779195040542,-2.390456642798256,63.88475206921953,69.8843329521777,-2.4275851944756974,1.1592004960275235,-93.54780766505789,-3.242774918285133,1.9915235028463572,-5.334208818601318,0.4843457563136984,6.277527408046595,85.66943286517625,75.1400761639673,13.780520856380463,25.446203351020813,9.010957181453705,-2.345876023173332,-13.923095166683197,48.08321297168732,-9.513456772203787,3.7177573426025656,False,0
GUIDED_NOGPS,0.8737754821777344,28.992417172994905,3.328301417482766,83.25270974438271,77.62793739249852,-8.791561089364912,-2.2870932718718997,63.76427373532387,69.24650836348968,-2.446155411611904,1.1958959007868284,-93.67055982482135,-3.091393722852982,2.0782131460578066,-5.202873327908149,0.48299836592227685,8.460011990693205,86.22245401663045,75.61254966887472,13.780520856380463,25.446203351020813,9.010957181453705,-2.345876023173332,-13.923095166683197,48.08321297168732,-9.38439489989836,3.7177573426025656,False,0
GUIDED_NOGPS,0.9068403244018555,30.24927519508431,3.870435553520871,84.1780570460303,77.69359980709163,-8.780941407821341,-2.2054226677459408,63.6059792767261,68.59897121444916,-2.385530225652048,1.2399717518311555,-93.98866222503636,-3.4070056518795435,2.0679949865468976,-5.140036406849108,0.4815479205531584,7.75830882886386,87.2121832245573,75.79482547213242,9.065797179937363,22.897300124168396,11.18377149105072,-62.167030572891235,-30.730929970741272,-47.45849072933197,-9.505181467263306,4.449423001306787,False,0
GUIDED_NOGPS,0.9397969245910645,30.346009145106212,4.466425373564822,85.09440092683757,77.76812638670083,-8.693468571952783,-2.1450739449586447,63.41073812665735,67.94171493076247,-2.4831171937488397,1.2395715454344751,-94.22269182675768,-3.520329031620778,2.2920746175587645,-4.155221597211579,0.4800584273505388,8.594764547661923,88.23826291179273,75.69732786680272,12.751924991607666,23.85244518518448,11.621129512786865,47.18876779079437,13.76398354768753,-0.005260109901428223,-9.245184264514318,8.398376697785583,False,0
GUIDED_NOGPS,0.9754533767700195,28.049166075942594,5.062647601601686,86.01373848507151,77.87158043462163,-8.606631375738615,-2.105619875493332,63.17952629359503,67.27475353680175,-2.5869046929515336,1.3759643400224002,-94.60291479747394,-3.51980589961998,2.294573218053991,-4.188239330215441,0.47848741796143246,9.032993540237864,88.98337972424909,76.2787141921965,12.751924991607666,23.85244518518448,11.621129512786865,47.18876779079437,13.76398354768753,-0.005260109901428223,-9.307952866559685,8.398376697785583,False,0
GUIDED_NOGPS,1.0077624320983887,30.954958412363375,5.706186351364532,86.8877848968665,78.08468008829233,-8.46768466109399,-2.0865797405949973,62.91342060655913,66.5981211762416,-2.512809520174766,1.4919932457650495,-94.81698658644049,-3.653297977518991,2.6249387442867063,-3.3582172897271567,0.4766783018077489,10.101897359668936,88.94230134957145,76.83755320649229,14.044368267059326,22.920435667037964,16.993142664432526,60.124361515045166,11.30521148443222,103.58649492263794,-8.937048382903754,10.608164021659087,False,0
GUIDED_NOGPS,1.04848051071167,24.562423504195923,6.318819632462895,87.6529436615615,78.29348740887431,-8.332474386795019,-2.0874221825869306,62.613592960408326,65.9118716326957,-2.60523990889161,1.534889501795374,-95.01994565762742,-3.291248689698048,2.3166336985102975,-3.669490097961299,0.4748479082949396,10.671089127798872,88.62044039512006,77.33542537064143,14.085191488265991,22.917364537715912,15.304403007030487,73.15657138824463,24.386195838451385,-19.821569323539734,-8.651469519748947,9.475144067607046,False,0
GUIDED_NOGPS,1.0822503566741943,29.6197450654991,6.95676006777484,88.61191712458476,78.56125838246203,-8.195993389937598,-2.1075680566873523,62.28130456113618,65.21607785035346,-2.798100972277498,1.605169800477278,-95.53420426061602,-3.6479179920626046,2.731073720790814,-3.3006516128566687,0.4728847332439803,10.532440686804629,89.43036083603738,77.80399080211876,9.599313884973526,20.99078744649887,16.905786097049713,72.42875099182129,18.073852360248566,-12.92218565940857,-8.578606071478529,9.015698586481445,False,0
GUIDED_NOGPS,1.1184813976287842,27.60082388476142,7.447655525456899,89.32396615223834,78.76863825899368,-8.053770910838432,-2.1463932828260344,61.91790017116737,64.51083145461651,-2.8611506619492975,1.6446038976503468,-95.7011409141203,-3.687127694956974,2.426456452007848,-3.268603200708454,0.4710179825429923,10.532440686804629,89.43036083603738,77.80399080211876,8.53661522269249,19.866211712360382,13.6712446808815,-54.651546478271484,-24.916858971118927,-57.5330376625061,-8.578606071478529,9.558687526440057,False,0
GUIDED_NOGPS,1.1584091186523438,25.04944428186645,7.946783416739384,90.09096483746454,78.93781232159952,-7.872671117297427,-2.2032316974609145,61.5248023546538,63.79624227273547,-2.9510239985956175,1.825706363493235,-96.32054344919207,-3.7028185383781738,2.424442036984044,-2.9046450955794008,0.4692022150571271,10.999086938521252,92.01136415631615,78.55761190788854,9.712276607751846,19.209547340869904,9.268201142549515,3.8020800799131393,-23.12731444835663,-92.30692982673645,-8.074221891405248,10.732151591888682,False,0
GUIDED_NOGPS,1.201474666595459,23.22208872918939,8.526367955394818,91.09322762581488,79.22140981934884,-7.668864369242547,-2.277377905394749,61.10350572277088,63.072437854446505,-2.9974383356570278,2.0113210230565626,-96.6279361127885,-3.692379367888456,2.552654801802563,-2.711894440668863,0.4671316690450758,11.58544727207509,94.75317593141907,79.26533132956465,9.123153984546661,18.930727243423462,13.573086261749268,-29.300594329833984,-11.764759570360184,11.034801602363586,-7.522960684145211,9.959080045775375,False,0
GUIDED_NOGPS,1.2261369228363037,40.55798481844993,9.201433286165672,92.01983772349651,79.56322759366564,-7.426021549556754,-2.3680901315916945,60.655571179013606,62.33956299260789,-3.0445205371532182,2.0100226467840256,-96.7583585749899,-3.549916862206877,3.7127491036156295,-0.5104715168461502,0.46494835733747214,13.332281327246308,93.21434449082284,79.81491922225008,9.889590740203857,17.692075669765472,15.079014003276825,-12.889407575130463,-8.493578433990479,103.51283550262451,-7.042551879694931,10.62268158873995,False,0
GUIDED_NOGPS,1.2677841186523438,24.013145013082035,9.586476592183708,92.46488219197188,79.82633699809452,-7.1618113988904,-2.474593072993981,60.18262016449283,61.597779243836726,-3.196028647096087,2.156903730451034,-97.70807588851265,-3.6038101855781677,2.3849361174593056,-1.7582190849314703,0.46287786781428,13.781194122725939,93.55268054170762,80.75369590370497,7.715477794408798,16.815464198589325,12.392142415046692,14.015665650367737,-16.92012846469879,-3.5822391510009766,-6.545881044229116,13.795498264828572,False,0
GUIDED_NOGPS,1.3023087978363037,28.967788275595336,10.257564056508869,93.28990346154347,80.10319751764374,-6.897870505615757,-2.59608075033851,59.68632890323141,60.84726444914545,-3.1314814384487626,2.265553897455954,-98.24081015320614,-3.6386528324534817,3.228015246354018,-1.0836580879363789,0.46076988174126193,15.493977797778783,93.40722935162202,81.08571670791756,7.212489098310471,16.201956570148468,7.8439027070999146,-28.894072771072388,-21.420450508594513,-79.46518659591675,-6.00253491023966,9.166634668081326,False,0
GUIDED_NOGPS,1.3393499851226807,27.000624432699674,10.726894812059484,93.93210665848325,80.4034422110208,-6.643765192122972,-2.7317193599734626,59.16842264746039,60.08821225457853,-2.9886423326665206,2.494088185103173,-98.58387689483754,-3.7000795441980436,2.8070801530989504,-1.242900214877272,0.45859107322204146,14.72637105833891,94.57750477350325,81.0389140885627,4.654408246278763,14.894141256809235,12.024405598640442,104.22384738922119,19.237615168094635,65.13487696647644,-5.960885490938553,10.230524569996374,False,0
GUIDED_NOGPS,1.3690581321716309,33.66458251398576,11.124939555413704,94.68701434267204,80.67943039100435,-6.3114016732352844,-2.88065012567497,58.63066992291519,59.320831631849074,-3.028398942834461,2.5647142621118086,-99.01544922773397,-3.694890160081108,2.979149781843303,0.6857311016292074,0.4564535455557768,14.220118844272294,97.16750574191866,81.69142853780042,1.1852285824716091,13.472238183021545,8.313848078250885,-93.43189597129822,-38.542816042900085,-42.521172761917114,-5.288166378414102,12.995378315828367,False,0
GUIDED_NOGPS,1.4028398990631104,29.60531925406214,11.473998280339833,95.24153205968449,80.9316556896181,-6.021383616498427,-3.041992150463715,58.07487677413183,58.54534639897539,-2.9778260877855707,2.718262891069219,-99.37637008385578,-3.7292132532001454,2.7775266603951634,-0.1782780930336032,0.4543376339599097,14.220118844272294,97.16750574191866,81.69142853780042,5.1090482622385025,13.099656999111176,9.694385528564453,16.259166598320007,-7.392317056655884,84.32592749595642,-5.288166378414102,12.686716944593613,False,0
GUIDED_NOGPS,1.4497783184051514,21.306565746361535,11.787209582001195,95.79197787183227,81.1402471969114,-5.705280730789624,-3.2148452684215307,57.50288100974305,57.76199474091765,-3.0717339317972527,2.775414925836124,-99.82257951214355,-3.773135480807052,2.4700882487421034,-0.7286489094852606,0.4522659850965894,14.721180742598804,96.60193086303622,82.75748380612794,0.09802385466173291,11.775454133749008,3.3553168177604675,-43.50238740444183,-14.894615113735199,-102.50369310379028,-4.753428933387065,12.423464378508397,False,0
GUIDED_NOGPS,1.4791011810302734,34.1100159396246,12.260707814011072,96.58501867148065,81.3933258655768,-5.309430429709474,-3.398292896508069,56.91654644777453,56.97102873021451,-3.1117793309010375,2.8066613337416397,-100.22220705029181,-3.706487818617621,3.3437801250955257,2.2173909582198608,0.45012063874366237,15.450297663149207,96.57475292415606,82.39328790531064,0.09802385466173291,11.775454133749008,3.3553168177604675,-43.50238740444183,-14.894615113735199,-102.50369310379028,-4.391740261959127,12.423464378508397,False,0
GUIDED_NOGPS,1.506460189819336,36.555491641827466,12.478406589146829,96.81673929662634,81.47557608621483,-5.087067887129885,-3.5914048863774166,56.317757160941085,56.172713847619725,-3.1744990370585606,2.769664333441796,-100.60592707786314,-3.7620958637822355,2.8501648959141885,0.19751702024779538,0.4483041059211459,16.65340251439314,96.6365644885287,82.34945965520275,-0.4226903896778822,10.984674841165543,1.627911999821663,-54.17487621307373,-17.207732796669006,-64.95338678359985,-3.9268924570984884,9.379494098470188,False,0
GUIDED_NOGPS,1.5491421222686768,23.43225864120628,12.630552666500948,97.21777315442712,81.5881347404503,-4.78629657339461,-3.79324037619468,55.708411721942845,55.3673285027387,-3.1704525768621514,2.8306015736693575,-100.87544634251184,-3.813479422339328,2.3947740803478585,-0.05088087883745729,0.4463787545653266,14.482983346711071,98.7282473617627,83.14923271550916,-0.9682551026344299,10.87382584810257,0.0919790007174015,5.105024576187134,-8.801842480897903,-186.69393062591553,-3.342124593199138,11.924591630398897,False,0
GUIDED_NOGPS,1.572878122329712,42.138139586284495,12.767322477913135,97.68493203137909,81.73734541239756,-4.486431044554868,-4.002850642452687,55.09041744876141,54.5551635546652,-3.2340649033668303,2.868159503254788,-101.16949281647005,-3.788169115714761,2.8564266506835625,2.4160778029249057,0.44440493926401475,14.482983346711071,98.7282473617627,83.14923271550916,-5.594173446297646,8.153169602155685,0.8230436593294144,-59.8272979259491,-23.760268092155457,23.9207923412323,-3.342124593199138,9.962845187555343,False,0
GUIDED_NOGPS,1.6068000793457031,29.483161231820386,12.828025328297572,97.94354335460037,81.83577559021823,-4.259565157610901,-4.219281951788515,54.46568464995608,53.73652183261791,-3.3643814976360886,2.7810199498237655,-101.47571751771841,-3.83211684165276,2.4028044123634347,0.09753725451922968,0.442493912259818,14.482983346711071,98.7282473617627,83.14923271550916,-4.071220010519028,7.828730344772339,0.9465635754168034,15.530803799629211,-9.63791161775589,56.70439600944519,-3.342124593199138,9.856070547807827,False,0
GUIDED_NOGPS,1.6398015022277832,30.30522680308088,13.013993883426256,98.43706194464245,81.96005885782151,-3.940684086444451,-4.441578412800203,53.83612086996003,52.911717656577075,-3.4101209266301367,2.699023101950939,-101.8289202600781,-3.822357249637629,2.716382087650372,1.4990570399339442,0.44051901486414047,15.44685607751477,100.06463029664889,82.75307044500786,-4.071220010519028,7.828730344772339,0.9465635754168034,15.530803799629211,-9.63791161775589,56.70439600944519,-2.561373433973166,9.856070547807827,False,0
GUIDED_NOGPS,1.6737158298492432,29.491038720881996,13.12047937937468,98.92725207594565,82.02451630913308,-3.684368235502721,-4.668784827863336,53.20362513437643,52.081076357921106,-3.3247241386545254,2.7202235822478356,-101.93021879565858,-3.843725338715925,2.5555368401699567,0.8222422536381755,0.4386478380092088,13.581709641005663,101.27754723809598,83.04278086320588,-2.5914503261446953,6.926734000444412,-3.181038424372673,-44.17315423488617,-17.9400235414505,17.089249193668365,-2.1616985040756855,5.517809302129821,False,0
GUIDED_NOGPS,1.7139298915863037,24.870167449361986,13.207158804472167,99.39272129932455,82.11270711970668,-3.399316476652941,-4.899949544947647,52.570082195274765,51.24493380006318,-3.412612238129899,2.6558272780924863,-102.19127545592562,-3.8565866422312185,2.5331012937181385,1.3348861511814847,0.43671573158708865,13.581709641005663,101.27754723809598,83.04278086320588,-3.3602796494960785,6.524519622325897,-1.203472539782524,5.981338024139404,-7.428000867366791,10.95224991440773,-2.1616985040756855,7.9480862314687375,False,0
GUIDED_NOGPS,1.7423827648162842,35.15054808755992,13.237441260603248,99.77996420193053,82.15352160336698,-3.181984302875821,-5.13412730943371,51.937356776486915,50.40363589908789,-3.5632924010793157,2.5774132913261547,-102.39988309355616,-3.87196524716323,2.41416288730308,0.5776657974917225,0.4348627165299993,14.334115440553896,100.55902392982415,83.36579762395414,-8.47523808479309,5.175238475203514,-4.808708652853966,0.9075433015823364,-11.609946191310883,129.66232299804688,-1.8308699740688947,3.1686423632886864,False,0
GUIDED_NOGPS,1.7748456001281738,30.80943461366124,13.345519291097991,100.1595364613462,82.11910431384051,-2.9608830053056625,-5.370382115929518,51.307287818903276,49.55753814438785,-3.5983152632656137,2.51921239563483,-102.53265514083203,-3.868596700532761,2.64388677744015,0.9496543306429401,0.4331548488555431,16.186298923466797,101.0013514066676,82.64925325442218,-8.149392902851105,3.9017606526613235,-7.51136839389801,23.31033945083618,-19.96639370918274,145.60405015945435,-1.2943147386069211,2.1514959281756765,False,0
GUIDED_NOGPS,1.8077895641326904,30.35830920671685,13.42449174245653,100.47284085350044,82.07028726576769,-2.768351004934477,-5.6077900600870745,50.681682725769235,48.70700511930029,-3.6608490602116657,2.4621990990854408,-102.65300307400766,-3.8794762651372254,2.5891568010757093,0.6762234547651846,0.4314634702186643,16.186298923466797,101.0013514066676,82.64925325442218,-8.149392902851105,3.9017606526613235,-7.51136839389801,23.31033945083618,-19.96639370918274,145.60405015945435,-1.2943147386069211,2.1514959281756765,False,0
GUIDED_NOGPS,1.8413233757019043,29.824889249169814,13.317349495002565,100.78071625932323,82.07353878814719,-2.59691372034134,-5.845442190419101,50.06231160798095,47.852410021743694,-3.677284629788832,2.3779948194502314,-102.75935594957393,-3.9047555495322723,2.1906066941639954,0.48658208931747304,0.42965596199734957,12.72288900259808,101.569728562703,82.70729763716153,-10.11415719985962,2.9269298538565636,-3.954966738820076,-31.720656156539917,-25.932595133781433,78.59376668930054,-1.1129813915329207,0.7495289512613321,False,0
GUIDED_NOGPS,1.8746309280395508,30.02794959908362,13.141990439633092,101.08342349007017,81.97832663716162,-2.4159572484586715,-6.082447360115621,49.45090152938188,46.994134184854424,-3.6765913655880755,2.46408636573048,-102.78655376284891,-3.917415594161225,2.041719860937012,0.7234596609265564,0.42803661026169043,11.829981724656985,102.32586191582946,82.1586961684159,-11.852683871984482,1.2793793343007565,-8.759257197380066,17.446154356002808,-9.56822782754898,29.256567358970642,-1.0156718508095661,1.558112892025358,False,0
GUIDED_NOGPS,1.9087305068969727,29.32792593732082,12.911813132748406,101.35568751560463,81.84429525682464,-2.3015733065353667,-6.317935078860527,48.84913075205876,46.13256659762328,-3.780632649007118,2.401820226822528,-102.82425640706738,-3.9262027455767687,1.9164847308795663,-0.037940806291443474,0.4264842073667244,12.248694613347606,102.56769124174187,81.84160531040985,-16.320139169692993,0.05980198038741946,-10.174655169248581,-95.39476037025452,-29.381364583969116,-22.40338772535324,-0.8502071252079322,-2.6564419951177873,False,0
GUIDED_NOGPS,1.9427635669708252,29.389370423571453,12.660742032180433,101.60809695951043,81.7254025149362,-2.184679482177338,-6.551058364648357,48.25862298163792,45.268103425532225,-3.7241341779664188,2.3765912155757936,-102.81228991564153,-3.9319633968198504,1.8597437615811847,0.062125678787957384,0.4248937373889041,13.059008457742262,102.62073520739636,81.68941976430466,-19.6829155087471,-0.3130108118057251,-8.542796969413757,32.45196342468262,-15.934088826179504,39.74405527114868,-0.6858701891363249,-2.3976678986939834,False,0
GUIDED_NOGPS,1.9775524139404297,28.74917919297019,12.366399058993736,101.87538093872715,81.56237551073198,-2.0736553893275373,-6.780996595600728,47.68094161258135,44.40114753119089,-3.825895458863146,2.169611724288666,-102.79636874468622,-3.9391044539147035,1.7542213599224539,0.03365098830909585,0.423382560808297,12.206334031533833,103.63090433396872,80.7174435076182,-19.6829155087471,-0.3130108118057251,-8.542796969413757,32.45196342468262,-15.934088826179504,39.74405527114868,-0.513594880311469,-2.3976678986939834,False,0
GUIDED_NOGPS,2.008812189102173,31.992433430203732,12.115351688441567,102.06881751213717,81.32575436625622,-2.0003549610190707,-7.006958361783157,47.117583973482986,43.53210799497322,-3.784783696475193,2.1350622795892145,-102.73721247628474,-3.9388346731453763,1.821067383188919,-0.2629542931089205,0.42202314043067457,12.769830215676828,102.78378308208664,80.69218439114118,-18.211117386817932,-1.240259874612093,-13.345155119895935,-71.51094675064087,-26.80453062057495,-35.62999963760376,-0.3620756336156101,-4.608761496246252,False,0
GUIDED_NOGPS,2.0423765182495117,29.797132748895297,11.883732002251405,102.2180440834211,81.06928936281157,-1.8984042597934752,-7.22818431702151,46.569975572364875,42.661399635654156,-3.780443965031296,1.9799266988668338,-102.67373952832781,-3.9409362706840083,1.848224173635642,0.07458405446277672,0.42069140716828035,12.289128104060055,102.92737256513473,80.47586814730558,-15.527971088886261,-2.3394662886857986,-14.1837939620018,-73.47742915153503,-27.645567059516907,-88.58386874198914,-0.505547805332516,-1.277571302881841,False,0
GUIDED_NOGPS,2.076308250427246,29.474459428121683,11.61208586780766,102.36899237178717,80.83545482941095,-1.8316404054896462,-7.443950030718662,46.03946434197331,41.78944253104616,-3.7313921077332033,1.8288824014572909,-102.60622993857142,-3.946223749342037,1.7455505009892234,-0.3111275593842504,0.4193092803413624,11.791245534946288,103.40135398798094,79.79554178357002,-16.61371737718582,-4.101474583148956,-10.670484602451324,-31.887027621269226,-34.93540287017822,54.9351692199707,-0.6505320710333877,-3.3205722374128035,False,0
GUIDED_NOGPS,2.123251438140869,21.30429305755907,11.25485284378737,102.49689074125877,80.50873156256341,-1.76623015343504,-7.6535688396713315,45.52731488507502,40.91666153863589,-3.694429685266033,1.7364475304288043,-102.50557344077293,-3.951821447737573,1.6240552689300036,-0.5025596585275253,0.4180684310772238,10.58840597360495,103.30505259121226,79.58937940837485,-18.87633353471756,-4.193129017949104,-16.387242078781128,-39.100730419158936,-19.96639370918274,-54.009902477264404,-0.6465195184058927,-2.890498063822138,False,0
GUIDED_NOGPS,2.1439146995544434,48.40624134428954,10.903075211295853,102.58953053106445,80.19720943547071,-1.723585591210147,-7.856394699886396,45.034702719753376,40.04348581622081,-3.719754319161148,1.723412007676129,-102.37869584675077,-3.962022005454009,1.3222603274549107,-0.20631562238883572,0.4168789334423233,10.58840597360495,103.30505259121226,79.58937940837485,-18.71529519557953,-5.247761309146881,-15.593206882476807,-37.807899713516235,-20.01630812883377,-22.034703195095062,-0.6465195184058927,-3.8299722280239976,False,0
GUIDED_NOGPS,2.178123950958252,29.237360323999525,10.484529411912659,102.49634735945166,79.95864882305762,-1.7606024028386928,-8.051825038397704,44.56270852470471,39.17034834254575,-3.78238373875558,1.6788257067130494,-102.30398723760918,-3.960333423521586,1.3519356949354375,-1.4919307281603353,0.4154988552532693,9.943020268432162,102.59475224485013,79.23883437868773,-25.626009702682495,-7.472308725118637,-13.288779556751251,-90.75830578804016,-28.75552773475647,7.679644227027893,-0.6328901735221755,-6.069333417230011,False,0
GUIDED_NOGPS,2.210219144821167,31.160090635563314,9.941185378825347,102.47722428245568,79.66531186914628,-1.7665821226239966,-8.239303605082627,44.112312384534185,38.29768543793962,-3.80938347654464,1.4166556188895743,-102.13248118755016,-3.9707408585670865,1.010334906369641,-1.133900556889068,0.4142331634507322,8.072301533541909,101.8303404174719,78.88886841495196,-25.626009702682495,-7.472308725118637,-13.288779556751251,-90.75830578804016,-28.75552773475647,7.679644227027893,-0.8054641008808814,-6.069333417230011,False,0
GUIDED_NOGPS,2.2476048469543457,26.751264438194006,9.458455516284923,102.46318579713787,79.37824904405188,-1.7470933493200296,-8.418323324478772,43.68438803505233,37.42593628495192,-3.8602905839760377,1.3155749023106151,-101.93364072043275,-3.965744549887967,1.1840461948359542,-0.8398478717512086,0.41293825264713085,7.8903171098972305,102.43507080038049,78.03092486094647,-21.5752512216568,-7.855604588985443,-10.877947509288788,-61.03808283805847,-41.05421304702759,67.60817170143127,-0.9754430525026234,-3.357550241249018,False,0
GUIDED_NOGPS,2.277865409851074,33.05073874157834,9.055141652143488,102.45870607427679,79.0276202048297,-1.7338319228499817,-8.58842914760048,43.279697108571064,36.55554244898949,-3.8587111027304726,1.289396921656072,-101.81179014563972,-3.965772291046934,1.1912618708146274,-0.8649031613125816,0.41179596266175034,8.354867810732957,102.54131194620098,77.56747449556153,-16.65743589401245,-7.927851378917694,-13.37353140115738,66.38751029968262,-12.576529383659363,108.36883783340454,-1.0569606573107229,-3.631596213770147,False,0
GUIDED_NOGPS,2.3118550777435303,29.425452504560123,8.578429639836083,102.35501697408894,78.6804445432848,-1.7428415974146538,-8.749220903755587,42.89888337919971,35.68694739895294,-3.889427317201666,1.1641719132479407,-101.6407622088226,-3.969947627878361,1.0485059605719471,-1.1525072309431121,0.41063706420667334,7.147680396012068,101.63865096788268,77.38228302661553,-21.531563997268677,-9.263923019170761,-15.031926333904266,-48.108527064323425,-25.49363672733307,-22.384440898895264,-1.14161856267254,-3.857929046070506,False,0
GUIDED_NOGPS,2.3533856868743896,24.08097602985503,8.100702838687873,102.22774505905194,78.2795968911215,-1.7802470669576358,-8.900356152361896,42.54246700814145,34.82059602787345,-3.919364463220655,1.065592113122264,-101.48789574500854,-3.966808580210756,1.1300419532458907,-1.4266062700731545,0.40956093702169566,7.111293737423173,101.47480946530564,76.89833262417122,-20.46329826116562,-11.151690036058426,-16.59768372774124,-1.4946743845939636,-18.109191954135895,-42.216336727142334,-1.1854652344877858,-5.851897333210417,False,0
GUIDED_NOGPS,2.3849308490753174,31.705374555899915,7.554003587779052,102.07760208965988,77.79623198721782,-1.8239557187863507,-9.041553034763988,42.210838788989584,33.956934173549264,-3.9572493881126003,0.9111934457783043,-101.27233497480294,-3.978323657999051,0.7443606619603681,-1.6491082413565699,0.40868980920405157,6.68661708828863,101.04835424949209,76.59685676185933,-19.82821673154831,-12.735696136951447,-18.268637359142303,5.442992597818375,-36.43835484981537,-91.47912859916687,-1.2219256652100297,-6.482534248806394,False,0
GUIDED_NOGPS,2.4211926460266113,27.58394275793129,6.992314116344775,101.908869007486,77.35414017692,-1.8595128956746325,-9.172593126049678,41.90425439302321,33.0964081391824,-3.9761382762622706,0.8508129726898049,-101.15396779648663,-3.9768392724474695,0.7782985364456396,-1.5077701709470501,0.4077244975389475,5.113100182884544,101.9136806907382,75.60137845494347,-23.226796090602875,-13.424168527126312,-17.767491936683655,-39.67835009098053,-20.22436559200287,-89.74376320838928,-1.5560340529285246,-3.929133768167889,False,0
GUIDED_NOGPS,2.451413154602051,33.09272233794105,6.439878123884613,101.72582092439409,76.86009710463135,-1.9525000386753408,-9.293324286866701,41.622828614504066,32.23946421401514,-3.923787010708238,0.7409376938633667,-100.96741483968606,-3.9826170730069723,0.5780632517882989,-2.401602672030168,0.4068907596007051,4.280472962817974,101.56464345998336,75.47411336194628,-17.931176722049713,-13.788393139839172,-19.105340540409088,31.876131892204285,-18.737737834453583,-85.68968772888184,-1.7871332383127385,-7.186241808803638,False,0
GUIDED_NOGPS,2.4916162490844727,24.877247924080663,5.888950560036587,101.45194046336616,76.445100812019,-2.0438127731707705,-9.40366351523936,41.36652961597207,31.38654819396679,-4.016385165946571,0.5591795832210104,-100.79795784637804,-3.9747979195900913,0.7775597556692888,-2.134759051409267,0.40586999381059197,3.5845979804585406,100.44233056647758,74.67665473743584,-20.74514627456665,-15.806558728218079,-15.31204879283905,-59.25865173339844,-38.758501410484314,-9.102796018123627,-1.972717517119614,-6.292253289379478,False,0
GUIDED_NOGPS,2.5226809978485107,32.19577048551142,5.271893613934737,101.16990244398323,75.97090228463934,-2.141155902972043,-9.503599798385176,41.1351731735422,30.53810490227024,-3.9134610453436482,0.5439636292975144,-100.68083376249066,-3.990119890003461,0.33901063443873636,-2.5395895129470185,0.40500872819101325,3.5845979804585406,100.44233056647758,74.67665473743584,-18.90883296728134,-16.423390805721283,-14.409300684928894,33.45027565956116,-20.533834397792816,10.958997905254364,-1.972717517119614,-6.570465677294315,False,0
GUIDED_NOGPS,2.5532166957855225,32.753158724952755,4.631813224825616,100.83795765753896,75.4274145868841,-2.2642788180802733,-9.593196964531375,40.92841692220009,29.69457771010847,-4.006222271348415,0.4181251845245515,-100.52711352503036,-3.9950778498090256,0.2035347892957485,-2.9710915813068226,0.4042969086676705,1.504052309088307,99.83027647806733,71.77436683852744,-25.692778825759888,-18.1120827794075,-19.456729292869568,-52.26061940193176,-33.05352330207825,-36.16432845592499,-2.653133580328126,-6.56010342654976,False,0
GUIDED_NOGPS,2.5870044231414795,29.601140485835675,4.086405656400804,100.50594112867272,74.93234087429121,-2.3390238020876564,-9.672596534731747,40.74575460109837,28.85640805725135,-4.070265966987862,0.34211974657514876,-100.40046815743999,-3.984655809962035,0.45731491238440325,-2.293763772969312,0.4034869381624621,1.504052309088307,99.83027647806733,71.77436683852744,-18.780164420604706,-18.494777381420135,-15.902909636497498,-26.799321174621582,-30.210232734680176,-82.2988510131836,-2.653133580328126,-3.4312400849872278,False,0
GUIDED_NOGPS,2.6223602294921875,28.28714019800912,3.5044756439408387,100.09914313331916,74.4214966632912,-2.4236995249487685,-9.74202057468304,40.58651029885307,28.024034972692192,-4.112054771877293,0.29131199705183375,-100.30454498073632,-3.9877246775958497,0.37462878718980175,-2.411945165406464,0.402712611443234,1.4722209378348157,98.58063261870275,71.60629254358616,-19.59354430437088,-19.772496819496155,-15.374800562858582,1.0187441483139992,-30.331790447235107,-5.100155249238014,-2.7659879864518278,-3.6983950369660485,False,0
GUIDED_NOGPS,2.654031753540039,31.57885860563168,2.9184317092502012,99.67062053549711,73.907846701989,-2.5194924491853823,-9.801774546541589,40.449832698839536,27.197894595284247,-4.127335185711081,0.19206049050996862,-100.27625433719413,-3.930967335633848,0.18928834308860606,-2.714886669221728,0.4019686275357519,0.7264596714150372,98.30145556368606,70.9568164392851,-19.280247390270233,-20.756055414676666,-15.02765566110611,43.333619832992554,-15.405477583408356,-42.749643325805664,-2.849599197480221,-4.315761748778338,False,0
GUIDED_NOGPS,2.687066078186035,30.275258230534362,2.3560090177378137,99.20639871750255,73.38250477400719,-2.588795806708088,-9.852250160740285,40.33468932448889,26.3784196943775,-4.014272503058921,0.10565555594069255,-100.20902478519369,-3.814862093823964,0.21622030341666149,-2.3916224488992937,0.4012560198050841,-0.9432985959807627,97.60979105404311,70.67927837374103,-15.839044749736786,-22.089488804340363,-17.42161065340042,-9.89198386669159,-26.35839283466339,-146.73775434494019,-2.971737901527029,-2.4398549889893903,False,0
GUIDED_NOGPS,2.7262442111968994,25.529880090084607,1.7386393191193719,98.71685895313318,72.85381960981879,-2.698528652327865,-9.893928227804688,40.23986078458387,25.566039190455207,-3.9958553248488045,0.07115360240031361,-100.17117187681349,-3.817237181004752,0.2257089187599829,-2.741377335416746,0.40054066991352494,-2.5308366871781707,97.13202421454585,70.03159172891273,-14.6715447306633,-22.305256128311157,-15.50765186548233,116.60581827163696,4.490683972835541,-30.218005180358887,-3.2298063350299864,-4.399072127405923,False,0
GUIDED_NOGPS,2.758397102355957,31.103247287747216,1.0131518268614936,98.13383436805148,72.33690652994044,-2.779473429919091,-9.927381510170024,40.16393501855525,24.76117767577044,-4.138882474276634,0.00711140086474687,-100.1752699903155,-3.43408852475864,-0.33276360444616415,-2.6789793662635306,0.39984291722564214,-2.397680546450747,96.2490399892163,69.54442001167462,-18.548187613487244,-24.055948853492737,-10.242558270692825,54.77864742279053,-14.917626976966858,90.11712074279785,-3.2959281387799413,-1.8762945864677574,False,0
GUIDED_NOGPS,2.8002243041992188,23.909930966075898,0.45958143618664093,97.58582487709526,71.83845862503362,-2.7972294869973884,-9.953277573997761,40.105301541778275,23.964254934982854,-3.994542647867693,0.014525677930501493,-100.19136191600005,-3.644260742129017,0.2671781441981237,-1.8471801582119374,0.3990848598205727,-3.5540735033200352,95.92032209369836,68.64486600636981,-11.971235275268555,-24.37562793493271,-13.10645192861557,117.98591613769531,-17.00204908847809,12.61911690235138,-3.502698290502576,2.066533070655772,False,0
GUIDED_NOGPS,2.837754726409912,26.64826709870072,-0.1290561659918707,96.93205620167316,71.28802477245307,-2.8216355933500714,-9.972381640992142,40.06214569086795,23.175685465795183,-3.8541165198531693,0.11481670724753083,-100.25740984527407,-3.309937503228846,0.015648631752286923,-1.953409853477374,0.39846430516136916,-2.9488294817376657,94.90048826708819,68.46659817862786,-10.868136584758759,-25.274449586868286,-11.779576539993286,61.634361743927,-26.39579176902771,83.49807858467102,-3.5634661525720333,2.188128153685159,False,0
GUIDED_NOGPS,2.8588500022888184,47.41523191535062,-0.5841205159206841,96.38532621403,70.89595765653621,-2.8063563455689953,-9.985559440216642,40.0324428689764,22.39587799958987,-3.8821497506410174,0.1288851360296117,-100.29117147034144,-2.7593937564027384,-0.4560657319075875,-1.3939049155038055,0.39760702830975647,-4.288775939423983,94.678457836142,67.87556189819917,-13.280799984931946,-26.86898708343506,-12.104909867048264,102.86091566085815,-20.58930993080139,99.1677463054657,-3.7909345958030665,4.20244805667418,False,0
GUIDED_NOGPS,2.8927228450775146,29.525708171425354,-1.0216609324561283,95.83221008872262,70.48531362183921,-2.7828091002747355,-9.993780059911005,40.01395279108806,21.625235022065766,-3.8263855249360947,0.09164950599564094,-100.43408634853479,-3.25995928803078,0.1073852270684998,-1.3909579523285964,0.39675494210431583,-5.610314445346592,93.38131516938446,67.17869740354789,-13.60844075679779,-28.15786898136139,-15.884897112846375,21.661442518234253,-16.470320522785187,-36.388057470321655,-3.7066271329546776,4.362237344098867,False,0
GUIDED_NOGPS,2.927729845046997,28.57058002111645,-1.5837549597877414,95.05439353734506,69.95024383210388,-2.7777327054120837,-9.9981187993076,40.00421372931655,20.86415229387469,-3.830798254026746,0.10907582652842933,-100.52046775096794,-2.7975510770426775,-0.21013234181550833,-1.6076693804831865,0.39616769934717044,-5.653417864054804,90.92102460954135,66.31811109331731,-10.848388075828552,-28.69797646999359,-12.57488876581192,46.241822838783264,-9.759552776813507,10.078374296426773,-3.3747362575283573,2.752811695438436,False,0
GUIDED_NOGPS,2.963078260421753,28.29878217454374,-2.236254038617461,94.24195996562229,69.35106479174179,-2.791559090085293,-9.999760020448052,40.000536758200624,20.113018371257937,-3.662221074461192,0.06800157682005852,-100.74055693659326,-2.7036198698117215,-0.4352930481139484,-1.8323237013484222,0.39572537331698787,-6.659831616108531,90.41230348202919,66.01509409712062,-14.939767122268677,-29.943004250526428,-16.709935665130615,7.114622741937637,-15.545070171356201,-43.707430362701416,-3.5169337652428627,1.7452848347194487,False,0
GUIDED_NOGPS,2.993759870529175,32.59737312504858,-2.84199170872262,93.49358369790049,68.78378939035505,-2.8044441152826844,-9.999999999999995,40.0000000000001,19.372214126683204,-3.6249905670690987,-0.01561242506047399,-100.91446721324013,-2.5633775777744656,-0.5850588463454998,-1.8511555425294028,0.3952573972817372,-6.873556028126648,90.86434761122308,65.65000449224385,-14.939767122268677,-29.943004250526428,-16.709935665130615,7.114622741937637,-15.545070171356201,-43.707430362701416,-3.5642994480039842,1.7452848347194487,False,0
GUIDED_NOGPS,3.0299720764160156,27.617725686442352,-3.422860494535092,92.68608990148088,68.21809981228016,-2.7811524157596597,-10.0,40.0,18.642112269480762,-3.415426276067944,0.0596707737450528,-101.07723062116153,-2.669092317444991,-0.34157287176572015,-1.4179150132810834,0.3947812275871664,-7.99683038597386,89.139437275497,65.03494561151109,-13.055118918418884,-31.78585171699524,-17.47179627418518,-81.98679685592651,-33.065226674079895,24.40894842147827,-3.5903092602149975,4.168003839576629,False,0
GUIDED_NOGPS,3.0648183822631836,28.70274894100418,-4.072864635892846,91.82487104473577,67.65440912222356,-2.7593446565649664,-10.0,40.0,17.923076866480486,-3.271687719749376,-0.000654737664969191,-101.32602026167925,-2.423031471305689,-0.6266563694970667,-1.4048298799143633,0.3943321485271317,-7.27246093989427,88.87578999477657,64.88889689944307,-18.269897997379303,-32.940804958343506,-15.384501218795776,-17.443057894706726,-15.826833248138428,34.641847014427185,-3.316614322673061,3.222717611277912,False,0
GUIDED_NOGPS,3.0938682556152344,34.428078930951834,-4.611991424641648,90.9930217793089,67.13432902906034,-2.663438557033861,-10.0,40.0,17.215462862648266,-3.2542316772215276,0.05181947129412315,-101.51344748269356,-2.113091331061724,-0.6832136731944625,-0.2788232188736621,0.3938409526549949,-8.190479768577994,87.55226155719518,64.40004679677097,-13.421620428562164,-32.65620470046997,-15.827786922454834,-97.39930629730225,-27.098307013511658,-32.45818614959717,-3.267393059081295,8.102173591596934,False,0
GUIDED_NOGPS,3.1304595470428467,27.333181276107684,-5.174912767242654,90.1774931211722,66.60413453255872,-2.5930634347282675,-10.0,40.0,16.51961560172262,-3.122961631232818,-0.0499074452133427,-101.77376648253026,-2.3766324610824894,-0.5640177862175951,-0.7431548830972503,0.39337085929868665,-9.744792738549558,87.91608013233954,63.221865463983825,-11.694463342428207,-33.751994371414185,-14.09291923046112,-26.241743564605713,-24.157288670539856,37.0490700006485,-3.1847098250097385,6.08954821585231,False,0
GUIDED_NOGPS,3.161332368850708,32.39620295205802,-5.810082653006217,89.2192470618314,66.00268541734776,-2.5061971140858943,-10.0,40.0,15.835870346851351,-3.1088528082850986,-0.06196070138600536,-101.97662310087964,-1.9417635446086237,-0.8674654445017722,-0.43999522908686584,0.3930751710409655,-10.00367031810633,85.56964971073845,62.517286599526514,-14.491751790046692,-34.8787397146225,-15.594230592250824,-77.4272084236145,-36.908116936683655,-33.13601613044739,-2.969298421265689,6.464792832437286,False,0
GUIDED_NOGPS,3.1970345973968506,28.012074907167474,-6.34077677644864,88.31802535532135,65.42882705988609,-2.386201516030836,-10.0,40.0,15.164551801228185,-3.0957586953159497,-0.2007326429609163,-102.20749715520441,-2.139915239686857,-0.5825602365354122,-0.0968633885042427,0.3927356601494737,-10.00367031810633,85.56964971073845,62.517286599526514,-10.27243584394455,-34.235888719558716,-16.379515826702118,40.94465672969818,6.626319885253906,-14.347498118877411,-2.969298421265689,8.78481855574115,False,0
GUIDED_NOGPS,3.229090452194214,31.20413644310531,-6.958185604341993,87.31437097902659,64.75746486401812,-2.309793436533592,-10.0,40.0,14.505973628729379,-2.90917137412613,-0.3317480509596315,-102.51898793230284,-1.6649831165835165,-0.9820413189366648,-0.42775740735874646,0.39263298955123394,-11.748608613333813,84.02627447938553,61.66867073922403,-9.459985047578812,-34.07522737979889,-18.791067600250244,-74.11108613014221,2.8471484780311584,-72.98815250396729,-2.8208433701299263,5.057557858682158,False,0
GUIDED_NOGPS,3.2649435997009277,27.89285239273269,-7.534545449203485,86.29944592411549,64.17836038460807,-2.1774579166284886,-10.0,40.0,13.860437974550251,-2.7232455140687435,-0.3023963802185595,-102.69543903932095,-1.7893832395234524,-0.8013625137638369,0.16758022407696171,0.3923555714332364,-13.185425071068,81.06848741808861,60.32215839406871,-8.997010439634323,-34.510210156440735,-14.62230384349823,10.506381094455719,-10.10950356721878,65.17339944839478,-2.350081404681786,7.993824593245728,False,0
GUIDED_NOGPS,3.295081853866577,33.18541023815175,-8.14891517849538,85.22422471371222,63.55904812595671,-2.0387830966095413,-10.0,40.0,13.228234985841965,-2.5841551149237807,-0.3688632989094808,-102.93921532098787,-1.2448773930208563,-1.1804744561593266,0.6127866851851043,0.3922081446309087,-13.185425071068,81.06848741808861,60.32215839406871,-8.997010439634323,-34.510210156440735,-14.62230384349823,10.506381094455719,-10.10950356721878,65.17339944839478,-2.350081404681786,7.993824593245728,False,0
GUIDED_NOGPS,3.34468150138855,20.16298432842996,-8.664226314464853,84.30183074827056,63.00523749905575,-1.9434912999786957,-10.0,40.0,12.609642332347889,-2.39604359433199,-0.3342927233122844,-103.30060746016241,-2.2561866630666443,-0.49887565341847545,-0.3965343287131772,0.3918788910308798,-12.86822075559915,81.2780710921445,60.053825317032135,-10.164883732795715,-34.53749716281891,-16.209618747234344,-42.24419891834259,-4.4059645384550095,-81.87114000320435,-2.15700052191872,5.269000878591889,False,0
GUIDED_NOGPS,3.3653030395507812,48.5058864346016,-9.2352895532164,83.17990014621942,62.285062514970285,-1.7941055644331014,-10.0,40.0,12.004924727040546,-2.274701441745305,-0.3248335516420514,-103.46992101949786,0.11134556884106214,-1.8398235388894204,1.819326043733135,0.3920268037810392,-12.93945576273736,80.52383129975811,59.43670630260654,-7.269326597452164,-35.42357385158539,-18.911263346672058,9.288159012794495,13.920414447784424,-77.58172750473022,-1.8989175210674936,7.128478472106017,False,0
GUIDED_NOGPS,3.4098567962646484,22.448760697713006,-9.532367064670373,82.50447349799074,61.91554333591051,-1.6623657637568297,-10.0,40.0,11.41433344675788,-2.160511564436682,-0.4261873690661053,-103.78050338143669,-2.3408150520513438,-0.32419830535496563,0.18607072500351662,0.39140477078745484,-13.360624561520293,79.37179378380746,59.08715429944225,-7.6955534517765045,-34.198400378227234,-15.317228436470032,21.36813849210739,16.10456556081772,43.49315166473389,-1.8615158761580277,9.16501847456897,False,0
GUIDED_NOGPS,3.441382646560669,31.721200387221685,-9.94761633563203,81.50267930391436,61.321883303298215,-1.5318401613517219,-10.0,40.0,10.838105852840314,-2.0851436285967644,-0.4994776467378693,-103.8541396508786,-1.2003394633893576,-0.8525266088841211,0.7369922694300717,0.3913123111811202,-13.912303962670574,77.58152551883461,58.21709097610253,-2.8864532709121704,-32.98027813434601,-16.20187908411026,0.5733326077461243,14.653338491916656,65.4154121875763,-1.6363578332301514,6.44566147257208,False,0
GUIDED_NOGPS,3.4667532444000244,39.42274397751732,-10.352454660104867,80.52836401847053,60.77622603518193,-1.3567045264837163,-10.0,40.0,10.276464911766737,-1.8847027627794548,-0.5148363943037008,-104.0911335546997,-0.708299184523468,-1.095773003853257,1.9385753912778707,0.3911775253937978,-14.145885661434969,76.71681250418177,57.68477093162455,-4.715454950928688,-33.90156924724579,-14.765731990337372,49.179863929748535,12.86492794752121,21.792735159397125,-1.4041233828916866,9.459931528778135,False,0
GUIDED_NOGPS,3.4996490478515625,30.40342140553079,-10.767799559044388,79.7021539649581,60.31612828754998,-1.2944908314454528,-10.0,40.0,9.729618715791773,-1.4127272996214648,-0.6154900106161226,-104.3951589350353,-1.4962720775467482,-0.8872179512166027,-0.019498042060033027,0.39087102528923867,-14.874220170497962,76.10546215612136,57.1758024884637,-10.546043515205383,-34.938594698905945,-15.467824041843414,1.9417539238929749,1.3939879834651947,5.936327576637268,-1.2380715752596294,2.6608675308131327,False,0
GUIDED_NOGPS,3.531954526901245,30.95838561580136,-11.211128234276316,78.67955318229176,59.785030484325205,-1.1755019847949766,-10.0,40.0,9.19776000358199,-1.1739194469671952,-0.6821631156426137,-104.65547110468283,-0.999880235887365,-1.0155140188506375,0.7666370957433148,0.3907386431812815,-15.038961433914807,74.46025274133022,56.3433588475352,-6.272796541452408,-33.08233320713043,-11.332032829523087,21.883857250213623,55.265623331069946,31.018105149269104,-0.8818543616729293,4.24466289461309,False,0
GUIDED_NOGPS,3.565828561782837,29.535272163932117,-11.617009591028774,77.59839882625482,59.19184267307854,-1.0739933669868589,-10.0,40.0,8.681065680852612,-1.1322655383138724,-0.816674299835906,-104.8641128932592,-0.8917911430092885,-0.9372811273843211,0.5577159349347551,0.3907551429265562,-16.088843833746182,72.01430729669684,55.18344112821553,-1.6208412125706673,-31.75179958343506,-13.48186880350113,100.5484938621521,41.283828020095825,181.2301754951477,-0.5915073074023967,2.3398614464272267,False,0
GUIDED_NOGPS,3.600752115249634,28.63670749525487,-12.010641578854248,76.46889405565355,58.582284572645726,-0.9689536140482407,-10.0,40.0,8.179696341004203,-1.0859476776744887,-0.8610009468888193,-105.02568101807586,-0.7852087426298612,-0.9238150725851573,0.6214143010609632,0.39083066684021645,-15.916355367331098,70.79359972623138,54.71797955389786,-1.6208412125706673,-31.75179958343506,-13.48186880350113,100.5484938621521,41.283828020095825,181.2301754951477,-0.49732152193158663,2.3398614464272267,False,0
GUIDED_NOGPS,3.6330039501190186,31.010572700252858,-12.413783051388663,75.37986150038681,57.96049084964524,-0.880901094364728,-10.0,40.0,7.693795785759235,-1.0485004184979534,-0.9115484021717335,-105.1457762342522,-0.6148460746020005,-1.0490683370926162,0.5621266465141556,0.39097259185816313,-16.41886487428534,70.46087544591191,54.25175941626088,-2.272609807550907,-30.255764722824097,-14.476418495178223,-0.013684481382369995,47.27107882499695,-125.50389766693115,-0.38458785822532215,1.1138657557417986,False,0
GUIDED_NOGPS,3.6667897701263428,29.600722673893404,-12.774986274055637,74.40599537009142,57.33586682104383,-0.751496216556534,-10.0,40.0,7.223490545798612,-1.1234395465240408,-0.9693113119825313,-105.23510827840678,-0.8599948853345465,-0.9534098709430989,1.0793387329470803,0.3911456208842514,-16.41886487428534,70.46087544591191,54.25175941626088,-2.273379825055599,-28.081214427947998,-18.166911602020264,44.79513168334961,32.79450237751007,-19.000422954559326,-0.38458785822532215,4.702443944015324,False,0
GUIDED_NOGPS,3.701092004776001,29.155456694008063,-13.121770513534466,73.40536790866469,56.700187647767,-0.6646530919043996,-10.0,40.0,6.768889401398539,-1.0183300855518318,-1.093468142837496,-105.33913205946608,-0.7577436743384549,-0.9481770378805748,0.6150033106035429,0.3913709070068018,-16.210314098218944,69.70367134944604,53.765449680574335,-2.192441374063492,-27.947139739990234,-17.67464429140091,15.762530267238617,38.83578181266785,24.712379276752472,-0.18224855263003875,1.1594818144439634,False,0
GUIDED_NOGPS,3.7339279651641846,30.4590604416752,-13.486443350512488,72.38466707088315,56.04029885436477,-0.5721400566495464,-10.0,40.0,6.330082903066909,-0.9853253308218609,-1.0633109366611855,-105.38272915693827,-0.5605391709283275,-1.0528227275560924,0.7830666011962573,0.3916824169232124,-17.223950349318034,68.05079807139631,52.483972479279956,-2.192441374063492,-27.947139739990234,-17.67464429140091,15.762530267238617,38.83578181266785,24.712379276752472,0.09978590171402738,1.1594818144439634,False,0
GUIDED_NOGPS,3.766335964202881,30.860666171244418,-13.81708822687713,71.40362874164131,55.425630864519015,-0.5183531261038168,-10.0,40.0,5.907142892179863,-0.9770887630130601,-1.1787046348110237,-105.4326510095819,-0.5404807410885548,-1.0198572168155613,0.3521724792599582,0.3919373560991627,-17.696131945110587,67.29761524917399,51.782917852955904,0.15509510412812233,-25.722035765647888,-14.175792038440704,94.2278265953064,50.219666957855225,100.55410861968994,0.24630885263253055,-1.5982961755730123,False,0
