Mode,Time,Freq,time2delay,actualDelay,North-Desired,East-Desired,Down-Desired,Roll-UAV,Pitch-UAV,Yaw-UAV,Roll-Control,Pitch-Control,Yaw-Control,Thrust-Control,North-Pos,East-Pos,Down-Pos,Yaw-Ang,North-Vel,East-Vel,Down-Vel,Yaw-Vel,North-Acc,East-Acc,Down-Acc,North-Avg,East-Avg,Down-Avg,Yaw-Avg,North-Dif,East-Dif,Down-Dif,Yaw-Dif,North-One,East-One,Down-One,Yaw-One,North-Two,East-Two,Down-Two,Yaw-Two,Landing-State,Q-Size,Kalman-Time,Kalman-Dt
STABILIZE,0.034375667572021484,29.09841683895048,0.03280762036641439,0.03297901153564453,0.0,0.0,0.0,-0.5195912731830875,-1.217628068621928,-87.92947163872383,-0.02847631109591866,0.02742260637477634,0.017167000660029838,0.4,0.085231803192289,0.08824271913939069,0.11908969091946008,0.0855517890669428,-0.3374038031324744,0.12032535159960389,1.7526064068078995,0.0011061788180579855,-6.662183254957199,0.4242698196321726,29.415306448936462,0.0,0.0,0.0,0.0,0.0,0.0,0.0,0.0,0.0,0.0,0.0,0.0,0.0,0.0,0.0,0.0,False,0,0.14447259902954102,0.0348818359375
STABILIZE,0.06768584251403809,30.020427298428945,0.032334121068318684,0.032453060150146484,0.0,0.0,0.0,-0.5194373804833506,-1.2180087449464505,-87.93377465790093,-0.007032217003304287,0.006586119582827089,0.02031802498092675,0.4,0.1004654550507753,0.1046062594037947,0.1502497055251526,0.10096947463440063,-0.08388636633753777,0.004647517926059663,1.6159074380993843,-0.07345188101474356,1.0927961207926273,0.06610352429561317,20.88606506586075,0.0,0.0,0.0,0.0,0.0,0.0,0.0,0.0,0.0,0.0,0.0,0.0,0.0,0.0,0.0,0.0,False,0,0.17325663566589355,0.034923828125
STABILIZE,0.10191035270690918,29.2204542287864,0.03249219258626302,0.03297567367553711,0.0,0.0,0.0,-0.5193544577179585,-1.2182383033355864,-87.94229873398511,-0.0065303139765783,0.006041624647323796,0.02296097188040572,0.4,0.11311067871638279,0.11845043462120457,0.1810236636186355,0.11379968686014136,-0.08388636633753777,0.004647517926059663,1.6159074380993843,-0.07345188101474356,1.0927961207926273,0.06610352429561317,20.88606506586075,0.0,0.0,0.0,0.0,0.0,0.0,0.0,0.0,0.0,0.0,0.0,0.0,0.0,0.0,0.0,0.0,False,0,0.2020435333251953,0.034923828125
STABILIZE,0.13587331771850586,29.44156336426556,0.0320620854695638,0.033109188079833984,0.0,0.0,0.0,-0.5193039783511239,-1.2187508876884547,-87.94647880975715,-0.006143740185303332,0.005484077421203481,0.02524970002388404,0.4,0.1232900218446822,0.13031635063207325,0.21120915369658164,0.12481416046403895,-0.10442367056384683,0.04602031840477139,1.5883583575487137,-8.150203268397051e-05,-6.1540089547634125,0.1999284140765667,25.367742776870728,0.0,0.0,0.0,0.0,0.0,0.0,0.0,0.0,0.0,0.0,0.0,0.0,0.0,0.0,0.0,0.0,False,0,0.2305145263671875,0.02993505859375
STABILIZE,0.16933989524841309,29.88204784770807,0.03248718579610189,0.03263115882873535,0.0,0.0,0.0,-0.5183347318192167,-1.2182656240922665,-87.9546886971395,-0.004828587980345232,0.0039097656024419,0.02664597151340485,0.4,0.1275635208735144,0.13695289870101188,0.23499180284621266,0.13135593647083854,-0.2311140764504671,0.01723265741020441,1.5476400032639503,0.049716099864983175,-2.5279955938458443,0.0652539252769202,23.609595000743866,0.0,0.0,0.0,0.0,0.0,0.0,0.0,0.0,0.0,0.0,0.0,0.0,0.0,0.0,0.0,0.0,False,0,0.25927066802978516,0.034925048828125
STABILIZE,0.20273375511169434,29.94455589745054,0.03247979482014974,0.032584428787231445,0.0,0.0,0.0,-0.5183855313511687,-1.218967532751191,-87.96017333904302,-0.00788593197185632,0.006929995394445594,0.029297730684757984,0.4,0.14097388231333258,0.15263062240735353,0.2954498360760319,0.14413322684749014,-0.10596817592158914,0.10643565328791738,1.8465571105480194,0.0007979848745543413,0.3696240019053221,0.18894607201218605,21.66338711977005,0.0,0.0,0.0,0.0,0.0,0.0,0.0,0.0,0.0,0.0,0.0,0.0,0.0,0.0,0.0,0.0,False,0,0.31690406799316406,0.0349248046875
STABILIZE,0.23630142211914062,29.791418363650568,0.032503636678059895,0.032633304595947266,0.0,0.0,0.0,-0.5192330084167792,-1.2189218558611166,-87.96499545259705,-0.005306587044379346,0.00392591041085368,0.030806709628509163,0.4,0.14404883466316468,0.15919964044238327,0.3240528743424081,0.15117214966040002,-0.14544898876920342,0.14447439461946487,1.5865722671151161,0.23394641215166026,-4.575823992490768,0.03975617000833154,18.677441775798798,0.0,0.0,0.0,0.0,0.0,0.0,0.0,0.0,0.0,0.0,0.0,0.0,0.0,0.0,0.0,0.0,False,0,0.34566617012023926,0.02993505859375
STABILIZE,0.26963233947753906,30.00217453505007,0.032381566365559895,0.03251075744628906,0.0,0.0,0.0,-0.5206045957794824,-1.218247267958872,-87.97384737776139,-0.004133212914843071,0.0029847109629872097,0.03089883233925612,0.4,0.14389334456678585,0.16159592086693025,0.3475910139892502,0.15112757106583086,-0.11965864105150104,0.08668825030326843,1.7303189262747765,-0.13532771196422624,-1.4498074539005756,0.07016665767878294,24.154353141784668,0.0,0.0,0.0,0.0,0.0,0.0,0.0,0.0,0.0,0.0,0.0,0.0,0.0,0.0,0.0,0.0,False,0,0.37436985969543457,0.034924072265625
STABILIZE,0.3031144142150879,29.86672743067918,0.03248265584309896,0.0326085090637207,0.0,0.0,0.0,-0.5213934826286188,-1.2188039283762282,-87.97834164223526,-0.004736477359933471,0.0033847273839294435,0.031244173960500634,0.4,0.1449308645433602,0.16564398498927088,0.376902660551122,0.1523447421949037,-0.11965864105150104,0.08668825030326843,1.7303189262747765,-0.13532771196422624,-1.4498074539005756,0.07016665767878294,24.154353141784668,0.0,0.0,0.0,0.0,0.0,0.0,0.0,0.0,0.0,0.0,0.0,0.0,0.0,0.0,0.0,0.0,False,0,0.40316319465637207,0.034924072265625
STABILIZE,0.3366274833679199,29.839529887167227,0.03246334393819173,0.03267025947570801,0.0,0.0,0.0,-0.5223015776231131,-1.219196130644975,-87.98342330297776,-0.004215886064122186,0.0034724124334967374,0.031669568880197535,0.4,0.14609955524983556,0.1677207284335854,0.4039849319889032,0.1539558296275834,-0.016227352898567915,0.0023865817638579756,1.5892544761300087,-0.0010477937073622686,-0.9551812894642353,1.7868364229798317,21.748429536819458,0.0,0.0,0.0,0.0,0.0,0.0,0.0,0.0,0.0,0.0,0.0,0.0,0.0,0.0,0.0,0.0,False,0,0.4317917823791504,0.034925048828125
STABILIZE,0.3701181411743164,29.859073111696446,0.032486947377522786,0.03260993957519531,0.0,0.0,0.0,-0.5223362621774922,-1.219194636541094,-87.9941398697855,-0.003972458352588367,0.0032584589466534523,0.03192056618222863,0.4,0.14644357250703932,0.1688138105547539,0.43024795807401134,0.15469335016955466,-0.016227352898567915,0.0023865817638579756,1.5892544761300087,-0.0010477937073622686,-0.9551812894642353,1.7868364229798317,21.748429536819458,0.0,0.0,0.0,0.0,0.0,0.0,0.0,0.0,0.0,0.0,0.0,0.0,0.0,0.0,0.0,0.0,False,0,0.46047186851501465,0.034925048828125
STABILIZE,0.4034717082977295,29.982229275231784,0.03243211110432943,0.03254222869873047,0.0,0.0,0.0,-0.5232378471479339,-1.2196425475402588,-87.99861364369185,-0.004089196723825996,0.0020583820348819295,0.03194317166150435,0.4,0.14293164764400662,0.17012456496658346,0.4853002477863443,0.15429061561012725,-0.05092876963317394,0.12248690472915769,1.8122918903827667,0.17215689238172835,-3.3642463386058807,1.8182093277573586,18.566614389419556,0.0,0.0,0.0,0.0,0.0,0.0,0.0,0.0,0.0,0.0,0.0,0.0,0.0,0.0,0.0,0.0,False,0,0.5178537368774414,0.034924072265625
STABILIZE,0.43697333335876465,29.848873453934726,0.03251651128133138,0.03265714645385742,0.0,0.0,0.0,-0.5235582257086897,-1.2198000687779922,-88.00883843687937,-0.003734929638286829,0.002758419864489338,0.031732266936794144,0.4,0.14175435352984803,0.17014830058889605,0.510736325188196,0.15272498465634282,0.01835231378208846,0.0879236264154315,1.708466000854969,-0.02143006203140549,-4.784082621335983,-2.111637406051159,19.333265721797943,0.0,0.0,0.0,0.0,0.0,0.0,0.0,0.0,0.0,0.0,0.0,0.0,0.0,0.0,0.0,0.0,False,0,0.5465006828308105,0.02993505859375
STABILIZE,0.4704244136810303,29.892696276868694,0.03246882756551107,0.032607078552246094,0.0,0.0,0.0,-0.5242902298886447,-1.2195005009498636,-88.01497194675405,-0.0031603575913523394,0.0018655147749499351,0.03118071467010321,0.4,0.13777330662063877,0.16828817668176732,0.5289639913349297,0.14946712205441193,-0.07020473713055253,0.0976698356680572,1.6956418752670288,-0.013421555172806453,-0.1547638326883316,-0.15401311684399843,20.36217451095581,0.0,0.0,0.0,0.0,0.0,0.0,0.0,0.0,0.0,0.0,0.0,0.0,0.0,0.0,0.0,0.0,False,0,0.5751316547393799,0.0349248046875
STABILIZE,0.5039019584655762,29.872470745760538,0.03248480161031087,0.03261375427246094,0.0,0.0,0.0,-0.5246808313318048,-1.219354292212943,-88.02037462638752,-0.0033769058460208883,0.0019552574100113376,0.030517055088381154,0.4,0.13425539085250435,0.16713628472201944,0.5509403814022887,0.14566165352686822,-0.09740315144881606,0.06025389302521944,1.5619968064129353,-0.12138442772238733,-1.8797561526298523,-0.23183654993772507,19.458146393299103,0.0,0.0,0.0,0.0,0.0,0.0,0.0,0.0,0.0,0.0,0.0,0.0,0.0,0.0,0.0,0.0,False,0,0.603900671005249,0.034924072265625
STABILIZE,0.5373644828796387,29.882686539516527,0.03245070775349935,0.03260207176208496,0.0,0.0,0.0,-0.5258725926202663,-1.2183048976799942,-88.02852987225651,-0.0032413093968200824,0.0017758939463249463,0.029752063614525058,0.4,0.13032239281372177,0.16554525686319216,0.5718645480092278,0.14136349643483395,-0.09740315144881606,0.06025389302521944,1.5619968064129353,-0.12138442772238733,-1.8797561526298523,-0.23183654993772507,19.458146393299103,0.0,0.0,0.0,0.0,0.0,0.0,0.0,0.0,0.0,0.0,0.0,0.0,0.0,0.0,0.0,0.0,False,0,0.6327629089355469,0.034924072265625
STABILIZE,0.5707852840423584,29.92191189584448,0.03246906598409017,0.03258514404296875,0.0,0.0,0.0,-0.526229683447811,-1.2182302992076528,-88.03331100467553,-0.002848155140301296,0.0018933145484528043,0.029595196142063438,0.4,0.1269388771943148,0.16273789381932688,0.5967239977317053,0.14011076072449796,-0.03769178001675755,0.004670095950132236,1.893397979438305,0.1088905976678324,-1.4519160613417625,-0.015392294153571129,32.704031467437744,0.0,0.0,0.0,0.0,0.0,0.0,0.0,0.0,0.0,0.0,0.0,0.0,0.0,0.0,0.0,0.0,False,0,0.6612391471862793,0.029936279296875
STABILIZE,0.6042680740356445,29.866940106670086,0.03247550328572591,0.03260970115661621,0.0,0.0,0.0,-0.5263984104646514,-1.21831183459087,-88.04288692989188,-0.0018317304805322084,-0.0006852391942063313,0.027449853427516702,0.4,0.11561179168512899,0.15685542223711532,0.6325560518073062,0.12895270180553725,-0.08392131421715021,-0.009408724145032465,1.9105814397335052,-0.07966744654094773,0.9841055609285831,-0.19336093682795763,24.283449351787567,0.0,0.0,0.0,0.0,0.0,0.0,0.0,0.0,0.0,0.0,0.0,0.0,0.0,0.0,0.0,0.0,False,0,0.7186636924743652,0.034923828125
STABILIZE,0.6377241611480713,29.8905659839512,0.03244832356770833,0.03258037567138672,0.0,0.0,0.0,-0.5245446544352277,-1.217911841637601,-88.04623372258519,-0.0026435616689967716,0.0007147879700348818,0.026661632150132647,0.4,0.10933231952109847,0.15379682153197438,0.6545523949878453,0.12459483895719928,-0.18845810554921627,0.03619356721173972,1.8519558012485504,-0.057289772468429,-3.106374852359295,-0.12105050263926387,22.75007963180542,0.0,0.0,0.0,0.0,0.0,0.0,0.0,0.0,0.0,0.0,0.0,0.0,0.0,0.0,0.0,0.0,False,0,0.7473020553588867,0.029934814453125
STABILIZE,0.6711668968200684,29.899728398406033,0.032433303197224934,0.03255510330200195,0.0,0.0,0.0,-0.5251352523550222,-1.218016749074384,-88.05020206249297,-0.0029324783465391473,0.0006554695758645757,0.02530955888320068,0.4,0.10320926533970315,0.1517575603377523,0.6640939447234284,0.11744177400268906,-0.14364817179739475,0.16906335949897766,1.49990851059556,-0.1920620646551289,-1.529602613300085,-0.13344987528398633,19.339486956596375,0.0,0.0,0.0,0.0,0.0,0.0,0.0,0.0,0.0,0.0,0.0,0.0,0.0,0.0,0.0,0.0,False,0,0.7760188579559326,0.03492529296875
STABILIZE,0.7046175003051758,29.896105377202485,0.03245356877644857,0.03260040283203125,0.0,0.0,0.0,-0.5254354605133854,-1.2186719136261766,-88.06009900660031,-0.0025374812280065996,0.00038653308016469725,0.025001251659287016,0.4,0.09656836209508572,0.1485294267267014,0.6753940410295443,0.11551365596486979,-0.19884284120053053,0.03905921767000109,1.2672576121985912,0.10990388024358759,-2.674543112516403,-2.0907966420054436,17.200803756713867,0.0,0.0,0.0,0.0,0.0,0.0,0.0,0.0,0.0,0.0,0.0,0.0,0.0,0.0,0.0,0.0,False,0,0.804664134979248,0.034925048828125
STABILIZE,0.7380735874176025,29.889500951349348,0.03246644337972005,0.032599687576293945,0.0,0.0,0.0,-0.5247940630616389,-1.218716630020899,-88.06324772380769,-0.0024428255917807876,0.00023039969894161948,0.024689788929925387,0.4,0.08980974284976569,0.1451334802960724,0.685523162494752,0.11357644662080715,-0.19884284120053053,0.03905921767000109,1.2672576121985912,0.10990388024358759,-2.674543112516403,-2.0907966420054436,17.200803756713867,0.0,0.0,0.0,0.0,0.0,0.0,0.0,0.0,0.0,0.0,0.0,0.0,0.0,0.0,0.0,0.0,False,0,0.8333876132965088,0.034925048828125
STABILIZE,0.7714993953704834,29.917003095621904,0.03246763547261556,0.03258991241455078,0.0,0.0,0.0,-0.524845289480414,-1.2187975250738812,-88.07184693197274,-0.002293073011171224,0.0009701131868682627,0.02442842412187783,0.4,0.08574865523055387,0.14140304111914184,0.6964247876533121,0.11189542434183163,-0.027803736156783998,0.02673589624464512,1.3824138790369034,0.12582871975752355,-3.540462628006935,1.7397690564393997,17.05414354801178,0.0,0.0,0.0,0.0,0.0,0.0,0.0,0.0,0.0,0.0,0.0,0.0,0.0,0.0,0.0,0.0,False,0,0.8620553016662598,0.029934814453125
STABILIZE,0.8049216270446777,29.92020430437357,0.032482179005940755,0.03260493278503418,0.0,0.0,0.0,-0.5251258608449134,-1.2193336949237272,-88.07592455490723,-0.0027610603615477046,0.0005225867631889973,0.023470298318941808,0.4,0.08050026369991994,0.13930366648474848,0.7059814225859523,0.10674788264703171,-0.09815149242058396,0.1714673126116395,1.6972627490758896,-0.06488318191733779,1.6730789095163345,1.8206898123025894,23.172271251678467,0.0,0.0,0.0,0.0,0.0,0.0,0.0,0.0,0.0,0.0,0.0,0.0,0.0,0.0,0.0,0.0,False,0,0.8906524181365967,0.034924072265625
STABILIZE,0.8384742736816406,29.80581434185374,0.03250602086385091,0.032623291015625,0.0,0.0,0.0,-0.5241861762255078,-1.2194374284217468,-88.08035734767857,-0.0013166606616256476,-0.00014291651954418828,0.022840828044397153,0.4,0.07344773921411922,0.13274326574264972,0.7455654792792581,0.10325528137288076,-0.00447581842308864,0.05900155520066619,2.0276807248592377,0.11845379632077584,-0.9125079028308392,-0.03944059135392308,29.760801792144775,0.0,0.0,0.0,0.0,0.0,0.0,0.0,0.0,0.0,0.0,0.0,0.0,0.0,0.0,0.0,0.0,False,0,0.9513695240020752,0.034925048828125
STABILIZE,0.8718607425689697,29.951184678444424,0.03238037427266439,0.03252410888671875,0.0,0.0,0.0,-0.5230501236674643,-1.218336594026611,-88.09088949937873,-0.0022023278972602054,0.00032562369046746357,0.021905624490320408,0.4,0.06826915104223266,0.12929601395170393,0.7566428044155594,0.09825039926520435,-0.11090444168075919,0.05378175410442054,1.5643483027815819,-0.08110158616345207,2.3964766412973404,1.808171346783638,22.928903996944427,0.0,0.0,0.0,0.0,0.0,0.0,0.0,0.0,0.0,0.0,0.0,0.0,0.0,0.0,0.0,0.0,False,0,0.9799869060516357,0.02993505859375
STABILIZE,0.9053301811218262,29.87970621130844,0.032468350728352864,0.03260612487792969,0.0,0.0,0.0,-0.522827075302381,-1.2180689359885113,-88.09379915996516,-0.002160159139742597,0.0001805454268953356,0.020929986740633646,0.4,0.06292912573539776,0.12586923953250026,0.7614886884351073,0.09306088075465194,-0.12759703677147627,0.08345093228854239,1.5722647309303284,-0.07797947601134883,-2.3086998611688614,-0.17427720595151186,21.931621432304382,0.0,0.0,0.0,0.0,0.0,0.0,0.0,0.0,0.0,0.0,0.0,0.0,0.0,0.0,0.0,0.0,False,0,1.0086586475372314,0.0349248046875
STABILIZE,0.9387483596801758,29.921484979704232,0.03245714505513509,0.032581329345703125,0.0,0.0,0.0,-0.52151792013756,-1.2186465138602005,-88.10377123615338,-0.002025940856996346,0.0005133335149158177,0.019654810670134956,0.4,0.05893728050794836,0.12217290902040241,0.7767183585471565,0.08639612990393998,-0.04877084284089506,0.035571635817177594,1.8848134204745293,-0.18429509903219304,0.013475306332111359,-0.04417251038830727,30.372044444084167,0.0,0.0,0.0,0.0,0.0,0.0,0.0,0.0,0.0,0.0,0.0,0.0,0.0,0.0,0.0,0.0,False,0,1.0373306274414062,0.034924072265625
STABILIZE,0.9722228050231934,29.874811248183708,0.03248766263326009,0.032605648040771484,0.0,0.0,0.0,-0.5216318989193346,-1.2183070321141096,-88.10912610446266,-0.002693986167756472,0.0007471940790019227,0.01896021125475348,0.4,0.055900931175023386,0.1207372337105992,0.7894941942472112,0.08264670809850556,0.0029539194656535983,0.171867071185261,1.7802182585000992,-0.008164784121449442,2.092236652970314,3.7417378276586533,23.542556166648865,0.0,0.0,0.0,0.0,0.0,0.0,0.0,0.0,0.0,0.0,0.0,0.0,0.0,0.0,0.0,0.0,False,0,1.0662288665771484,0.034925048828125
STABILIZE,1.0063724517822266,29.282470887207126,0.03244021733601888,0.033247947692871094,0.0,0.0,0.0,-0.5209312709208794,-1.2179989265495186,-88.11273244434443,-0.002955369897661061,0.0014225805587553765,0.018093174963382783,0.4,0.055129074992406796,0.12013299394925087,0.8002438722414656,0.07804528757465179,0.1311421161517501,0.2188841113820672,1.7029080539941788,-0.062427542147733085,1.9761092960834503,-0.09875393006950617,26.181015372276306,0.0,0.0,0.0,0.0,0.0,0.0,0.0,0.0,0.0,0.0,0.0,0.0,0.0,0.0,0.0,0.0,False,0,1.094869613647461,0.02993505859375
STABILIZE,1.0398075580596924,29.907616833758787,0.03170159657796224,0.03183794021606445,0.0,0.0,0.0,-0.5215997756858943,-1.217634898811098,-88.12092867134845,-0.0007037430619232775,0.0005398094653872205,0.017093954162093042,0.4,0.05161385459840774,0.11246048709135663,0.8156700992861843,0.07280555779269134,-0.18364506540820003,-0.0718086666893214,1.7256321385502815,0.058796976438753965,-0.42495205998420715,-0.28828198555856943,24.991434812545776,0.0,0.0,0.0,0.0,0.0,0.0,0.0,0.0,0.0,0.0,0.0,0.0,0.0,0.0,0.0,0.0,False,0,1.1522130966186523,0.034910400390625
STABILIZE,1.0732624530792236,29.890139961802685,0.032454760869344075,0.03257870674133301,0.0,0.0,0.0,-0.5212321194094773,-1.2176481323026151,-88.12682995479133,-0.001303264332439006,-0.0002269925665393654,0.01668268645157711,0.4,0.04589611596486451,0.10709997500346222,0.8251847746646914,0.07051342993897303,-0.18364506540820003,-0.0718086666893214,1.7256321385502815,0.058796976438753965,-0.42495205998420715,-0.28828198555856943,24.991434812545776,0.0,0.0,0.0,0.0,0.0,0.0,0.0,0.0,0.0,0.0,0.0,0.0,0.0,0.0,0.0,0.0,False,0,1.18088960647583,0.034910400390625
STABILIZE,1.1069204807281494,29.71164648961868,0.03244045575459798,0.032753944396972656,0.0,0.0,0.0,-0.5219845074352365,-1.2173653197822942,-88.13169987966955,-0.0019537589658664128,0.001268817983787399,0.015627377003585186,0.4,0.04519933872758054,0.10403722163810018,0.8370278671225321,0.06501818382999715,0.11080063413828611,0.06415052339434624,1.9022731110453606,-0.13625960589910985,0.5042768083512783,-0.20660078153014183,25.85785686969757,0.0,0.0,0.0,0.0,0.0,0.0,0.0,0.0,0.0,0.0,0.0,0.0,0.0,0.0,0.0,0.0,False,0,1.2096257209777832,0.02993505859375
STABILIZE,1.1403777599334717,29.88843599464128,0.03242185910542806,0.03256487846374512,0.0,0.0,0.0,-0.5214746978467185,-1.2175974394923688,-88.14014882367286,-0.0017022170242883665,-0.0004666457280117269,0.015260604617879377,0.4,0.03908437493584588,0.10034558344610664,0.8341367187706421,0.0629735724085405,-0.2251532394438982,0.03601525095291436,1.3749749399721622,0.06307783752169913,-5.937798321247101,-0.34319418482482433,16.43206775188446,0.0,0.0,0.0,0.0,0.0,0.0,0.0,0.0,0.0,0.0,0.0,0.0,0.0,0.0,0.0,0.0,False,0,1.2382733821868896,0.034924072265625
STABILIZE,1.1738498210906982,29.876513662136365,0.03242209752400716,0.03260397911071777,0.0,0.0,0.0,-0.5213479124602501,-1.2164995933049951,-88.14588618257568,-0.0018034173804280594,0.0014679428171417471,0.013872857260828651,0.4,0.03940036730274248,0.09714388645009156,0.8415732380256942,0.05584781094588012,0.1602088683284819,0.046281758113764226,1.6852471977472305,-0.24493928145567845,3.8553386926651,-0.23737484589219093,23.430100083351135,0.0,0.0,0.0,0.0,0.0,0.0,0.0,0.0,0.0,0.0,0.0,0.0,0.0,0.0,0.0,0.0,False,0,1.2669620513916016,0.0349248046875
STABILIZE,1.2072434425354004,29.947121529091728,0.032416613896687825,0.03254199028015137,0.0,0.0,0.0,-0.5214440687171592,-1.2170468622122423,-88.1538775039046,-0.0018883217662973575,0.0010361799761918168,0.01229182057998575,0.4,0.0383223275110508,0.09436609257303992,0.8422646280775867,0.04778286729550356,0.06887625204399228,0.06795210065320134,1.320644747465849,-0.3023575068372286,0.47513600438833237,-2.189386822283268,20.300182700157166,0.0,0.0,0.0,0.0,0.0,0.0,0.0,0.0,0.0,0.0,0.0,0.0,0.0,0.0,0.0,0.0,False,1,1.2957992553710938,0.02993505859375
STABILIZE,1.2472624778747559,24.988555189485787,0.03250697453816732,0.039017677307128906,0.0,0.0,0.0,-0.5212314790792426,-1.217419641130537,-88.16017493831934,-0.0010522842011734795,0.0010059588164502947,0.010976865934087568,0.4,0.03698857889907815,0.08814080835693265,0.8461761100830915,0.04104428210151244,-0.09615123854018748,0.07278315024450421,1.498949620872736,-0.00909021138797336,-1.0230503976345062,-0.3803250379860401,18.1015744805336,0.0,0.0,0.0,0.0,0.0,0.0,0.0,0.0,0.0,0.0,0.0,0.0,0.0,0.0,0.0,0.0,False,0,1.3531136512756348,0.034924072265625
STABILIZE,1.280656099319458,29.9432732464751,0.03230121930440267,0.03251481056213379,0.0,0.0,0.0,-0.5229041283739553,-1.2178221954047446,-88.16952546729308,-0.001494085035392412,0.00039696937033452926,0.010656607106000856,0.4,0.03401376877431481,0.08459177606734297,0.848857603927236,0.039311455964454796,-0.060585851315408945,0.007386574725387618,1.505801361054182,0.05342804754472726,2.9670685529708862,-0.3016581991687417,19.991615414619446,0.0,0.0,0.0,0.0,0.0,0.0,0.0,0.0,0.0,0.0,0.0,0.0,0.0,0.0,0.0,0.0,False,0,1.381716012954712,0.029934814453125
STABILIZE,1.3141775131225586,29.83231386383681,0.03244808514912923,0.0325925350189209,0.0,0.0,0.0,-0.5231152239079909,-1.217628602230457,-88.1738284864702,-0.001656173822262007,0.0011142940234774047,0.010003584164656363,0.4,0.03345754035201058,0.08172920972462251,0.8472234131754426,0.03592612594072966,0.07458270411007106,0.04971176967956126,1.5606723725795746,-0.06457208814498486,-6.704861670732498,1.665126159787178,21.033482253551483,0.0,0.0,0.0,0.0,0.0,0.0,0.0,0.0,0.0,0.0,0.0,0.0,0.0,0.0,0.0,0.0,False,0,1.4103689193725586,0.034925048828125
STABILIZE,1.3475737571716309,29.941990705377602,0.03238037427266439,0.03251981735229492,0.0,0.0,0.0,-0.5219059602597813,-1.2174908245082932,-88.18403961927936,-0.0019292459877452092,0.000402484855390177,0.009126309721173101,0.4,0.030687313632222435,0.07986194543622034,0.851422867306175,0.0314345515387781,-0.05811466835439205,0.09661238873377442,1.6209006309509277,-0.12571550136790266,-1.433571893721819,-0.17061280086636543,26.632139086723328,0.0,0.0,0.0,0.0,0.0,0.0,0.0,0.0,0.0,0.0,0.0,0.0,0.0,0.0,0.0,0.0,False,0,1.4391303062438965,0.034924072265625
STABILIZE,1.380997657775879,29.919777436958306,0.0324585755666097,0.032590389251708984,0.0,0.0,0.0,-0.5225864178558439,-1.2175311653130785,-88.18875244980667,-0.0014226817031286999,-0.0002856632991802162,0.007858429555641592,0.4,0.02592370745831177,0.07648834082736711,0.8572818964377653,0.02501156304520096,-0.022290446213446558,0.10244399309158325,1.5432123094797134,0.008173348538338404,3.5766545683145523,-0.20821900106966496,19.924134016036987,0.0,0.0,0.0,0.0,0.0,0.0,0.0,0.0,0.0,0.0,0.0,0.0,0.0,0.0,0.0,0.0,False,0,1.4966073036193848,0.029935791015625
STABILIZE,1.4145252704620361,29.829343574425717,0.03248623212178548,0.03263115882873535,0.0,0.0,0.0,-0.5230850216652548,-1.2172901877014242,-88.19225633685089,-0.0013848840356005137,0.0008315189424222629,0.007342240193830092,0.4,0.024943377154622824,0.07316282069038156,0.8507542005592788,0.02235578149755941,0.030347181018441916,0.0002925110720752855,1.324782520532608,-0.0518223260997528,6.548398733139038,-0.3188759321346879,18.545682728290558,0.0,0.0,0.0,0.0,0.0,0.0,0.0,0.0,0.0,0.0,0.0,0.0,0.0,0.0,0.0,0.0,False,0,1.5252971649169922,0.034924072265625
STABILIZE,1.44795560836792,29.913375887030632,0.03240922292073568,0.03253650665283203,0.0,0.0,0.0,-0.5224361536941036,-1.2168530555945432,-88.20119022428527,-0.0018666558431425782,0.0006129210542531101,0.006981013962746908,0.4,0.02332792453221241,0.07152133268744497,0.8547762049303615,0.02048113774713964,-0.00584263470955193,0.0894881843123585,1.6749229282140732,0.0028390408326778634,-0.9071057662367821,1.6754699870944023,22.51964807510376,0.0,0.0,0.0,0.0,0.0,0.0,0.0,0.0,0.0,0.0,0.0,0.0,0.0,0.0,0.0,0.0,False,0,1.5539584159851074,0.034924072265625
STABILIZE,1.4814236164093018,29.87842910976713,0.032431872685750325,0.03255295753479004,0.0,0.0,0.0,-0.5226518382614879,-1.2171058793155396,-88.20581426235337,-0.0027728195381247424,-0.0001772210025198976,0.007053957429254578,0.4,0.019329117391872774,0.0727861154941597,0.8531096503588576,0.020776388508545768,-0.15117516741156578,0.2568178344517946,1.3557037338614464,0.12386734822803241,-3.1966976821422577,-0.22074568551033735,21.951204538345337,0.0,0.0,0.0,0.0,0.0,0.0,0.0,0.0,0.0,0.0,0.0,0.0,0.0,0.0,0.0,0.0,False,0,1.5827629566192627,0.02993603515625
STABILIZE,1.514784574508667,29.973016235993597,0.03240373929341634,0.03251147270202637,0.0,0.0,0.0,-0.5233574821801148,-1.2175746010473316,-88.21420173465414,-0.0013714623302249868,0.0006671532862877333,0.006751270241356968,0.4,0.018216634440579103,0.06954452200749196,0.8502563174323262,0.01919880327789094,0.008828270074445754,-0.009570208203513175,1.5642162412405014,-0.006706018465336035,1.6269370913505554,1.6463588923215866,23.14900904893875,0.0,0.0,0.0,0.0,0.0,0.0,0.0,0.0,0.0,0.0,0.0,0.0,0.0,0.0,0.0,0.0,False,0,1.6112549304962158,0.034924072265625
STABILIZE,1.5483415126800537,29.802002287923035,0.032479079564412434,0.032599449157714844,0.0,0.0,0.0,-0.5228248341465597,-1.217397122850617,-88.21909898028905,-0.0018025846181369673,0.0005681685661933523,0.006463110648060104,0.4,0.01685341363989224,0.06781850225557988,0.8513495919472195,0.017698781143766204,-0.0023600699933012947,0.06910782540217042,1.5273881144821644,0.003931781053440651,1.9192751497030258,-0.31401142477989197,21.099311113357544,0.0,0.0,0.0,0.0,0.0,0.0,0.0,0.0,0.0,0.0,0.0,0.0,0.0,0.0,0.0,0.0,True,0,1.6400458812713623,0.0349248046875
STABILIZE,1.5817105770111084,29.96958957356808,0.032363208134969075,0.032465457916259766,0.0,0.0,0.0,-0.5231881148330397,-1.216795105708304,-88.22387328251888,-0.001465387097013636,7.49580143768105e-05,0.005523237763552076,0.4,0.014026455653183426,0.06511501643635174,0.8496284310798611,0.012956155134019352,-0.02149710344383493,0.10220208205282688,1.3442793861031532,-0.11652232020911672,-0.8054571226239204,-0.34114124719053507,16.950789093971252,0.0,0.0,0.0,0.0,0.0,0.0,0.0,0.0,0.0,0.0,0.0,0.0,0.0,0.0,0.0,0.0,True,0,1.6973304748535156,0.02993505859375
STABILIZE,1.6151666641235352,29.88651926379319,0.032408984502156575,0.032529592514038086,0.0,0.0,0.0,-0.523040518713944,-1.21569725952093,-88.23282766052077,-0.0019903455283005636,-0.0009423429544986818,0.004711459314712911,0.4,0.008175097218742107,0.06418877478814478,0.8432555819393104,0.008867584006859896,-0.2909283386543393,0.1115105114877224,1.3776271604001522,-0.17819051073978837,-4.02982160449028,1.6219235956668854,19.62948739528656,0.0,0.0,0.0,0.0,0.0,0.0,0.0,0.0,0.0,0.0,0.0,0.0,0.0,0.0,0.0,0.0,True,0,1.725903034210205,0.034925048828125
STABILIZE,1.6485912799835205,29.917429883876856,0.03241756757100423,0.032532453536987305,0.0,0.0,0.0,-0.5218972090799072,-1.2159587277000947,-88.23800494391163,-0.0022617512841774197,-5.816383864521649e-05,0.004653287793994976,0.4,0.005465146113433573,0.06413803329855662,0.8453777257989338,0.008548155743888628,-0.09633510489948094,0.1520225778222084,1.6216626390814781,0.055137262363883284,2.816522866487503,-0.224847043864429,24.60445463657379,0.0,0.0,0.0,0.0,0.0,0.0,0.0,0.0,0.0,0.0,0.0,0.0,0.0,0.0,0.0,0.0,True,0,1.7547576427459717,0.034924072265625
STABILIZE,1.6822268962860107,29.73039028055402,0.03242686589558919,0.03277087211608887,0.0,0.0,0.0,-0.5223179060440978,-1.2153185041871117,-88.24687052945431,-0.0012226416962108396,0.001267239555514618,0.004684298273076329,0.4,0.007084383193975044,0.06077902108855539,0.851744902265897,0.008674000343092342,0.15614837175235152,-0.04821743932552636,1.8833678215742111,0.07465595532000954,9.375084936618805,-0.5385248456150293,15.312400460243225,0.0,0.0,0.0,0.0,0.0,0.0,0.0,0.0,0.0,0.0,0.0,0.0,0.0,0.0,0.0,0.0,True,0,1.7837884426116943,0.0349248046875
STABILIZE,1.7156660556793213,29.904631530914898,0.03244665463765462,0.03258967399597168,0.0,0.0,0.0,-0.5229343306166914,-1.215627036638526,-88.25215026568273,-0.0020762154634918696,-1.3370812550797979e-05,0.004922373548250283,0.4,0.00457486805314319,0.060296570840357534,0.8522547096993411,0.009831486521619063,-0.09498002473264933,0.12036332627758384,1.5437377616763115,0.12917778028707766,-0.6558939814567566,1.5604546293616295,20.14540135860443,0.0,0.0,0.0,0.0,0.0,0.0,0.0,0.0,0.0,0.0,0.0,0.0,0.0,0.0,0.0,0.0,True,0,1.812479019165039,0.02993505859375
STABILIZE,1.7491395473480225,29.874385675009616,0.03247693379720052,0.032631874084472656,0.0,0.0,0.0,-0.5229083972421865,-1.216071852708223,-88.25607762445549,-0.002058781500904859,1.7086613052847872e-05,0.005202903593041838,0.4,0.0023159845201895807,0.05975805202059406,0.8484267364791117,0.011196658687244938,-0.09498002473264933,0.12036332627758384,1.5437377616763115,0.12917778028707766,-0.6558939814567566,1.5604546293616295,20.14540135860443,0.0,0.0,0.0,0.0,0.0,0.0,0.0,0.0,0.0,0.0,0.0,0.0,0.0,0.0,0.0,0.0,True,0,1.841113567352295,0.02993505859375
STABILIZE,1.7829694747924805,29.562334367070765,0.03246262868245443,0.03292131423950195,0.0,0.0,0.0,-0.5221869585111039,-1.215528319060678,-88.26452656845879,-0.0019049010242445192,0.0006761198275153134,0.00567106936148556,0.4,0.0022649243290142423,0.05873103200146318,0.842182076142162,0.013491950510921795,0.033473249641247094,0.08732489077374339,1.3805623166263103,0.18426028107568185,-0.3938550129532814,-2.4220341816544533,16.490106284618378,0.0,0.0,0.0,0.0,0.0,0.0,0.0,0.0,0.0,0.0,0.0,0.0,0.0,0.0,0.0,0.0,True,1,1.8704891204833984,0.034925048828125
STABILIZE,1.8163831233978271,29.92596820685522,0.03240850766499837,0.03254985809326172,0.0,0.0,0.0,-0.5222221766740118,-1.215472717051966,-88.26958773863377,-0.001084218217360862,-0.0008204485155134076,0.00454720843073463,0.4,-0.0024767213063403605,0.05517401867401674,0.8420606366562449,0.007846385194742997,-0.08734925067983568,-0.09684394462965429,1.5577059239149094,0.055758356011104876,2.4213166907429695,-0.5120756570249796,18.802696466445923,0.0,0.0,0.0,0.0,0.0,0.0,0.0,0.0,0.0,0.0,0.0,0.0,0.0,0.0,0.0,0.0,True,0,1.9285132884979248,0.029934814453125
STABILIZE,1.8504760265350342,29.33182279100668,0.03247192700703939,0.033159494400024414,0.0,0.0,0.0,-0.5221121465953511,-1.2154437954696993,-88.27758589015185,-0.0009215271715195957,1.0962864119460847e-05,0.004612473301158388,0.4,-0.00433765356650433,0.051245013362870254,0.8387500872624556,0.008145019845905257,-0.08734925067983568,-0.09684394462965429,1.5577059239149094,0.055758356011104876,2.4213166907429695,-0.5120756570249796,18.802696466445923,0.0,0.0,0.0,0.0,0.0,0.0,0.0,0.0,0.0,0.0,0.0,0.0,0.0,0.0,0.0,0.0,True,0,1.9572341442108154,0.029934814453125
STABILIZE,1.8838727474212646,29.94455589745054,0.03239134152730306,0.032509565353393555,0.0,0.0,0.0,-0.5217854714539542,-1.2163777171169927,-88.28274951316439,-0.001438488357036135,0.00018397896424302145,0.004292949089210739,0.4,-0.0055082265636531205,0.049216833825995183,0.8377993261663311,0.006525575166463366,-0.049314682837575674,0.012448511552065611,1.683926023542881,-0.06250300773393379,-0.2361435443162918,-0.2419494092464447,25.073087215423584,0.0,0.0,0.0,0.0,0.0,0.0,0.0,0.0,0.0,0.0,0.0,0.0,0.0,0.0,0.0,0.0,True,0,1.9859685897827148,0.034925048828125
STABILIZE,1.917248010635376,29.961240365452063,0.03242686589558919,0.03254508972167969,0.0,0.0,0.0,-0.521610234413061,-1.2168899813047436,-88.28768773993431,-0.0016136598998558942,-1.802357654818797e-05,0.003780141371628236,0.4,-0.007234855640790235,0.047840015682254704,0.8384212646897233,0.003948333213506417,-0.07303697057068348,0.0449225859483704,1.5186440199613571,-0.11683960384040498,1.1248654685914516,1.6081012785434723,20.267853140830994,0.0,0.0,0.0,0.0,0.0,0.0,0.0,0.0,0.0,0.0,0.0,0.0,0.0,0.0,0.0,0.0,True,0,2.014505624771118,0.06485986328125
STABILIZE,1.9507391452789307,29.857797773285117,0.032477410634358723,0.03264331817626953,0.0,0.0,0.0,-0.5219147114396554,-1.2174407720282816,-88.29667626888205,-0.0016778805718117636,-0.00044919567391602904,0.0035080191467842573,0.4,-0.010202582302004116,0.046725177239183166,0.8647662588194734,0.0025790878748130435,-0.0695772294420749,0.04326663911342621,1.6394060105085373,-0.001992454226299989,-1.4223568141460419,-0.22031229455024004,27.875056862831116,0.0,0.0,0.0,0.0,0.0,0.0,0.0,0.0,0.0,0.0,0.0,0.0,0.0,0.0,0.0,0.0,True,0,2.04327130317688,0.034924072265625
STABILIZE,1.9842042922973633,29.882686539516527,0.03248098691304525,0.0325932502746582,0.0,0.0,0.0,-0.5222807668904857,-1.217532019086725,-88.30110906165339,-0.001708644149739314,0.0004481559788653201,0.0027776683960597298,0.4,-0.010163529753645624,0.04575435004910355,0.862610614389686,-0.0010690928847370642,0.01501045044278726,0.06678611389361322,1.5326748602092266,-0.1753952291415342,-0.36873752251267433,-0.29328237287700176,22.795166075229645,0.0,0.0,0.0,0.0,0.0,0.0,0.0,0.0,0.0,0.0,0.0,0.0,0.0,0.0,0.0,0.0,True,1,2.072201728820801,0.034925048828125
STABILIZE,2.0176942348480225,29.859073111696446,0.03244808514912923,0.03261709213256836,0.0,0.0,0.0,-0.5214989236739309,-1.2182543115914537,-88.30938042073826,-0.0014882394072938618,-0.0015585675872760816,0.0023128754931368753,0.4,-0.01641656660022482,0.044127400238854336,0.845660276053923,-0.003381732882251252,-0.1739499275572598,0.0714827619958669,1.2817597016692162,-0.044230864321974525,0.19621176179498434,-0.3837577300146222,16.384407877922058,0.0,0.0,0.0,0.0,0.0,0.0,0.0,0.0,0.0,0.0,0.0,0.0,0.0,0.0,0.0,0.0,True,0,2.129486083984375,0.029935302734375
STABILIZE,2.051239013671875,29.813017549595912,0.03244021733601888,0.032591819763183594,0.0,0.0,0.0,-0.5211594419278401,-1.2181553805701943,-88.31337608140272,-0.0016291358350496673,-0.0002634731871689101,0.0018880196896014082,0.4,-0.018202933620435176,0.04302245905769768,0.838777688596814,-0.005487636584079104,-0.1113757723942399,0.0511225953232497,1.4464770443737507,-0.1076188084402481,-3.703230619430542,-0.3266085172072053,20.30978798866272,0.0,0.0,0.0,0.0,0.0,0.0,0.0,0.0,0.0,0.0,0.0,0.0,0.0,0.0,0.0,0.0,True,0,2.1580939292907715,0.03491162109375
STABILIZE,2.0846574306488037,29.923192717362614,0.03236535390218099,0.03249359130859375,0.0,0.0,0.0,-0.5206881588751092,-1.2176962637919224,-88.31847823271272,-0.0017449756724694117,0.0006604237938231168,0.001622568965258725,0.4,-0.01697055275983237,0.042329431215765816,0.8392408080296064,-0.006792178218599012,0.07400252507068217,0.06729416782036424,1.6205230727791786,-0.054239649441928654,0.30515596736222506,-0.35444488748908043,22.065111994743347,0.0,0.0,0.0,0.0,0.0,0.0,0.0,0.0,0.0,0.0,0.0,0.0,0.0,0.0,0.0,0.0,True,0,2.186856985092163,0.034925048828125
STABILIZE,2.119532585144043,28.672140000683598,0.03241589864095052,0.03401041030883789,0.0,0.0,0.0,-0.5213736323913435,-1.2179066122740176,-88.32369649723861,-0.0017626154296227173,0.000694440262675274,0.00136704804673947,0.4,-0.015648065937782164,0.04168697493268788,0.839754324391161,-0.008041707896090789,0.07400252507068217,0.06729416782036424,1.6205230727791786,-0.054239649441928654,0.30515596736222506,-0.35444488748908043,22.065111994743347,0.0,0.0,0.0,0.0,0.0,0.0,0.0,0.0,0.0,0.0,0.0,0.0,0.0,0.0,0.0,0.0,True,0,2.2155635356903076,0.034925048828125
STABILIZE,2.1529927253723145,29.885667462324985,0.0324437936147054,0.03258800506591797,0.0,0.0,0.0,-0.5218998771225518,-1.2176500532933192,-88.33460430934313,-0.0013229237521422649,-0.001225141473292541,0.0017783535168510104,0.4,-0.02046976894686376,0.039709081076580055,0.8408776992664406,-0.005965217714529845,-0.2800628310069442,-0.011411868763389066,1.653873734176159,0.13202859719297785,-3.9593923836946487,-0.2904020482674241,24.253617227077484,0.0,0.0,0.0,0.0,0.0,0.0,0.0,0.0,0.0,0.0,0.0,0.0,0.0,0.0,0.0,0.0,True,0,2.244243860244751,0.02993505859375
STABILIZE,2.1869912147521973,29.412865267424493,0.032459529240926106,0.0332181453704834,0.0,0.0,0.0,-0.5227985806069374,-1.2165687489703414,-88.3429712910764,-0.0016155051871604461,0.0011107687405409994,0.001782880473568596,0.4,-0.017605963575726392,0.03873712809802164,0.8314956013688406,-0.005922410916145645,0.14409002615138888,0.04701687139458954,1.2729363515973091,0.004739937840577286,5.507170781493187,-0.41027492843568325,20.465931296348572,0.0,0.0,0.0,0.0,0.0,0.0,0.0,0.0,0.0,0.0,0.0,0.0,0.0,0.0,0.0,0.0,True,1,2.2730274200439453,0.06984912109375
STABILIZE,2.220487117767334,29.85503491376549,0.03255155881245931,0.032665252685546875,0.0,0.0,0.0,-0.5225395670270058,-1.2164338527342338,-88.34741774422608,-0.00199291833374095,6.514630678794223e-05,0.001478320756465611,0.4,-0.018238811320393487,0.03900493115773809,0.8724493709510532,-0.007420390148710179,-0.0868825416546315,0.10785741033032537,1.449365820735693,0.005846948754435036,2.488359622657299,-0.43493490666151047,18.266162276268005,0.0,0.0,0.0,0.0,0.0,0.0,0.0,0.0,0.0,0.0,0.0,0.0,0.0,0.0,0.0,0.0,True,0,2.3302061557769775,0.029934814453125
STABILIZE,2.2540290355682373,29.815348744633056,0.03248599370320638,0.032619476318359375,0.0,0.0,0.0,-0.5217973175632958,-1.2172906145882472,-88.35295702764296,-0.0017661557969846178,-0.0002025020273149291,0.0008082937535420741,0.4,-0.019661107841766785,0.03852464759281482,0.8638439378540596,-0.010734617220905771,-0.10705000022426248,0.07464554510079324,1.6194730997085571,-0.17566808986279092,-6.3917383551597595,-0.2515016123652458,24.610131978988647,0.0,0.0,0.0,0.0,0.0,0.0,0.0,0.0,0.0,0.0,0.0,0.0,0.0,0.0,0.0,0.0,True,0,2.3588809967041016,0.034925048828125
STABILIZE,2.2874200344085693,29.946480079965728,0.03237584431966146,0.03252243995666504,0.0,0.0,0.0,-0.5213599720130034,-1.216947824469277,-88.3626490660752,-0.0013454686008531288,0.0012844618447259322,0.0001463088353997155,0.4,-0.0163224713506844,0.03673674484753876,0.8590529211700353,-0.013997702299853828,0.13729454949498177,0.0018059485228150152,1.5742098912596703,-0.17077091092895788,-1.7642142251133919,-0.31333514489233494,19.467991590499878,0.0,0.0,0.0,0.0,0.0,0.0,0.0,0.0,0.0,0.0,0.0,0.0,0.0,0.0,0.0,0.0,True,0,2.3876547813415527,0.034925048828125
STABILIZE,2.3208112716674805,29.946480079965728,0.032463820775349934,0.0325922966003418,0.0,0.0,0.0,-0.5209164366037757,-1.216851241325545,-88.3685025381939,-0.0022058779039406413,-0.00068312488780481,0.0006973999481339034,0.4,-0.019352368338424186,0.03773764589318204,0.8479070734225026,-0.01120478022869335,-0.18221057252958417,0.13913861475884914,1.2297134846448898,0.13095198862505458,-4.191892594099045,-0.29112843330949545,18.841685354709625,0.0,0.0,0.0,0.0,0.0,0.0,0.0,0.0,0.0,0.0,0.0,0.0,0.0,0.0,0.0,0.0,True,0,2.416384220123291,0.029934814453125
STABILIZE,2.354405403137207,29.768160171470345,0.03253630002339681,0.032654523849487305,0.0,0.0,0.0,-0.5214678676575485,-1.21750405799981,-88.37637091611775,-0.0019414335235371067,-0.00039694279017696234,0.0003779177259999691,0.4,-0.021285111269390717,0.037827337463077475,0.8347883026137836,-0.012759505460426,-0.13775028055533767,0.09754092316143215,1.286782044917345,-0.09773907320795688,-3.5346873104572296,-0.2537775319069624,20.26076167821884,0.0,0.0,0.0,0.0,0.0,0.0,0.0,0.0,0.0,0.0,0.0,0.0,0.0,0.0,0.0,0.0,True,0,2.446505546569824,0.034925048828125
STABILIZE,2.388063907623291,29.709962812112625,0.032378228505452473,0.032834529876708984,0.0,0.0,0.0,-0.5203304277173298,-1.2168900880264495,-88.38091299191582,-0.0021211583896247493,0.0005923359614768899,0.0004788112641519299,0.4,-0.01997322118006558,0.03846054236714404,0.830816436675931,-0.012213811427012732,0.03799611295107752,0.1177729805931449,1.5250024385750294,0.017093135367338707,2.5541651993989944,-0.22947050165385008,22.62485921382904,0.0,0.0,0.0,0.0,0.0,0.0,0.0,0.0,0.0,0.0,0.0,0.0,0.0,0.0,0.0,0.0,True,1,2.4750871658325195,0.034924072265625
STABILIZE,2.42152738571167,29.883751086538325,0.03249648412068685,0.0326237678527832,0.0,0.0,0.0,-0.5203797331454009,-1.21720224901586,-88.38542774695719,-0.002421916777665919,-0.00037553065412417036,0.000478597488140501,0.4,-0.021778453457893955,0.039970469463603074,0.8308433440959857,-0.01217414544569265,-0.19664813298732042,0.1277931616641581,1.8931008875370026,-0.04135828952830815,-2.8151990845799446,-0.24746237322688103,23.308587074279785,0.0,0.0,0.0,0.0,0.0,0.0,0.0,0.0,0.0,0.0,0.0,0.0,0.0,0.0,0.0,0.0,True,0,2.5329856872558594,0.034925048828125
STABILIZE,2.4550092220306396,29.866940106670086,0.032483847935994466,0.03260970115661621,0.0,0.0,0.0,-0.5208265769275078,-1.2167063132490938,-88.3941498985273,-0.0012159561048018415,9.23244542110381e-05,-0.00013098624143212953,0.4,-0.02199098161003251,0.037585100142776155,0.8264601039799572,-0.015171320175975028,-0.04372205294203013,-0.045171534293331206,1.453832071274519,-0.17402058687000302,-0.6621533073484898,-0.348285841755569,18.756654858589172,0.0,0.0,0.0,0.0,0.0,0.0,0.0,0.0,0.0,0.0,0.0,0.0,0.0,0.0,0.0,0.0,True,0,2.5615644454956055,0.029934814453125
STABILIZE,2.4884443283081055,29.908256619057465,0.032445462544759114,0.03258705139160156,0.0,0.0,0.0,-0.5203626576724758,-1.216841422928613,-88.39865782337951,-0.0011484201695830861,0.00014321286908806696,-0.0006951513192489565,0.4,-0.022019225179297563,0.035118638438842366,0.8185974124892721,-0.017932152454667158,-0.04372205294203013,-0.045171534293331206,1.453832071274519,-0.17402058687000302,-0.6621533073484898,-0.348285841755569,18.756654858589172,0.0,0.0,0.0,0.0,0.0,0.0,0.0,0.0,0.0,0.0,0.0,0.0,0.0,0.0,0.0,0.0,True,0,2.5901825428009033,0.029934814453125
STABILIZE,2.522081136703491,29.730601019301517,0.032440932591756184,0.032706260681152344,0.0,0.0,0.0,-0.5198091989062932,-1.2166356634798665,-88.40782393724567,-0.0016179723323081082,7.721733635748911e-06,-0.000809127670036732,0.4,-0.022460737316608196,0.03425817935340178,0.8122883650532192,-0.018440118326874713,-0.06643536617048085,0.037857433198951185,1.5017288736999035,-0.05459903812120099,3.138737753033638,1.6943590715527534,20.958738029003143,0.0,0.0,0.0,0.0,0.0,0.0,0.0,0.0,0.0,0.0,0.0,0.0,0.0,0.0,0.0,0.0,True,0,2.6188480854034424,0.034924072265625
STABILIZE,2.5554697513580322,29.950970800991154,0.03241709073384603,0.032541513442993164,0.0,0.0,0.0,-0.5196285190584052,-1.2173518728473658,-88.41298073006902,-0.0012872577384079572,-0.0009489327284334277,-0.0005257981156428062,0.4,-0.025857714918342576,0.03240032420923358,0.8050826491927974,-0.016966728364676588,-0.2218690002337098,-0.026067820726893842,1.2107902206480503,0.06532865832758938,-2.8324011713266373,-0.36415981594473124,16.22517704963684,0.0,0.0,0.0,0.0,0.0,0.0,0.0,0.0,0.0,0.0,0.0,0.0,0.0,0.0,0.0,0.0,True,0,2.6476354598999023,0.0648603515625
STABILIZE,2.5890982151031494,29.734184035162343,0.03248003323872884,0.03284859657287598,0.0,0.0,0.0,-0.52043288055488,-1.217525082175849,-88.41696273035514,0.00045461175501564896,-0.0022923150750208602,-0.0009898832310486594,0.4,-0.033279350323731444,0.025139162853592772,0.8219042112088918,-0.01922244170360887,-0.1998735126107931,-0.12635485036298633,1.5361602418124676,-0.05751140677091063,-1.2787197716534138,-0.323592615313828,20.271407067775726,0.0,0.0,0.0,0.0,0.0,0.0,0.0,0.0,0.0,0.0,0.0,0.0,0.0,0.0,0.0,0.0,True,0,2.70505428314209,0.0349248046875
STABILIZE,2.6226420402526855,29.813441376123965,0.03254512151082357,0.032682180404663086,0.0,0.0,0.0,-0.5192768710378554,-1.2181123717227644,-88.42733778770439,-0.0018812675703631467,-0.0011704419208349044,-0.0006563889317510829,0.4,-0.03666229201040175,0.025689014600221438,0.8170014357520494,-0.01749634459796633,-0.22370589431375265,0.10255563538521528,1.4471959322690964,0.06319836634816604,-5.641806125640869,-0.3722213674336672,15.37729799747467,0.0,0.0,0.0,0.0,0.0,0.0,0.0,0.0,0.0,0.0,0.0,0.0,0.0,0.0,0.0,0.0,True,0,2.7335972785949707,0.034923828125
STABILIZE,2.6560111045837402,29.96530734718372,0.0324580987294515,0.032573699951171875,0.0,0.0,0.0,-0.5191474176087425,-1.218441181298277,-88.4312309955313,-0.0019390878844768402,-0.0005822463160565053,-0.0004997358959263972,0.4,-0.03796180703894053,0.02637061436202636,0.8185242006452522,-0.016657443459830685,-0.1167892012745142,0.10697053512558341,1.767674833536148,0.016145143130148622,-4.459546506404877,-0.38399638142436743,13.81753385066986,0.0,0.0,0.0,0.0,0.0,0.0,0.0,0.0,0.0,0.0,0.0,0.0,0.0,0.0,0.0,0.0,True,0,2.7622671127319336,0.029936279296875
STABILIZE,2.6894712448120117,29.88864897991178,0.032532723744710286,0.03265547752380371,0.0,0.0,0.0,-0.5197884948953716,-1.218751207853572,-88.44052688299169,-0.0009406999413031282,-0.00011633067153162399,-7.413221774267868e-05,0.4,-0.03770014219921147,0.02386849896473338,0.8091102401289871,-0.014480993213543415,-0.05388676654547453,-0.06450974033214152,1.3677152805030346,0.08320953995583404,-3.3736109733581543,-0.2744115423411131,20.63763588666916,0.0,0.0,0.0,0.0,0.0,0.0,0.0,0.0,0.0,0.0,0.0,0.0,0.0,0.0,0.0,0.0,True,0,2.791048049926758,0.034924072265625
STABILIZE,2.7229549884796143,29.863750284802915,0.03250840504964193,0.03263521194458008,0.0,0.0,0.0,-0.5199750444370775,-1.2188604908802922,-88.44542412862658,-0.0015763738713133293,-0.0005126251517034174,9.70143753834655e-05,0.4,-0.03867781201519564,0.02350318839192778,0.804231912242776,-0.013579818746279101,-0.10345496702939272,0.046656999620608985,1.3708502985537052,0.0207523291738937,1.2843950651586056,-0.32387166284024715,18.11060607433319,0.0,0.0,0.0,0.0,0.0,0.0,0.0,0.0,0.0,0.0,0.0,0.0,0.0,0.0,0.0,0.0,True,0,2.819788932800293,0.0349248046875
STABILIZE,2.7563552856445312,29.940067099721606,0.032476218541463216,0.03261160850524902,0.0,0.0,0.0,-0.519279005471971,-1.2192487444459252,-88.44934465721018,-0.0014302339574601467,-0.00023360539889205232,0.0004197262032039125,0.4,-0.03869850705299683,0.022691495051332482,0.8026620837468069,-0.011926388434598546,-0.053695630049332976,0.019853402045555413,1.5382686629891396,0.0621979303977443,3.38808074593544,-0.23175126407295465,22.379787266254425,0.0,0.0,0.0,0.0,0.0,0.0,0.0,0.0,0.0,0.0,0.0,0.0,0.0,0.0,0.0,0.0,True,0,2.848564624786377,0.02993505859375
STABILIZE,2.7901105880737305,29.625603028740542,0.032535823186238606,0.03289222717285156,0.0,0.0,0.0,-0.5189605479019191,-1.218320585770744,-88.45823073332036,-0.0016634116278805588,0.0009294783545512685,0.00032312159047597194,0.4,-0.035030037227969026,0.022649901977725463,0.7974890165063444,-0.012367762523399571,0.1327237579971552,0.06084134220145643,1.5324794687330723,-0.05437994512933829,3.6284849047660828,-0.15890185022726655,24.04058575630188,0.0,0.0,0.0,0.0,0.0,0.0,0.0,0.0,0.0,0.0,0.0,0.0,0.0,0.0,0.0,0.0,True,1,2.8777339458465576,0.034925048828125
STABILIZE,2.8235039710998535,29.94541105915111,0.03245142300923665,0.03257441520690918,0.0,0.0,0.0,-0.519083171141862,-1.2182722408380249,-88.46219907322813,-0.0026559344821136715,0.0008837013566329571,0.0005850019189918712,0.4,-0.03174206925820923,0.025709318662798766,0.7916341590395435,-0.011021495153810214,0.03628387348726392,0.14461854007095098,1.4127613045275211,0.010734777032562292,-2.130374312400818,-0.22842807229608297,18.168513476848602,0.0,0.0,0.0,0.0,0.0,0.0,0.0,0.0,0.0,0.0,0.0,0.0,0.0,0.0,0.0,0.0,True,0,2.935032367706299,0.034924072265625
STABILIZE,2.857099771499634,29.766258835552275,0.032508166631062825,0.032800912857055664,0.0,0.0,0.0,-0.5177659051274016,-1.2187572909908015,-88.47121492293255,-0.001713035270942281,-0.0005887497209931498,0.0003120990017063639,0.4,-0.03326518041767146,0.025605901654725403,0.785422466336537,-0.012344529359253576,-0.14286095974966884,0.050668371841311455,1.2158403173089027,-0.10062704260768224,-2.896954119205475,-0.35862538497895,12.738759815692902,0.0,0.0,0.0,0.0,0.0,0.0,0.0,0.0,0.0,0.0,0.0,0.0,0.0,0.0,0.0,0.0,True,0,2.963721513748169,0.029935791015625
STABILIZE,2.8906290531158447,29.825101329730497,0.032501967748006184,0.03263092041015625,0.0,0.0,0.0,-0.5183370796967439,-1.2190919702601322,-88.47551794210966,-0.001544017315034826,-0.0005435500766495942,0.0010831531788663327,0.4,-0.03452728921220292,0.024965901217435103,0.7819454351692499,-0.008460926711265207,-0.14065956929698586,0.02445611171424389,1.5663797035813332,0.19331088203554375,0.2471473067998886,-0.09594064904376864,23.132945597171783,0.0,0.0,0.0,0.0,0.0,0.0,0.0,0.0,0.0,0.0,0.0,0.0,0.0,0.0,0.0,0.0,True,0,2.992550849914551,0.034924072265625
STABILIZE,2.924074172973633,29.899941544647056,0.032444032033284505,0.032575368881225586,0.0,0.0,0.0,-0.5185034588360572,-1.2189928257954612,-88.48021028206946,-0.0009753801464092203,0.0010032746040594255,0.0012449241613469281,0.4,-0.0308455714594497,0.02257445439937069,0.7816113128484726,-0.0076265809722573935,0.1541194855235517,-0.08235386339947581,1.5087557956576347,0.021963226998223083,2.8981804847717285,-0.20246980711817741,16.634494066238403,0.0,0.0,0.0,0.0,0.0,0.0,0.0,0.0,0.0,0.0,0.0,0.0,0.0,0.0,0.0,0.0,True,0,3.021254539489746,0.034925048828125
STABILIZE,2.9575071334838867,29.909322988718856,0.03243139584859212,0.03258156776428223,0.0,0.0,0.0,-0.5173072152359529,-1.2192833222785984,-88.48896658458541,-0.0018609719243519879,0.0012176399562322557,0.0018093573386358966,0.4,-0.02670472101762259,0.023095694355664078,0.7821818306060334,-0.00478839271415166,0.17886629793792963,0.08392877643927932,1.5545147471129894,0.13767760386361474,0.9964948520064354,0.0002830711309798062,21.148163080215454,0.0,0.0,0.0,0.0,0.0,0.0,0.0,0.0,0.0,0.0,0.0,0.0,0.0,0.0,0.0,0.0,True,0,3.049833059310913,0.034924072265625
STABILIZE,2.991516351699829,29.408740648291626,0.0324886163075765,0.03295135498046875,0.0,0.0,0.0,-0.5173885371757584,-1.2196732833915238,-88.49395262267953,-0.001557089593391667,-0.00042331624819041063,0.0010794632997292817,0.4,-0.02796787827134862,0.022613927603501553,0.7802625826171014,-0.008409423913415186,-0.13152388855814934,0.025043857749551535,1.40627296641469,-0.23176934271457159,1.4020010828971863,-0.0678563374094665,17.35661029815674,0.0,0.0,0.0,0.0,0.0,0.0,0.0,0.0,0.0,0.0,0.0,0.0,0.0,0.0,0.0,0.0,True,1,3.0786662101745605,0.029935791015625
STABILIZE,3.0250155925750732,29.85078535894498,0.032215150197347005,0.03246712684631348,0.0,0.0,0.0,-0.5160920818939253,-1.2195204579088448,-88.50280454784387,-0.0019382551240086227,0.0006696169495205634,-0.00015583643603204068,0.4,-0.0256948656584602,0.023352341300603978,0.7701917778252567,-0.014537186342832211,-0.010910061973845586,0.07791855023242533,1.1460071429610252,-0.28851356716325904,1.6434045508503914,-0.07764726760797203,15.689213573932648,0.0,0.0,0.0,0.0,0.0,0.0,0.0,0.0,0.0,0.0,0.0,0.0,0.0,0.0,0.0,0.0,True,0,3.136120080947876,0.02993603515625
STABILIZE,3.06675124168396,23.957184063972583,0.03229859670003255,0.04086947441101074,0.0,0.0,0.0,-0.5160562234007828,-1.220535061165709,-88.50668409529243,-0.0018258438004419403,0.00020914422543501327,-0.0010653476207682575,0.4,-0.02483429862769552,0.02374961556284235,0.7608626362238543,-0.01900511822400438,-0.010910061973845586,0.07791855023242533,1.1460071429610252,-0.28851356716325904,1.6434045508503914,-0.07764726760797203,15.689213573932648,0.0,0.0,0.0,0.0,0.0,0.0,0.0,0.0,0.0,0.0,0.0,0.0,0.0,0.0,0.0,0.0,True,0,3.166208028793335,0.02993603515625
STABILIZE,3.101416826248169,28.847847916695326,0.03249338467915853,0.033811092376708984,0.0,0.0,0.0,-0.5178298314291647,-1.2192252656706533,-88.51595266199614,-0.0019119246218907225,0.00024344337493183304,-0.0009127634082515966,0.4,-0.024044686439793867,0.024321759679666592,0.7573398083089319,-0.018179258749178497,-0.013024838699493557,0.08798495400696993,1.4598423615098,0.021545638303713494,2.1074099466204643,2.0687781274318695,23.925010859966278,0.0,0.0,0.0,0.0,0.0,0.0,0.0,0.0,0.0,0.0,0.0,0.0,0.0,0.0,0.0,0.0,True,0,3.1946322917938232,0.034923828125
STABILIZE,3.134824514389038,29.933870495792863,0.03246262868245443,0.03257250785827637,0.0,0.0,0.0,-0.516927285963371,-1.2185949672763081,-88.51945654904036,-0.0024181641102821914,-1.857495582102453e-05,-0.0005792006849682325,0.4,-0.024138705414425612,0.0264123100168904,0.7555793545455183,-0.016456417042213053,-0.059794774278998375,0.17104181461036205,1.3305649161338806,0.08394825426304,-2.42595374584198,0.029561473638750613,18.110550940036774,0.0,0.0,0.0,0.0,0.0,0.0,0.0,0.0,0.0,0.0,0.0,0.0,0.0,0.0,0.0,0.0,True,1,3.223594903945923,0.034925048828125
STABILIZE,3.168240785598755,29.924473648537774,0.032490046819051106,0.03259849548339844,0.0,0.0,0.0,-0.5159173784615612,-1.2183870733934459,-88.52788500247615,-0.0017185948744585448,-0.00013867400972435243,0.0005644498077651944,0.4,-0.024588985962236944,0.02616553400275861,0.7581667542871047,-0.010702395549687847,-0.06957042496651411,0.03295614733360708,1.56894251704216,0.21726620974441643,-1.5400107018649578,0.10235655354335904,22.540590167045593,0.0,0.0,0.0,0.0,0.0,0.0,0.0,0.0,0.0,0.0,0.0,0.0,0.0,0.0,0.0,0.0,True,0,3.280728340148926,0.02993603515625
STABILIZE,3.2017369270324707,29.855247423267468,0.03249815305074056,0.03262948989868164,0.0,0.0,0.0,-0.5155681850402443,-1.2185287998187235,-88.53217436127491,-0.0016809021097302596,-7.643373591674377e-05,0.001376472597725228,0.4,-0.024802919119861745,0.02580224978107876,0.7569417578021449,-0.006620128977135517,-0.06957042496651411,0.03295614733360708,1.56894251704216,0.21726620974441643,-1.5400107018649578,0.10235655354335904,22.540590167045593,0.0,0.0,0.0,0.0,0.0,0.0,0.0,0.0,0.0,0.0,0.0,0.0,0.0,0.0,0.0,0.0,True,0,3.3095481395721436,0.02993603515625
STABILIZE,3.235184907913208,29.897383990305794,0.03245571454366048,0.03257894515991211,0.0,0.0,0.0,-0.5148212398214799,-1.2194514089652042,-88.53841715417632,-0.003066923937727244,-0.0007618306194616558,0.0011427715191207886,0.4,-0.02713830718616507,0.029790780130876708,0.754716257957076,-0.00776267312730107,-0.19719854462891817,0.29523700941354036,1.4881720766425133,-0.0938903883426803,-1.8327226862311363,0.023659446742385626,18.617889285087585,0.0,0.0,0.0,0.0,0.0,0.0,0.0,0.0,0.0,0.0,0.0,0.0,0.0,0.0,0.0,0.0,True,0,3.338151454925537,0.034923828125
STABILIZE,3.2741940021514893,25.634264550393898,0.0324280579884847,0.03811955451965332,0.0,0.0,0.0,-0.5147231625738667,-1.2203223648060866,-88.54810236241939,-0.0015470900295881456,-0.0006039609134470149,0.0010947196108431101,0.4,-0.029072709744561536,0.02858656509781545,0.757089457351682,-0.007971834693418656,-0.16401269240304828,-0.029151409398764372,1.527053490281105,-0.03729290623944234,-4.0150947868824005,-0.0009772484190762043,21.13269865512848,0.0,0.0,0.0,0.0,0.0,0.0,0.0,0.0,0.0,0.0,0.0,0.0,0.0,0.0,0.0,0.0,True,0,3.3668012619018555,0.034925048828125
STABILIZE,3.3078150749206543,29.7434617348386,0.032456429799397786,0.03281807899475098,0.0,0.0,0.0,-0.5158745830575427,-1.2206354862908493,-88.55204338157048,-0.0014956143544172021,7.816640118882866e-05,0.001250955748617283,0.4,-0.02847007790542568,0.027436330950645786,0.7558605696484293,-0.007166529292310215,-0.01074585597962141,-0.023424460960086435,1.3127755373716354,0.0249689838105981,-3.9104513823986053,-0.07890343549661338,19.73787546157837,0.0,0.0,0.0,0.0,0.0,0.0,0.0,0.0,0.0,0.0,0.0,0.0,0.0,0.0,0.0,0.0,True,1,3.3955464363098145,0.02993505859375
STABILIZE,3.341318130493164,29.848873453934726,0.03251698811848958,0.03265976905822754,0.0,0.0,0.0,-0.5153377728774621,-1.2222227582209368,-88.56153051432763,-0.0013210176580137568,8.911210428290356e-05,0.0013642270187782953,0.4,-0.027859522520573027,0.025803456414117784,0.7515027391634256,-0.006578159660831301,-0.0666524050757289,0.03537348238751292,1.6227994114160538,-0.03300595534916103,0.8172400295734406,0.12607870157808065,28.13289761543274,0.0,0.0,0.0,0.0,0.0,0.0,0.0,0.0,0.0,0.0,0.0,0.0,0.0,0.0,0.0,0.0,True,0,3.452842950820923,0.034925048828125
STABILIZE,3.3747758865356445,29.88737111381888,0.03247693379720052,0.0325932502746582,0.0,0.0,0.0,-0.5153617852612629,-1.2222336438349266,-88.56552617499209,-0.002350741737834107,-0.00016209386764815103,0.0009169399257905728,0.4,-0.02806096500226005,0.027486967379061648,0.7509234189133227,-0.008785219347498999,-0.05972314975224435,0.14926473377272487,1.3161227107048035,-0.1551666634191894,-3.226499632000923,-0.18884618766605854,15.003664791584015,0.0,0.0,0.0,0.0,0.0,0.0,0.0,0.0,0.0,0.0,0.0,0.0,0.0,0.0,0.0,0.0,True,0,3.4815714359283447,0.06485986328125
STABILIZE,3.4084718227386475,29.677589171366105,0.03245237668355306,0.03292536735534668,0.0,0.0,0.0,-0.5155064998943025,-1.221346252851354,-88.57460349639904,-0.0029372577806267325,-0.00011985266245965762,0.0007865586893618221,0.4,-0.02810329570769089,0.030919427438090712,0.7740558147024202,-0.00940535437467005,-0.0016505771782249212,0.1898115617223084,1.4632834121584892,-0.04318675584851502,-3.3563971519470215,-0.019843816698994488,19.336433708667755,0.0,0.0,0.0,0.0,0.0,0.0,0.0,0.0,0.0,0.0,0.0,0.0,0.0,0.0,0.0,0.0,True,0,3.5102646350860596,0.0399130859375
STABILIZE,3.441995620727539,29.829767865270824,0.032558472951253255,0.03267264366149902,0.0,0.0,0.0,-0.5149729980871011,-1.2207369786330475,-88.57935730806136,-0.001622408383633724,0.0008852656360124434,0.0011284636336501206,0.4,-0.02497803842750147,0.02996778426226354,0.7721180778758339,-0.007670178842612143,0.1251030247658491,-0.011428980360506102,1.1917768977582455,0.07881576063806549,-2.5345440953969955,-0.0410480541177094,18.310600519180298,0.0,0.0,0.0,0.0,0.0,0.0,0.0,0.0,0.0,0.0,0.0,0.0,0.0,0.0,0.0,0.0,True,0,3.5389556884765625,0.02993603515625
STABILIZE,3.4754130840301514,29.9229792394949,0.03246620496114095,0.03259563446044922,0.0,0.0,0.0,-0.5148740670658417,-1.221559055932682,-88.58429553483128,-0.0017693293052919125,-0.0002485076504053092,0.001675006957652877,0.4,-0.02558910446754427,0.029520331094322845,0.7679223856715766,-0.004921001761360606,-0.09455395047552884,0.03776642261072993,1.476304978132248,0.13357618198872787,-1.6031211242079735,1.899959146976471,18.559764325618744,0.0,0.0,0.0,0.0,0.0,0.0,0.0,0.0,0.0,0.0,0.0,0.0,0.0,0.0,0.0,0.0,True,0,3.5678257942199707,0.029934814453125
STABILIZE,3.509127378463745,29.66310697463896,0.03250554402669271,0.03288388252258301,0.0,0.0,0.0,-0.5144249821279133,-1.220900369564599,-88.59455447896464,-0.001992827329310977,-0.0012238268160226658,0.001872962880981008,0.4,-0.029228283285873145,0.02978748897945754,0.7615388314186261,-0.0039180233610647455,-0.2326740650460124,0.10088816052302718,1.507232803851366,-0.11230866712038744,-6.481841951608658,-0.04665775632020086,19.046248495578766,0.0,0.0,0.0,0.0,0.0,0.0,0.0,0.0,0.0,0.0,0.0,0.0,0.0,0.0,0.0,0.0,True,0,3.6249349117279053,0.034924072265625
STABILIZE,3.5426275730133057,29.848661035162504,0.032485278447469075,0.032613277435302734,0.0,0.0,0.0,-0.5152719255849949,-1.2213354739590698,-88.59891896984428,-0.0019848582659878003,0.0004949920684653836,0.0005459283992824224,0.4,-0.027209895606540652,0.02999623299037105,0.7602085366720702,-0.010517960397599259,0.06547168595716357,0.06328042945824564,1.3538595288991928,-0.39631366910120336,2.7632776647806168,0.025197590002790093,23.52137416601181,0.0,0.0,0.0,0.0,0.0,0.0,0.0,0.0,0.0,0.0,0.0,0.0,0.0,0.0,0.0,0.0,True,0,3.653728723526001,0.034925048828125
STABILIZE,3.5760998725891113,29.876513662136365,0.032444270451863606,0.032584190368652344,0.0,0.0,0.0,-0.515829546497703,-1.2212783778464769,-88.60352934753404,-0.0027069345628114613,-0.00019017681127728162,0.0010917236472261093,0.4,-0.02745450278992734,0.032436095717198556,0.7637326196377556,-0.007763039827003751,-0.06557800224982202,0.19143488025292754,1.6317671164870262,0.1436208422770911,0.9334745816886425,2.0697571337223053,26.367339491844177,0.0,0.0,0.0,0.0,0.0,0.0,0.0,0.0,0.0,0.0,0.0,0.0,0.0,0.0,0.0,0.0,True,0,3.682413101196289,0.034973388671875
STABILIZE,3.6095049381256104,29.934297765438885,0.03242162068684896,0.032568931579589844,0.0,0.0,0.0,-0.5170901432863935,-1.2211110382118116,-88.6123061406175,-0.0019312710436714816,-0.0004135801395809633,0.002069785724574744,0.4,-0.02836900515956819,0.03227612363333893,0.7645868406191619,-0.00286314848612322,-0.10362369939684868,0.042210129322484136,1.4752083458006382,0.2643283208794935,-0.9147921577095985,-0.040619875653646886,22.767560184001923,0.0,0.0,0.0,0.0,0.0,0.0,0.0,0.0,0.0,0.0,0.0,0.0,0.0,0.0,0.0,0.0,True,0,3.7113587856292725,0.02993505859375
