E-kp,E-ki,E-kd,E-I-Tot,E-P,E-I,E-D,E-PID,N-kp,N-ki,N-kd,N-I-Tot,N-P,N-I,N-D,N-PID,Y-kp,Y-ki,Y-kd,Y-I-Tot,Y-P,Y-I,Y-D,Y-PID,D-kp,D-ki,D-kd,D-I-Tot,D-P,D-I,D-D,D-PID,errorN,desiredN,actualN,errorE,desiredE,actualE,errorD,desiredD,actualD,errorY,desiredY,actualY,roll,pitch,yaw-rate,thrust,dt,Time,Mode
0.03,0.0,0.005,-0.0030320274485487824,-0.0027113155548296073,-0.0,-0.013469593755710847,-0.016180909310540455,0.03,0.0,0.005,-0.003014044051454739,-0.002695234346761028,-0.0,-0.013389703630270085,-0.016084937977031113,0.5,0,0,-0.0029834545019788495,-0.04446467331187558,-0.0,-0.0,-0.04446467331187558,0.002,8e-05,0.0,-0.004274134335742866,-0.00025480259451427585,-3.419307468594293e-07,-0.0,-0.00025514452526113527,-0.08984114489203426,0.0,0.08984114489203426,-0.09037718516098692,0.0,0.09037718516098692,-0.12740129725713792,0.0,0.12740129725713792,-0.08892934662375115,0,0.08892934662375115,-0.016205855401728773,0.01605980406291219,0.04446467331187558,0.4,0.033548593521118164,0.033768653869628906,STABILIZE
0.03,0.0,0.005,-0.00647177821430499,-0.0030864845282029623,-0.0,-0.0018702150091584081,-0.004956699537361371,0.03,0.0,0.005,-0.006420830605792552,-0.003056905778038802,-0.0,-0.0018029298453909315,-0.004859835623429734,0.5,0,0,-0.006357085734795893,-0.05045259241654647,-0.0,-0.0,-0.05045259241654647,0.002,8e-05,0.0,-0.009413584018883283,-0.0003074414981536833,-7.530867215106627e-07,-0.0,-0.00030819458487519393,-0.10189685926796008,0.0,0.10189685926796008,-0.10288281760676542,0.0,0.10288281760676542,-0.15372074907684163,0.0,0.15372074907684163,-0.10090518483309294,0,0.10090518483309294,-0.0049652506373329425,0.004851098710488162,0.05045259241654647,0.4,0.03343367576599121,0.06717967987060547,STABILIZE
0.03,0.0,0.005,-0.01081684060536303,-0.0038995982754429586,-0.0,-0.00405417649468236,-0.007953774770125318,0.03,0.0,0.005,-0.010639029494551772,-0.003785741062299313,-0.0,-0.003633964974733063,-0.007419706037032375,0.5,0,0,-0.01051287365835831,-0.062162143145829754,-0.0,-0.0,-0.062162143145829754,0.002,8e-05,0.0,-0.016632566022056663,-0.0004319252097578243,-1.3306052817645332e-06,-0.0,-0.00043325581503958884,-0.12619136874331044,0.0,0.12619136874331044,-0.12998660918143196,0.0,0.12998660918143196,-0.21596260487891214,0.0,0.21596260487891214,-0.12432428629165951,0,0.12432428629165951,-0.007969855816717785,0.007402429940944149,0.062162143145829754,0.4,0.03342700004577637,0.10057830810546875,STABILIZE
0.03,0.0,0.005,-0.01565983552295688,-0.004213876766900437,-0.0,-0.0015191825811454191,-0.0057330593480458564,0.03,0.0,0.005,-0.015240291188725523,-0.0040035453436199015,-0.0,-0.0010528384196660902,-0.005056383763285992,0.5,0,0,-0.015111895972258788,-0.06669328108177587,-0.0,-0.0,-0.06669328108177587,0.002,8e-05,0.0,-0.025133864884161652,-0.0004931304750201901,-2.0107091907329323e-06,-0.0,-0.000495141184210923,-0.13345151145399672,0.0,0.13345151145399672,-0.14046255889668124,0.0,0.14046255889668124,-0.24656523751009507,0.0,0.24656523751009507,-0.13338656216355174,0,0.13338656216355174,-0.005744815238353624,0.005043023312162872,0.06669328108177587,0.4,0.03447890281677246,0.13506102561950684,STABILIZE
0.03,0.0,0.005,-0.020576385344856844,-0.004411048474683094,-0.0,-0.000982773593917042,-0.0053938220686001355,0.03,0.0,0.005,-0.019897368592611077,-0.004178254044612112,-0.0,-0.0008708100157653321,-0.005049064060377444,0.5,0,0,-0.019845031978019952,-0.07077487640378213,-0.0,-0.0,-0.07077487640378213,0.002,8e-05,0.0,-0.03446103715186917,-0.0005578791428264689,-2.756882972149534e-06,-0.0,-0.0005606360257986184,-0.13927513482040374,0.0,0.13927513482040374,-0.14703494915610313,0.0,0.14703494915610313,-0.27893957141323444,0.0,0.27893957141323444,-0.14154975280756427,0,0.14154975280756427,-0.005406279354974015,0.005035723178401961,0.07077487640378213,0.4,0.03343796730041504,0.16850924491882324,STABILIZE
0.03,0.0,0.005,-0.025670703001500622,-0.004566664109597266,-0.0,-0.0007749858467065744,-0.00534164995630384,0.03,0.0,0.005,-0.024763684075068845,-0.00436227769007207,-0.0,-0.0009164613875043742,-0.005278739077576445,0.5,0,0,-0.024730657701017733,-0.07299313060124989,-0.0,-0.0,-0.07299313060124989,0.002,8e-05,0.0,-0.044658813912082936,-0.0006094348549024227,-3.5727051129666353e-06,-0.0,-0.0006130075600153894,-0.14540925633573568,0.0,0.14540925633573568,-0.15222213698657552,0.0,0.15222213698657552,-0.30471742745121133,0.0,0.30471742745121133,-0.14598626120249977,0,0.14598626120249977,-0.005355082518062057,0.005265111749009661,0.07299313060124989,0.4,0.033466339111328125,0.201981782913208,STABILIZE
0.03,0.0,0.005,-0.031217587436416023,-0.004808341282393439,-0.0,-0.0011638829174218095,-0.0059722241998152485,0.03,0.0,0.005,-0.030083512812298985,-0.004611517047565238,-0.0,-0.0012003013241972116,-0.00581181837176245,0.5,0,0,-0.029930184921179513,-0.07512055243198155,-0.0,-0.0,-0.07512055243198155,0.002,8e-05,0.0,-0.056197303768634604,-0.000666812727814132,-4.495784301490769e-06,-0.0,-0.0006713085121156228,-0.15371723491884126,0.0,0.15371723491884126,-0.16027804274644797,0.0,0.16027804274644797,-0.333406363907066,0.0,0.333406363907066,-0.1502411048639631,0,0.1502411048639631,-0.005987443411503002,0.005796138030901586,0.07512055243198155,0.4,0.034607887268066406,0.23658418655395508,STABILIZE
0.03,0.0,0.005,-0.03669129767523014,-0.00490801914378025,-0.0,-0.0004965358966904085,-0.005404555040470659,0.03,0.0,0.005,-0.03537556000003806,-0.004745130409540823,-0.0,-0.0006655824029060195,-0.005410712812446843,0.5,0,0,-0.03514370595209085,-0.0779119948195548,-0.0,-0.0,-0.0779119948195548,0.002,8e-05,0.0,-0.06833355786039198,-0.0007254673072723873,-5.466684628831359e-06,-0.0,-0.0007309339919012186,-0.15817101365136077,0.0,0.15817101365136077,-0.16360063812600836,0.0,0.16360063812600836,-0.36273365363619364,0.0,0.36273365363619364,-0.1558239896391096,0,0.1558239896391096,-0.005419250235124402,0.005395994367431952,0.0779119948195548,0.4,0.03345775604248047,0.27004218101501465,STABILIZE
0.03,0.0,0.005,-0.042307608664205784,-0.005036169645884773,-0.0,-0.0006384060740132437,-0.0056745757198980165,0.03,0.0,0.005,-0.04095489022479437,-0.005003008839332463,-0.0,-0.0012846703932670035,-0.006287679232599467,0.5,0,0,-0.04027516442059126,-0.07669000591582752,-0.0,0.0,-0.07669000591582752,0.002,8e-05,0.0,-0.082482329703443,-0.0008458175413528159,-6.598586376275441e-06,-0.0,-0.0008524161277290913,-0.1667669613110821,0.0,0.1667669613110821,-0.16787232152949244,0.0,0.16787232152949244,-0.4229087706764079,0.0,0.4229087706764079,-0.15338001183165503,0,0.15338001183165503,-0.0056913873976963125,0.006272465960231455,0.07669000591582752,0.4,0.033455848693847656,0.30353498458862305,STABILIZE
0.03,0.0,0.005,-0.04812357349904619,-0.005042428527953264,-0.0,-3.014687100409676e-05,-0.005072575398957361,0.03,0.0,0.005,-0.046639983741230275,-0.004928963387060301,-0.0,0.00035665134342866987,-0.0045723120436316315,0.5,0,0,-0.04546767907297107,-0.07503164352635967,-0.0,0.0,-0.07503164352635967,0.002,8e-05,0.0,-0.09813942173623427,-0.0009049775892498495,-7.851153738898743e-06,-0.0,-0.0009128287429887482,-0.1642987795686767,0.0,0.1642987795686767,-0.16808095093177547,0.0,0.16808095093177547,-0.45248879462492475,0.0,0.45248879462492475,-0.15006328705271935,0,0.15006328705271935,-0.005084533322528125,0.004559010802196833,0.07503164352635967,0.4,0.03460216522216797,0.33814096450805664,STABILIZE
0.03,0.0,0.005,-0.053113980453210585,-0.004476067200932267,-0.0,0.002822160578440393,-0.0016539066224918737,0.03,0.0,0.005,-0.052023081268406324,-0.004828284847732795,-0.0,0.000501677976989617,-0.004326606870743178,0.5,0,0,-0.05085754952309174,-0.08057266191129293,-0.0,-0.0,-0.08057266191129293,0.002,8e-05,0.0,-0.11395957781656009,-0.0009459760482483874,-9.116766225324809e-06,-0.0,-0.0009550928144737123,-0.16094282825775982,0.0,0.16094282825775982,-0.14920224003107557,0.0,0.14920224003107557,-0.4729880241241937,0.0,0.4729880241241937,-0.16114532382258587,0,0.16114532382258587,-0.0016660687181511739,0.004321938124994695,0.08057266191129293,0.4,0.033447265625,0.3716456890106201,STABILIZE
0.03,0.0,0.005,-0.059171523538467365,-0.004772167190162505,-0.0,-0.0012959403889995095,-0.006068107579162014,0.03,0.0,0.005,-0.057956072439883634,-0.0046740444780258026,-0.0,0.0006750636000938239,-0.003998980877931979,0.5,0,0,-0.055759100254352795,-0.06435782971034232,-0.0,0.0,-0.06435782971034232,0.002,8e-05,0.0,-0.13281815227836785,-0.0009904595425705837,-1.0625452182269429e-05,-0.0,-0.0010010849947528532,-0.1558014826008601,0.0,0.1558014826008601,-0.1590722396720835,0.0,0.1590722396720835,-0.49522977128529183,0.0,0.49522977128529183,-0.12871565942068464,0,0.12871565942068464,-0.006077076018052472,0.003985338721509203,0.06435782971034232,0.4,0.038080453872680664,0.40966343879699707,STABILIZE
0.03,0.0,0.005,-0.06469241562338758,-0.004314195353863247,-0.0,0.0019881850996097093,-0.0023260102542535374,0.03,0.0,0.005,-0.06424503823459551,-0.004914391840090278,-0.0,-0.0010434157869804908,-0.005957807627070769,0.5,0,0,-0.06128692235048115,-0.07199351130601513,-0.0,-0.0,-0.07199351130601513,0.002,8e-05,0.0,-0.15378284915230916,-0.0010921640495473906,-1.2302627932184734e-05,-0.0,-0.0011044666774795754,-0.16381306133634263,0.0,0.16381306133634263,-0.14380651179544157,0.0,0.14380651179544157,-0.5460820247736953,0.0,0.5460820247736953,-0.14398702261203025,0,0.14398702261203025,-0.002340975147951553,0.005951943445694729,0.07199351130601513,0.4,0.03839111328125,0.4480772018432617,STABILIZE
0.03,0.0,0.005,-0.07067916584033332,-0.004566717860872539,-0.0,-0.0010701400790100598,-0.005636857939882598,0.03,0.0,0.005,-0.07062079537440498,-0.004863453952787059,-0.0,0.00021586461891599925,-0.00464758933387106,0.5,0,0,-0.06617665280982452,-0.06216511077058644,-0.0,0.0,-0.06216511077058644,0.002,8e-05,0.0,-0.17613232762078437,-0.001136551649388194,-1.409058620966275e-05,-0.0,-0.0011506422355978567,-0.16211513175956863,0.0,0.16211513175956863,-0.1522239286957513,0.0,0.1522239286957513,-0.568275824694097,0.0,0.568275824694097,-0.12433022154117288,0,0.12433022154117288,-0.0056469297980655305,0.004635346578892361,0.06216511077058644,0.4,0.039328575134277344,0.48737120628356934,STABILIZE
0.03,0.0,0.005,-0.07539422742532326,-0.004223350465087945,-0.0,0.0017086625540815182,-0.0025146879110064264,0.03,0.0,0.005,-0.0759761295974831,-0.004796852145842459,-0.0,0.0003314234693144676,-0.004465428676527991,0.5,0,0,-0.07079282465689718,-0.06891289104728907,-0.0,-0.0,-0.06891289104728907,0.002,8e-05,0.0,-0.19603021645567748,-0.0011881889069789422,-1.56824173164542e-05,-0.0,-0.0012038713242953963,-0.15989507152808197,0.0,0.15989507152808197,-0.14077834883626483,0.0,0.14077834883626483,-0.5940944534894711,0.0,0.5940944534894711,-0.13782578209457813,0,0.13782578209457813,-0.002525422274855236,0.004459366646574982,0.06891289104728907,0.4,0.0334928035736084,0.5208680629730225,STABILIZE
0.03,0.0,0.005,-0.07986525105451953,-0.004011129425913852,-0.0,0.0010577319966015156,-0.0029533974293123365,0.03,0.0,0.005,-0.08125234592742443,-0.004733499156728759,-0.0,0.0003157579659712114,-0.004417741190757547,0.5,0,0,-0.07532066950109274,-0.06770176584741056,-0.0,0.0,-0.06770176584741056,0.002,8e-05,0.0,-0.2166438810817459,-0.0012328880902888611,-1.7331510486539674e-05,-0.0,-0.001250219600775401,-0.15778330522429196,0.0,0.15778330522429196,-0.13370431419712842,0.0,0.13370431419712842,-0.6164440451444305,0.0,0.6164440451444305,-0.1354035316948211,0,0.1354035316948211,-0.0029638293438093307,0.00441074928155743,0.06770176584741056,0.4,0.03343963623046875,0.5543439388275146,STABILIZE
0.03,0.0,0.005,-0.08466375580260443,-0.004303176681899369,-0.0,-0.001455002950509547,-0.0057581796324089165,0.03,0.0,0.005,-0.08645236123190463,-0.004663241109157921,-0.0,0.00035003125150978565,-0.004313209857648135,0.5,0,0,-0.07915225114071642,-0.05726774496090926,-0.0,0.0,-0.05726774496090926,0.002,8e-05,0.0,-0.2377998062514374,-0.001264806276865832,-1.9023984500114994e-05,-0.0,-0.001283830261365947,-0.15544137030526403,0.0,0.15544137030526403,-0.14343922272997897,0.0,0.14343922272997897,-0.632403138432916,0.0,0.632403138432916,-0.11453548992181851,0,0.11453548992181851,-0.005766790320427212,0.004301690522972214,0.05726774496090926,0.4,0.03345322608947754,0.5877573490142822,STABILIZE
0.03,0.0,0.005,-0.08983004718988252,-0.004633592778964192,-0.0,-0.0016463708110093923,-0.006279963589973585,0.03,0.0,0.005,-0.09160710187179698,-0.004623233034291251,-0.0,0.00019934902460953734,-0.004423884009681714,0.5,0,0,-0.08228465642382495,-0.046823692963267556,-0.0,0.0,-0.046823692963267556,0.002,8e-05,0.0,-0.25968512128301546,-0.001308580696079091,-2.0774809702641237e-05,-0.0,-0.0013293555057817322,-0.1541077678097084,0.0,0.1541077678097084,-0.15445309263213974,0.0,0.15445309263213974,-0.6542903480395454,0.0,0.6542903480395454,-0.09364738592653511,0,0.09364738592653511,-0.006287185838784612,0.004413613785901268,0.046823692963267556,0.4,0.03344893455505371,0.6212146282196045,STABILIZE
0.03,0.0,0.005,-0.09435495489936475,-0.004058516028807425,-0.0,0.0028655688299267113,-0.0011929471988807137,0.03,0.0,0.005,-0.09622388526520256,-0.004140921894252854,-0.0,0.002403324023869314,-0.0017375978703835396,0.5,0,0,-0.08521966960981602,-0.04387492086355692,-0.0,0.0,-0.04387492086355692,0.002,8e-05,0.0,-0.28279405396844765,-0.0013818031178244757,-2.2623524317475813e-05,-0.0,-0.0014044266421419514,-0.13803072980842845,0.0,0.13803072980842845,-0.13528386762691416,0.0,0.13528386762691416,-0.6909015589122378,0.0,0.6909015589122378,-0.08774984172711384,0,0.08774984172711384,-0.0011956069710167651,0.001735768806418317,0.04387492086355692,0.4,0.0334475040435791,0.6546802520751953,STABILIZE
0.03,0.0,0.005,-0.09910268958000011,-0.004258254345247648,-0.0,-0.000995254241240944,-0.005253508586488592,0.03,0.0,0.005,-0.10106126401406963,-0.004338656319820977,-0.0,-0.0009852692722826292,-0.005323925592103606,0.5,0,0,-0.08773694739161175,-0.03762920555301051,-0.0,0.0,-0.03762920555301051,0.002,8e-05,0.0,-0.3061112822003376,-0.0013942184377257472,-2.4488902576027013e-05,-0.0,-0.0014187073403017741,-0.1446218773273659,0.0,0.1446218773273659,-0.14194181150825494,0.0,0.14194181150825494,-0.6971092188628736,0.0,0.6971092188628736,-0.07525841110602102,0,0.07525841110602102,-0.005260497066408514,0.005317020480764815,0.03762920555301051,0.4,0.03344845771789551,0.6881155967712402,STABILIZE
0.03,0.0,0.005,-0.1033096813611937,-0.0037748482798381383,-0.0,0.0024097246908397975,-0.0013651235889983408,0.03,0.0,0.005,-0.10548336405046906,-0.0039678605483128735,-0.0,0.0018483750821478406,-0.0021194854661650327,0.5,0,0,-0.09074352594731236,-0.04496236455670266,-0.0,-0.0,-0.04496236455670266,0.002,8e-05,0.0,-0.32993789095572945,-0.0014252754739817017,-2.639503127645836e-05,-0.0,-0.0014516705052581601,-0.1322620182770958,0.0,0.1322620182770958,-0.1258282759946046,0.0,0.1258282759946046,-0.7126377369908509,0.0,0.7126377369908509,-0.08992472911340532,0,0.08992472911340532,-0.0013684484018594899,0.0021173403188842186,0.04496236455670266,0.4,0.033434391021728516,0.7215492725372314,STABILIZE
0.03,0.0,0.005,-0.1076967863609772,-0.0039341597641776955,-0.0,-0.0007936856761539926,-0.004727845440331688,0.03,0.0,0.005,-0.1098390163878515,-0.0039059544217250742,-0.0,0.0003084147143729323,-0.003597539707352142,0.5,0,0,-0.09335357295610373,-0.03900955917059246,-0.0,0.0,-0.03900955917059246,0.002,8e-05,0.0,-0.3541796344054318,-0.0014492608329493486,-2.8334370752434548e-05,-0.0,-0.001477595203701783,-0.13019848072416915,0.0,0.13019848072416915,-0.13113865880592318,0.0,0.13113865880592318,-0.7246304164746743,0.0,0.7246304164746743,-0.07801911834118493,0,0.07801911834118493,-0.004732739791253906,0.0035910985118654724,0.03900955917059246,0.4,0.033453941345214844,0.7550323009490967,STABILIZE
0.03,0.0,0.005,-0.11208237896623308,-0.003935271544897277,-0.0,-5.542338571547697e-06,-0.003940813883468825,0.03,0.0,0.005,-0.1138064352192733,-0.0035600366562258223,-0.0,0.0017244348103381338,-0.0018356018458876885,0.5,0,0,-0.09568973347371357,-0.034937984581014575,-0.0,0.0,-0.034937984581014575,0.002,8e-05,0.0,-0.3785620665020584,-0.001458586480198096,-3.0284965320164678e-05,-0.0,-0.0014888714455182606,-0.11866788854086074,0.0,0.11866788854086074,-0.13117571816324258,0.0,0.13117571816324258,-0.729293240099048,0.0,0.729293240099048,-0.06987596916202915,0,0.06987596916202915,-0.003943049589353053,0.0018307944004364997,0.034937984581014575,0.4,0.033432960510253906,0.7884335517883301,STABILIZE
0.03,0.0,0.005,-0.11588227691245424,-0.0034087447932729946,-0.0,0.0026240402425413444,-0.0007847045507316502,0.03,0.0,0.005,-0.11764734736493729,-0.0034455370810606207,-0.0,0.0005706291125009579,-0.002874907968559663,0.5,0,0,-0.09808193441031426,-0.03576588372682321,-0.0,-0.0,-0.03576588372682321,0.002,8e-05,0.0,-0.4033849519628234,-0.0014845114748856273,-3.227079615702587e-05,-0.0,-0.001516782271042653,-0.11485123603535402,0.0,0.11485123603535402,-0.11362482644243316,0.0,0.11362482644243316,-0.7422557374428137,0.0,0.7422557374428137,-0.07153176745364642,0,0.07153176745364642,-0.0007882931598335256,0.002873926052247428,0.03576588372682321,0.4,0.03344249725341797,0.8218779563903809,STABILIZE
0.03,0.0,0.005,-0.11929610907690588,-0.003060608738666953,-0.0,0.0017339722628485483,-0.0013266364758184046,0.03,0.0,0.005,-0.12134188533716496,-0.0033122703924588575,-0.0,0.0006637656127246791,-0.0026485047797341786,0.5,0,0,-0.1001343651034435,-0.03066781948797917,-0.0,0.0,-0.03066781948797917,0.002,8e-05,0.0,-0.4290534664324137,-0.0015341757866186973,-3.43242773145931e-05,-0.0,-0.0015685000639332903,-0.11040901308196192,0.0,0.11040901308196192,-0.10202029128889843,0.0,0.10202029128889843,-0.7670878933093487,0.0,0.7670878933093487,-0.06133563897595834,0,0.06133563897595834,-0.0013294709629245948,0.0026470830863399466,0.03066781948797917,0.4,0.0334622859954834,0.8553705215454102,STABILIZE
0.03,0.0,0.005,-0.12242103424847778,-0.0028026927667555756,-0.0,0.0012851138457876889,-0.0015175789209678867,0.03,0.0,0.005,-0.12497450344661441,-0.003258034013857046,-0.0,0.00027024274832626675,-0.0029877912655307793,0.5,0,0,-0.10229732095043892,-0.032331977964005464,-0.0,-0.0,-0.032331977964005464,0.002,8e-05,0.0,-0.45521070647528317,-0.0015639992093968102,-3.641685651802266e-05,-0.0,-0.0016004160659148327,-0.10860113379523488,0.0,0.10860113379523488,-0.09342309222518586,0.0,0.09342309222518586,-0.781999604698405,0.0,0.781999604698405,-0.06466395592801093,0,0.06466395592801093,-0.0015209499718051899,0.0029860766251075784,0.032331977964005464,0.4,0.03344917297363281,0.8888001441955566,STABILIZE
0.03,0.0,0.005,-0.12525675918032145,-0.0025431145469288594,-0.0,0.0012932949006251475,-0.0012498196463037118,0.03,0.0,0.005,-0.12854883316165167,-0.003205504804699609,-0.0,0.00026171594204836096,-0.0029437888626512483,0.5,0,0,-0.10457987336056812,-0.03411703872228247,-0.0,-0.0,-0.03411703872228247,0.002,8e-05,0.0,-0.4818431132522021,-0.001592285634701876,-3.854744906017617e-05,-0.0,-0.0016308330837620521,-0.10685016015665363,0.0,0.10685016015665363,-0.08477048489762865,0.0,0.08477048489762865,-0.7961428173509381,0.0,0.7961428173509381,-0.06823407744456494,0,0.06823407744456494,-0.001253324544760818,0.0029422983536100404,0.03411703872228247,0.4,0.03345179557800293,0.9222524166107178,STABILIZE
0.03,0.0,0.005,-0.12820094428321968,-0.002638746816920919,-0.0,-0.00047617278582272636,-0.003114919602743645,0.03,0.0,0.005,-0.13213473722274421,-0.003213891992618636,-0.0,-4.176153757464436e-05,-0.0032556535301932806,0.5,0,0,-0.1064415824400303,-0.027809499831988996,-0.0,0.0,-0.027809499831988996,0.002,8e-05,0.0,-0.5088006478142014,-0.0016107254589730635,-4.070405182513612e-05,-0.0,-0.0016514295107981996,-0.10712973308728788,0.0,0.10712973308728788,-0.0879582272306973,0.0,0.0879582272306973,-0.8053627294865318,0.0,0.8053627294865318,-0.05561899966397799,0,0.05561899966397799,-0.0031180785103707325,0.003252628236269991,0.027809499831988996,0.4,0.033472537994384766,0.9557275772094727,STABILIZE
0.03,0.0,0.005,-0.13125022546595766,-0.0027367215966938607,-0.0,-0.0004885116627446147,-0.003225233259438475,0.03,0.0,0.005,-0.13571688849561092,-0.0032149710582860015,-0.0,-5.380325065255208e-06,-0.0032203513833512568,0.5,0,0,-0.10788197634511541,-0.02154582709584209,-0.0,0.0,-0.02154582709584209,0.002,8e-05,0.0,-0.5358195926441236,-0.0016166286501558018,-4.286556741152989e-05,-0.0,-0.0016594942175673316,-0.10716570194286672,0.0,0.10716570194286672,-0.0912240532231287,0.0,0.0912240532231287,-0.8083143250779009,0.0,0.8083143250779009,-0.04309165419168418,0,0.04309165419168418,-0.0032276543451314546,0.00321792480309819,0.02154582709584209,0.4,0.03342628479003906,0.9891533851623535,STABILIZE
0.03,0.0,0.005,-0.1340588751792001,-0.0025117261897710727,-0.0,0.001117830262155396,-0.0013938959276156768,0.03,0.0,0.005,-0.1390062430513969,-0.0029416121014508435,-0.0,0.0013581117879727773,-0.0015835003134780663,0.5,0,0,-0.1094153662488573,-0.022854728390181503,-0.0,-0.0,-0.022854728390181503,0.002,8e-05,0.0,-0.563117045987229,-0.0016274422581703518,-4.5049363678978326e-05,-0.0,-0.0016724916218493302,-0.09805373671502812,0.0,0.09805373671502812,-0.08372420632570243,0.0,0.08372420632570243,-0.8137211290851759,0.0,0.8137211290851759,-0.045709456780363006,0,0.045709456780363006,-0.001395158769610235,0.0015823877866655688,0.022854728390181503,0.4,0.03354644775390625,1.0226945877075195,STABILIZE
0.03,0.0,0.005,-0.1365722811313439,-0.0021680628164487802,-0.0,0.001646910375053912,-0.0005211524413948681,0.03,0.0,0.005,-0.1421267359367863,-0.002691735725394943,-0.0,0.0011974624826294829,-0.0014942732427654603,0.5,0,0,-0.11110313084029637,-0.02426441598432612,-0.0,-0.0,-0.02426441598432612,0.002,8e-05,0.0,-0.5920766883312659,-0.001665371609660025,-4.736613506650128e-05,-0.0,-0.0017127377447265263,-0.08972452417983144,0.0,0.08972452417983144,-0.07226876054829268,0.0,0.07226876054829268,-0.8326858048300125,0.0,0.8326858048300125,-0.04852883196865224,0,0.04852883196865224,-0.0005224178856650857,0.0014938312970191301,0.02426441598432612,0.4,0.034778594970703125,1.0574805736541748,STABILIZE
0.03,0.0,0.005,-0.13886094738669202,-0.0020384561977727657,-0.0,0.0006413182410767754,-0.0013971379566959903,0.03,0.0,0.005,-0.14507978738074925,-0.0026302070055961276,-0.0,0.00030445582764350584,-0.002325751177952622,0.5,0,0,-0.11284568208624793,-0.025867426635826772,-0.0,-0.0,-0.025867426635826772,0.002,8e-05,0.0,-0.6204147915271319,-0.0016826680010027756,-4.963318332217055e-05,-0.0,-0.001732301184324946,-0.08767356685320425,0.0,0.08767356685320425,-0.06794853992575886,0.0,0.06794853992575886,-0.8413340005013877,0.0,0.8413340005013877,-0.051734853271653544,0,0.051734853271653544,-0.0013992374088354828,0.0023244886933482855,0.025867426635826772,0.4,0.03368234634399414,1.0911736488342285,STABILIZE
0.03,0.0,0.005,-0.1410513196069916,-0.0019651102575541555,-0.0,0.00036557170546878135,-0.0015995385520853741,0.03,0.0,0.005,-0.14782248199668108,-0.002460630788299998,-0.0,0.0008452037942266534,-0.0016154269940733446,0.5,0,0,-0.11461483565346056,-0.026453508600793717,-0.0,-0.0,-0.026453508600793717,0.002,8e-05,0.0,-0.648632955167201,-0.001687743672195199,-5.1890636413376086e-05,-0.0,-0.0017396343086085752,-0.0820210262766666,0.0,0.0820210262766666,-0.06550367525180519,0.0,0.06550367525180519,-0.8438718360975995,0.0,0.8438718360975995,-0.052907017201587435,0,0.052907017201587435,-0.0016010295578815531,0.001613949289035382,0.026453508600793717,0.4,0.033438920974731445,1.124610424041748,STABILIZE
0.03,0.0,0.005,-0.14316455608923695,-0.0018939627407482122,-0.0,0.0003542505826682369,-0.0015397121580799753,0.03,0.0,0.005,-0.15038495791077297,-0.0022965881699137237,-0.0,0.0008167845591050434,-0.0014798036108086803,0.5,0,0,-0.11643039795249667,-0.02711959733148263,-0.0,-0.0,-0.02711959733148263,0.002,8e-05,0.0,-0.6771367549878411,-0.0017030791484563097,-5.417094039902729e-05,-0.0,-0.0017572500888553368,-0.07655293899712412,0.0,0.07655293899712412,-0.06313209135827375,0.0,0.06313209135827375,-0.8515395742281548,0.0,0.8515395742281548,-0.05423919466296526,0,0.05423919466296526,-0.0015411123277963045,0.0014783453755519915,0.02711959733148263,0.4,0.03347325325012207,1.1581029891967773,STABILIZE
0.03,0.0,0.005,-0.14482532961966083,-0.0014893711913087303,-0.0,0.002015750783004558,0.0005263795916958277,0.03,0.0,0.005,-0.15259115314396265,-0.001978501922460635,-0.0,0.0015847651866551197,-0.00039373673580551526,0.5,0,0,-0.11831933612628963,-0.028233129991064514,-0.0,-0.0,-0.028233129991064514,0.002,8e-05,0.0,-0.7056935926696595,-0.0017073060867536403,-5.645548741357276e-05,-0.0,-0.001763761574167213,-0.06595006408202117,0.0,0.06595006408202117,-0.04964570637695768,0.0,0.04964570637695768,-0.8536530433768201,0.0,0.8536530433768201,-0.05646625998212903,0,0.05646625998212903,0.0005259912998589663,0.00039425530326087375,0.028233129991064514,0.4,0.033452510833740234,1.1915769577026367,STABILIZE
0.03,0.0,0.005,-0.14650657173832868,-0.0015002213733505828,-0.0,-5.3788521472014435e-05,-0.0015540098948225972,0.03,0.0,0.005,-0.1552691123523465,-0.0023896211002385277,-0.0,-0.002038075733307008,-0.004427696833545536,0.5,0,0,-0.11944461303018922,-0.01673528997224937,-0.0,0.0,-0.01673528997224937,0.002,8e-05,0.0,-0.73442329517192,-0.0017090900933827066,-5.87538636137536e-05,-0.0,-0.0017678439569964602,-0.0796540366746176,0.0,0.0796540366746176,-0.050007379111686096,0.0,0.050007379111686096,-0.8545450466913533,0.0,0.8545450466913533,-0.03347057994449874,0,0.03347057994449874,-0.0015565961652464334,0.004426788269313973,0.01673528997224937,0.4,0.03361988067626953,1.2251617908477783,STABILIZE
0.03,0.0,0.005,-0.1480018835937427,-0.001339716289827999,-0.0,0.0007989090637472236,-0.0005408072260807753,0.03,0.0,0.005,-0.15698320640284785,-0.0015357329733188664,-0.0,0.004250201607641111,0.002714468634322245,0.5,0,0,-0.12111359994900697,-0.024921991518071313,-0.0,-0.0,-0.024921991518071313,0.002,8e-05,0.0,-0.763077088034867,-0.001711480358867727,-6.104616704278936e-05,-0.0,-0.0017725265259105165,-0.051191099110628885,0.0,0.051191099110628885,-0.0446572096609333,0.0,0.0446572096609333,-0.8557401794338635,0.0,0.8557401794338635,-0.049843983036142625,0,0.049843983036142625,-0.0005384455925065088,-0.0027149380778225445,0.024921991518071313,0.4,0.03348422050476074,1.2586853504180908,STABILIZE
0.03,0.0,0.005,-0.14986492773559304,-0.0016363047840727712,-0.0,-0.001447180990663951,-0.003083485774736722,0.03,0.0,0.005,-0.1587438726635498,-0.0015463866694434673,-0.0,-5.1983899615162577e-05,-0.0015983705690586299,0.5,0,0,-0.12217962141493058,-0.015604711892678702,-0.0,0.0,-0.015604711892678702,0.002,8e-05,0.0,-0.7926318418510617,-0.0017305220695952375,-6.341054734808494e-05,-0.0,-0.0017939326169433224,-0.051546222314782245,0.0,0.051546222314782245,-0.05454349280242571,0.0,0.05454349280242571,-0.8652610347976187,0.0,0.8652610347976187,-0.031209423785357404,0,0.031209423785357404,-0.0030843559612109693,0.0015966907351077384,0.015604711892678702,0.4,0.03415703773498535,1.2928071022033691,STABILIZE
0.03,0.0,0.005,-0.15250683204027424,-0.0023703749476426316,-0.0,-0.0036590221060845813,-0.0060293970537272125,0.03,0.0,0.005,-0.16121007983197932,-0.00221273559280091,-0.0,-0.0033214610291111557,-0.005534196621912065,0.5,0,0,-0.12248016052517806,-0.00449417223058359,-0.0,0.0,-0.00449417223058359,0.002,8e-05,0.0,-0.821918621330701,-0.0017517830667993293,-6.575348970645608e-05,-0.0,-0.0018175365565057855,-0.07375785309336366,0.0,0.07375785309336366,-0.07901249825475438,0.0,0.07901249825475438,-0.8758915333996646,0.0,0.8758915333996646,-0.00898834446116718,0,0.00898834446116718,-0.006030265163296092,0.005533250684888122,0.00449417223058359,0.4,0.03343653678894043,1.3262581825256348,STABILIZE
0.03,0.0,0.005,-0.15598476140418532,-0.0031189405844339064,-0.0,-0.0037294408706503987,-0.006848381455084305,0.03,0.0,0.005,-0.1644312468725273,-0.0028886810400048217,-0.0,-0.003367638658833119,-0.00625631969883794,0.5,0,0,-0.12202616414358361,0.006785587972900053,-0.0,0.0,0.006785587972900053,0.002,8e-05,0.0,-0.8517439771785655,-0.001783120607419487,-6.813951817428525e-05,-0.0,-0.0018512601255937721,-0.09628936800016072,0.0,0.09628936800016072,-0.10396468614779689,0.0,0.10396468614779689,-0.8915603037097435,0.0,0.8915603037097435,0.013571175945800106,0,-0.013571175945800106,-0.006846899380446924,0.0062579416426206645,-0.006785587972900053,0.4,0.03345298767089844,1.3597466945648193,STABILIZE
0.03,0.0,0.005,-0.15883130569647474,-0.002557885604694755,-0.0,0.002800890227190847,0.00024300462249609222,0.03,0.0,0.005,-0.16710821151285987,-0.002405502467090134,-0.0,0.0024121168009131047,6.614333822970841e-06,0.5,0,0,-0.12156368500653505,0.006926344165991611,-0.0,0.0,0.006926344165991611,0.002,8e-05,0.0,-0.8816627033490569,-0.00179231777491515,-7.053301626792456e-05,-0.0,-0.0018628507911830744,-0.08018341556967112,0.0,0.08018341556967112,-0.08526285348982517,0.0,0.08526285348982517,-0.896158887457575,0.0,0.896158887457575,0.013852688331983222,0,-0.013852688331983222,0.00024300301621296746,-6.67308607694147e-06,-0.006926344165991611,0.4,0.033385515213012695,1.3930864334106445,STABILIZE
0.03,0.0,0.005,-0.16150889957441825,-0.0024020881170034353,-0.0,0.0007764833962085594,-0.001625604720794876,0.03,0.0,0.005,-0.1725025951439523,-0.0048393391266479185,-0.0,-0.012130065659175697,-0.016969404785823615,0.5,0,0,-0.1182124958220935,0.050106252632805805,-0.0,0.0,0.050106252632805805,0.002,8e-05,0.0,-0.9128094518587783,-0.001862797668080481,-7.302475614870227e-05,-0.0,-0.0019358224242291833,-0.16131130422159728,0.0,0.16131130422159728,-0.08006960390011451,0.0,0.08006960390011451,-0.9313988340402405,0.0,0.9313988340402405,0.10021250526561161,0,-0.10021250526561161,-0.0015959221127882406,0.016972222073238303,-0.050106252632805805,0.4,0.03344082832336426,1.426537036895752,STABILIZE
0.03,0.0,0.005,-0.16447612080790583,-0.0026598667558724353,-0.0,-0.0012837615809316897,-0.003943628336804125,0.03,0.0,0.005,-0.1778347198960332,-0.0047798058352239966,-0.0,0.0002964813246425745,-0.004483324510581422,0.5,0,0,-0.11530019412490905,0.04351059941193403,-0.0,-0.0,0.04351059941193403,0.002,8e-05,0.0,-0.9441619860868924,-0.001873662414395147,-7.55329588869514e-05,-0.0,-0.0019491953732820983,-0.15932686117413322,0.0,0.15932686117413322,-0.08866222519574785,0.0,0.08866222519574785,-0.9368312071975735,0.0,0.9368312071975735,0.08702119882386807,0,-0.08702119882386807,-0.003936814488762641,0.0044893089453827036,-0.04351059941193403,0.4,0.03346657752990723,1.460028886795044,STABILIZE
0.03,0.0,0.005,-0.1680530009068859,-0.003208569540825226,-0.0,-0.0027344609983610876,-0.005943030539186314,0.03,0.0,0.005,-0.18260879559798265,-0.004282490175512623,-0.0,0.0024783731970158844,-0.0018041169784967382,0.5,0,0,-0.11270678540481087,0.03877276656356778,-0.0,-0.0,0.03877276656356778,0.002,8e-05,0.0,-0.9751482454732517,-0.0018530407375509843,-7.801185963786015e-05,0.0,-0.0019310525971888443,-0.14274967251708742,0.0,0.14274967251708742,-0.10695231802750753,0.0,0.10695231802750753,-0.9265203687754922,0.0,0.9265203687754922,0.07754553312713557,0,-0.07754553312713557,-0.005940583360040077,0.0018121587690421415,-0.03877276656356778,0.4,0.03344368934631348,1.4934535026550293,STABILIZE
0.03,0.0,0.005,-0.1722310043420225,-0.003742033152775043,-0.0,-0.002654429126664207,-0.00639646227943925,0.03,0.0,0.005,-0.18685062139456557,-0.0037991957176528204,-0.0,0.0024047954855056252,-0.0013944002321471952,0.5,0,0,-0.11042055985113583,0.03412767186285562,-0.0,-0.0,0.03412767186285562,0.002,8e-05,0.0,-1.005858889530495,-0.0018337347011064412,-8.046871116243961e-05,0.0,-0.0019142034122688809,-0.12663985725509402,0.0,0.12663985725509402,-0.12473443842583477,0.0,0.12473443842583477,-0.9168673505532206,0.0,0.9168673505532206,0.06825534372571124,0,-0.06825534372571124,-0.006394796619287581,0.001402019221569177,-0.03412767186285562,0.4,0.033495187759399414,1.526942491531372,STABILIZE
0.03,0.0,0.005,-0.17494341288223006,-0.0023388725694350036,-0.0,0.006721811486888768,0.004382938917453765,0.03,0.0,0.005,-0.19202321606765368,-0.004460257226872471,-0.0,-0.003166801361848001,-0.0076270585887204725,0.5,0,0,-0.1088882599916678,0.022021351481124544,-0.0,-0.0,0.022021351481124544,0.002,8e-05,0.0,-1.0371810584179073,-0.0018005783553626813,-8.29744846734326e-05,0.0,-0.001883552840036114,-0.14867524089574904,0.0,0.14867524089574904,-0.07796241898116679,0.0,0.07796241898116679,-0.9002891776813406,0.0,0.9002891776813406,0.04404270296224909,0,-0.04404270296224909,0.004388800466996389,0.007623687213599323,-0.022021351481124544,0.4,0.03479123115539551,1.5617458820343018,STABILIZE
0.03,0.0,0.005,-0.17815673186735345,-0.0028860653702603906,-0.0,-0.00273036176514977,-0.005616427135410161,0.03,0.0,0.005,-0.19717622288183045,-0.004628209831629989,-0.0,-0.0008380435007469565,-0.005466253332376945,0.5,0,0,-0.10649111332510669,0.03588357299636666,-0.0,0.0,0.03588357299636666,0.002,8e-05,0.0,-1.0683440483654187,-0.0018659507825122146,-8.54675238692335e-05,-0.0,-0.0019514183063814481,-0.154273661054333,0.0,0.154273661054333,-0.0962021790086797,0.0,0.0962021790086797,-0.9329753912561073,0.0,0.9329753912561073,0.07176714599273332,0,-0.07176714599273332,-0.005609575849991673,0.005473284027371853,-0.03588357299636666,0.4,0.0334017276763916,1.595144271850586,STABILIZE
0.03,0.0,0.005,-0.18101950733775263,-0.0025696448085567765,-0.0,0.00157789464204613,-0.0009917501665106464,0.03,0.0,0.005,-0.20291531192548232,-0.005151441501211663,-0.0,-0.002609199742067025,-0.0077606412432786875,0.5,0,0,-0.10309213370092828,0.050849082390910565,-0.0,0.0,0.050849082390910565,0.002,8e-05,0.0,-1.0988600963317225,-0.0018260927794277483,-8.790880770653782e-05,0.0,-0.001914001587134286,-0.17171471670705543,0.0,0.17171471670705543,-0.08565482695189255,0.0,0.08565482695189255,-0.9130463897138742,0.0,0.9130463897138742,0.10169816478182113,0,-0.10169816478182113,-0.0009779737230251316,0.007762389341995442,-0.050849082390910565,0.4,0.033422231674194336,1.6285662651062012,STABILIZE
0.03,0.0,0.005,-0.18393870797115097,-0.0025696448085567765,-0.0,0.0,-0.0025696448085567765,0.03,0.0,0.005,-0.2087675181304705,-0.005151441501211663,-0.0,0.0,-0.005151441501211663,0.5,0,0,-0.09962616035638716,0.050849082390910565,-0.0,0.0,0.050849082390910565,0.002,8e-05,0.0,-1.1299776140948699,-0.0018260927794277483,-9.039820912758959e-05,0.0,-0.001916490988555338,-0.17171471670705543,0.0,0.17171471670705543,-0.08565482695189255,0.0,0.08565482695189255,-0.9130463897138742,0.0,0.9130463897138742,0.10169816478182113,0,-0.10169816478182113,-0.0025604971226277674,0.005155994420823551,-0.050849082390910565,0.4,0.03408098220825195,1.6626641750335693,STABILIZE
0.03,0.0,0.005,-0.18633249132860924,-0.0021468368697719832,-0.0,0.0021066133402669147,-4.022352950506852e-05,0.03,0.0,0.005,-0.21714480159888896,-0.007513069619478153,-0.0,-0.011766660089185086,-0.019279729708663238,0.5,0,0,-0.09715664844535365,0.036912552427586995,-0.0,-0.0,0.036912552427586995,0.002,8e-05,0.0,-1.1603725775247393,-0.0018172913864102005,-9.282980620197916e-05,0.0,-0.0019101211926121795,-0.2504356539826051,0.0,0.2504356539826051,-0.07156122899239944,0.0,0.07156122899239944,-0.9086456932051002,0.0,0.9086456932051002,0.07382510485517399,0,-0.07382510485517399,-1.5381741878277907e-05,0.01927976553211824,-0.036912552427586995,0.4,0.03345084190368652,1.696103811264038,STABILIZE
0.03,0.0,0.005,-0.18809649862630384,-0.0015818265686710397,-0.0,0.002814766340449033,0.0012329397717779932,0.03,0.0,0.005,-0.22569578596026668,-0.007667867513244055,-0.0,-0.0007711716053594986,-0.008439039118603553,0.5,0,0,-0.09414380011428482,0.04502819181161527,-0.0,0.0,0.04502819181161527,0.002,8e-05,0.0,-1.1909696082350927,-0.0018291381660130396,-9.527756865880742e-05,-0.0,-0.001924415734671847,-0.25559558377480185,0.0,0.25559558377480185,-0.052727552289034654,0.0,0.052727552289034654,-0.9145690830065197,0.0,0.9145690830065197,0.09005638362323054,0,-0.09005638362323054,0.0012462025596694988,0.00843709078453149,-0.04502819181161527,0.4,0.03345513343811035,1.7295737266540527,STABILIZE
0.03,0.0,0.005,-0.18976422620491687,-0.0014974004482354063,-0.0,0.0004211309655535792,-0.0010762694826818272,0.03,0.0,0.005,-0.2340053206059659,-0.0074608713453343505,-0.0,0.0010325299280353089,-0.006428341417299041,0.5,0,0,-0.09122889592632906,0.04362002217450733,-0.0,-0.0,0.04362002217450733,0.002,8e-05,0.0,-1.2216175791844661,-0.0018345236566459837,-9.77294063347573e-05,-0.0,-0.001932253062980741,-0.24869571151114503,0.0,0.24869571151114503,-0.04991334827451355,0.0,0.04991334827451355,-0.9172618283229919,0.0,0.9172618283229919,0.08724004434901465,0,-0.08724004434901465,-0.0010664802789924427,0.006429972720877955,-0.04362002217450733,0.4,0.03341245651245117,1.7629916667938232,STABILIZE
0.03,0.0,0.005,-0.19112242968061383,-0.001218384305355349,-0.0,0.0013905169402438603,0.0001721326348885113,0.03,0.0,0.005,-0.241902636466524,-0.007084332996571351,-0.0,0.001876532831404948,-0.005207800165166403,0.5,0,0,-0.0890212323291704,0.03300662390199164,-0.0,-0.0,0.03300662390199164,0.002,8e-05,0.0,-1.2518143375489517,-0.0018058784819909577,-0.00010014514700391614,0.0,-0.0019060236289948737,-0.23614443321904505,0.0,0.23614443321904505,-0.040612810178511635,0.0,0.040612810178511635,-0.9029392409954788,0.0,0.9029392409954788,0.06601324780398328,0,-0.06601324780398328,0.000178132678586814,0.005207598386312098,-0.03300662390199164,0.4,0.03344273567199707,1.7964239120483398,STABILIZE
0.03,0.0,0.005,-0.19217418901374803,-0.0009436482679600853,-0.0,0.0013694207287141603,0.000425772460754075,0.03,0.0,0.005,-0.24936725187148004,-0.006697322453877595,-0.0,0.001929052571407884,-0.0047682698824697105,0.5,0,0,-0.08752779720331792,0.022332065036555902,-0.0,-0.0,0.022332065036555902,0.002,8e-05,0.0,-1.281527259128296,-0.0017772473290588705,-0.00010252218073026369,0.0,-0.0018797695097891342,-0.22324408179591984,0.0,0.22324408179591984,-0.031454942265336176,0.0,0.031454942265336176,-0.8886236645294352,0.0,0.8886236645294352,0.044664130073111805,0,-0.044664130073111805,0.00042948936964981924,0.004767936528705273,-0.022332065036555902,0.4,0.03343701362609863,1.8298556804656982,STABILIZE
0.03,0.0,0.005,-0.1925406539746423,-0.00032448306257985084,-0.0,0.0030457455164546684,0.0027212624538748174,0.03,0.0,0.005,-0.2548423779140781,-0.0048479004977109025,-0.0,0.009097521278781058,0.0042496207810701556,0.5,0,0,-0.08670972124631451,0.012072631778294119,-0.0,-0.0,0.012072631778294119,0.002,8e-05,0.0,-1.3116139275989265,-0.0017759977751309046,-0.00010492911420791413,0.0,-0.0018809268893388187,-0.16159668325703008,0.0,0.16159668325703008,-0.010816102085995028,0.0,0.010816102085995028,-0.8879988875654523,0.0,0.8879988875654523,0.024145263556588237,0,-0.024145263556588237,0.0027194713611233007,-0.004250767182733288,-0.012072631778294119,0.4,0.033881425857543945,1.8637709617614746,STABILIZE
0.03,0.0,0.005,-0.19172410228274547,0.0007307004389771137,-0.0,0.005245793278139743,0.005976493717116857,0.03,0.0,0.005,-0.25952964572537085,-0.004194454167817297,-0.0,0.0032485765366147617,-0.000945877631202535,0.5,0,0,-0.08850031362444437,-0.026705527845787967,-0.0,-0.0,-0.026705527845787967,0.002,8e-05,0.0,-1.340534939893287,-0.0017253528130441193,-0.00010724279519146297,0.0,-0.0018325956082355824,-0.13981513892724323,0.0,0.13981513892724323,0.024356681299237123,0.0,-0.024356681299237123,-0.8626764065220597,0.0,0.8626764065220597,-0.053411055691575934,0,0.053411055691575934,0.0059756093745017905,0.0009514484995589103,0.026705527845787967,0.4,0.03352475166320801,1.8972713947296143,STABILIZE
0.03,0.0,0.005,-0.19072628552229173,0.0008942111908804639,-0.0,0.0008140725608598151,0.001708283751740279,0.03,0.0,0.005,-0.2652736220058278,-0.0051475662403194814,-0.0,-0.004745268287353287,-0.00989283452767277,0.5,0,0,-0.09446220871335834,-0.08904763410564995,-0.0,-0.0,-0.08904763410564995,0.002,8e-05,0.0,-1.3675465159842028,-0.001613793539462594,-0.00010940372127873624,0.0,-0.0017231972607413303,-0.1715855413439827,0.0,0.1715855413439827,0.029807039696015464,0.0,-0.029807039696015464,-0.806896769731297,0.0,0.806896769731297,-0.1780952682112999,0,0.1780952682112999,0.0016775251682323582,0.009898096669477488,0.08904763410564995,0.4,0.03347587585449219,1.9307565689086914,STABILIZE
0.03,0.0,0.005,-0.19033024223265138,0.0003549591405365812,-0.0,-0.0026850662447148945,-0.002330107104178313,0.03,0.0,0.005,-0.270637144289117,-0.004807129194522991,-0.0,0.0016951183023517361,-0.0031120108921712545,0.5,0,0,-0.09232158136031328,0.0319761023319764,-0.0,0.0,0.0319761023319764,0.002,8e-05,0.0,-1.3944255344864913,-0.00160604552677445,-0.00011155404275891931,0.0,-0.0017175995695333692,-0.16023763981743303,0.0,0.16023763981743303,0.011831971351219373,0.0,-0.011831971351219373,-0.803022763387225,0.0,0.803022763387225,0.0639522046639528,0,-0.0639522046639528,-0.002326632099882258,0.0031146097639563526,-0.0319761023319764,0.4,0.033472299575805664,1.9642415046691895,STABILIZE
0.03,0.0,0.005,-0.18903028234826758,0.0011644181802394386,-0.0,0.004028110718867581,0.005192528899107019,0.03,0.0,0.005,-0.2724872948318509,-0.0016572426226524773,-0.0,0.015674779378616017,0.014017536755963539,0.5,0,0,-0.0942684568179434,-0.029064706851845923,-0.0,-0.0,-0.029064706851845923,0.002,8e-05,0.0,-1.422154552027056,-0.0016558547963561139,-0.00011377236416216449,-0.0,-0.0017696271605182783,-0.05524142075508258,0.0,0.05524142075508258,0.03881393934131462,0.0,-0.03881393934131462,-0.8279273981780569,0.0,0.8279273981780569,-0.058129413703691846,0,0.058129413703691846,0.00520674771147312,-0.014012261464229098,0.029064706851845923,0.4,0.033492088317871094,1.9977433681488037,STABILIZE
0.03,0.0,0.005,-0.18814438020644164,0.0007945846953601384,-0.0,-0.0018428422849848987,-0.0010482575896247604,0.03,0.0,0.005,-0.2751581251292175,-0.0023955251691993662,-0.0,-0.0036787861312421928,-0.006074311300441559,0.5,0,0,-0.09418058326904966,0.001313594616933575,-0.0,0.0,0.001313594616933575,0.002,8e-05,0.0,-1.449898928645146,-0.001658968562645393,-0.0001159919142916117,-0.0,-0.0017749604769370048,-0.07985083897331222,0.0,0.07985083897331222,0.026486156512004613,0.0,-0.026486156512004613,-0.8294842813226965,0.0,0.8294842813226965,0.00262718923386715,0,-0.00262718923386715,-0.001047979062505996,0.0060743593599182945,-0.001313594616933575,0.4,0.0334477424621582,2.0311691761016846,STABILIZE
0.03,0.0,0.005,-0.18763439421576114,0.000447169704328464,-0.0,-0.0016923499605636459,-0.0012451802562351818,0.03,0.0,0.005,-0.2790914656095505,-0.0034488608153073193,-0.0,-0.005131075472182353,-0.008579936287489673,0.5,0,0,-0.09206992539099712,0.03084471196316242,-0.0,0.0,0.03084471196316242,0.002,8e-05,0.0,-1.478133004928385,-0.001650427498569307,-0.0001182506403942708,0.0,-0.001768678138963578,-0.11496202717691065,0.0,0.11496202717691065,0.014905656810948801,0.0,-0.014905656810948801,-0.8252137492846535,0.0,0.8252137492846535,0.06168942392632484,0,-0.06168942392632484,-0.001235941659927387,0.008581271979208905,-0.03084471196316242,0.4,0.03421425819396973,2.065425157546997,STABILIZE
0.03,0.0,0.005,-0.1868190075549576,0.0007309939438901707,-0.0,0.0014136020111842084,0.002144595955074379,0.03,0.0,0.005,-0.2833007779138957,-0.0037736474611767485,-0.0,-0.0016176174963624993,-0.005391264957539247,0.5,0,0,-0.08912388032456132,0.04401881147343863,-0.0,0.0,0.04401881147343863,0.002,8e-05,0.0,-1.504549402074546,-0.0015788195761596464,-0.0001203639521659637,0.0,-0.0016991835283256102,-0.12578824870589161,0.0,0.12578824870589161,0.024366464796339023,0.0,-0.024366464796339023,-0.7894097880798232,0.0,0.7894097880798232,0.08803762294687725,0,-0.08803762294687725,0.0021528773488334444,0.00538796332335252,-0.04401881147343863,0.4,0.033463478088378906,2.09885835647583,STABILIZE
0.03,0.0,0.005,-0.18609851621333406,0.0006465467942098668,-0.0,-0.000421001542448411,0.00022554525176145582,0.03,0.0,0.005,-0.288247698382665,-0.004439214443697277,-0.0,-0.0033181075655562527,-0.00775732200925353,0.5,0,0,-0.0849350088197294,0.06264940988518947,-0.0,0.0,0.06264940988518947,0.002,8e-05,0.0,-1.530615707760073,-0.001559406792212655,-0.00012244925662080586,0.0,-0.001681856048833461,-0.14797381478990926,0.0,0.14797381478990926,0.021551559806995562,0.0,-0.021551559806995562,-0.7797033961063274,0.0,0.7797033961063274,0.12529881977037893,0,-0.12529881977037893,0.00024250900763829824,0.0077568102205130465,-0.06264940988518947,0.4,0.033431053161621094,2.1322808265686035,STABILIZE
0.03,0.0,0.005,-0.1846931413342941,0.0012591108632478306,-0.0,0.0030489534827409445,0.004308064345988775,0.03,0.0,0.005,-0.2934034290275408,-0.0046191493527886415,-0.0,-0.0008956012855967696,-0.005514750638385411,0.5,0,0,-0.08153501816225718,0.05076895894008508,-0.0,-0.0,0.05076895894008508,0.002,8e-05,0.0,-1.5567152760976524,-0.0015588841814872898,-0.0001245372220878122,0.0,-0.001683421403575102,-0.15397164509295472,0.0,0.15397164509295472,0.04197036210826102,0.0,-0.04197036210826102,-0.7794420907436449,0.0,0.7794420907436449,0.10153791788017016,0,-0.10153791788017016,0.004317830657000901,0.005507107355973293,-0.05076895894008508,0.4,0.03348493576049805,2.1657845973968506,STABILIZE
0.03,0.0,0.005,-0.18377848320347379,0.000821049600156692,-0.0,-0.0021846050865325663,-0.0013635554863758743,0.03,0.0,0.005,-0.29757169248739,-0.0037416723601282815,-0.0,0.00437596487750231,0.0006342925173740284,0.5,0,0,-0.07729673951985531,0.06340870006399396,-0.0,0.0,0.06340870006399396,0.002,8e-05,0.0,-1.58282369063583,-0.0015624273591030669,-0.00012662589525086642,-0.0,-0.0016890532543539334,-0.12472241200427606,0.0,0.12472241200427606,0.02736832000522307,0.0,-0.02736832000522307,-0.7812136795515334,0.0,0.7812136795515334,0.12681740012798792,0,-0.12681740012798792,-0.0013649560762846377,-0.0006312728980687162,-0.06340870006399396,0.4,0.03342032432556152,2.199190378189087,STABILIZE
0.03,0.0,0.005,-0.18336747366565762,0.0003686669502998579,-0.0,-0.0022543209199453467,-0.0018856539696454886,0.03,0.0,0.005,-0.30075618168149915,-0.0028564201349025207,-0.0,0.004411403955006155,0.0015549838201036345,0.5,0,0,-0.07227213449463099,0.07511609182896647,-0.0,0.0,0.07511609182896647,0.002,8e-05,0.0,-1.608907144676541,-0.0015597541451339905,-0.0001287125715741233,0.0,-0.0016884667167081139,-0.09521400449675069,0.0,0.09521400449675069,0.012288898343328598,0.0,-0.012288898343328598,-0.7798770725669952,0.0,0.7798770725669952,0.15023218365793295,0,-0.15023218365793295,-0.0018897247224125735,-0.0015500342085020592,-0.07511609182896647,0.4,0.03344559669494629,2.2326340675354004,STABILIZE
0.03,0.0,0.005,-0.1827400927417996,0.0005628759531536267,-0.0,0.0009680064237006725,0.0015308823768542992,0.03,0.0,0.005,-0.3035402932300768,-0.0024978595650547385,-0.0,0.0017871928170074076,-0.0007106667480473309,0.5,0,0,-0.06752320711001981,0.07101100587164322,-0.0,-0.0,0.07101100587164322,0.002,8e-05,0.0,-1.6347743595439521,-0.0015471762762977476,-0.0001307819487635162,0.0,-0.001677958225061264,-0.08326198550182462,0.0,0.08326198550182462,0.018762531771787556,0.0,-0.018762531771787556,-0.7735881381488738,0.0,0.7735881381488738,0.14202201174328644,0,-0.14202201174328644,0.0015326392384420243,0.0007068698913739992,-0.07101100587164322,0.4,0.03343796730041504,2.266101837158203,STABILIZE
0.03,0.0,0.005,-0.18209540808317037,0.0005778567133217054,-0.0,7.4599200623082e-05,0.0006524559139447874,0.03,0.0,0.005,-0.30666577663731737,-0.002801496119187667,-0.0,-0.0015120090011539516,-0.004313505120341618,0.5,0,0,-0.06218776791738418,0.07970613525843386,-0.0,0.0,0.07970613525843386,0.002,8e-05,0.0,-1.660542631707399,-0.0015398090483503316,-0.00013284341053659192,0.0,-0.0016726524588869234,-0.09338320397292223,0.0,0.09338320397292223,0.019261890444056847,0.0,-0.019261890444056847,-0.7699045241751657,0.0,0.7699045241751657,0.1594122705168677,0,-0.1594122705168677,0.0006644547046537776,0.00431167311937238,-0.07970613525843386,0.4,0.033469438552856445,2.2996110916137695,STABILIZE
0.03,0.0,0.005,-0.1813589488309838,0.0006606638834954963,-0.0,0.0004126931701762282,0.0010733570536717244,0.03,0.0,0.005,-0.30891062213839304,-0.002013809103741591,-0.0,0.003925663089667816,0.001911853985926225,0.5,0,0,-0.057407158468747804,0.07147659549015564,-0.0,-0.0,0.07147659549015564,0.002,8e-05,0.0,-1.686088378404255,-0.0015277742495078649,-0.00013488707027234042,0.0,-0.0016626613197802053,-0.0671269701247197,0.0,0.0671269701247197,0.022022129449849877,0.0,-0.022022129449849877,-0.7638871247539324,0.0,0.7638871247539324,0.14295319098031128,0,-0.14295319098031128,0.0010685836347024496,-0.0019145260624538233,-0.07147659549015564,0.4,0.033441781997680664,2.332998752593994,STABILIZE
0.03,0.0,0.005,-0.1803652376492984,0.0008924387153169916,-0.0,0.0011564104169738403,0.002048849132290832,0.03,0.0,0.005,-0.31137508046515705,-0.0022132970460886337,-0.0,-0.0009953191758476448,-0.0032086162219362785,0.5,0,0,-0.05282973992524631,0.06851530571659895,-0.0,-0.0,0.06851530571659895,0.002,8e-05,0.0,-1.7116740046309344,-0.0015318739033469344,-0.00013693392037047476,-0.0,-0.0016688078237174092,-0.07377656820295446,0.0,0.07377656820295446,0.029747957177233053,0.0,-0.029747957177233053,-0.7659369516734672,0.0,0.7659369516734672,0.1370306114331979,0,-0.1370306114331979,0.002056517105318446,0.0032037069500961183,-0.06851530571659895,0.4,0.03340435028076172,2.366424798965454,STABILIZE
0.03,0.0,0.005,-0.17910388401426502,0.0011249283636927973,-0.0,0.0011519115146482425,0.0022768398783410398,0.03,0.0,0.005,-0.3140915129574644,-0.0024226290500778936,-0.0,-0.0010371728266793396,-0.003459801876757233,0.5,0,0,-0.04843085092205809,0.06538524527648637,-0.0,-0.0,0.06538524527648637,0.002,8e-05,0.0,-1.7375113543501657,-0.001536189203648341,-0.00013900090834801328,-0.0,-0.0016751901119963543,-0.08075430166926312,0.0,0.08075430166926312,0.037497612123093244,0.0,-0.037497612123093244,-0.7680946018241704,0.0,0.7680946018241704,0.13077049055297274,0,-0.13077049055297274,0.002284730508656246,0.003454596265966876,-0.06538524527648637,0.4,0.03363823890686035,2.4000415802001953,STABILIZE
0.03,0.0,0.005,-0.17825854237506625,0.0007392252144645885,-0.0,-0.0018738084369069315,-0.001134583222442343,0.03,0.0,0.005,-0.3173089088165355,-0.002813513535419372,-0.0,-0.0018989802078476748,-0.004712493743267047,0.5,0,0,-0.043564043228455786,0.07093122264096301,-0.0,0.0,0.07093122264096301,0.002,8e-05,0.0,-1.763923941631016,-0.001539799578606441,-0.00014111391533048128,-0.0,-0.0016809134939369224,-0.09378378451397908,0.0,0.09378378451397908,0.02464084048215295,0.0,-0.02464084048215295,-0.7698997893032206,0.0,0.7698997893032206,0.14186244528192601,0,-0.14186244528192601,-0.0011229117787928096,0.004715288485981221,-0.07093122264096301,0.4,0.03430652618408203,2.4343481063842773,STABILIZE
0.03,0.0,0.005,-0.1769776209276038,0.0011355626375502087,-0.0,0.0019520061142553797,0.0030875687518055884,0.03,0.0,0.005,-0.3191041089632631,-0.001591481052633577,-0.0,0.006018646585642345,0.0044271655330087685,0.5,0,0,-0.03925389104117671,0.06368394403010295,-0.0,-0.0,0.06368394403010295,0.002,8e-05,0.0,-1.7898065022472343,-0.0015296940525708282,-0.00014318452017977876,0.0,-0.001672878572750607,-0.053049368421119236,0.0,0.053049368421119236,0.03785208791834029,0.0,-0.03785208791834029,-0.7648470262854141,0.0,0.7648470262854141,0.1273678880602059,0,-0.1273678880602059,0.00307771959070947,-0.004434018219938915,-0.06368394403010295,0.4,0.033840179443359375,2.4682140350341797,STABILIZE
0.03,0.0,0.005,-0.1760974402635278,0.0007892616972271199,-0.0,-0.0017251639291935008,-0.000935902231966381,0.03,0.0,0.005,-0.32171119461932024,-0.002337784654558723,-0.0,-0.0037178531859233493,-0.006055637840482072,0.5,0,0,-0.03473495255609703,0.06753585189890413,-0.0,0.0,0.06753585189890413,0.002,8e-05,0.0,-1.815470082817976,-0.0015341760303609377,-0.00014523760662543808,-0.0,-0.0016794136369863758,-0.07792615515195744,0.0,0.07792615515195744,0.026308723240903997,0.0,-0.026308723240903997,-0.7670880151804688,0.0,0.7670880151804688,0.13507170379780825,0,-0.13507170379780825,-0.0009216238055808672,0.006057827350120228,-0.06753585189890413,0.4,0.033455848693847656,2.5016579627990723,STABILIZE
0.03,0.0,0.005,-0.1751514005516745,0.0008423687819945215,-0.0,0.00026270773103616237,0.0011050765130306839,0.03,0.0,0.005,-0.32397923723571703,-0.002019501160837191,-0.0,0.001574470427591075,-0.0004450307332461161,0.5,0,0,-0.030411307804841553,0.06416403239135918,-0.0,-0.0,0.06416403239135918,0.002,8e-05,0.0,-1.8409104599343054,-0.0015101677175180118,-0.00014727283679474444,0.0,-0.0016574405543127563,-0.06731670536123971,0.0,0.06731670536123971,0.028078959399817385,0.0,-0.028078959399817385,-0.7550838587590059,0.0,0.7550838587590059,0.12832806478271835,0,-0.12832806478271835,0.0011060704967704924,0.0004425545269901855,-0.06416403239135918,0.4,0.033692121505737305,2.5355217456817627,STABILIZE
0.03,0.0,0.005,-0.1740882751932904,0.0009534584560102969,-0.0,0.0005535010953550947,0.0015069595513653917,0.03,0.0,0.005,-0.3256489585761205,-0.0014974809119484302,-0.0,0.002600950827494888,0.0011034699155464578,0.5,0,0,-0.026319264423658152,0.0611654642195801,-0.0,-0.0,0.0611654642195801,0.002,8e-05,0.0,-1.8663118076054623,-0.0015187377819635437,-0.000149304944608437,-0.0,-0.0016680427265719808,-0.049916030398281006,0.0,0.049916030398281006,0.031781948533676566,0.0,-0.031781948533676566,-0.7593688909817718,0.0,0.7593688909817718,0.1223309284391602,0,-0.1223309284391602,0.0015046001246124055,-0.0011066848733871006,-0.0611654642195801,0.4,0.03345060348510742,2.5688188076019287,STABILIZE
0.03,0.0,0.005,-0.17320569099615862,0.0007914677179987713,-0.0,-0.0008070393999271801,-1.5571681928408737e-05,0.03,0.0,0.005,-0.3276237331065942,-0.0017709021941198066,-0.0,-0.0013621874324395503,-0.003133089626559357,0.5,0,0,-0.02222345050416587,0.061216151893176626,-0.0,0.0,0.061216151893176626,0.002,8e-05,0.0,-1.8918383343990668,-0.0015260807958738898,-0.00015134706675192536,-0.0,-0.0016774278626258152,-0.05903007313732689,0.0,0.05903007313732689,0.026382257266625714,0.0,-0.026382257266625714,-0.7630403979369449,0.0,0.7630403979369449,0.12243230378635325,0,-0.12243230378635325,-8.876718892524399e-06,0.003133115747812971,-0.061216151893176626,0.4,0.03345370292663574,2.60225248336792,STABILIZE
0.03,0.0,0.005,-0.17250628813794416,0.0006259886914387709,-0.0,-0.0008228289007164252,-0.00019684020927765433,0.03,0.0,0.005,-0.329918097044882,-0.002053531612781435,-0.0,-0.0014053482105972413,-0.003458879823378676,0.5,0,0,-0.018117710907411315,0.06124621233133463,-0.0,0.0,0.06124621233133463,0.002,8e-05,0.0,-1.9175385643526095,-0.001533503724340459,-0.00015340308514820878,-0.0,-0.0016869068094886677,-0.06845105375938117,0.0,0.06845105375938117,0.0208662897146257,0.0,-0.0208662897146257,-0.7667518621702295,0.0,0.7667518621702295,0.12249242466266926,0,-0.12249242466266926,-0.00018944503932108222,0.0034592927424028754,-0.06124621233133463,0.4,0.033518314361572266,2.6357686519622803,STABILIZE
0.03,0.0,0.005,-0.17185948464932432,0.000579991404078876,-0.0,-0.00022914422617508596,0.00035084717790379006,0.03,0.0,0.005,-0.33211659850672953,-0.001971405492025506,-0.0,0.00040912687398576906,-0.001562278618039737,0.5,0,0,-0.014325635766677475,0.05667282835110356,-0.0,-0.0,0.05667282835110356,0.002,8e-05,0.0,-1.9430683724371485,-0.001526179073689664,-0.0001554454697949719,0.0,-0.001681624543484636,-0.06571351640085021,0.0,0.06571351640085021,0.019333046802629202,0.0,-0.019333046802629202,-0.763089536844832,0.0,0.763089536844832,0.11334565670220711,0,-0.11334565670220711,0.00035393707470416947,0.0015615814963609999,-0.05667282835110356,0.4,0.033455848693847656,2.669248580932617,STABILIZE
0.03,0.0,0.005,-0.17118122519406484,0.0006080897647078424,-0.0,0.00013995238818886738,0.0007480421528967098,0.03,0.0,0.005,-0.33401709375809235,-0.0017038785103076044,-0.0,0.0013324990909890381,-0.0003713794193185662,0.5,0,0,-0.01061585507368868,0.055433056166148936,-0.0,-0.0,0.055433056166148936,0.002,8e-05,0.0,-1.968485289350699,-0.0015191597557256947,-0.00015747882314805594,0.0,-0.0016766385788737506,-0.05679595034358682,0.0,0.05679595034358682,0.020269658823594747,0.0,-0.020269658823594747,-0.7595798778628473,0.0,0.7595798778628473,0.11086611233229787,0,-0.11086611233229787,0.000748759363322444,0.0003699312793488926,-0.055433056166148936,0.4,0.033461809158325195,2.7027029991149902,STABILIZE
0.03,0.0,0.005,-0.17031177169304135,0.000771271644199078,-0.0,0.0008041932620800432,0.0015754649062791211,0.03,0.0,0.005,-0.3363076322274275,-0.002031882520762442,-0.0,-0.0016164700147186357,-0.0036483525354810776,0.5,0,0,-0.007178894696630089,0.050814104835979465,-0.0,-0.0,0.050814104835979465,0.002,8e-05,0.0,-1.9942196874558493,-0.001521891741242666,-0.00015953757499646796,-0.0,-0.001681429316239134,-0.06772941735874806,0.0,0.06772941735874806,0.025709054806635934,0.0,-0.025709054806635934,-0.760945870621333,0.0,0.760945870621333,0.10162820967195893,0,-0.10162820967195893,0.0015819336784366048,0.0036455523218157657,-0.050814104835979465,0.4,0.033818960189819336,2.7365164756774902,STABILIZE
0.03,0.0,0.005,-0.16974179960488692,0.0005107942358787914,-0.0,-0.0012968506266632142,-0.0007860563907844228,0.03,0.0,0.005,-0.33842236564551115,-0.0018951693650036024,-0.0,0.000680659957661089,-0.0012145094073425134,0.5,0,0,-0.003571302212225696,0.0538838504764979,-0.0,0.0,0.0538838504764979,0.002,8e-05,0.0,-2.0197600601510115,-0.0015259080723441004,-0.00016158080481208095,-0.0,-0.0016874888771561815,-0.06317231216678675,0.0,0.06317231216678675,0.017026474529293047,0.0,-0.017026474529293047,-0.7629540361720502,0.0,0.7629540361720502,0.1077677009529958,0,-0.1077677009529958,-0.0007837706294682707,0.0012159857525478688,-0.0538838504764979,0.4,0.033475637435913086,2.770001173019409,STABILIZE
0.03,0.0,0.005,-0.16946662016105118,0.000246796773057312,-0.0,-0.0013153784916868406,-0.0010685817186295286,0.03,0.0,0.005,-0.3403824284241777,-0.0017578971816419899,-0.0,0.0006839644425782191,-0.0010739327390637708,0.5,0,0,0.00024332611445738572,0.05701963951931631,0.0,0.0,0.05701963951931631,0.002,8e-05,0.0,-2.045347246934947,-0.0015298708464234888,-0.0001636277797547958,-0.0,-0.0016934986261782847,-0.05859657272139966,0.0,0.05859657272139966,0.0082265591019104,0.0,-0.0082265591019104,-0.7649354232117443,0.0,0.7649354232117443,0.11403927903863262,0,-0.11403927903863262,-0.0010664420897002166,0.0010760574737150824,-0.05701963951931631,0.4,0.03345012664794922,2.8034770488739014,STABILIZE
0.03,0.0,0.005,-0.16924058225186986,0.00019074610152858157,-0.0,-0.0002627741888489931,-7.202808732041153e-05,0.03,0.0,0.005,-0.3418500127726392,-0.001238447100078352,-0.0,0.0024352620603387796,0.0011968149602604276,0.5,0,0,0.004147831354522704,0.05491476744157643,0.0,-0.0,0.05491476744157643,0.002,8e-05,0.0,-2.0722956718785186,-0.0015160604457718583,-0.0001657836537502815,0.0,-0.0016818440995221397,-0.041281570002611734,0.0,0.041281570002611734,0.006358203384286052,0.0,-0.006358203384286052,-0.7580302228859291,0.0,0.7580302228859291,0.10982953488315286,0,-0.10982953488315286,-7.432211262178131e-05,-0.0011966746918196445,-0.05491476744157643,0.4,0.035550594329833984,2.839003324508667,STABILIZE
0.03,0.0,0.005,-0.16892138981895333,0.00028332782821691805,-0.0,0.0004565511245485778,0.0007398789527654959,0.03,0.0,0.005,-0.3433471469026139,-0.0013289154687012676,-0.0,-0.00044612945673296555,-0.001775044925434233,0.5,0,0,0.0074907767710145,0.049455509541585965,0.0,-0.0,0.049455509541585965,0.002,8e-05,0.0,-2.09780208703835,-0.0015093668620320964,-0.000167824166963068,0.0,-0.0016771910289951643,-0.04429718229004226,0.0,0.04429718229004226,0.009444260940563935,0.0,-0.009444260940563935,-0.7546834310160482,0.0,0.7546834310160482,0.09891101908317193,0,-0.09891101908317193,0.0007429421495446439,0.0017737650110669035,-0.049455509541585965,0.4,0.033797502517700195,2.8728113174438477,STABILIZE
