Mode,Time,Freq,time2delay,actualDelay,North-Desired,East-Desired,Down-Desired,Roll-UAV,Pitch-UAV,Yaw-UAV,Roll-Control,Pitch-Control,Yaw-Control,Thrust-Control,North-Pos,East-Pos,Down-Pos,Yaw-Ang,North-Vel,East-Vel,Down-Vel,Yaw-Vel,North-Acc,East-Acc,Down-Acc,North-Avg,East-Avg,Down-Avg,Yaw-Avg,North-Dif,East-Dif,Down-Dif,Yaw-Dif,North-One,East-One,Down-One,Yaw-One,North-Two,East-Two,Down-Two,Yaw-Two,Landing-State,Q-Size,Kalman-Time,Kalman-Dt
STABILIZE,0.03443789482116699,29.044415206703135,0.03272393544514974,0.03285694122314453,0.0,0.0,0.0,0.2565735482114431,-1.1262455803341525,89.60969817454696,-0.06021504823870848,-0.07323681696627253,-0.00484489395507001,0.4,-0.023253003935588438,0.01910211899829302,0.7030212427101602,-0.024144797717870464,0.13490119017660618,0.14878286747261882,1.270204782485962,-0.18838319403407044,-1.7026692628860474,2.247804030776024,20.89458554983139,0.0,0.0,0.0,0.0,0.0,0.0,0.0,0.0,0.0,0.0,0.0,0.0,0.0,0.0,0.0,0.0,False,0,3.510530948638916,0.06485205078125
STABILIZE,0.06786918640136719,29.915509432616524,0.03223899205525716,0.03238534927368164,0.0,0.0,0.0,0.2574558165531384,-1.1264639329441812,89.61504621266708,-0.031308342597479395,-0.05277396071424587,-0.004617868385567453,0.4,-0.03238600680054629,0.01913008598428618,0.7171857216443517,-0.022932996433647154,-0.4008512943983078,0.0064434323576278985,1.3156892731785774,0.0426081074247147,-9.526532143354416,-1.7516370862722397,19.668032228946686,0.0,0.0,0.0,0.0,0.0,0.0,0.0,0.0,0.0,0.0,0.0,0.0,0.0,0.0,0.0,0.0,False,0,3.539210319519043,0.034919921875
STABILIZE,0.10132169723510742,29.891418064681652,0.03229239781697591,0.03243255615234375,0.0,0.0,0.0,0.2581018563990864,-1.1263164435467912,89.62308534532018,-0.017736470981721122,-0.03567198303238081,-0.004478042911794202,0.4,-0.031656399882077225,0.015631701614565122,0.709988300151528,-0.022159712318376264,-0.023056298960000277,-0.11662740726023912,1.2771615758538246,-0.01590154083154255,4.090386256575584,2.115468867123127,12.999796867370605,0.0,0.0,0.0,0.0,0.0,0.0,0.0,0.0,0.0,0.0,0.0,0.0,0.0,0.0,0.0,0.0,False,0,3.5681090354919434,0.034920166015625
STABILIZE,0.13514971733093262,29.56150094443348,0.03230241139729818,0.032891035079956055,0.0,0.0,0.0,0.25787080390606953,-1.1258169859637341,89.62608379836581,-0.010902004168917049,-0.02710963690473891,-0.0043468264567151265,0.4,-0.030954346232035385,0.012282919217887787,0.7035247674297166,-0.02143101105743461,-0.023056298960000277,-0.11662740726023912,1.2771615758538246,-0.01590154083154255,4.090386256575584,2.115468867123127,12.999796867370605,0.0,0.0,0.0,0.0,0.0,0.0,0.0,0.0,0.0,0.0,0.0,0.0,0.0,0.0,0.0,0.0,False,1,3.5967342853546143,0.034920166015625
STABILIZE,0.1692211627960205,29.350501035660304,0.03237894376118978,0.03319907188415527,0.0,0.0,0.0,0.25796434548118696,-1.1256185903126863,89.63602855379736,-0.012104076078012392,-0.019925781908039404,-0.004554256923111678,0.4,-0.027398810680726273,0.016651035043733015,0.6914209076660277,-0.022391743356569974,-0.2678903518244624,-0.0073947536293417215,1.2483395636081696,-0.1294855256659117,-6.78500160574913,-1.744711771607399,18.399588763713837,0.0,0.0,0.0,0.0,0.0,0.0,0.0,0.0,0.0,0.0,0.0,0.0,0.0,0.0,0.0,0.0,False,0,3.654080390930176,0.034919921875
STABILIZE,0.20272111892700195,29.84972315925815,0.03245261510213216,0.032566070556640625,0.0,0.0,0.0,0.25933534587450835,-1.1267417295443303,89.63787270487326,9.9723202869052e-05,-0.009001455746931616,-0.004905003039988824,0.4,-0.031801348875313495,0.015781750972767117,0.686512425700287,-0.024064970000237447,-0.2678903518244624,-0.0073947536293417215,1.2483395636081696,-0.1294855256659117,-6.78500160574913,-1.744711771607399,18.399588763713837,0.0,0.0,0.0,0.0,0.0,0.0,0.0,0.0,0.0,0.0,0.0,0.0,0.0,0.0,0.0,0.0,False,0,3.682729959487915,0.034919921875
STABILIZE,0.23620152473449707,29.869492454832255,0.0323825200398763,0.0325169563293457,0.0,0.0,0.0,0.2595433464790764,-1.126823905257782,89.64016081824522,0.0007696971090227201,0.004163882546189241,-0.004996814244480776,0.4,-0.02106861070024156,0.014876787990710799,0.6814917020397362,-0.024442266332259516,0.4842833150178194,-0.01068424026016146,1.2197643518447876,-0.06634801737046751,10.567693412303925,0.29103029519319534,20.91923952102661,0.0,0.0,0.0,0.0,0.0,0.0,0.0,0.0,0.0,0.0,0.0,0.0,0.0,0.0,0.0,0.0,False,0,3.7113800048828125,0.06983984375
STABILIZE,0.26961708068847656,29.924687147729056,0.03232887585957845,0.032453060150146484,0.0,0.0,0.0,0.26043591346537953,-1.127153034998412,89.65227757383282,-0.0009171713794025217,0.011554078684446563,-0.0052952894207273825,0.4,-0.01016955142376411,0.014316433661476006,0.6986190763766608,-0.025848211049906443,0.4842833150178194,-0.01068424026016146,1.2197643518447876,-0.06634801737046751,10.567693412303925,0.29103029519319534,20.91923952102661,0.0,0.0,0.0,0.0,0.0,0.0,0.0,0.0,0.0,0.0,0.0,0.0,0.0,0.0,0.0,0.0,False,0,3.7400567531585693,0.06983984375
STABILIZE,0.30307793617248535,29.88609335698966,0.03237918217976888,0.032511234283447266,0.0,0.0,0.0,0.2613013197775613,-1.1259842188766935,89.65242783799455,-0.002363666517951199,0.01215152437429438,-0.004723054597269002,0.4,-0.00875925242937172,0.013575065257293377,0.7140587564686786,-0.022910401349943446,-0.012416581739671528,-0.010960063809761778,1.2709202244877815,0.11872835124911184,-8.589953184127808,-3.6963388323783875,18.203213810920715,0.0,0.0,0.0,0.0,0.0,0.0,0.0,0.0,0.0,0.0,0.0,0.0,0.0,0.0,0.0,0.0,False,0,3.7689175605773926,0.02993212890625
STABILIZE,0.3369412422180176,29.56087590829322,0.032367976506551106,0.032857656478881836,0.0,0.0,0.0,0.2622016240875336,-1.125601621561467,89.66583549933529,-0.0013407285334532339,0.004830302195521358,-0.005870023333659318,0.4,-0.016115823465711922,0.015728256286461916,0.7046309995720157,-0.02854873633278421,-0.20219134166836739,0.08453998016193509,1.4841205440461636,-0.1865851600752778,1.3262287713587284,4.288655519485474,23.86792004108429,0.0,0.0,0.0,0.0,0.0,0.0,0.0,0.0,0.0,0.0,0.0,0.0,0.0,0.0,0.0,0.0,False,0,3.8263466358184814,0.034919921875
STABILIZE,0.37035083770751953,29.901859997576086,0.03230098088582357,0.03247976303100586,0.0,0.0,0.0,0.2629636170668132,-1.125347730623413,89.66835583913902,0.00013341179152402436,0.011194547077188992,-0.005095928064495307,0.4,-0.010907532500693741,0.012948355780463125,0.6916840136834389,-0.024595861612816704,0.20751971751451492,-0.09677192429080606,0.963469035923481,0.129516995228904,1.970885694026947,-1.6996029764413834,16.73450917005539,0.0,0.0,0.0,0.0,0.0,0.0,0.0,0.0,0.0,0.0,0.0,0.0,0.0,0.0,0.0,0.0,False,0,3.854858160018921,0.06485205078125
STABILIZE,0.4038257598876953,29.87183249056335,0.03239610989888509,0.0325319766998291,0.0,0.0,0.0,0.26302839714222254,-1.1255106946681412,89.66884761275927,-0.0007583649388984762,0.002155718721406788,-0.005384798370399988,0.4,-0.014557231861052088,0.013429019364198906,0.7049776951457333,-0.02595339807829651,-0.2035927027463913,0.04428636166267097,1.2781833298504353,-0.08305880888663096,-2.020764723420143,2.246106043457985,22.335505485534668,0.0,0.0,0.0,0.0,0.0,0.0,0.0,0.0,0.0,0.0,0.0,0.0,0.0,0.0,0.0,0.0,False,0,3.884253740310669,0.034921142578125
STABILIZE,0.43730807304382324,29.866302087783758,0.0323825200398763,0.03250288963317871,0.0,0.0,0.0,0.26211710049655473,-1.1257357707456344,89.68258312318017,6.283699967739766e-06,-0.0006161821903930256,-0.00489487580269801,0.4,-0.00933763421571103,0.011893733430967893,0.6882777852940722,-0.023425464185349368,0.20371577702462673,-0.03756524820346385,0.8540281094610691,0.0578433512965306,10.519522428512573,-3.8159385323524475,8.391831070184708,0.0,0.0,0.0,0.0,0.0,0.0,0.0,0.0,0.0,0.0,0.0,0.0,0.0,0.0,0.0,0.0,False,0,3.9122085571289062,0.034919921875
STABILIZE,0.4706912040710449,29.954821062554903,0.03233292897542318,0.03246617317199707,0.0,0.0,0.0,0.26301158847356193,-1.1251447459390167,89.68318417982712,0.0006103356526346838,0.0021231782990928172,-0.004427791890289652,0.4,-0.004346627498284726,0.010434499128556738,0.6728147227876163,-0.021019740841228075,0.20371577702462673,-0.03756524820346385,0.8540281094610691,0.0578433512965306,10.519522428512573,-3.8159385323524475,8.391831070184708,0.0,0.0,0.0,0.0,0.0,0.0,0.0,0.0,0.0,0.0,0.0,0.0,0.0,0.0,0.0,0.0,False,0,3.941030740737915,0.034919921875
STABILIZE,0.5042262077331543,29.82022423979581,0.03240850766499837,0.032584190368652344,0.0,0.0,0.0,0.26158712050564403,-1.1250511510030463,89.69205659555897,0.00017999617099810375,0.012464969077777796,-0.004973532042030833,0.4,0.004003350663179638,0.01281437866443707,0.6722027049573646,-0.023669176485447786,0.3744538174942136,0.1430386444553733,1.5124483034014702,-0.17903986877546324,4.806374758481979,4.1860707104206085,18.620195984840393,0.0,0.0,0.0,0.0,0.0,0.0,0.0,0.0,0.0,0.0,0.0,0.0,0.0,0.0,0.0,0.0,False,0,3.969682455062866,0.029930908203125
STABILIZE,0.5376830101013184,29.889287953936492,0.03236559232076009,0.03248786926269531,0.0,0.0,0.0,0.2624047688544886,-1.1263324518026585,89.69615470906098,0.0013994552938670515,0.008457120295084112,-0.004129909239711951,0.4,0.002751367561962196,0.00879771606747186,0.6570588273953,-0.019386186776994198,-0.044358905870467424,-0.06999385659582913,1.1940790340304375,0.05249479624314824,-7.26722776889801,-3.7392981350421906,18.81859600543976,0.0,0.0,0.0,0.0,0.0,0.0,0.0,0.0,0.0,0.0,0.0,0.0,0.0,0.0,0.0,0.0,False,0,4.026972770690918,0.034919921875
STABILIZE,0.5710759162902832,29.946480079965728,0.03235009511311849,0.03247714042663574,0.0,0.0,0.0,0.26354877217961287,-1.125232471181169,89.69773248275925,-0.0006803576351609464,0.013636750894677283,-0.003967822193255303,0.4,0.006921617632400184,0.012092778652509902,0.6553077791390556,-0.018513872286216867,0.1966147916391492,0.19480898045003414,1.359062734991312,-0.0037796842799089044,2.081833593547344,-1.8735740333795547,12.577536702156067,0.0,0.0,0.0,0.0,0.0,0.0,0.0,0.0,0.0,0.0,0.0,0.0,0.0,0.0,0.0,0.0,False,0,4.0557475090026855,0.069841064453125
STABILIZE,0.6045632362365723,29.862474546826718,0.03240159352620443,0.03254055976867676,0.0,0.0,0.0,0.263287944330683,-1.12465969578624,89.70818950237854,-0.0006722958432154885,0.00637504484939508,-0.0026019647515838503,0.4,0.0011548006980894084,0.010795757483950771,0.6719954280962127,-0.0116456239322905,-0.35376292653381824,-0.05216142744757235,1.2063754722476006,0.2954461024491162,-14.743104577064514,0.11820639483630657,18.72212141752243,0.0,0.0,0.0,0.0,0.0,0.0,0.0,0.0,0.0,0.0,0.0,0.0,0.0,0.0,0.0,0.0,False,0,4.084290027618408,0.02993115234375
STABILIZE,0.6381509304046631,29.77196357209276,0.032377036412556966,0.032666921615600586,0.0,0.0,0.0,0.26399358824930996,-1.1247938449704074,89.71342142728277,-0.0033684771158340454,-0.0015347761715084072,-0.0032084346322614962,0.4,-0.0057331698678170714,0.01334117371211155,0.6639583806015747,-0.01462880576514692,-0.3410009667277336,0.15412108041346073,1.2823096476495266,-0.1862690637229664,3.7934284657239914,2.2025378420948982,19.491583108901978,0.0,0.0,0.0,0.0,0.0,0.0,0.0,0.0,0.0,0.0,0.0,0.0,0.0,0.0,0.0,0.0,False,0,4.113056659698486,0.0349208984375
STABILIZE,0.6726703643798828,28.969388882749474,0.03237632115681966,0.03360486030578613,0.0,0.0,0.0,0.26321238536298974,-1.1235964274315395,89.72090048442394,-0.0031516504978318055,-0.0019459999482748314,-0.004056943337355367,0.4,0.0008107595677502204,0.015060600234779599,0.6524179339323483,-0.01880640508710536,0.3182564629241824,0.11394750326871872,0.9023912250995636,-0.25147913422511275,7.7493466436862946,-1.8277496099472046,9.965166449546814,0.0,0.0,0.0,0.0,0.0,0.0,0.0,0.0,0.0,0.0,0.0,0.0,0.0,0.0,0.0,0.0,False,0,4.141710042953491,0.02993115234375
STABILIZE,0.7158613204956055,23.15261179405936,0.032427104314168294,0.042374372482299805,0.0,0.0,0.0,0.26248112823497527,-1.1228902499043836,89.72413799409053,-0.0069364582438467045,0.0035600905883437094,-0.005413730197562055,0.4,0.00897487420462855,0.017436362954388364,0.6368225607664253,-0.025480115803691368,0.10532881133258343,0.07797389989718795,1.4579130336642265,-0.1936992690033089,-10.541662573814392,0.2742747077718377,20.976747572422028,0.0,0.0,0.0,0.0,0.0,0.0,0.0,0.0,0.0,0.0,0.0,0.0,0.0,0.0,0.0,0.0,False,0,4.205843687057495,0.03990869140625
STABILIZE,0.7496030330657959,29.637954182506817,0.03252223332722982,0.03272247314453125,0.0,0.0,0.0,0.2626304852622164,-1.1220048866332206,89.73016905112765,-0.002978839662018814,-0.00443835325975846,-0.004876253205464736,0.4,0.0012940743786388313,0.014656279139172813,0.636964277557538,-0.022716531448916454,-0.4142795689404011,-0.1251513371244073,1.2160536833107471,0.1116804898199446,-1.676839031279087,-1.7489200457930565,14.73081111907959,0.0,0.0,0.0,0.0,0.0,0.0,0.0,0.0,0.0,0.0,0.0,0.0,0.0,0.0,0.0,0.0,False,0,4.23455810546875,0.029924072265625
STABILIZE,0.7829978466033936,29.94455589745054,0.032282145818074544,0.03243565559387207,0.0,0.0,0.0,0.26323255576538246,-1.1230027345822773,89.73342022117257,-0.0046671123252201305,0.0023119619870959926,-0.005575941549422273,0.4,0.005895364477277671,0.015929680660837844,0.6237703658001329,-0.026127507802090475,0.24795737117528915,0.10168390581384301,0.8167840540409088,-0.23478930018392213,10.704690217971802,0.259178364649415,14.677515625953674,0.0,0.0,0.0,0.0,0.0,0.0,0.0,0.0,0.0,0.0,0.0,0.0,0.0,0.0,0.0,0.0,False,0,4.263286352157593,0.02993212890625
STABILIZE,0.8173573017120361,29.10386843839989,0.0323670228322347,0.03345298767089844,0.0,0.0,0.0,0.26376050804388324,-1.1235916249547793,89.74275025957881,-0.0025858010542174088,0.009277397482456894,-0.005176077395223135,0.4,0.009980085558713677,0.015123271482712591,0.6143530313770835,-0.02404551749370248,0.22965229582041502,-0.010461483907420188,0.9690407663583755,0.060703553042432946,3.2731227576732635,-1.779104396700859,12.686741352081299,0.0,0.0,0.0,0.0,0.0,0.0,0.0,0.0,0.0,0.0,0.0,0.0,0.0,0.0,0.0,0.0,False,0,4.291954755783081,0.034919921875
STABILIZE,0.8507928848266602,29.907616833758787,0.03241399129231771,0.03252220153808594,0.0,0.0,0.0,0.2648157189097973,-1.1225503412714697,89.74522961824752,-0.0010998707164581376,0.008464845479963486,-0.004817181321545981,0.4,0.014124982637333243,0.014437143118127244,0.6085210584692635,-0.02217687107284678,0.22965229582041502,-0.010461483907420188,0.9690407663583755,0.060703553042432946,3.2731227576732635,-1.779104396700859,12.686741352081299,0.0,0.0,0.0,0.0,0.0,0.0,0.0,0.0,0.0,0.0,0.0,0.0,0.0,0.0,0.0,0.0,False,0,4.320659399032593,0.034919921875
STABILIZE,0.8842794895172119,29.863112402190087,0.032403024037679036,0.03253912925720215,0.0,0.0,0.0,0.2653187516699982,-1.1227588754845665,89.74907501475023,-0.0010036417782528703,0.00113404995845034,-0.004686741165742675,0.4,0.009168680386921969,0.015826472836944317,0.607301484815976,-0.021452892196049726,-0.2733114408329129,0.10481482604518533,1.207461953163147,-0.0025730669964973522,0.2779151778668165,2.1351100876927376,13.556571304798126,0.0,0.0,0.0,0.0,0.0,0.0,0.0,0.0,0.0,0.0,0.0,0.0,0.0,0.0,0.0,0.0,False,0,4.349470376968384,0.034919921875
STABILIZE,0.9181849956512451,29.492905058573697,0.0323670228322347,0.03302288055419922,0.0,0.0,0.0,0.26482431000711276,-1.1224768100161864,89.75398592076348,-0.0015636745592781766,0.008247698363162047,-0.004581798117667055,0.4,0.012740025112523095,0.014279359537330713,0.6060391028810368,-0.02085735560199471,0.20454120822250843,-0.05900709656998515,1.1891072615981102,-0.009387488034480895,9.377171099185944,-1.6504518687725067,17.9780051112175,0.0,0.0,0.0,0.0,0.0,0.0,0.0,0.0,0.0,0.0,0.0,0.0,0.0,0.0,0.0,0.0,False,1,4.37822413444519,0.02993212890625
STABILIZE,0.9516716003417969,29.863537654237483,0.03245499928792318,0.0325922966003418,0.0,0.0,0.0,0.26497729557235045,-1.1247782636013632,89.76066584577175,-0.0010722590027814774,0.0055728941899576695,-0.0038598598449983007,0.4,0.012841320877496103,0.014650063341686755,0.6029750627101595,-0.01719014740376369,-0.09464183822274208,0.07229727925732732,1.1436471715569496,-0.056778969034025926,3.2672230154275894,0.315175112336874,16.95696711540222,0.0,0.0,0.0,0.0,0.0,0.0,0.0,0.0,0.0,0.0,0.0,0.0,0.0,0.0,0.0,0.0,False,0,4.43700098991394,0.059863037109375
STABILIZE,0.9852280616760254,29.801790535739663,0.03241685231526693,0.03256988525390625,0.0,0.0,0.0,0.2677992842774764,-1.1240567181485748,89.77147803522789,-0.0024410151410862585,0.0022671010759569643,-0.0039830316257061715,0.4,0.011543047681009201,0.01589951085340091,0.6156294287711542,-0.0177466089803121,-0.09464183822274208,0.07229727925732732,1.1436471715569496,-0.056778969034025926,3.2672230154275894,0.315175112336874,16.95696711540222,0.0,0.0,0.0,0.0,0.0,0.0,0.0,0.0,0.0,0.0,0.0,0.0,0.0,0.0,0.0,0.0,False,0,4.465445280075073,0.059863037109375
STABILIZE,1.0186653137207031,29.90655058575228,0.03232696851094564,0.03246569633483887,0.0,0.0,0.0,0.26699913828838,-1.124182222874574,89.77340414857382,-0.005648332136098386,0.00204474850441692,-0.004661848634599728,0.4,0.014682331771592404,0.01979290404913723,0.6265873755631681,-0.021070192863993295,0.1494215801358223,0.20075628999620676,1.1322564445436,-0.19145439126240932,-7.60994628071785,4.085851460695267,12.782880663871765,0.0,0.0,0.0,0.0,0.0,0.0,0.0,0.0,0.0,0.0,0.0,0.0,0.0,0.0,0.0,0.0,False,0,4.494010925292969,0.044897216796875
STABILIZE,1.0520951747894287,29.91209590574878,0.03233841260274251,0.0324854850769043,0.0,0.0,0.0,0.2669578903490955,-1.1240665365455067,89.77702414883393,-0.007482436333440814,0.007085132799110748,-0.005332829567378047,0.4,0.01757031846596694,0.023501542538208766,0.6277762549625715,-0.02434371334997012,0.1494215801358223,0.20075628999620676,1.1322564445436,-0.19145439126240932,-7.60994628071785,4.085851460695267,12.782880663871765,0.0,0.0,0.0,0.0,0.0,0.0,0.0,0.0,0.0,0.0,0.0,0.0,0.0,0.0,0.0,0.0,False,0,4.522897243499756,0.044897216796875
STABILIZE,1.085573673248291,29.870981526058657,0.032393725713094075,0.032517194747924805,0.0,0.0,0.0,0.2674963013547629,-1.1234815948761185,89.78555505510728,-0.008577021929981925,0.00338218128876851,-0.004964344853427686,0.4,0.015339604187148017,0.023750088713836402,0.6237069213697211,-0.022426283203195983,-0.09925984777510166,0.030211894772946835,0.8903915993869305,0.06356388819046752,3.1991150230169296,-1.8579477444291115,10.592637211084366,0.0,0.0,0.0,0.0,0.0,0.0,0.0,0.0,0.0,0.0,0.0,0.0,0.0,0.0,0.0,0.0,False,0,4.551362752914429,0.05986376953125
STABILIZE,1.1189539432525635,29.958244348416127,0.03234842618306478,0.032460689544677734,0.0,0.0,0.0,0.2670367043288151,-1.1229236537982932,89.7906981875523,-0.0070015740797269655,-0.0008735253415180078,-0.003965838881354676,0.4,0.00950239736288578,0.021860045703057114,0.6298799963636798,-0.017375708432131574,-0.13807277427986264,0.007147454743972048,1.5210832469165325,-0.0020325965954136895,0.35597055684775114,-1.6170816496014595,22.24387377500534,0.0,0.0,0.0,0.0,0.0,0.0,0.0,0.0,0.0,0.0,0.0,0.0,0.0,0.0,0.0,0.0,False,0,4.608862400054932,0.034920166015625
STABILIZE,1.1523776054382324,29.917643282570705,0.032402785619099934,0.03252363204956055,0.0,0.0,0.0,0.2674756507046942,-1.1225952711096037,89.79493973502687,-0.007379334215945102,-0.0010476815030704364,-0.0038372605255195765,0.4,0.008177413591885506,0.02342205350671073,0.6239322167169729,-0.016677021467047165,-0.03898534050676972,0.11887717992067337,1.0980764403939247,-0.009869023041073404,0.4815611522644758,4.12910096347332,13.88314962387085,0.0,0.0,0.0,0.0,0.0,0.0,0.0,0.0,0.0,0.0,0.0,0.0,0.0,0.0,0.0,0.0,False,0,4.6375415325164795,0.034921142578125
STABILIZE,1.1905632019042969,26.18853881791731,0.03242686589558919,0.03717041015625,0.0,0.0,0.0,0.26856133061760884,-1.1226333707585676,89.80196116949365,-0.0060394174864011555,-0.0037459971693145602,-0.003717556919717151,0.4,0.0069025697740226245,0.02494528374652382,0.618534869607491,-0.016017502714289998,-0.03898534050676972,0.11887717992067337,1.0980764403939247,-0.009869023041073404,0.4815611522644758,4.12910096347332,13.88314962387085,0.0,0.0,0.0,0.0,0.0,0.0,0.0,0.0,0.0,0.0,0.0,0.0,0.0,0.0,0.0,0.0,False,0,4.667714834213257,0.034921142578125
STABILIZE,1.2239854335784912,29.91913715867264,0.03229478200276693,0.03256845474243164,0.0,0.0,0.0,0.26786582526103114,-1.1201060940439571,89.81241818911293,-0.003057894371890251,-0.005960572932206965,-0.0035828054020123957,0.4,0.006222722278313538,0.023874719196958792,0.6174830051754546,-0.015292434959125993,-0.011644227197393775,-0.008738993346923962,1.290354784578085,-0.004782279677346076,-5.146694183349609,-1.6285261139273643,20.519906282424927,0.0,0.0,0.0,0.0,0.0,0.0,0.0,0.0,0.0,0.0,0.0,0.0,0.0,0.0,0.0,0.0,False,0,4.696460485458374,0.029930908203125
STABILIZE,1.257742166519165,29.623719859308125,0.03247216542561849,0.03261542320251465,0.0,0.0,0.0,0.26891751431065447,-1.1189004589337441,89.81291679292235,-0.0023372842023529797,-0.008443969803372182,-0.0028229186598951314,0.4,0.0008722578078631084,0.023068466752310054,0.6066185736360995,-0.011454396122524193,-0.2547742100432515,0.010963479871861637,0.9177240543067455,0.15603092247303402,-2.0082924515008926,2.199014090001583,14.453735947608948,0.0,0.0,0.0,0.0,0.0,0.0,0.0,0.0,0.0,0.0,0.0,0.0,0.0,0.0,0.0,0.0,False,0,4.725227355957031,0.03485107421875
STABILIZE,1.2911927700042725,29.895466111661523,0.03217438062032064,0.03259420394897461,0.0,0.0,0.0,0.2694585933589664,-1.1181439087614595,89.81857901974429,-0.004200222105988192,-0.0030537288062330624,-0.0025075779309367413,0.4,0.0035144837853199004,0.024085465707096746,0.5999546107212063,-0.009844718347648457,0.1559427590109408,0.09612083667889237,0.9464884176850319,0.04650395661384006,7.105615735054016,2.333076484501362,16.611823439598083,0.0,0.0,0.0,0.0,0.0,0.0,0.0,0.0,0.0,0.0,0.0,0.0,0.0,0.0,0.0,0.0,False,1,4.753745079040527,0.034919921875
STABILIZE,1.3248419761657715,29.718804248474843,0.032466920216878255,0.03273272514343262,0.0,0.0,0.0,0.2696632855906552,-1.11838093767,89.82670694485661,-0.005245736074251888,-0.0050099891284969954,-0.0018025360068158482,0.4,-0.00032663946534354846,0.026846853623396682,0.5994467275138147,-0.006298353858563151,-0.021641096100211143,0.12398571707308292,1.535609271377325,-0.011019042802361078,4.513146728277206,2.4863814935088158,22.165392339229584,0.0,0.0,0.0,0.0,0.0,0.0,0.0,0.0,0.0,0.0,0.0,0.0,0.0,0.0,0.0,0.0,False,0,4.811134576797485,0.039907958984375
STABILIZE,1.3582162857055664,29.961668416804176,0.03231790860493978,0.03243398666381836,0.0,0.0,0.0,0.2690527307118796,-1.1183688781172467,89.82775879398879,-0.005208615373868216,-0.0006670970506758435,-0.002360887532872707,0.4,0.004787405422949044,0.02790451228757057,0.6000206685267727,-0.009059817301380316,0.293619092553854,0.08984182495623827,1.1055389419198036,-0.18308040591720182,-0.1566990977153182,0.4374755546450615,18.64975094795227,0.0,0.0,0.0,0.0,0.0,0.0,0.0,0.0,0.0,0.0,0.0,0.0,0.0,0.0,0.0,0.0,False,0,4.839801788330078,0.029931884765625
STABILIZE,1.3918018341064453,29.775133815115073,0.032468350728352864,0.032727718353271484,0.0,0.0,0.0,0.26798476660212456,-1.1191543498717982,89.84092739870857,-0.003788391206175526,3.552635869060963e-05,-0.0018549468549869585,0.4,0.0052024985774380954,0.02502389182496864,0.5899444868451746,-0.006508262537912486,0.03656416665762663,-0.10128428693860769,0.8430786430835724,0.11118903636482103,-2.5819702073931694,0.32443287782371044,15.474370121955872,0.0,0.0,0.0,0.0,0.0,0.0,0.0,0.0,0.0,0.0,0.0,0.0,0.0,0.0,0.0,0.0,False,0,4.868741989135742,0.029931884765625
STABILIZE,1.425398826599121,29.766047590998447,0.03246191342671712,0.03260445594787598,0.0,0.0,0.0,0.26936755974393484,-1.1193809200531721,89.84245053089349,-0.0022853538233544076,0.0035017656075878004,-0.001368254596848658,0.4,0.0056076835227261215,0.02225843826639279,0.5806070014053203,-0.004061207258966373,0.03656416665762663,-0.10128428693860769,0.8430786430835724,0.11118903636482103,-2.5819702073931694,0.32443287782371044,15.474370121955872,0.0,0.0,0.0,0.0,0.0,0.0,0.0,0.0,0.0,0.0,0.0,0.0,0.0,0.0,0.0,0.0,False,0,4.8974995613098145,0.029931884765625
STABILIZE,1.4588141441345215,29.926822307209317,0.032320292790730794,0.03244948387145996,0.0,0.0,0.0,0.27023664795496605,-1.1192494389116494,89.84460887067121,-0.0037410160483638414,-0.002350722492395056,-0.0011424551574792754,0.4,-0.0003456292275975997,0.025126223704318693,0.5840242229807777,-0.0029224367734189483,-0.32491828314960003,0.21359366364777088,1.5312131494283676,0.042059277712520375,-4.098275676369667,0.452064024284482,18.88040155172348,0.0,0.0,0.0,0.0,0.0,0.0,0.0,0.0,0.0,0.0,0.0,0.0,0.0,0.0,0.0,0.0,False,0,4.929105043411255,0.044897216796875
STABILIZE,1.4922914505004883,29.869917888604817,0.032346280415852864,0.03249096870422363,0.0,0.0,0.0,0.269656562123191,-1.1186424058491646,89.85591966393675,-0.0016504383210931785,0.0017538508826405222,-0.00013799315834083956,0.4,0.0021868990013861125,0.024499786227985404,0.5897283314178653,0.0020928689067290004,0.1616207300685346,-0.009356843656860292,1.1546583846211433,0.24425135334021122,13.760438561439514,-1.5385367907583714,19.708184897899628,0.0,0.0,0.0,0.0,0.0,0.0,0.0,0.0,0.0,0.0,0.0,0.0,0.0,0.0,0.0,0.0,False,0,4.957906007766724,0.024943115234375
STABILIZE,1.5257008075714111,29.93194793331811,0.03233483632405599,0.03246116638183594,0.0,0.0,0.0,0.26931334511739785,-1.1183283238690498,89.85723789044656,0.0021495754859556064,-0.005939800058514253,0.0019608147078855015,0.4,-0.0042701983804784086,0.02008517299438667,0.5819324629670343,0.01254493659233701,-0.17938436940312386,-0.07204936118796468,1.184194814413786,0.29435449948153064,-4.871239140629768,0.3875894472002983,21.472418308258057,0.0,0.0,0.0,0.0,0.0,0.0,0.0,0.0,0.0,0.0,0.0,0.0,0.0,0.0,0.0,0.0,False,0,5.015191078186035,0.029931884765625
STABILIZE,1.559128761291504,29.91465597786162,0.03237965901692708,0.032509803771972656,0.0,0.0,0.0,0.2702346736034091,-1.1179972731377157,89.86778370252506,0.0014029219848770474,-0.006704158079427073,0.0017161122239457856,0.4,-0.00498877600474816,0.018732499352294398,0.5780543289865663,0.011283711758808313,-0.038111640606075525,-0.03183422959409654,1.0571075603365898,-0.08049047099572104,6.638549268245697,-1.6973581165075302,15.437206625938416,0.0,0.0,0.0,0.0,0.0,0.0,0.0,0.0,0.0,0.0,0.0,0.0,0.0,0.0,0.0,0.0,False,0,5.044034004211426,0.06983984375
STABILIZE,1.5942187309265137,28.49817228118333,0.032399686177571614,0.03419995307922363,0.0,0.0,0.0,0.2686078612813296,-1.1167525778831866,89.87243506134983,-0.00028981734410817706,-0.005789407626444056,0.0027625375056519784,0.4,-0.003309421436214135,0.01878774262423262,0.5951333774950245,0.016458025400967278,0.14281518524512649,0.0237936619669199,0.9419823996722698,0.173358311984563,1.4612114988267422,4.068448394536972,12.005112320184708,0.0,0.0,0.0,0.0,0.0,0.0,0.0,0.0,0.0,0.0,0.0,0.0,0.0,0.0,0.0,0.0,False,0,5.072499752044678,0.02993212890625
STABILIZE,1.6277132034301758,29.85439740341087,0.03243401845296224,0.032579660415649414,0.0,0.0,0.0,0.2686078612813296,-1.1167525778831866,89.87243506134983,0.0017282674851572754,-0.00034385379401561127,0.00335715702395624,0.4,-0.0006823640144027021,0.0183597698550262,0.587326282481687,0.01936628664925797,0.14281518524512649,0.0237936619669199,0.9419823996722698,0.173358311984563,1.4612114988267422,4.068448394536972,12.005112320184708,0.0,0.0,0.0,0.0,0.0,0.0,0.0,0.0,0.0,0.0,0.0,0.0,0.0,0.0,0.0,0.0,False,0,5.101294040679932,0.02993212890625
STABILIZE,1.6612260341644287,29.841652911377995,0.03240826924641927,0.03253817558288574,0.0,0.0,0.0,0.26907919769491334,-1.117139657510056,89.88550121323208,-0.0004397501274753287,-0.00559216307629092,0.0028345915978321068,0.4,-0.0058804077597324304,0.02085533379455683,0.5823240902227069,0.016697635970645837,-0.2919935854151845,0.18595069414004683,1.0624432936310768,-0.13373384996880675,-5.889125540852547,2.1827667951583862,17.702053487300873,0.0,0.0,0.0,0.0,0.0,0.0,0.0,0.0,0.0,0.0,0.0,0.0,0.0,0.0,0.0,0.0,False,0,5.129863977432251,0.034919921875
STABILIZE,1.6946346759796143,29.931093540376217,0.0323367436726888,0.032465219497680664,0.0,0.0,0.0,0.26840967907369345,-1.1160935713499862,89.8895241946532,-0.00494318428144692,-0.005493751048164213,0.00235925717814634,0.4,-0.011115230382326535,0.023447116015101716,0.5806271964368642,0.014273232320451482,-0.2919935854151845,0.18595069414004683,1.0624432936310768,-0.13373384996880675,-5.889125540852547,2.1827667951583862,17.702053487300873,0.0,0.0,0.0,0.0,0.0,0.0,0.0,0.0,0.0,0.0,0.0,0.0,0.0,0.0,0.0,0.0,False,0,5.159018516540527,0.034919921875
STABILIZE,1.7280805110931396,29.899941544647056,0.032376797993977864,0.032564640045166016,0.0,0.0,0.0,0.26762095230711563,-1.1158750052965458,89.89288464772486,-0.005812900803736108,-0.007527071230374356,0.0015254963403041827,0.4,-0.014547472253822719,0.023526687462886896,0.6011721225562424,0.010070701410073872,-0.19236592343077064,-0.0783950206823647,1.3529663905501366,-0.06213233656932837,-4.350854828953743,0.15635412419214845,17.42096245288849,0.0,0.0,0.0,0.0,0.0,0.0,0.0,0.0,0.0,0.0,0.0,0.0,0.0,0.0,0.0,0.0,False,0,5.216018915176392,0.03490380859375
STABILIZE,1.761608362197876,29.824889249169814,0.032431634267171223,0.03256559371948242,0.0,0.0,0.0,0.26816955523568514,-1.116523873267697,89.89654562911998,-0.004060196833598709,-0.0109950347368364,0.0012338892572358092,0.4,-0.018045690921358062,0.021124086137412474,0.603512684876061,0.008583930943385299,-0.19236592343077064,-0.0783950206823647,1.3529663905501366,-0.06213233656932837,-4.350854828953743,0.15635412419214845,17.42096245288849,0.0,0.0,0.0,0.0,0.0,0.0,0.0,0.0,0.0,0.0,0.0,0.0,0.0,0.0,0.0,0.0,False,0,5.2453601360321045,0.03490380859375
STABILIZE,1.7950332164764404,29.918070089091465,0.03234580357869466,0.03247809410095215,0.0,0.0,0.0,0.26847397890142677,-1.1157345595317374,89.9008008369729,-0.005286680234294133,-0.011958128920509204,0.0015973528731904716,0.4,-0.017197579319406662,0.02247275672179272,0.6043233540752204,0.010366577386520958,0.03248098073527217,0.11718211462721229,1.2601865455508232,0.10924110510015174,4.329962655901909,2.1073833107948303,16.341209411621094,0.0,0.0,0.0,0.0,0.0,0.0,0.0,0.0,0.0,0.0,0.0,0.0,0.0,0.0,0.0,0.0,False,0,5.274289846420288,0.0349208984375
STABILIZE,1.82851243019104,29.869279742490495,0.03239396413167318,0.032526493072509766,0.0,0.0,0.0,0.2675595873262913,-1.1153849392235975,89.90859408281588,-0.002663055420306249,-0.008707622231121207,0.0019934295318106343,0.4,-0.01699872068594746,0.02089359702452435,0.5999941215730673,0.012305802309337616,-0.0038270620279945433,-0.03765947767533362,0.9781469590961933,0.11820340051858612,-3.1683411449193954,-3.8071956485509872,14.845763146877289,0.0,0.0,0.0,0.0,0.0,0.0,0.0,0.0,0.0,0.0,0.0,0.0,0.0,0.0,0.0,0.0,False,0,5.30281138420105,0.034919921875
STABILIZE,1.8695154190063477,24.388466033643642,0.03235939343770345,0.040040016174316406,0.0,0.0,0.0,0.2676345059637499,-1.115983327827914,89.91206381891425,-0.00016841262895937156,-0.005436750316816879,0.0023886274930015874,0.4,-0.016764570196102432,0.01933363896684758,0.595855350945648,0.014223486152844845,-0.0038270620279945433,-0.03765947767533362,0.9781469590961933,0.11820340051858612,-3.1683411449193954,-3.8071956485509872,14.845763146877289,0.0,0.0,0.0,0.0,0.0,0.0,0.0,0.0,0.0,0.0,0.0,0.0,0.0,0.0,0.0,0.0,False,1,5.331468105316162,0.034919921875
STABILIZE,1.9030311107635498,29.840803665442955,0.03236392339070638,0.03249979019165039,0.0,0.0,0.0,0.2667863885679047,-1.1156290117647196,89.92500019720225,0.0005401167179632252,-0.0026156215424762816,0.002058944283937268,0.4,-0.015686404951652758,0.018407577285234865,0.6070185797327111,0.012533103390145846,0.12750988826155663,-0.12188870459794998,1.1723125353455544,0.10991609320879296,4.397991299629211,-3.861043229699135,14.72666710615158,0.0,0.0,0.0,0.0,0.0,0.0,0.0,0.0,0.0,0.0,0.0,0.0,0.0,0.0,0.0,0.0,False,0,5.39247727394104,0.034920166015625
STABILIZE,1.9365427494049072,29.83698265682132,0.032284053166707356,0.03257250785827637,0.0,0.0,0.0,0.2672259219131656,-1.1162001863340618,89.92709023508829,0.00014284179961615876,0.0008957938843203101,0.0010056854413063984,0.4,-0.013697859208571138,0.01695300758342232,0.5989273602330296,0.0072424959084755065,0.07308418280445039,-0.027713319286704063,0.8656888268887997,-0.245207579824013,2.8275398537516594,3.975488618016243,14.516913890838623,0.0,0.0,0.0,0.0,0.0,0.0,0.0,0.0,0.0,0.0,0.0,0.0,0.0,0.0,0.0,0.0,False,0,5.417543411254883,0.029931640625
STABILIZE,1.969956874847412,29.926181727373265,0.03239587148030599,0.03251290321350098,0.0,0.0,0.0,0.26818929875125475,-1.1160089410373015,89.93362672612399,0.0019637424390532804,0.0018298729752043452,-2.0689271396884137e-05,0.4,-0.011688828388334264,0.0155376021197772,0.5885644137596634,0.0021035884730086106,0.07308418280445039,-0.027713319286704063,0.8656888268887997,-0.245207579824013,2.8275398537516594,3.975488618016243,14.516913890838623,0.0,0.0,0.0,0.0,0.0,0.0,0.0,0.0,0.0,0.0,0.0,0.0,0.0,0.0,0.0,0.0,False,0,5.446274042129517,0.029931640625
STABILIZE,2.003570556640625,29.75000177323829,0.03241923650105794,0.03270673751831055,0.0,0.0,0.0,0.2674593756445625,-1.1167931321313835,89.93965095297193,0.0013807438911761555,-0.0001806172664915474,-0.00015484426975403124,0.4,-0.014331208118348577,0.015029650553854315,0.5838878668675198,0.0014280143864536037,-0.1677555963397026,0.016288105689454824,1.1228361167013645,-0.021264820145269446,0.21258387714624405,-1.7688877880573273,16.397511959075928,0.0,0.0,0.0,0.0,0.0,0.0,0.0,0.0,0.0,0.0,0.0,0.0,0.0,0.0,0.0,0.0,False,0,5.474964380264282,0.06984130859375
STABILIZE,2.0370593070983887,29.861624115393926,0.03241136868794759,0.03254270553588867,0.0,0.0,0.0,0.26821048300985234,-1.1163838543897118,89.94153608518286,0.0004511864338847688,-0.0003436266085533714,-0.0008868122408659078,0.4,-0.014396385510903685,0.01526144673004939,0.597249201933186,-0.0022243848735324346,0.0015673431335017085,0.04845851217396557,0.9324292652308941,-0.1355110865351852,-4.412170499563217,3.9734315127134323,8.956750482320786,0.0,0.0,0.0,0.0,0.0,0.0,0.0,0.0,0.0,0.0,0.0,0.0,0.0,0.0,0.0,0.0,False,0,5.504566431045532,0.029930908203125
STABILIZE,2.0709917545318604,29.469489274698407,0.03237346013387044,0.03303670883178711,0.0,0.0,0.0,0.2691349597861842,-1.1153702116281996,89.94717099124811,-0.000944333747780175,-0.0036628998452968697,-0.0010594208840112918,0.4,-0.018167787198926758,0.016446635805624804,0.5807999218190847,-0.0030769751284076513,-0.22206809371709824,0.10020668851211667,0.6055123638361692,-0.03783879443462107,3.420787677168846,-1.8102198839187622,11.853111535310745,0.0,0.0,0.0,0.0,0.0,0.0,0.0,0.0,0.0,0.0,0.0,0.0,0.0,0.0,0.0,0.0,False,1,5.533221006393433,0.034919921875
STABILIZE,2.105727434158325,28.788842215083875,0.03242662747701009,0.03379082679748535,0.0,0.0,0.0,0.268908442965663,-1.11532997754512,89.95365284077046,-0.0014669569145896776,-0.009723765365447069,-0.00202715609462782,0.4,-0.025168618519422956,0.015947643903532427,0.5835062832493432,-0.007888262988497463,-0.22700238041579723,0.048800569493323565,1.3032195158302784,-0.2637095751097991,-4.515932500362396,8.191440254449844,21.68659418821335,0.0,0.0,0.0,0.0,0.0,0.0,0.0,0.0,0.0,0.0,0.0,0.0,0.0,0.0,0.0,0.0,False,0,5.590641260147095,0.02993115234375
STABILIZE,2.1391568183898926,29.91465597786162,0.03237512906392415,0.032506465911865234,0.0,0.0,0.0,0.26868331352731706,-1.1123877668384312,89.94974597256521,-0.002440970222721935,-0.013419929057220836,-0.0030293272674915333,0.4,-0.028635577472173587,0.016119652027291525,0.5822763142463521,-0.012856157754363188,-0.22700238041579723,0.048800569493323565,1.3032195158302784,-0.2637095751097991,-4.515932500362396,8.191440254449844,21.68659418821335,0.0,0.0,0.0,0.0,0.0,0.0,0.0,0.0,0.0,0.0,0.0,0.0,0.0,0.0,0.0,0.0,False,0,5.619161605834961,0.02993115234375
STABILIZE,2.172651529312134,29.856310016158538,0.03237608273824056,0.032526254653930664,0.0,0.0,0.0,0.2646950166605585,-1.1130913830446483,89.95816076562267,-0.0028885884674289745,-0.010445320906739525,-0.001245595972007415,0.4,-0.026676088712577633,0.016322342668087287,0.5757725435760761,-0.003924366082611437,0.05665496573783457,0.05018168012611568,0.9976939298212528,0.470270690629837,3.66513729095459,-5.565100535750389,15.0296151638031,0.0,0.0,0.0,0.0,0.0,0.0,0.0,0.0,0.0,0.0,0.0,0.0,0.0,0.0,0.0,0.0,False,0,5.647981882095337,0.0349208984375
STABILIZE,2.2061502933502197,29.851635173125512,0.03234127362569173,0.032474517822265625,0.0,0.0,0.0,0.2592137898516233,-1.10969379081939,89.96385031320129,-0.002555433876993837,-0.009984034428620484,0.0003136099371851774,0.4,-0.026082627705614706,0.01605035204060943,0.5731387423882532,0.0038587604607408675,-0.0011821408406831324,0.020505172142293304,1.0274415835738182,0.4235932578832492,11.779273301362991,0.3396842861548066,16.83890074491501,0.0,0.0,0.0,0.0,0.0,0.0,0.0,0.0,0.0,0.0,0.0,0.0,0.0,0.0,0.0,0.0,False,0,5.67663311958313,0.034920166015625
STABILIZE,2.239529848098755,29.95781639489454,0.03232005437215169,0.032479047775268555,0.0,0.0,0.0,0.26410447210161686,-1.1036854655056003,89.96691706813863,-0.003657550439569704,-0.008222967537098879,-0.0003844756962596024,0.4,-0.026718133927665776,0.01855534028247978,0.5680445873818036,0.0003671030338614984,-0.06944731576368213,0.1706765848211944,0.8834127336740494,-0.18657742275160866,7.122413069009781,0.08639926672913134,8.204945921897888,0.0,0.0,0.0,0.0,0.0,0.0,0.0,0.0,0.0,0.0,0.0,0.0,0.0,0.0,0.0,0.0,False,0,5.705322980880737,0.029931884765625
STABILIZE,2.27297043800354,29.903139102970847,0.032419474919637044,0.03253054618835449,0.0,0.0,0.0,0.2652938321516982,-1.104884483870055,89.97572118197877,-0.006334052306138523,-0.006879012673374156,0.003061158968536443,0.4,-0.030451932874136972,0.02187915056365751,0.5697230932809392,0.01753667532795416,0.3588602878153324,-0.021958519937470555,0.9462363086640835,-0.014085610976711686,15.15975147485733,6.144649907946587,16.198912262916565,0.0,0.0,0.0,0.0,0.0,0.0,0.0,0.0,0.0,0.0,0.0,0.0,0.0,0.0,0.0,0.0,False,0,5.7627904415130615,0.034919921875
STABILIZE,2.3064017295837402,29.91166926966332,0.032410415013631184,0.03253173828125,0.0,0.0,0.0,0.25933716014350666,-1.1157589988023613,90.01179824117477,-0.005507985814221303,0.00032588805680728943,0.0030012137230344097,0.4,-0.023302822660353627,0.020865002507455953,0.5665907959025213,0.017179488409231475,0.3588602878153324,-0.021958519937470555,0.9462363086640835,-0.014085610976711686,15.15975147485733,6.144649907946587,16.198912262916565,0.0,0.0,0.0,0.0,0.0,0.0,0.0,0.0,0.0,0.0,0.0,0.0,0.0,0.0,0.0,0.0,False,0,5.791598081588745,0.034919921875
STABILIZE,2.3398327827453613,29.913375887030632,0.032425673802693684,0.03255414962768555,0.0,0.0,0.0,0.2619361538444023,-1.1230181025079098,90.01580073202841,0.00022334438317318981,-0.0031557897789296677,0.003437210963949681,0.4,-0.02651885012387747,0.013050132870874101,0.5642891533729453,0.01929493923807083,-0.22274332586675882,-0.4022903274744749,0.9869910776615143,0.1273465025169341,-2.976226806640625,-19.389426708221436,16.60042703151703,0.0,0.0,0.0,0.0,0.0,0.0,0.0,0.0,0.0,0.0,0.0,0.0,0.0,0.0,0.0,0.0,False,0,5.820373058319092,0.029931884765625
STABILIZE,2.3735241889953613,29.680319284440543,0.03244927724202474,0.032625436782836914,0.0,0.0,0.0,0.2611874477174925,-1.1232955789429415,90.02308854387282,-0.007462697153870998,0.00742462924564119,0.001316732691493215,0.4,-0.011221363432318675,0.023564452704114634,0.5591641971357225,0.008663428349277006,0.8190976455807686,0.6361513864248991,0.9734705090522766,-0.5816484509911193,-22.32286036014557,7.8228659927845,14.608073234558105,0.0,0.0,0.0,0.0,0.0,0.0,0.0,0.0,0.0,0.0,0.0,0.0,0.0,0.0,0.0,0.0,False,0,5.849062204360962,0.034919921875
STABILIZE,2.4068846702575684,29.976872167984105,0.03213456471761068,0.03227591514587402,0.0,0.0,0.0,0.26041937160098344,-1.1255624546954452,90.03020560098797,-0.009461060423123002,-0.005110697640587273,0.00598415453624354,0.4,-0.029164538774532525,0.028422801128580977,0.5528679246110407,0.03189410309151237,-1.0688776150345802,0.3108302364125848,0.7300203200429678,1.3400998704643095,-6.149742752313614,-0.9297681972384453,-24.474850296974182,0.0,0.0,0.0,0.0,0.0,0.0,0.0,0.0,0.0,0.0,0.0,0.0,0.0,0.0,0.0,0.0,False,0,5.877619028091431,0.034921142578125
STABILIZE,2.4402894973754883,29.93579330526015,0.032321961720784505,0.03245687484741211,0.0,0.0,0.0,0.2648795384898546,-1.1297505345954266,90.06249873538378,-0.007440292193177875,0.0040088725350868135,-0.0010661471928450211,0.4,-0.01958597869723948,0.028370141521235077,0.5625395617176843,-0.003346222688300246,0.5089377518743277,0.03080859314650297,1.6391737386584282,-2.0045856027612836,-1.3557638972997665,-33.676984906196594,10.188905149698257,0.0,0.0,0.0,0.0,0.0,0.0,0.0,0.0,0.0,0.0,0.0,0.0,0.0,0.0,0.0,0.0,False,0,5.906280755996704,0.029930908203125
STABILIZE,2.4739434719085693,29.713119863984133,0.03238490422566732,0.03280830383300781,0.0,0.0,0.0,0.2596042312122247,-1.1648572800424692,90.1074140593658,-0.015665870083458103,0.05427921133071055,-0.012490407357952767,0.4,0.056879663640769955,0.03912824624517002,0.564618304447978,-0.06026427778633463,2.548978291451931,1.1634651571512222,1.6125639900565147,-3.775407127405235,35.156941413879395,24.962837994098663,23.441581428050995,0.0,0.0,0.0,0.0,0.0,0.0,0.0,0.0,0.0,0.0,0.0,0.0,0.0,0.0,0.0,0.0,False,0,5.963750123977661,0.034920166015625
STABILIZE,2.507474899291992,29.823404769692402,0.03248289426167806,0.032621145248413086,0.0,0.0,0.0,0.2557013650709442,-1.15281202799774,90.05534069713362,-0.03418672843283602,0.08846564412210242,-0.025710699999141655,0.4,0.10174205416174996,0.058607505697074715,0.574205897702828,-0.1259442038050136,2.548978291451931,1.1634651571512222,1.6125639900565147,-3.775407127405235,35.156941413879395,24.962837994098663,23.441581428050995,0.0,0.0,0.0,0.0,0.0,0.0,0.0,0.0,0.0,0.0,0.0,0.0,0.0,0.0,0.0,0.0,False,0,5.992583751678467,0.034920166015625
STABILIZE,2.5413665771484375,29.504315590289746,0.03240636189778646,0.03297924995422363,0.0,0.0,0.0,0.2313700434523903,-1.1535130828830185,90.0768216420733,-0.013310671294306381,0.1008364809195519,-0.01993330113126371,0.4,0.13203355739489026,0.037976061226537725,0.5698939381539144,-0.09672933370596717,1.7084114253520966,-1.1651590466499329,0.803606677800417,1.7335485420129568,-44.79749798774719,-91.52088165283203,13.093417882919312,0.0,0.0,0.0,0.0,0.0,0.0,0.0,0.0,0.0,0.0,0.0,0.0,0.0,0.0,0.0,0.0,False,0,6.021139860153198,0.029931884765625
STABILIZE,2.5748114585876465,29.901433653428008,0.03240969975789388,0.032538652420043945,0.0,0.0,0.0,0.21705439383886668,-1.1400862116352428,90.10739356879827,0.01322119551096265,0.08989520309255745,-0.01745378423018642,0.4,0.1018619191767352,0.005029800141815671,0.5708847014110265,-0.08405069674778821,-1.690598763525486,-1.8726253882050514,1.285284198820591,0.6662044853685847,-100.58934688568115,-9.392425417900085,35.02686023712158,0.0,0.0,0.0,0.0,0.0,0.0,0.0,0.0,0.0,0.0,0.0,0.0,0.0,0.0,0.0,0.0,False,0,6.049803018569946,0.034920166015625
STABILIZE,2.608443260192871,29.736081275566992,0.03240516980489095,0.032630205154418945,0.0,0.0,0.0,0.2396054373224274,-1.1412898190330458,90.00243405182269,-0.03193055342273048,0.1066495956176761,-0.028253955527786024,0.4,0.1330922127798329,0.06817442526066317,0.5705934216929119,-0.13759013155760336,1.8315982073545456,3.768296167254448,1.022908091545105,-3.16178848189999,96.31892442703247,119.74327564239502,93.29344034194946,0.0,0.0,0.0,0.0,0.0,0.0,0.0,0.0,0.0,0.0,0.0,0.0,0.0,0.0,0.0,0.0,False,0,6.078463315963745,0.034919921875
STABILIZE,2.6418683528900146,29.915082699151966,0.03230026563008626,0.03242063522338867,0.0,0.0,0.0,0.21531360273501257,-1.1473441414020276,90.25300637171378,-0.07130104241725106,0.08379866152163579,-0.03911706895888417,0.4,0.16417461332478533,0.13191846114638556,0.5702361481108564,-0.19126580728235176,1.8315982073545456,3.768296167254448,1.022908091545105,-3.16178848189999,96.31892442703247,119.74327564239502,93.29344034194946,0.0,0.0,0.0,0.0,0.0,0.0,0.0,0.0,0.0,0.0,0.0,0.0,0.0,0.0,0.0,0.0,False,0,6.107100963592529,0.034919921875
STABILIZE,2.6753528118133545,29.86757815281635,0.032340081532796223,0.0324857234954834,0.0,0.0,0.0,0.23851564862384012,-1.1447522980554192,90.1435594204535,0.0023884767673158554,0.012413914596934309,-0.020701821061312922,0.4,0.10241005727243037,0.0451335345094045,0.581133174561518,-0.09885894935235226,-2.9187723994255066,-1.685161516070366,0.5640881601721048,-1.1902084876423236,-20.365530252456665,64.98728394508362,10.88515967130661,0.0,0.0,0.0,0.0,0.0,0.0,0.0,0.0,0.0,0.0,0.0,0.0,0.0,0.0,0.0,0.0,False,0,6.165368556976318,0.02993115234375
STABILIZE,2.7087459564208984,29.9432732464751,0.0323055108388265,0.03243231773376465,0.0,0.0,0.0,0.2525345585344384,-1.142759056756539,89.99520088149164,-0.1008501104408207,0.045783446133722816,-0.04201810665135884,0.4,0.17326316833419603,0.172175141297017,0.5740466946674652,-0.20475528764759737,4.354893043637276,7.618650794029236,0.8100076578557491,-6.421785692554654,143.1307554244995,153.55626344680786,-13.113678991794586,0.0,0.0,0.0,0.0,0.0,0.0,0.0,0.0,0.0,0.0,0.0,0.0,0.0,0.0,0.0,0.0,False,0,6.193755865097046,0.034919921875
STABILIZE,2.742201566696167,29.890992018244013,0.03236106236775716,0.032492876052856445,0.0,0.0,0.0,0.2005480144099144,-1.1541712356425726,90.33052218860425,-0.03560239244912169,0.0509337149875403,-0.014016326766582512,0.4,0.1557148496726089,0.05366465997975223,0.5898798315393019,-0.06453049290598184,-0.9538691490888596,-6.966996192932129,1.9757529720664024,8.21853952448644,-154.63839769363403,-143.2110071182251,30.06950318813324,0.0,0.0,0.0,0.0,0.0,0.0,0.0,0.0,0.0,0.0,0.0,0.0,0.0,0.0,0.0,0.0,False,0,6.22250771522522,0.0349208984375
STABILIZE,2.7762577533721924,29.363651638196583,0.03236225446065267,0.03310656547546387,0.0,0.0,0.0,0.21219204620175808,-1.139160721002706,90.14034240135442,-0.03593729423375403,0.028998362031438057,-0.020667071367644157,0.4,0.1509733628715373,0.10737414844270027,0.5917040906436318,-0.09745215445341356,-0.16011380357667804,3.280480206012726,1.1459114030003548,-2.0995474303392636,42.75788068771362,298.59232902526855,13.325783610343933,0.0,0.0,0.0,0.0,0.0,0.0,0.0,0.0,0.0,0.0,0.0,0.0,0.0,0.0,0.0,0.0,False,0,6.251054525375366,0.02993115234375
STABILIZE,2.809772491455078,29.839105318573747,0.0323674996693929,0.03250288963317871,0.0,0.0,0.0,0.2501367352489408,-1.1316779286018397,90.0058696369752,-0.06343518434061149,0.048294058422587396,-0.03855968432930721,0.4,0.2035011921559244,0.1988835673733167,0.6042818993796146,-0.18629195925999412,3.352833166718483,5.604887753725052,1.9799906760454178,-5.474316365042473,88.23606371879578,-86.52676343917847,45.86464762687683,0.0,0.0,0.0,0.0,0.0,0.0,0.0,0.0,0.0,0.0,0.0,0.0,0.0,0.0,0.0,0.0,False,0,6.279813289642334,0.034921142578125
STABILIZE,2.843125820159912,29.978586234007576,0.0322907288869222,0.032430171966552734,0.0,0.0,0.0,0.21319795163960115,-1.1596144695242496,90.34446943488942,0.03959849395862294,0.009598889169258782,0.011020572276481823,0.4,0.09842674902422117,-0.017022772443863604,0.6233289926979665,0.061404081521255344,-6.118433550000191,-12.772232294082642,2.1578676998615265,14.614922889744172,-233.61196517944336,-372.880220413208,61.87654733657837,0.0,0.0,0.0,0.0,0.0,0.0,0.0,0.0,0.0,0.0,0.0,0.0,0.0,0.0,0.0,0.0,False,0,6.308479070663452,0.034919921875
STABILIZE,2.8766748905181885,29.810474843460153,0.03241923650105794,0.032538414001464844,0.0,0.0,0.0,0.2377823104225629,-1.2162674735949204,90.28613278918834,-0.04391296326304263,0.0723870155790359,-0.05471349626232183,0.4,0.2445468135823573,0.2054311698942222,0.6257082770120577,-0.26637568838569387,12.4364472925663,11.218827217817307,2.316080778837204,-14.947384055141834,361.7882490158081,77.00331807136536,84.25250053405762,0.0,0.0,0.0,0.0,0.0,0.0,0.0,0.0,0.0,0.0,0.0,0.0,0.0,0.0,0.0,0.0,False,0,6.366162061691284,0.034919921875
STABILIZE,2.9140655994415283,26.742224659211182,0.032270224889119466,0.0364689826965332,0.0,0.0,0.0,0.24620377358662993,-1.1548026012539756,90.27491078838202,-0.23553562885155457,0.21983983773816085,-0.10512455954432275,0.4,0.45117453582883227,0.392749574086643,0.6472097594311271,-0.5164936413711674,12.4364472925663,11.218827217817307,2.316080778837204,-14.947384055141834,361.7882490158081,77.00331807136536,84.25250053405762,0.0,0.0,0.0,0.0,0.0,0.0,0.0,0.0,0.0,0.0,0.0,0.0,0.0,0.0,0.0,0.0,False,0,6.394728899002075,0.034919921875
STABILIZE,2.9475884437561035,29.830616483172598,0.03243234952290853,0.03258824348449707,0.0,0.0,0.0,0.19600428442541631,-1.1970789108954158,90.30085867703889,-0.12587837106300487,0.29528294861448956,-0.0515830200997038,0.4,0.5545864984900339,0.28279125916363224,0.6861285656643475,-0.247955595488768,6.1960626393556595,-6.54369592666626,3.353235125541687,16.002749027199062,-77.3048996925354,-223.91653060913086,86.79174184799194,0.0,0.0,0.0,0.0,0.0,0.0,0.0,0.0,0.0,0.0,0.0,0.0,0.0,0.0,0.0,0.0,False,0,6.423542022705078,0.034919921875
STABILIZE,2.981065511703491,29.87183249056335,0.03238681157430013,0.03252673149108887,0.0,0.0,0.0,0.17812786509849465,-1.1280552602990883,90.2844798834092,-0.09711859132273225,0.2731167377652966,-0.022899783338019515,0.4,0.5678620950148131,0.3177890878301848,0.6098909577843079,-0.10419083488373407,0.883021205663681,2.2113945335149765,-3.4739434719085693,8.300390803952581,-298.1024980545044,-34.92120802402496,-169.90115642547607,0.0,0.0,0.0,0.0,0.0,0.0,0.0,0.0,0.0,0.0,0.0,0.0,0.0,0.0,0.0,0.0,False,0,6.452242136001587,0.029931884765625
STABILIZE,3.014493942260742,29.914015918751605,0.032361777623494466,0.032541751861572266,0.0,0.0,0.0,0.18277869031474442,-1.133505004204818,90.16338062942488,-0.2219596848253395,0.41007108449263435,-0.10558045395930489,0.4,0.6684465127079593,0.3161110171296194,0.8240942025090896,-0.5158670196755605,6.614597141742706,0.27069649659097195,14.112453162670135,-24.9612678312701,-44.16402280330658,61.04687452316284,413.45152854919434,0.0,0.0,0.0,0.0,0.0,0.0,0.0,0.0,0.0,0.0,0.0,0.0,0.0,0.0,0.0,0.0,False,0,6.480739593505859,0.034919921875
STABILIZE,3.0482072830200195,29.66079952478272,0.0324132760365804,0.03283953666687012,0.0,0.0,0.0,0.20170866632114054,-1.1565254097504056,90.5349360900844,-0.04385010367868836,0.39726520861189063,-0.19456075518718946,0.4,0.7746859280249289,0.25701989955778204,1.0187140055340556,-0.957537948404743,0.20705522038042545,-3.341900557279587,-0.5832693539559841,-1.4387904477205873,59.27271246910095,11.364665627479553,-30.29053807258606,0.0,0.0,0.0,0.0,0.0,0.0,0.0,0.0,0.0,0.0,0.0,0.0,0.0,0.0,0.0,0.0,False,0,6.538156986236572,0.06984130859375
STABILIZE,3.08199405670166,29.598424919023053,0.03247693379720052,0.0328977108001709,0.0,0.0,0.0,0.21981074869493708,-1.1339934694521798,90.4100938924349,0.05413859463508268,0.28554437061883714,-0.1952072359409769,0.4,0.7746859280249289,0.25701989955778204,1.0187140055340556,-0.957537948404743,0.20705522038042545,-3.341900557279587,-0.5832693539559841,-1.4387904477205873,59.27271246910095,11.364665627479553,-30.29053807258606,0.0,0.0,0.0,0.0,0.0,0.0,0.0,0.0,0.0,0.0,0.0,0.0,0.0,0.0,0.0,0.0,False,1,6.538156986236572,0.06984130859375
STABILIZE,3.1159093379974365,29.48481930082318,0.03242972691853841,0.03308558464050293,0.0,0.0,0.0,0.21293733723408284,-1.1394767239735248,90.30227935638625,-0.06540213113882312,0.30990359829124225,-0.22845589349479192,0.4,0.8928975507747788,0.3347353885773281,1.072882690307907,-1.119977407418939,-1.999407634139061,-6.306920200586319,1.678069680929184,4.392936909983958,-277.31289863586426,-346.65939807891846,-50.36882758140564,0.0,0.0,0.0,0.0,0.0,0.0,0.0,0.0,0.0,0.0,0.0,0.0,0.0,0.0,0.0,0.0,False,0,6.601145505905151,0.034919921875
STABILIZE,3.149507761001587,29.76372409877945,0.03249839146931966,0.03271079063415527,0.0,0.0,0.0,0.1768752190768849,-1.1739572264510418,90.75598150219352,0.04176294883331045,0.2612532644806148,-0.20946687515213946,0.4,0.8387510530323963,0.21237047335908396,1.0744982814260193,-1.0216059214482787,-1.999407634139061,-6.306920200586319,1.678069680929184,4.392936909983958,-277.31289863586426,-346.65939807891846,-50.36882758140564,0.0,0.0,0.0,0.0,0.0,0.0,0.0,0.0,0.0,0.0,0.0,0.0,0.0,0.0,0.0,0.0,False,0,6.630067348480225,0.034919921875
STABILIZE,3.183034658432007,29.827434414979482,0.03243282636006673,0.032570600509643555,0.0,0.0,0.0,0.16911521704525126,-1.1883613483586581,90.52355016473798,0.12455450154449983,0.07419030161722276,-0.2064744854489814,0.4,0.6637093911970239,0.0909114151508417,1.1179284565630192,-1.003285959394993,-8.56231078505516,-6.200193241238594,4.032410308718681,-0.17718022971200828,-193.77402067184448,13.306830823421478,45.41851282119751,0.0,0.0,0.0,0.0,0.0,0.0,0.0,0.0,0.0,0.0,0.0,0.0,0.0,0.0,0.0,0.0,False,0,6.660387992858887,0.02993212890625
STABILIZE,3.2173216342926025,29.16457949448945,0.032352479298909505,0.03341031074523926,0.0,0.0,0.0,0.1678407464348092,-1.1471245081315293,90.4254686482566,-0.037942706193560806,0.10127368907517621,-0.24699462764919414,0.4,0.7875546429574659,0.2735167132601005,1.1084631802398865,-1.2017584394021301,8.317603915929794,10.655947774648666,1.5797600150108337,-12.839697814076267,312.5415086746216,42.27597713470459,-32.534778118133545,0.0,0.0,0.0,0.0,0.0,0.0,0.0,0.0,0.0,0.0,0.0,0.0,0.0,0.0,0.0,0.0,False,0,6.689413070678711,0.034919921875
STABILIZE,3.250908136367798,29.775556565197636,0.032456429799397786,0.03255915641784668,0.0,0.0,0.0,0.16252296391827825,-1.1662799871022416,90.74014912369744,0.08135666916061388,0.1406804473920697,-0.19124157494881225,0.4,0.8452173238134069,0.10754707277632736,1.0960286181768346,-0.9199163511104135,4.3585896492004395,-8.855535835027695,0.9762194007635117,14.533139912169732,-270.50485610961914,-411.6365909576416,52.32619047164917,0.0,0.0,0.0,0.0,0.0,0.0,0.0,0.0,0.0,0.0,0.0,0.0,0.0,0.0,0.0,0.0,False,0,6.717938423156738,0.0349208984375
STABILIZE,3.284330368041992,29.91913715867264,0.03228119214375814,0.03250718116760254,0.0,0.0,0.0,0.1737899479235961,-1.1947200410325285,90.6621210426192,0.24562243734747652,0.1107152507763685,-0.13462769573713695,0.4,0.9023801167307616,-0.059290643350074265,1.0826683390506637,-0.6347184265760735,4.3585896492004395,-8.855535835027695,0.9762194007635117,14.533139912169732,-270.50485610961914,-411.6365909576416,52.32619047164917,0.0,0.0,0.0,0.0,0.0,0.0,0.0,0.0,0.0,0.0,0.0,0.0,0.0,0.0,0.0,0.0,False,1,6.746385812759399,0.0349208984375
STABILIZE,3.317755937576294,29.917856684308887,0.03240922292073568,0.032540082931518555,0.0,0.0,0.0,0.1813249805994424,-1.1894879026848872,90.39131770240654,-0.06365028787315215,0.26446041254335123,-0.23737230010435648,0.4,1.0657210445703904,0.2753924953650364,1.0409787095230314,-1.1446131939966533,4.427030682563782,9.530173242092133,-0.27801457326859236,-14.412764658237426,369.0133810043335,83.9638352394104,-12.931621074676514,0.0,0.0,0.0,0.0,0.0,0.0,0.0,0.0,0.0,0.0,0.0,0.0,0.0,0.0,0.0,0.0,False,0,6.80371880531311,0.0647705078125
STABILIZE,3.3513009548187256,29.811110479331326,0.03243449529012044,0.032562971115112305,0.0,0.0,0.0,0.15684126038503257,-1.1645497080864071,90.69113568621341,-0.004905383708027309,0.43938528668976756,-0.18111213750022576,0.4,1.1651484141933246,0.09428660877501527,1.0449937597172363,-0.8604339722694045,4.093660786747932,-9.124388545751572,0.7774102967232466,14.626882550980863,-41.53438210487366,-416.57185554504395,-10.121384263038635,0.0,0.0,0.0,0.0,0.0,0.0,0.0,0.0,0.0,0.0,0.0,0.0,0.0,0.0,0.0,0.0,False,0,6.8324432373046875,0.03492138671875
STABILIZE,3.384784460067749,29.864813483050064,0.03233030637105306,0.03247642517089844,0.0,0.0,0.0,0.1964305842791603,-1.1648249433656173,90.56746145091199,0.10407627934234245,0.27689809386404574,-0.19221683401279074,0.4,1.0413918925320875,0.0875246542390067,1.029056801136013,-0.9129009166906761,-4.052458330988884,0.059361482271924615,1.427512988448143,-4.509958114146964,-132.63862133026123,243.76757144927979,-34.27060842514038,0.0,0.0,0.0,0.0,0.0,0.0,0.0,0.0,0.0,0.0,0.0,0.0,0.0,0.0,0.0,0.0,False,0,6.86202597618103,0.034919921875
STABILIZE,3.4181902408599854,29.934084129091193,0.03231170972188314,0.03246569633483887,0.0,0.0,0.0,0.23257370421104637,-1.1704476831564188,90.61676858653031,0.007492378476883582,0.1566352529650352,-0.20329232100277883,0.4,0.9196034992107123,0.0813162396871125,1.013923190153074,-0.9650499023663024,-4.052458330988884,0.059361482271924615,1.427512988448143,-4.509958114146964,-132.63862133026123,243.76757144927979,-34.27060842514038,0.0,0.0,0.0,0.0,0.0,0.0,0.0,0.0,0.0,0.0,0.0,0.0,0.0,0.0,0.0,0.0,False,0,6.890652418136597,0.034919921875
STABILIZE,3.4517030715942383,29.840803665442955,0.032378466924031575,0.032515764236450195,0.0,0.0,0.0,0.2640901180321893,-1.1473844822068129,90.68582862922831,-0.0275543263272368,0.10385084290105621,-0.17984188950122565,0.4,0.8926676363997942,-0.010025338642551312,1.00295849033419,-0.8449707228646877,0.5717817693948746,-4.218265414237976,1.5983181074261665,4.0656372331647095,36.10493838787079,-68.2729423046112,10.74320524930954,0.0,0.0,0.0,0.0,0.0,0.0,0.0,0.0,0.0,0.0,0.0,0.0,0.0,0.0,0.0,0.0,False,0,6.91933536529541,0.064851806640625
STABILIZE,3.4851255416870117,29.918283496918512,0.03231981595357259,0.03251194953918457,0.0,0.0,0.0,0.24142258780676812,-1.09550631397451,90.70427697017652,0.09547745601244169,-0.08380098590894008,-0.18458733551958872,0.4,0.7696713602263789,0.09358397489930613,1.010074107128726,-0.8657983167985371,-4.933289438486099,5.713997036218643,1.23664028942585,-2.0009980458997347,-161.08124256134033,185.5889916419983,27.16139853000641,0.0,0.0,0.0,0.0,0.0,0.0,0.0,0.0,0.0,0.0,0.0,0.0,0.0,0.0,0.0,0.0,False,1,6.948024272918701,0.034921142578125
STABILIZE,3.5186331272125244,29.844200939234383,0.0324130376180013,0.03255009651184082,0.0,0.0,0.0,0.25841577829664253,-1.1253861504374945,90.67214776032078,-0.04030684909825056,-0.27765631540943314,-0.1961239735617305,0.4,0.5793447388390143,0.12742851117353304,0.9794068587773889,-0.9204005173281474,-0.5386617034673691,-0.7763779256492853,1.1122386902570724,-0.97721095936618,100.87053775787354,-120.90563774108887,-29.79031205177307,0.0,0.0,0.0,0.0,0.0,0.0,0.0,0.0,0.0,0.0,0.0,0.0,0.0,0.0,0.0,0.0,False,0,7.005457162857056,0.0349208984375
STABILIZE,3.552279472351074,29.72091012804433,0.03235987027486165,0.032796382904052734,0.0,0.0,0.0,0.2700353708178622,-1.1060689880825232,90.73559338752104,-0.022452297402271386,-0.18815551386864368,-0.16243122792775858,0.4,0.6015443153287129,0.09951217461792242,0.9752705917559459,-0.7494093329697544,2.833063155412674,-1.1346972547471523,1.9351277500391006,6.594523737985216,-20.885151624679565,183.1350326538086,-25.391530990600586,0.0,0.0,0.0,0.0,0.0,0.0,0.0,0.0,0.0,0.0,0.0,0.0,0.0,0.0,0.0,0.0,False,0,7.034962892532349,0.034919921875
STABILIZE,3.585866928100586,29.775556565197636,0.03247693379720052,0.032601356506347656,0.0,0.0,0.0,0.2730324364813227,-1.108513982361976,90.68312387431699,-0.08358075542322477,-0.2118622717023395,-0.16462776757095776,0.4,0.46586589689746616,0.17898690539412268,0.9465500297915799,-0.7578565037275933,-5.161646753549576,4.249382764101028,0.6639737170189619,-2.2518802856244116,-138.84669542312622,-32.84507095813751,-9.272779524326324,0.0,0.0,0.0,0.0,0.0,0.0,0.0,0.0,0.0,0.0,0.0,0.0,0.0,0.0,0.0,0.0,False,0,7.063271999359131,0.0399091796875
STABILIZE,3.6191747188568115,30.020427298428945,0.03231671651204427,0.03242683410644531,0.0,0.0,0.0,0.2911668021711181,-1.1331948709278172,90.70302021536924,-0.08799472809733301,-0.2253385873759841,-0.1476122335319299,0.4,0.42471993057371826,0.10934397496064853,0.920717881920076,-0.6705380016785569,-0.4158897325396538,-3.3165007829666138,0.5808528512716293,2.7218564243462917,187.17821836471558,-89.20929431915283,-63.90026807785034,0.0,0.0,0.0,0.0,0.0,0.0,0.0,0.0,0.0,0.0,0.0,0.0,0.0,0.0,0.0,0.0,False,0,7.091926097869873,0.024943115234375
STABILIZE,3.6527419090270996,29.793534547056023,0.03243687947591146,0.03257465362548828,0.0,0.0,0.0,0.263630734449653,-1.1085359670333672,90.72689855670761,0.024043473282544095,-0.17666425074451342,-0.13057557034299547,0.4,0.3918861165388564,0.04060454824950051,0.885451917012629,-0.5834020856176556,-0.4158897325396538,-3.3165007829666138,0.5808528512716293,2.7218564243462917,187.17821836471558,-89.20929431915283,-63.90026807785034,0.0,0.0,0.0,0.0,0.0,0.0,0.0,0.0,0.0,0.0,0.0,0.0,0.0,0.0,0.0,0.0,False,0,7.120416164398193,0.024943115234375
