Mode,Time,Freq,North-Vision,East-Vision,Down-Vision,Yaw-Vision,North-Desired,East-Desired,Down-Desired,Roll-UAV,Pitch-UAV,Yaw-UAV,Roll-Control,Pitch-Control,Yaw-Control,Thrust-Control,northVraw,eastVraw,downVraw,yawVraw,zGyro
GUIDED_NOGPS,0.0026917457580566406,375.1278060996333,215.73509620810307,-54.205289609459484,-29.679709651382456,3.2360464373335103,214.7963793974533,-65.38766179858361,-22.46843106555787,-0.8817517019175528,0.5758656286416457,-23.310479410769716,3.8709768046515265,-0.324953501699385,-0.16180232186667554,0.5036056392929122,215.73509620810307,-54.205289609459484,-29.679709651382456,-1.2640277721676085,-12.891550390443523
GUIDED_NOGPS,0.024481534957885742,45.901593416214325,215.89463140930275,-53.1413477868864,-30.05539577712728,-2.051913263968617,214.79648475026602,-65.38761574839265,-22.468404091020492,-0.964943939616837,0.6090528774885029,-23.563713796889818,0.6367732921166293,-0.05855530065219406,0.10259566319843086,0.5037934958430534,216.05416661050242,-52.077405964313314,-30.4310819028721,-1.7077041642999262,-13.57909974460051
GUIDED_NOGPS,0.05188417434692383,36.50681080328311,215.83662246181873,-52.081859078952355,-30.40512948030668,-2.2243139327459773,214.79721371813957,-65.38729711323784,-22.46821635293335,-1.1303322746136415,0.7010670515527991,-24.01740057477145,0.6852795347843027,-0.0509512566315683,0.11121569663729887,0.5039684565636867,215.72060456685077,-49.96288166308425,-31.104596886665473,-1.9135223871516587,-14.667719555349075
GUIDED_NOGPS,0.09895539283752441,21.247632990714333,216.07691605376067,-49.12763809459282,-31.589647565777366,-2.611205677183437,214.7991666914531,-65.38644345976878,-22.46771005802645,-1.2232043844707146,0.9073496501011739,-25.23402460558539,0.8457322409157526,-0.06653374506679258,0.13056028385917184,0.5045609687538755,216.7977968295865,-45.342626656380894,-33.2332639077945,-3.3873446307044617,-15.412564689019145
GUIDED_NOGPS,0.13957571983337402,24.6239975577395,216.12297725996314,-46.058402226185784,-32.75772693968603,-3.2989404637788247,214.80291903832804,-65.38480329197712,-22.466730633486286,-1.0974931519710431,1.099276044787828,-26.19424675005163,1.0062258167720675,-0.06669093594635328,0.16494702318894125,0.5051454981530998,216.3072220847731,-42.86969835909221,-33.93532002459811,-3.3730779834848477,-16.04281826366305
GUIDED_NOGPS,0.18553805351257324,21.760106250518803,216.40934263096005,-42.847249559097484,-33.99234955065058,-3.89884109091146,214.80902144976264,-65.3821359003366,-22.465126705122206,-1.0530724830953364,1.3354170287363252,-26.77486576346878,1.1648477683456677,-0.0833029968343252,0.194942054545573,0.5057636114227642,217.16692306308752,-40.32942366181933,-34.80846471955912,-3.6243689923674083,-15.183381570966816
GUIDED_NOGPS,0.23177671432495117,21.631162294160422,216.66158803201333,-39.47714247138748,-35.042277005702964,-4.585298775328938,214.8180002847666,-65.37821121094325,-22.46275007553284,-1.1609878711559511,1.6399640647697926,-27.582899340396093,1.3360593194887866,-0.09514895499741309,0.2292649387664469,0.506289763465085,217.31539361576893,-35.23230539325088,-36.38304627295166,-4.985236415467938,-15.068790011940651
GUIDED_NOGPS,0.27044200897216797,25.868888655889773,216.90892002773953,-36.03073751383892,-35.993087242718964,-5.258792225854849,214.83035791549582,-65.37280963465541,-22.459455702272482,-1.3189603282614142,1.8618952670369011,-28.047458071889096,1.5170685418858385,-0.10736675404898156,0.26293961129274246,0.5067668157702232,216.9572645454818,-32.530483486446556,-36.78775073564611,-5.047366421452821,-15.52715624804531
GUIDED_NOGPS,0.3131427764892578,23.42545336751392,216.93121337720885,-32.61419576141795,-36.73719197497662,-5.814002016575052,214.84657307238663,-65.36572191623395,-22.45510167601749,-1.581253146046538,2.0360625295512875,-28.827438354347873,1.6849046732638608,-0.10479908213879346,0.2907001008287526,0.5071410451494796,216.90926357693326,-30.079798404556403,-37.04077891633209,-5.5551776349160775,-15.29797312999298
GUIDED_NOGPS,0.34348130226135254,32.96864511362118,217.1020053114652,-30.003024816502332,-37.03311028329002,-6.365090438803118,214.86710118929074,-65.35674898348226,-22.44954919873268,-1.6490936798125724,2.1573035099608915,-29.142880395881157,1.8178050332605125,-0.11473889311645652,0.3182545219401559,0.5072917805422786,217.16118175605462,-27.398792558504024,-37.27080119789186,-6.211093911456871,-13.922874421679005
GUIDED_NOGPS,0.39499545097351074,19.414119346059135,217.30070528635983,-27.351258093172177,-37.30267533822203,-6.737262667998654,214.89237474860963,-65.34570179638648,-22.44266256183772,-1.6877903299986912,2.2128103229114693,-29.86956812734091,1.9353696435979453,-0.1227889404497563,0.33686313339993273,0.5074300063881921,218.16042293756064,-24.57518331645609,-37.59644590044214,-6.976417421052105,-11.172677005051053
GUIDED_NOGPS,0.4432797431945801,20.71875123493381,217.52480484862363,-23.70088503941757,-37.65307582479637,-7.343290077497961,214.92280362642916,-65.3324011962555,-22.43430912437355,-1.475613384918301,2.255623229289579,-30.36899838964141,2.131416791204422,-0.13292814055591998,0.3671645038748981,0.5076093833502114,218.43589142708782,-19.128679243292584,-38.0919803760551,-7.796953040448173,-9.912169855763242
GUIDED_NOGPS,0.4783775806427002,28.491977447184293,217.81998509120777,-20.194801583549175,-38.15434725470865,-7.808094987189808,214.95877543765423,-65.31667775486112,-22.42435929116873,-1.1993059794516632,2.109265081980899,-30.68949135606592,2.3191464091544627,-0.14764759279365167,0.39040474935949043,0.50786499398177,218.4331657584026,-16.880542190898836,-38.774615487628715,-8.242432268525548,-8.250592249883855
GUIDED_NOGPS,0.517869234085083,25.32547579943967,218.00034766990734,-16.246607649418134,-38.90690478024613,-8.085119892112116,215.0006558811433,-65.29837162357819,-22.412686491005896,-0.856688803005867,2.113284648307452,-30.948533110527823,2.517861934719107,-0.15277007303852025,0.40425599460560585,0.5082471091446201,217.81107647043112,-12.730601514062972,-39.85411847705462,-8.617557574254164,-6.760901982543714
GUIDED_NOGPS,0.5635223388671875,21.911295462381545,218.13032661278262,-14.113915073008263,-39.49428414724597,-8.365563363675665,215.04878908484304,-65.27733238252466,-22.39916715478811,-0.5297957358856452,2.1250120831123636,-31.261362604703574,2.599220273046929,-0.156148599673997,0.41827816818378327,0.5085475584962289,217.81107647043112,-12.730601514062972,-39.85411847705462,-8.617557574254164,-6.187944187412891
GUIDED_NOGPS,0.6002779006958008,27.208355226882034,218.09897690786156,-11.543144296443009,-40.31044628321768,-8.630322194358701,215.10349795092284,-65.25341888970175,-22.383680693705283,-0.18371737441815839,2.2268322743906825,-31.457255845194126,2.7398978066883504,-0.14989027411392897,0.4315161097179351,0.5089633827947562,218.00367441295532,-9.16822986120307,-41.22310189554383,-9.133802203743429,-4.755549699585833
GUIDED_NOGPS,0.6473689079284668,21.243866366822665,218.06569492496027,-9.855306962228562,-40.79891141550247,-8.789093401584912,215.16508450090947,-65.22649913013396,-22.366109477400556,0.2717257359157346,1.9823226011616273,-31.613086611107967,2.808990345144815,-0.14541720562316143,0.43945467007924566,0.509216400969051,218.26948151258154,-7.667089511419634,-41.31951387390898,-9.631853334190666,-2.521014298575622
GUIDED_NOGPS,0.6841678619384766,27.1836676496322,218.06306044460052,-7.654058281491976,-41.30357189046058,-8.92591132557958,215.23383022082163,-65.19645006500934,-22.346338812136718,0.526891838271332,1.7957611066246064,-31.659258689897253,2.9304376375013637,-0.14204005075702958,0.44629556627897904,0.5094786165391619,218.41999335660387,-6.126855471853218,-41.368099901928964,-9.631141282884215,-1.088619810748564
GUIDED_NOGPS,0.7305381298065186,21.566208190863048,218.19332540574223,-5.875123678794051,-41.63506506678487,-8.973879169151328,215.30999640630455,-65.16315748081945,-22.32425691896257,0.9341509922391866,1.4680896113824147,-31.65188891578281,3.0105147907625414,-0.14640665016391038,0.44869395845756643,0.5096554040739112,218.46240127613962,-3.831426053109294,-42.21758142451668,-9.749958084119513,0.34377467707849396
GUIDED_NOGPS,0.7753057479858398,22.34269094318315,218.28312822655826,-4.347014034003194,-42.2473901708834,-8.975920875217255,215.3938245077646,-65.12651583849953,-22.299754911879354,1.222737903894744,1.2162069623877423,-31.606153969100404,3.0859054806891293,-0.14631798138633212,0.4487960437608628,0.509973817629502,218.26009057451125,-3.0827605770470625,-43.15648918620461,-9.92399033428508,2.119943841984046
GUIDED_NOGPS,0.8127870559692383,26.687604588866336,218.31858541245546,-3.1034879396444204,-43.19050626659561,-8.912807086965632,215.48553647550386,-65.08642812256862,-22.27272677600713,1.388561556729431,1.0520864812556217,-31.492468885460127,3.147332390055692,-0.14280479752089414,0.44564035434828164,0.5104588897452942,218.18096034244115,-2.3962771887768994,-44.19744818906559,-9.691447313485156,3.0366763141933633
GUIDED_NOGPS,0.8456928730010986,30.423048467352356,218.1460168800163,-2.4864700102257884,-44.126212541125234,-8.823790467451675,215.5853351048547,-65.04280569026966,-22.243069345751184,1.3963894871267943,0.9094960370478504,-31.407484256712245,3.1710288257951915,-0.12581462768583945,0.44118952337258377,0.510941571597687,217.40663885038566,-1.9803722648533968,-45.024700248105546,-9.337165137209269,3.380450991271857
GUIDED_NOGPS,0.8800699710845947,29.082275935710225,218.00925165420276,-1.97987499109737,-45.039714396161095,-8.720401478670592,215.69340438131434,-64.9955681207096,-22.21068228296842,1.4633595986604753,0.6932183104228082,-31.242241490122126,3.193938278260914,-0.11434690149601445,0.4360200739335296,0.5114145160565964,217.73616722753593,-1.5629755196618083,-45.896994751312185,-9.568522507404424,4.411775022507339
GUIDED_NOGPS,0.9194917678833008,25.374503920240056,217.59671420523335,-1.6569464745776157,-45.778238164628966,-8.563176917243053,215.80990982567954,-64.94464306399951,-22.175468055133752,1.5885864213376046,0.5323788814132323,-31.081807176707695,3.2069146398809685,-0.08474279539743866,0.4281588458621527,0.5118013850547476,216.39971403129258,-1.427491639217636,-46.41301949446922,-8.41490091610359,5.67228217179515
GUIDED_NOGPS,0.9611904621124268,23.981840532891162,217.5026485977616,-1.3641739514660067,-46.48846242962667,-8.365078396739227,215.9349988391811,-64.88996609039467,-22.137331913506504,1.8936223495052567,0.4221112402354886,-30.814108157472802,3.220865804330942,-0.07794982971259076,0.41825391983696136,0.5121755652580601,217.7897625371525,-1.1020546955185702,-47.15537304309865,-9.340615935620718,6.818197762056797
GUIDED_NOGPS,1.0050959587097168,22.780644916004498,217.28026217071883,-1.2145691432041978,-47.015986139191135,-8.122072905156509,216.0688010486185,-64.83148053943468,-22.096181871296817,2.154686907178542,0.2784245506659304,-30.433198752744943,3.226405546506725,-0.05877377497463901,0.4061036452578255,0.5124599021339472,217.06902820722706,-1.1141610948763812,-47.47956588000557,-8.554350564865828,6.818197762056797
GUIDED_NOGPS,1.0476841926574707,23.486448953993637,217.34910248551705,-1.2627410499686291,-47.71633516171409,-7.863427956081195,216.21142865149443,-64.76913736908367,-22.05192868183203,2.326996358238685,0.11916396257168528,-30.177633564570577,3.221247754769622,-0.058310590113852895,0.3931713978040598,0.512832203239941,217.7508404243767,-1.5720073595109296,-48.5140665620381,-8.681789556608393,6.245239966925974
GUIDED_NOGPS,1.0890696048736572,24.170065635930918,217.36147070865263,-1.6201837319190595,-48.310013989246016,-7.606992053270563,216.3629767611494,-64.70289500487023,-22.004485816723086,2.37628343017632,-0.06533289384528759,-29.95939536021033,3.19877069867627,-0.0505599421326992,0.3803496026635282,0.5131527640862614,217.79800834321392,-2.1743827413698606,-48.936409525694415,-8.375387797210607,6.589014644004467
GUIDED_NOGPS,1.1390938758850098,19.993345568081608,217.60259836967444,-2.1398614813257617,-48.834801351538125,-7.357645004099503,216.52352375189642,-64.63271918902767,-21.95376944403093,2.412693674537777,-0.33694497114436495,-29.58239965387689,3.171752820674814,-0.05714233585412566,0.36788225020497517,0.5134405159537536,217.60535233640172,-2.6731943430964886,-49.05392796688189,-8.215796846324437,7.333859777674538
GUIDED_NOGPS,1.179126262664795,24.984685033507073,217.65569661838595,-2.750438535274354,-49.27847632630168,-7.0174910661481595,216.69313160415544,-64.55858282963409,-21.899698406432893,2.3958199056366722,-0.5064546849750373,-29.41597526456036,3.1373250094478244,-0.04910580730037464,0.350874553307408,0.5136893889599344,218.05525378071,-3.4037385213567055,-49.84509148632876,-7.796894967065597,7.563042895726867
GUIDED_NOGPS,1.2275917530059814,20.63577592568904,217.66604654466124,-3.356900812614377,-49.63396479482737,-6.723290905937911,216.87184624958806,-64.48046584975242,-21.84219419938911,2.299380409320442,-0.6450368753570689,-28.94207966447195,3.1074867502827703,-0.04043365879244522,0.33616454529689554,0.5138958852977191,217.12077783860346,-3.9937695733899305,-50.00287493127148,-7.012633343125984,8.078704911344607
GUIDED_NOGPS,1.2686831951141357,24.344018619444782,217.49929321801898,-4.252020177165315,-50.25406565418326,-6.354108338342436,217.059697916232,-64.39835503657066,-21.781180949308894,1.9979528487469667,-0.7242801964990279,-28.601787687190868,3.0559796395889878,-0.020054833826256696,0.31770541691712184,0.5142364423524372,216.9170737911655,-5.358552436749303,-50.91423054494956,-6.683116109761343,8.193296470370772
GUIDED_NOGPS,1.3079898357391357,25.443308724954353,217.32800110791078,-5.112562877254424,-50.617028574275714,-6.064106328575967,217.25670147363587,-64.31224389054185,-21.71658539171715,1.655117693217112,-0.5977066526166424,-28.276071333598594,3.011457014518622,-0.001488637728188415,0.3032053164287984,0.5144502215912793,216.94154779267288,-5.985366621624035,-50.933980246606126,-6.215776662041236,7.219268218648373
GUIDED_NOGPS,1.3504204750061035,23.573703231173035,217.3237068729631,-6.030394307187598,-51.00958363358918,-5.773759520135605,217.46285677799358,-64.22213247452429,-21.64833684942076,1.4132172589727074,-0.39354738912649534,-27.962835443167222,2.963191895519665,0.006988996049426297,0.28868797600678026,0.5146806233920842,217.58388116166344,-6.747263863189449,-51.18054010921186,-6.518262267193606,7.62033867523995
GUIDED_NOGPS,1.3930535316467285,23.460044187152167,217.27991375210166,-6.738989050671875,-51.119964438583175,-5.4552634504798405,217.67814901727897,-64.1280272629216,-21.576367210675,1.2828117655225333,-0.17834925927713827,-27.60757681386735,2.9282074965415115,0.020464852144628565,0.272763172523992,0.5147717986139541,217.83628817640292,-7.484336667202131,-51.24537295993157,-6.386461123680107,8.708958485988513
GUIDED_NOGPS,1.4351730346679688,23.752323243763627,217.15280806520133,-7.641777507349492,-50.76243968204174,-5.105326891699028,217.9025490563805,-64.02994099082282,-21.500610907349902,1.2225453779375142,0.026049060833959255,-27.45449690664173,2.877843004761087,0.03927448838214186,0.2552663445849514,0.5146309143873459,216.4852494041018,-8.693731991656888,-49.86140597698182,-4.952691905011193,8.88084582452776
GUIDED_NOGPS,1.4762752056121826,24.329615128048957,217.36222895599877,-8.544136195856847,-50.13469387824426,-4.761786004051061,218.13601378223578,-63.927892503142566,-21.421004893096683,0.986311652826693,0.5803383353309463,-26.842522202292344,2.829938991864851,0.03657636647898706,0.23808930020255303,0.5143568444925738,217.96417824515277,-9.454339928711516,-49.297302697819454,-5.273559149791041,9.11002894258009
GUIDED_NOGPS,1.517819881439209,24.076967233817822,217.51966508818344,-9.544863370448477,-49.06058454629122,-4.372542603613274,218.37848644896602,-63.82190660376108,-21.337488621514126,0.9694996757932356,0.9562892361647847,-26.38133075406016,2.7754679105370257,0.04160514794695738,0.2186271301806637,0.5138615479623886,217.7287284535964,-10.48651819097702,-48.02304496407245,-4.675979684952452,10.714310768946394
GUIDED_NOGPS,1.5567984580993652,25.6613968968724,217.50263616148285,-10.796671122455782,-47.620910414936354,-3.9366466828495357,218.62989702301084,-63.71201390466438,-21.250004024314983,1.0149756088957094,1.1498708845081091,-25.880245878433218,2.7053748874627397,0.05748478418831672,0.1968323341424768,0.5131854531953107,217.49873652816035,-12.449155247678805,-45.54238358291721,-4.0242368717523505,12.204001036286535
GUIDED_NOGPS,1.6099622249603271,18.81385324105016,217.6989897264326,-12.221868547438959,-46.12625619807381,-3.5002240614489493,218.89016252826283,-63.59825067508438,-21.158495489492363,0.7885476341946464,1.2911198368742076,-25.212150924768423,2.634133504195574,0.05790245420284102,0.17501120307244747,0.5124838803542907,218.81805600115143,-13.729932203661052,-44.81334004723185,-4.251721227306177,12.547775713365029
GUIDED_NOGPS,1.6470921039581299,26.936465631843607,218.23194344961058,-13.809289334329486,-44.800837910403715,-2.8910789382165976,219.15918739120193,-63.48065869063896,-21.062909839486142,0.3652890289003014,1.3465989021812823,-24.74610491958365,2.5423981798828077,0.040605611666654336,0.14455394691082987,0.5118689640354588,219.1500180199917,-15.248780551648602,-44.046790101062165,-4.013187268558511,12.433184154338864
GUIDED_NOGPS,1.6832952499389648,27.628095090670758,218.420383833717,-15.249395415936755,-44.13809703401216,-2.4490893681572756,219.43686378603022,-63.35928508247211,-20.963196309349346,0.02463682584156656,1.2436391365286292,-24.41715959406125,2.4673354428584373,0.04986961330822159,0.12245446840786378,0.5115874503623314,218.906380165685,-16.769473492500612,-43.55416095374255,-3.416249980054289,13.006141949469688
GUIDED_NOGPS,1.7313079833984375,20.831842496063892,218.58407676287212,-16.739250079164712,-43.61524899163879,-1.9752461040737146,219.72307197980652,-63.234182186394015,-20.85930652491456,-0.3478582794167231,1.1014173090926271,-23.649931274782887,2.3934933859069516,0.056098182756098944,0.09876230520368573,0.5113779712333621,218.54719309937195,-18.19949619334492,-43.24479592011177,-2.812878747528657,14.896902673401405
GUIDED_NOGPS,1.7770836353302002,21.849885392790164,218.81651448078105,-18.647359695371808,-43.52652469308665,-1.3168205007888176,220.0176806775808,-63.105407392021185,-20.75119448096032,-0.15629615259232738,1.0975550505603964,-22.920595137472464,2.2883218223232267,0.05866026528315208,0.06584102503944088,0.5113876651060631,218.66092511770506,-20.973109400269887,-43.780617205405726,-2.063944606814786,15.29797312999298
GUIDED_NOGPS,1.8160905838012695,25.639749122785567,218.64817705394694,-21.17174998622262,-43.85572919856835,-0.6307183230127985,220.32054736752903,-62.97302299191655,-20.6388165193775,0.2876906094095518,0.9255512504656116,-22.213913030091682,2.145387652836549,0.08763189212022962,0.03153591615063993,0.5116084563395954,217.97636886698086,-24.34264436505304,-44.54177447018766,-0.7744901922487344,16.78766339733312
GUIDED_NOGPS,1.8642268180847168,20.777767319743393,218.307449221439,-23.92282083191812,-44.384079376861905,-0.010349808600367147,220.6315186660874,-62.83709603072958,-20.52213130733573,0.7214114103259168,0.3305427360145358,-21.40823416088073,2.0068345974684747,0.12108536714670988,0.0005174904300183574,0.5119309740347631,217.44637885745192,-26.452708730431432,-44.82984645499245,-0.28105497616176933,17.589804310516275
GUIDED_NOGPS,1.9033479690551758,25.566761961073556,218.14636147777327,-26.51186660953608,-44.95880102611711,0.756124814662528,220.95043066308736,-62.69769815433641,-20.401099815449765,0.9650816106172951,-0.063678280518852,-20.66829927752574,1.8671187894138819,0.1445282493147373,-0.037806240733126405,0.5122788506053336,218.10094144735646,-28.740246733123765,-45.504782153171334,-0.26912716004878234,16.902254956359286
GUIDED_NOGPS,1.9400341510772705,27.26495270907141,217.951721334022,-28.743314326228347,-45.46037139850737,1.3898459435139332,221.27710926688982,-62.55490545897989,-20.275685295945916,1.1021610526602181,-0.2582402744514849,-20.39557494660901,1.752049697817895,0.1717057807670213,-0.06949229717569666,0.5125923430512808,217.57399238061566,-31.036987515129844,-46.04648558735843,0.48208387798773344,16.844959176846203
GUIDED_NOGPS,1.984621524810791,22.429433155080215,217.44696175483705,-31.016954529919264,-46.19680918661921,1.9995265333948964,221.61137054952,-62.408798340409774,-20.145853260828414,1.4401014171544066,-0.7250522213186509,-19.443006029107764,1.637674559739535,0.21614930679177638,-0.09997632666974482,0.5130254779628954,216.13712722178025,-33.27362934150418,-47.039159819327956,1.7073955542091142,17.589804310516275
GUIDED_NOGPS,2.026402473449707,23.94063791410763,216.95925034579722,-34.08592250217555,-47.55723185615821,2.766410693319336,221.95302109180182,-62.25946134302278,-20.011571460045822,1.7150258160358227,-0.7333839848890087,-18.581048108683202,1.4664551324368102,0.25836680594204087,-0.1383205346659668,0.5137728301980562,215.5378118217819,-37.94715064989262,-49.58605016178834,2.427473545343389,18.391945223699427
GUIDED_NOGPS,2.07206654548645,21.904200873180006,216.52809002280023,-37.14758675689277,-48.9818514179884,3.47580956538677,222.30185832849267,-62.1069830090027,-19.87280985965744,2.0130326257738855,-0.5529205686203399,-17.832064932225236,1.3101390081820508,0.29625849971993334,-0.17379047826933852,0.5145545207791655,215.29057724246692,-40.22198027928153,-50.320344272849006,2.8683371979992955,17.589804310516275
GUIDED_NOGPS,2.105494976043701,29.924473648537774,215.7896220569643,-40.24762322494951,-50.07826769863979,4.212872131642014,222.65767089341784,-61.95145572746054,-19.729540619999682,2.248464337265759,-0.2507311217892906,-17.305737384973224,1.1344137877606146,0.35909920304250464,-0.21064360658210068,0.51517436353932,214.4086016181768,-42.57373874567438,-50.328408661282104,3.7356963333411386,17.131438074411616
GUIDED_NOGPS,2.1487038135528564,23.147245324253177,214.99248226704736,-42.565932092028994,-50.10994509396286,4.7423092062449745,223.0202389646053,-61.792975583574616,-19.58173807385249,2.757984283074251,0.11304112486759196,-16.4053920938659,1.0320671863054134,0.4142413223046616,-0.23711546031224873,0.5152641035100551,213.58829343103096,-44.90207725113108,-49.68108234775752,4.495676623974603,16.386592940741544
GUIDED_NOGPS,2.192178249359131,23.007322973291718,214.67662471699697,-45.77981598624058,-49.08210589367129,5.428486511409036,223.38933460942005,-61.631642207730636,-19.42937870460572,3.1804722509311483,0.3650812950999978,-15.71257527050024,0.8535680597437262,0.44345592788378224,-0.2714243255704518,0.5148263635945328,214.55783947152824,-49.86363196191627,-47.236826671974306,4.828719952633378,15.699043586584557
GUIDED_NOGPS,2.2365882396698,22.522655268329878,214.3767536718899,-48.939263413899376,-47.47665641678275,6.09515244758749,223.7647221296989,-61.467558624661855,-19.272441124425544,3.606667730846893,0.4763156214887098,-15.061070846329404,0.6892239335020144,0.4773842683164616,-0.30475762237937454,0.5141021076461786,214.0384565962465,-52.05208102865078,-45.5120602306165,5.6339328259379755,15.29797312999298
GUIDED_NOGPS,2.2712807655334473,28.827029739036007,213.98560640475984,-52.069486898887796,-45.624897097214706,6.709796113880481,224.14615840688498,-61.30083110258915,-19.110906052420845,3.841627092068978,0.4817851089100091,-14.579421273985737,0.5149100422350213,0.519830328407223,-0.3354898056940241,0.5132569955223969,213.33484090681668,-54.29274770609636,-44.125804389053386,6.6377345718370435,13.464508185574346
GUIDED_NOGPS,2.3120343685150146,24.54373840635259,213.82306447293595,-54.32336233447231,-44.231676739701776,7.168385472944107,224.5333932471623,-61.13156900236117,-18.944756292809615,3.9412603421524235,0.7361622710556172,-14.062048958509259,0.41021668360374075,0.5437086716448617,-0.3584192736472054,0.5126434602234461,213.59589195905738,-56.625258268669796,-43.057165599435514,6.909279323632887,13.178029288008934
GUIDED_NOGPS,2.348668098449707,27.30453349998698,213.55106691396637,-56.566102052629354,-43.068399709416646,7.637240627470237,224.92616972659047,-60.95988462659438,-18.773976713085347,4.031260037298389,0.8002170657524661,-13.550316671739916,0.2893141060309016,0.578987651002611,-0.3818620313735119,0.5121472114981657,212.22830563618305,-58.78030018312192,-42.022229139761116,7.727152057112491,11.573747461642629
GUIDED_NOGPS,2.393416166305542,22.355790550912502,213.1079992723814,-59.532367208797496,-41.95960718337513,8.024579682101818,225.32422453623914,-60.785893068813245,-18.598554222183445,4.013089599672039,0.8261884331846164,-13.196054396285218,0.12870969663572707,0.6223315944686778,-0.4012289841050909,0.5116805264805958,212.34250126360345,-63.191543174600795,-40.799426810928814,8.004639796961627,8.021409131831525
GUIDED_NOGPS,2.43522572517395,23.921658539367495,212.87937662061057,-62.416419654200816,-40.95949020789999,8.375805321011281,225.72728832732264,-60.60971206259029,-18.4184777486476,3.9814453332473705,0.5777652750045554,-12.99103858438447,-0.025763145265995206,0.652583342743254,-0.4187902660505641,0.5112705062296262,212.8953433373924,-65.27741560487975,-40.05681467301009,8.163062791497282,5.213915935690491
GUIDED_NOGPS,2.4789953231811523,22.85089157781761,212.70508201859238,-65.12900522419368,-40.187960829119845,8.579371130612527,226.13508605633461,-60.43146183068623,-18.233738218796212,3.9638033815080504,0.2543030972817957,-12.896287638897114,-0.1671012771634531,0.6814035155145364,-0.4289685565306264,0.5109771113051618,212.4633678967256,-66.91805689310047,-39.7076410034207,8.444396822048887,2.0626480624709638
GUIDED_NOGPS,2.5148825645446777,27.871722286458542,212.34545083576737,-66.79065186339425,-39.83025022003475,8.70039937154906,226.5473373301825,-60.251264934190075,-18.044328534888756,3.980542040729636,-0.18210735742452622,-12.914956253446052,-0.2519547838167927,0.7245806059549962,-0.43501996857745306,0.510892960842573,211.79773604493224,-68.17648309220249,-39.72629498367353,9.09157248137572,0.5729577951308232
GUIDED_NOGPS,2.557298183441162,23.580860071175977,212.26768442531247,-68.11736056797105,-39.94535524849798,8.712185181204077,226.96375675132234,-60.06924612165925,-17.85024355329221,3.8112506795089924,-0.6106190185208458,-12.976063394629216,-0.3199222408975407,0.7450096791438524,-0.43560925906020387,0.5110475558476029,211.83947358390867,-69.25754171861021,-40.40212975839977,9.135665463975059,-1.432394487827058
GUIDED_NOGPS,2.5993690490722656,23.7739990024033,212.05728723134092,-69.4906994890747,-40.86137004740339,8.660472827786139,227.38405426289305,-59.885532178259666,-17.65148006264743,3.4178183363813295,-1.1157564374814226,-13.182467442478771,-0.39936383101520573,0.7790366785421471,-0.43302364138930693,0.511604944992378,211.29051529374576,-71.0380736564114,-42.4556854001369,9.477153282215184,-3.896113006889598
GUIDED_NOGPS,2.639281988143921,25.06141813206183,211.79777835137193,-70.71002289453888,-42.264988204597834,8.543845615485496,227.80793549385132,-59.700251774905894,-17.448036762035564,2.954921048403933,-1.5177397505631185,-13.400632222305441,-0.468215098149586,0.8145192414672179,-0.42719228077427485,0.5124084757212811,211.59779893754737,-71.83445330859499,-43.937149455256865,9.07162659337341,-4.5263665815335035
GUIDED_NOGPS,2.6849663257598877,21.893567599450872,211.73456018191797,-71.69640237220992,-44.01579729169216,8.40942040732357,228.23510210410595,-59.51353531740123,-17.239914239144422,2.5898205433968946,-1.5093623101026863,-13.588983226405006,-0.5231107839039719,0.8368109658598563,-0.4204710203661785,0.5133879415262739,212.14727704945588,-72.21668015162336,-45.65455701968273,8.849221210398525,-4.068000345428845
GUIDED_NOGPS,2.731766939163208,21.370507372647324,211.667674755356,-72.08460391130492,-46.01886966617789,8.245272024478865,228.66525212965266,-59.3255147955778,-17.027114948434907,2.144160305007083,-1.1681487908921806,-13.810902048954244,-0.5458030168324048,0.8623818860823076,-0.4122636012239433,0.5144958773588715,211.46330891212224,-72.20267827369642,-48.464902523594105,8.970589023144498,-4.1252961249419275
GUIDED_NOGPS,2.776031970977783,22.596550962465724,211.57574253641042,-72.25855110705666,-47.5905817198938,8.05203537961325,229.0980803277085,-59.136323632436714,-16.80964318930739,1.7567147294086418,-0.8019011342696973,-14.021518615974403,-0.5625023848395232,0.8900266446799627,-0.40260176898066247,0.5153904692652932,211.3798124891809,-72.3562948958502,-48.65228561640459,8.879468821836952,-5.099324376664327
GUIDED_NOGPS,2.81286883354187,27.15199223175271,212.12370385118706,-72.6270171496419,-48.126144399816354,7.834192664142346,229.53327852184648,-58.94609653328813,-16.587505084268102,1.4217399476747083,-0.39485131492773307,-14.200132331638468,-0.5944203123146803,0.8775721405514483,-0.3917096332071173,0.5157693196577742,214.03032186762894,-73.32207827937913,-47.2612450594504,7.744348506477522,-5.901465289847479
GUIDED_NOGPS,2.851177215576172,26.111097968661483,212.76818430284476,-73.0752431402589,-47.40828446388581,7.63594242743549,229.97053594713034,-58.75496933489136,-16.360708557095553,1.066099468111549,-0.16467009791689521,-14.44179296220998,-0.6276920043086246,0.8666989875714224,-0.3817971213717745,0.5155237879533952,214.82020119583586,-73.54735624554742,-46.31132271580247,7.423980551650203,-5.7868737308213145
GUIDED_NOGPS,2.8887598514556885,26.613604060913705,213.30276913212074,-73.472263590158,-46.62796349701844,7.440368937181668,230.40953959524882,-58.56307885459505,-16.12926331100691,0.8738767606087926,-0.07542855376880113,-14.593571718398712,-0.6571918625143601,0.8639943348981755,-0.3720184468590834,0.5152493500930058,214.82020119583586,-73.54735624554742,-46.31132271580247,7.423980551650203,-4.984732817638163
GUIDED_NOGPS,2.935927629470825,21.206059012680242,214.0688945631348,-73.59181812398087,-45.778478969898686,7.2492308664742495,230.84997455965055,-58.3705627394772,-15.893180806824393,0.59952337621416,0.262845529499366,-14.82940961270279,-0.6689981832437183,0.846309147508662,-0.3624615433237125,0.5149426490815372,215.29393606719253,-73.68074188084776,-44.71279147809114,7.528079327011355,-5.385803274229739
GUIDED_NOGPS,2.9761970043182373,24.841003044194117,214.89556294897633,-73.72260842492283,-45.04732652004403,6.995309292649499,231.29152438067842,-58.17755931548534,-15.652474241141693,0.3988925457605592,0.25259277522494217,-15.086407433055566,-0.6865197440989222,0.8263897984329829,-0.349765464632475,0.5146974261394511,215.5131544183886,-73.93972714837325,-44.11786536623852,7.397563003853065,-6.187944187412891
GUIDED_NOGPS,3.0218942165374756,21.888654628953137,215.18898812428856,-73.99756297812189,-44.1209388477339,6.7718081034186355,231.73387139070428,-57.9842074365766,-15.40715852449035,0.3446181017074925,0.11924443073784449,-15.42595662726441,-0.7118028131074488,0.8410126042954414,-0.3385904051709318,0.5143568901616218,215.49744774419008,-74.37221990514463,-43.532159698872114,7.6526785488419335,-6.302535746439056
GUIDED_NOGPS,3.059248924255371,26.776198106522475,215.4933493822436,-74.42815289567235,-43.62187922547724,6.528817327865632,232.17669705926357,-57.79064633385784,-15.157250259506148,0.30276830536320787,0.11636486567244943,-15.606232640217726,-0.7467285033761206,0.8487553841817687,-0.3264408663932816,0.5142323144829856,216.3420074856111,-74.97251163349914,-43.21561261132112,7.255606806226979,-5.328507494716656
GUIDED_NOGPS,3.0968081951141357,26.65419420437214,215.87164597250936,-74.91851386423814,-43.349361716909435,6.35549188961331,232.6196823381897,-57.59701546472577,-14.902767719095518,0.35295541480655085,0.1251256505000486,-15.775010029703328,-0.7826269787848164,0.8516547935985731,-0.31777459448066553,0.514223296998907,216.71168414716465,-75.41081005407061,-43.300312840535106,6.397894484881078,-3.896113006889598
GUIDED_NOGPS,3.136540412902832,25.171059580392722,216.36310198638498,-75.40907284638156,-43.324384962457835,6.211399930244982,233.06250800674897,-57.40345436200702,-14.643730824601942,0.2810951012705525,0.13192190216762284,-15.944689004159368,-0.8166997225143504,0.8484168571304672,-0.3105699965122491,0.514340327068928,217.75121613657075,-75.84389685157493,-43.45722943551732,6.353526495700734,-3.724225668350351
GUIDED_NOGPS,3.180241346359253,22.890174419873823,216.8125885464819,-75.86281937955681,-43.27210307612925,6.050070467103309,233.50485501677485,-57.21010248309827,-14.38016112397234,0.21507802790971325,0.2948479539686376,-16.075772287162962,-0.8488755503296708,0.8493017452045152,-0.30250352335516545,0.5144459709760785,217.76058721887333,-76.33375123302488,-43.05876695233536,5.8908364945781955,-3.9534087864026803
GUIDED_NOGPS,3.2167258262634277,27.412676627060378,217.1970838233122,-76.51796538019524,-42.99064468163985,5.906570680010164,233.94640483780273,-57.017099059106414,-14.112081769923467,0.24059346687455205,0.26444336687832587,-16.19262999367271,-0.8961137678011369,0.8536292780353197,-0.29532853400050824,0.5144392814558582,217.4199241283416,-77.3762480559859,-42.455937657066904,5.961692296716521,-3.0366763141933633
GUIDED_NOGPS,3.2546021938323975,26.406008599903046,217.4126671518583,-77.0287491149989,-42.65688075548971,5.814590886924921,234.38683980220443,-56.82458294398857,-13.839517498108307,0.4079950001292177,0.29181193488256696,-16.303483963902018,-0.9296683526460653,0.8676830985804063,-0.29072954434624604,0.5144086816286907,217.4199241283416,-77.3762480559859,-42.455937657066904,5.961692296716521,-2.0053522829578814
GUIDED_NOGPS,3.2994933128356934,22.284050579109554,217.57549581533993,-77.85194506133938,-42.171495840227806,5.742142524496938,234.82584345032296,-56.63269246369225,-13.562494605282492,0.4746432923591145,0.3647124648848171,-16.37962179012744,-0.9834984496272999,0.8824046301422991,-0.2871071262248469,0.5143045006174727,217.525827464573,-78.8033390720463,-41.602612206549644,6.4116456838659275,-1.432394487827058
GUIDED_NOGPS,3.344003200531006,22.469806711524452,217.77393055305637,-78.69683435909428,-41.772504115316856,5.671389892737949,235.26310087560677,-56.441565265295495,-13.281040927470656,0.4957198687555987,0.3203102588642105,-16.447015266667957,-1.036597203999095,0.8947246664414171,-0.28356949463689746,0.5142457315939231,218.74338982515292,-79.91091594925066,-41.25896248233405,5.5968781039820925,-0.9167324722093172
GUIDED_NOGPS,3.3868319988250732,23.350855412229084,218.06184732209195,-80.19237192891063,-41.157167897431385,5.634040503532398,235.6982990697448,-56.251338166146894,-12.995185818132882,0.4619938353771038,0.21481969468065604,-16.461012031824605,-1.1298840259818779,0.9018779935066349,-0.2817020251766199,0.5140809910396492,219.20017106405112,-81.86286076543496,-40.609929003410485,5.421198608017036,0.0
GUIDED_NOGPS,3.4305765628814697,22.86783523703078,218.16481681142665,-81.46994735558427,-40.69504504069298,5.64405296236533,236.13112726780062,-56.062147003005805,-12.70496012633106,0.41562544201003265,0.3330585935066277,-16.41677118902314,-1.2015360809180462,0.9212220717367966,-0.2822026481182665,0.513995042457181,217.93477157501505,-82.6360653520672,-40.21624363633443,6.287110380925029,1.088619810748564
GUIDED_NOGPS,3.4766814708709717,21.692581405933222,218.32155076855412,-82.78354357537123,-40.339403029197875,5.682707464638055,236.5612772933473,-55.87412648118239,-12.410396174895297,0.23999673245667508,0.14087841460362518,-16.349603108725233,-1.277363423132392,0.934923189104541,-0.28413537323190274,0.5139645034271513,218.20359391397895,-83.85170460861157,-40.192036447848714,6.4375667802286785,1.3750987083139758
GUIDED_NOGPS,3.519383430480957,23.422313804984558,218.59639564168373,-83.94523573248182,-40.26238532142864,5.720305938698392,236.98844390360196,-55.68741002367772,-12.111527738590325,0.1271584722115604,-0.1168764895299657,-16.324970031483584,-1.3454785356745085,0.942138446517285,-0.2860152969349196,0.5140754287914192,218.9000518302213,-85.34793723676675,-40.37887588010279,5.561196667066383,0.8021409131831525
GUIDED_NOGPS,3.5602574348449707,24.468424952017596,218.48979745447429,-85.71837416368267,-40.597296155468115,5.752641472605791,237.41232513456023,-55.50212962032394,-11.808390022281879,-0.01283571970913241,-0.2651507183442453,-16.30470144512157,-1.4526885330328383,0.9741150763414025,-0.28763207363028953,0.5143944530665931,218.2103988891056,-87.95548064566977,-41.220976138452855,6.236064933361547,0.5156620156177409
GUIDED_NOGPS,3.598402976989746,26.220791317883734,218.09584054622505,-87.44929531322992,-41.11431882293977,5.779206833897635,237.83262264613094,-55.31841567692437,-11.501019639103102,-0.14658255637551143,-0.507098430304311,-16.306359473542592,-1.5508949763650735,1.0197949926137029,-0.2889603416948818,0.5148066495919184,217.23038652280505,-89.0444680572533,-41.743104450263694,6.7732392011004094,0.2864788975654116
GUIDED_NOGPS,3.6352109909057617,27.17574186860179,217.96929066736593,-89.13641460236022,-41.8544436066605,5.801004412453782,238.24904206727078,-55.13639686439353,-11.189454588620947,-0.24752770970770172,-0.3044975171619847,-16.289630632717937,-1.6458731889053395,1.0443850053931707,-0.2900502206226891,0.5153324945090197,217.30202218071943,-90.40929510415764,-42.599250231264946,6.763576866263918,0.34377467707849396
GUIDED_NOGPS,3.680649757385254,22.01145100261872,217.85434725252094,-90.41665205737841,-42.52471846453988,5.80363839863973,238.66129334111866,-54.95619996789739,-10.873734235002566,-0.3349121360926399,-0.23526671973473545,-16.30347201107097,-1.711191165089486,1.0701164853950391,-0.29018191993198655,0.5158254921147687,217.62887683975384,-91.79619301072435,-43.231800712090994,5.939540296172666,-0.2864788975654116
GUIDED_NOGPS,3.7200255393981934,25.400012111669593,217.55189788676444,-91.69570607848034,-43.089398207764845,5.800206209363302,239.06909107013064,-54.77794973599332,-10.553899285181712,-0.5392023471157809,-0.18586204047732915,-16.343461061114102,-1.7880010882082382,1.1097189997908625,-0.2900103104681651,0.5162677494612916,217.38780500143892,-92.88163012055912,-43.43714367993859,6.12193815255462,-0.40107045659157625
GUIDED_NOGPS,3.763517141342163,22.996474568093472,217.17898858664725,-93.24019838997442,-43.1161522174765,5.780894841573904,239.47215486121414,-54.60176872977037,-10.229991767025126,-0.6518293917649408,-0.26012007057711933,-16.38708547934297,-1.8769500394149445,1.1493688401036881,-0.2890447420786952,0.5164430802252257,216.34585238851975,-95.04277203863987,-42.679512260399875,6.860919768153195,-1.260507149287811
GUIDED_NOGPS,3.790553092956543,37.00475539282721,217.21765619456127,-94.7601976827654,-42.928350373759145,5.739100450851659,239.87020967086278,-54.427777171989234,-9.902055007498946,-0.7178573107191301,-0.2759306778452295,-16.40621000901901,-1.975109506590793,1.1658397305404136,-0.2869550225425829,0.5165131476831301,217.42372456237516,-96.35619088909728,-42.668395180938944,5.837762315596805,-1.5469860468532228
GUIDED_NOGPS,3.830195188522339,25.23086918074797,217.24844753354893,-96.23139397639126,-42.694146729526956,5.695328246593365,240.26298615029094,-54.25609279622245,-9.570133610835104,-0.8734119342192614,-0.056720238745313074,-16.497102751398952,-2.0472291690246243,1.1825458400401352,-0.28476641232966826,0.5165620065593459,217.45597887565765,-97.29521900143673,-42.734532747242035,5.3680909818086775,-1.8907607239317168
GUIDED_NOGPS,3.879864454269409,20.13723437965106,217.20726273594073,-97.26012063224577,-42.684127468198064,5.617057333285459,240.6502209905683,-54.086830695994465,-9.234273436697702,-1.1019660721037554,0.19565204943548462,-16.646888799897333,-2.1008357070741273,1.2049256272645001,-0.28085286666427295,0.5167249270157502,217.42295285171284,-98.12895200620338,-42.64945447641321,5.500566473798031,-2.6929016371148693
GUIDED_NOGPS,3.923084259033203,23.145457053775903,216.98748617910914,-98.30595260880766,-42.39288442958401,5.496482221270328,241.03165726775438,-53.92010317392175,-8.894521578349448,-1.3045177865397164,0.29563769459142036,-16.755379524673813,-2.16547980391036,1.238727895211327,-0.2748241110635164,0.5167491814256173,216.2889222172809,-99.49368681878293,-41.79466606509677,6.566517959318205,-3.666929888837269
GUIDED_NOGPS,3.957313299179077,29.215569362792902,217.10272963372375,-99.31687735818707,-41.93730036971158,5.3570203541507,241.4070447880332,-53.75601959085298,-8.550926340818004,-1.4584332179998978,0.47495449285317326,-16.839023728797084,-2.228591363080294,1.2493117638293296,-0.267851017707535,0.5166931870144468,216.92206966159276,-100.32799324957497,-41.36778056762475,5.652655840417339,-4.1252961249419275
GUIDED_NOGPS,4.003328084945679,21.738339941434088,217.02749175368254,-100.21769055490199,-41.31170204772989,5.2250712687072,241.77614043284797,-53.59468621500899,-8.20353721906242,-1.7673595792301067,0.9816192061451885,-17.157199553545667,-2.278650938806047,1.273823534737727,-0.26125356343536005,0.5165540824143338,217.047535162169,-100.83139159634808,-40.77265951046814,5.451684450175875,-4.354479242994256
GUIDED_NOGPS,4.045659780502319,23.629881690140845,217.09312002881884,-100.79973838461196,-40.83044325787154,5.046937677405917,242.1387085040354,-53.436206071123074,-7.852404876139525,-1.9632960420114989,1.324143374624396,-17.398221561429782,-2.3145179239919935,1.2882627711061598,-0.25234688387029586,0.516489019190866,217.7841202513392,-101.23983030791284,-40.350889695521744,5.1621427804721804,-4.5263665815335035
GUIDED_NOGPS,4.091356515884399,21.88739817670419,217.2598404823762,-101.2770576902628,-39.93556913751845,4.853339985969203,242.49452106896064,-53.28067878958091,-7.497581121370313,-1.9893995309154067,1.5200588132297492,-17.611280774851867,-2.3467088282924213,1.2975029475634983,-0.24266699929846017,0.516218994008074,218.2565551194996,-101.75995116652753,-38.68315820656546,5.006865166055931,-5.099324376664327
GUIDED_NOGPS,4.133198022842407,23.903799026592047,217.79781013652172,-101.68624907526218,-38.948050627948845,4.655982169900008,242.84335830565146,-53.128200455560844,-7.139118888506335,-1.7118876642773193,1.4115548549617498,-17.78659977801505,-2.3766134821706397,1.2847603686916411,-0.2327991084950004,0.5159044658697213,218.97877048800873,-102.05896575134626,-37.81010398175934,4.59392200292578,-4.010704565915763
GUIDED_NOGPS,4.181068181991577,20.894940044736042,218.2782351190975,-101.99501792475559,-37.75504530584052,4.494372098748283,243.18500884793332,-52.978863458173834,-6.7770722138961155,-1.4171773813091397,1.2165002336352297,-17.940946685331703,-2.3999294889301033,1.2798282384971695,-0.22471860493741413,0.5154889865459722,219.32419457447168,-102.16613685639304,-36.77187372919677,4.322920200987696,-3.552338329811104
GUIDED_NOGPS,4.222501277923584,24.137100765379525,218.8348795916661,-102.34436046642917,-36.90362152874,4.301699599805775,243.51927013056343,-52.83275633960372,-6.411496214651532,-1.3422443364202818,0.8422067208921773,-18.14672150200397,-2.4279450240127143,1.2685012110210794,-0.21508497999028875,0.5152460626570442,219.83075752501182,-102.80797879154824,-36.1288868752639,4.50205209817554,-4.640958140559668
GUIDED_NOGPS,4.266314506530762,22.826889585510276,219.24420704640065,-102.59403147982982,-36.343215826574855,4.123334525679098,243.8459487343659,-52.68996364424721,-6.042447066814219,-1.4652459048101623,0.7016653334354099,-18.332311402131555,-2.4482556381341527,1.2671890699520123,-0.20616672628395494,0.5151503843798804,219.83075752501182,-102.80797879154824,-36.1288868752639,4.50205209817554,-4.698253920072751
GUIDED_NOGPS,4.312257289886475,21.770836253029998,219.6076298968761,-103.01427055763749,-36.40959409574074,3.9547974401911037,244.16486073136585,-52.55056576785403,-5.6699819835219785,-1.6710078081560293,0.7071504022257533,-18.51779884942159,-2.480228838559242,1.2665271391522477,-0.1977398720095552,0.5153698060561094,220.07366937187683,-103.42685408981606,-36.97100853669442,3.958114477164955,-3.2658594322456924
GUIDED_NOGPS,4.3570544719696045,22.328774561735067,219.86237801236865,-103.25555589748814,-36.90969802818918,3.791499924923349,244.47583202992428,-52.414638806667064,-5.29415919317514,-2.0070478859570735,0.925289355399624,-18.708581400865683,-2.4993842433451503,1.271564888556383,-0.18957499624616747,0.5158077694175071,220.2525110654714,-103.53183481110018,-37.629198672609235,3.547116044947458,-3.6096341093241864
GUIDED_NOGPS,4.395226001739502,26.2081755583049,220.21542219868843,-103.54295168222235,-37.62642382097807,3.631828516678361,244.77869871987247,-52.28225440656244,-4.915037917602994,-2.3073062035220073,0.9748045983442198,-18.838310598866318,-2.523681664197725,1.2687095147820928,-0.18159142583391807,0.5163556929516875,221.08941550607062,-103.67016614575087,-38.279064253630565,3.645919499168656,-3.495042550298022
GUIDED_NOGPS,4.437791585922241,23.498422907340903,220.4863998362323,-103.62172948799525,-37.947748667755555,3.5101888554183076,245.07330741764676,-52.1534796121896,-4.532678350230174,-2.6281295803476152,1.157322620892593,-18.97328879724411,-2.533166191163615,1.2718770459101456,-0.1755094427709154,0.5167075351587627,221.18564571273123,-103.66318750713477,-37.93498307702689,2.9520952414811745,-2.864788975654116
GUIDED_NOGPS,4.478294849395752,24.693293142426526,220.8097761129708,-103.64378364797902,-38.001709055343795,3.3795373920057616,245.35951561142303,-52.0283767161115,-4.147141634243045,-2.90530377950861,1.3311212666352104,-19.09900184401278,-2.5419979052294326,1.2702708008592614,-0.1689768696002881,0.5169272837105504,221.44763890870453,-103.59799729105146,-37.79107983537394,3.249303048149798,-3.0366763141933633
GUIDED_NOGPS,4.519250154495239,24.421979352870277,221.14830616248582,-103.59634917830708,-37.70596638740594,3.2552874746624267,245.63719200625135,-51.90700310794464,-3.7584898407561234,-3.0543498196991012,1.3720242813666548,-19.216568182648917,-2.5468941347453797,1.2679551990196116,-0.16276437373312136,0.5169737382733249,221.766319619452,-103.52786273673505,-37.391836249817,3.5187289779263153,-3.380450991271857
GUIDED_NOGPS,4.557009935379028,26.491400708659924,221.54386282176952,-103.54919233585696,-37.46324734596618,3.1197942512970336,245.90621686919047,-51.78941112349922,-3.3667859469784496,-3.1195181486740737,1.2896936079981443,-19.37780333574353,-2.5524036463261734,1.2616136691213231,-0.1559897125648517,0.5170482306994939,222.2302943618899,-103.52171697978439,-37.20682595270761,3.338034786620028,-3.666929888837269
GUIDED_NOGPS,4.5962793827056885,25.471430219776884,222.00066257469933,-103.47366962329208,-37.29873605263044,2.991064869291897,246.1664823744424,-51.67564789391923,-2.972093814379985,-3.097203066881996,1.173970780107676,-19.505469816614823,-2.5558936620366777,1.2518853888583825,-0.14955324346459484,0.5171633211191252,223.37341427071996,-103.3714291533568,-37.29754595536673,2.2260148381835307,-3.323155211758775
GUIDED_NOGPS,4.639044523239136,23.389920868163795,222.46754426744647,-103.32595835041984,-37.31618900130834,2.866904183898885,246.41789294848726,-51.56575519482253,-2.5744781668580536,-3.0336688606659488,1.2964004268762737,-19.647595807959036,-2.5552990496325436,1.2421564081353533,-0.14334520919494426,0.5173708554172252,223.5200541764669,-103.08472891811837,-37.444195095850674,2.7170629393942534,-3.20856365273261
GUIDED_NOGPS,4.679427623748779,24.76678161462516,222.98609141770663,-103.09484032838328,-37.39469673257031,2.732035772276392,246.66036561521753,-51.45976929544105,-2.1740045689036656,-2.959582439069055,1.3125491285082993,-19.770144769594694,-2.55001992053055,1.2283978039695134,-0.1366017886138196,0.5176103460818333,224.04037466000514,-102.82836291367477,-37.44234914649355,2.3562125376664085,-3.20856365273261
GUIDED_NOGPS,4.723909854888916,22.48486375503246,223.50821072580652,-102.83401171591716,-37.40810115590074,2.6245849327299893,246.89383034107277,-51.357720807760785,-1.770739403767955,-2.6668078744003396,1.3328864436488355,-19.916493525393268,-2.5441294783698583,1.2151718765753992,-0.13122924663649946,0.5178186808760664,224.37691615995138,-102.58894331595842,-37.337759225358006,2.776894329343989,-2.2345354010102105
GUIDED_NOGPS,4.768471002578735,22.445156767575146,223.94935871034983,-102.55100786012031,-37.16006785299508,2.5375397012583334,247.1182303801743,-51.259634535662,-1.3647498516286092,-2.4193023094465875,1.3941553749379656,-19.971882944467485,-2.536885215048178,1.2061865721731977,-0.12687698506291667,0.5178976590006832,224.43603428460645,-102.23571735072775,-36.7000951871337,2.6197009524180572,-1.088619810748564
GUIDED_NOGPS,4.807689428329468,25.50286992898142,224.35517418956414,-102.15059614719753,-36.543326351463435,2.478818426114816,247.3335226194597,-51.16552932405931,-0.9561038677562017,-2.3785245859977304,1.5270127995784686,-20.014489664510023,-2.521702161307763,1.1975425767469743,-0.1239409213057408,0.5177936112418536,225.40249166679158,-101.62712777490647,-35.592124641898614,2.561525534021527,-0.8021409131831525
GUIDED_NOGPS,4.84675931930542,25.60218768693614,224.80723906040112,-101.74729248240617,-35.73738063994315,2.454861595151933,247.5396779238174,-51.07541790804176,-0.5448701606806061,-2.396706549568304,1.4644311913082266,-20.036604109495233,-2.5079688063981567,1.1854493346643595,-0.12274307975759664,0.5175962552396313,225.78037853065163,-101.37903232158428,-34.91992209079714,2.956643026027237,-0.2291831180523293
GUIDED_NOGPS,4.891522169113159,22.3450715480592,225.33404469077914,-101.42989655372669,-34.931322749376946,2.4684248694393824,247.73668148122127,-50.98930676201296,-0.13111817035743556,-2.2595762012717238,1.4887607520186352,-19.984651983120823,-2.5000696309922845,1.169411504602023,-0.12342124347196913,0.5174001022895097,226.6744028118954,-101.28352956468936,-34.2819215154351,2.3079590305235342,1.5469860468532228
GUIDED_NOGPS,4.941488265991211,20.018441977453442,225.93208463226034,-101.15072671257094,-34.31239530619961,2.515589609357978,247.92453314786525,-50.90719594883118,0.28508195366561395,-2.088647515640981,1.4382766894289554,-19.897753193858044,-2.4933407391357134,1.1495825763823544,-0.1257794804678989,0.5172987386299326,227.36711586735728,-100.78961825143921,-33.73534231236661,2.5541791046253763,1.948056503444799
GUIDED_NOGPS,4.983060598373413,24.056805276742185,226.65402220814536,-100.95873613586427,-33.81810158575097,2.573499037865109,248.10324779329784,-50.829078968949545,0.7036593740823314,-2.0803947261329014,1.3802683196948602,-19.845222208951476,-2.490326343490952,1.1208691829825232,-0.12867495189325545,0.5172608804799167,228.0457221640316,-100.80306059146422,-33.437040929451214,2.2505572311192736,1.1459155902616465
GUIDED_NOGPS,5.0258307456970215,23.38600844154758,227.25666098588454,-100.81399399475588,-33.468251474852345,2.6324084473524807,248.27285564555683,-50.754942609555954,1.124542587661626,-2.08573977604526,1.4014683731049336,-19.769898882784574,-2.48947921779533,1.1015902854855752,-0.13162042236762403,0.517296397031257,228.41568555548756,-100.84930314136415,-33.23237118273923,2.45133789093299,1.8334649444186344
GUIDED_NOGPS,5.071681499481201,21.81386229242187,227.78379219735552,-100.77252858893821,-33.22661249443783,2.702263372878731,248.43340263630387,-50.68476679371338,1.5476594470810952,-2.0539221935704015,1.3422263004520048,-19.68875965053941,-2.4943558519113727,1.0852922134509566,-0.13511316864393655,0.5173871359707595,228.41603458800665,-100.66522203398624,-33.01042537112305,2.6154794817359175,1.8907607239317168
GUIDED_NOGPS,5.105148553848267,29.889500951349348,228.20643919485647,-100.67734429271655,-33.08679318556002,2.780709036446291,248.58495074595885,-50.61852442949994,1.972937182760628,-2.0104132482271857,1.1092972129607062,-19.62749797632627,-2.4938363946555384,1.0723503110846972,-0.13903545182231455,0.5175298651841603,228.78763779940004,-100.51750770279921,-33.017583002817794,2.861517036129598,1.776169164905552
GUIDED_NOGPS,5.155135631561279,20.008033163034092,228.54749695481715,-100.55587822337378,-32.971523040972734,2.845139620743934,248.7275783488348,-50.556181259148914,2.40030242469609,-2.0247653966640864,1.0940024984183436,-19.526127723759526,-2.4932035880152776,1.065491546667905,-0.14225698103719672,0.5176859127328344,229.07240466716067,-100.48490493333581,-32.88656074897738,2.7462018575639178,2.2345354010102105
GUIDED_NOGPS,5.201622009277344,21.539185226648318,228.89599863029306,-100.49530217900407,-32.97634719535086,2.929574739165503,248.86138055827217,-50.49769570818894,2.8296812242927594,-2.0744595051875723,1.1378226442556183,-19.454726633723507,-2.496007132716249,1.0553875183413746,-0.14647873695827515,0.5179030142098218,229.78823054141108,-100.48349390087712,-33.0248978342574,2.699184847152381,1.432394487827058
GUIDED_NOGPS,5.243990421295166,23.60820204544559,229.31097772258508,-100.35289097348846,-33.05027327091201,2.984080021290151,248.98646957177374,-50.443018734584086,3.2609990761991554,-2.130632475025638,1.213849053020207,-19.43519058514998,-2.492725285056715,1.0406079068445129,-0.14920400106450757,0.5181556361735555,230.49058101694766,-100.09027408625236,-33.239361229501235,2.948879122578802,0.5156620156177409
GUIDED_NOGPS,5.287156105041504,23.172182137608697,229.73233718992583,-100.12490149986492,-33.147912893268334,3.00572827638966,249.1029750161389,-50.392093677874,3.694180940140381,-2.288285407343991,1.4344090948114356,-19.446465519922377,-2.4849989303875186,1.0260843386998026,-0.15028641381948302,0.5184210469167043,230.52283192471037,-99.80093651246521,-33.17947961604636,3.3070091145318656,-0.11459155902616465
GUIDED_NOGPS,5.327411413192749,24.845417495971947,230.3197274570113,-99.65671892074782,-33.026803024513775,2.980618495616779,249.2110442925986,-50.34485610831395,4.129151262752011,-2.331085293673995,1.5677775029792202,-19.51881771380032,-2.4626863011241205,1.000389648372717,-0.14903092478083896,0.5185779771436329,231.7245891348275,-99.0789461635258,-32.66156822799375,2.639105576039668,-1.7188733853924698
GUIDED_NOGPS,5.375436544418335,20.826153448926494,231.0312529378003,-99.13284165590493,-32.6436157528286,2.9094534343601106,249.31084292194942,-50.30123367601499,4.56583399941341,-2.3288144692183774,1.755025004641004,-19.6473755343583,-2.4413775877064734,0.9704026942101855,-0.14547267171800554,0.518604724876121,232.63003207110577,-98.51864229172367,-32.08979941444573,2.5725579429307004,-2.9220847551671985
GUIDED_NOGPS,5.420206785202026,22.33995387458788,231.8967675002378,-98.12169764839962,-31.80871433788194,2.7904420040628177,249.40255488968867,-50.26114596008408,5.00415263608156,-2.1795071742921337,1.7150739475251302,-19.8192282165177,-2.3891063622185995,0.930182999645399,-0.1395221002031409,0.5184064334869818,234.1158033535984,-96.7675044899493,-30.674775371206387,2.624078581823568,-3.495042550298022
GUIDED_NOGPS,5.467790842056274,21.018812327737407,232.82429474802302,-96.99287402323381,-30.959532072547216,2.6177514811716436,249.4863829911487,-50.22450431776417,5.444030211124559,-2.0571050617236275,1.5042332649228298,-20.071996442226947,-2.3360259903642415,0.8885187494332861,-0.13088757405858217,0.5182017811418359,235.12821725587384,-95.6924752880284,-30.114021431989563,2.3171177791428903,-5.500394833255903
GUIDED_NOGPS,5.510009050369263,23.690342112546386,233.98016767035142,-95.68222138235446,-30.146163348291783,2.3776741620123776,249.56254917663162,-50.19121173357425,5.885389337155207,-1.9876746947065669,1.379408569633085,-20.338143300972956,-2.270453302889956,0.8312898229534632,-0.11888370810061888,0.5180157763427234,236.30219653635223,-94.58668436908562,-29.649693241679437,1.9574156712691746,-6.41712730546522
GUIDED_NOGPS,5.552654266357422,23.454140804115642,235.06850511584284,-94.50851186215215,-29.797901151381126,2.136235842660477,249.63129489654386,-50.161162668449634,6.328152222864691,-1.9120529746503014,1.1727565005392946,-20.59747192338,-2.2168525108558783,0.7817411640707835,-0.10681179213302386,0.5180630266871229,237.1662763622847,-93.24637592934238,-29.6299887804744,2.020329607559546,-6.589014644004467
GUIDED_NOGPS,5.607159376144409,18.349713005739886,236.40525541486326,-92.58511022883708,-29.721147800953958,1.869351785893199,249.6928814465305,-50.13424290888187,6.772240694856119,-1.7257209317807107,1.051704844435747,-20.961314392919288,-2.1203546251447327,0.7189714579565141,-0.09346758929465995,0.518246694247905,239.3137835662079,-89.9222703880832,-29.88376138070807,1.3287289817546792,-6.760901982543714
GUIDED_NOGPS,5.6493237018585205,23.719414126562235,237.77494989699935,-90.46133291937326,-29.90881979319097,1.5263464776690066,249.74759031261024,-50.110329416058946,7.217576219478165,-1.6148733648537508,0.7073664069582549,-21.250163092919127,-2.009722635224495,0.6499315662239222,-0.07631732388345033,0.5185631980063345,240.96427576427882,-88.21535244069416,-30.212709218390458,0.9375632673141752,-6.64631042351755
GUIDED_NOGPS,5.695808172225952,21.51984566761072,239.26897437097122,-87.52937060353976,-30.33974870341852,1.2818786829830386,249.79572351630998,-50.0892901750054,7.664079924658605,-1.510855666931686,0.4302261452996985,-21.50314817713452,-1.85926564891749,0.5780318338486143,-0.06409393414915193,0.5190019143140385,242.59833962573316,-84.45048898184191,-30.92277551115706,0.6309402295355966,-5.042028597151244
GUIDED_NOGPS,5.740028381347656,22.615801875347113,240.89093709310526,-85.0883824125942,-30.92333054606851,1.0440906405130395,249.83760395979905,-50.07098404372249,8.111672621738027,-1.534698683385437,0.348528758533295,-21.66209521685718,-1.743774773696364,0.4972075985456054,-0.05220453202565198,0.5195175015839033,244.41201014702267,-82.5993058152465,-31.634506908658043,0.6667396479286083,-4.583662361046586
GUIDED_NOGPS,5.782982587814331,23.28461350565141,242.44673952230337,-82.5760220637762,-31.507533406611685,0.8488115062458352,249.87357577102415,-50.055260602328104,8.560274827303328,-1.6095166822754623,0.2677797008444655,-21.87242064706397,-1.6186210711938507,0.42167577934935974,-0.04244057531229176,0.5200339041169575,244.9452885082751,-80.67827139424017,-31.965317800019985,0.5170363396384516,-3.7815214478634336
GUIDED_NOGPS,5.829996824264526,21.272957812198857,243.8103794721094,-80.77180937319967,-32.048922107917,0.7113592191058387,249.90400464884365,-50.041960002197115,9.009806785021414,-1.6690562950441097,0.26630373965350806,-21.988964164871895,-1.5405184868900668,0.3588040174272101,-0.03556796095529193,0.5205293644464692,246.13198331523782,-79.03785091011237,-32.54694161507301,-0.11254679076405694,-2.0626480624709638
GUIDED_NOGPS,5.8702356815338135,24.85955429113324,245.22295924330274,-78.43296166334947,-32.52789182817685,0.6121684579471166,249.92927820816251,-50.030912815101345,9.460188487472681,-1.748731198764249,0.44615585399146074,-22.024689469325647,-1.414771872912837,0.2862081526227155,-0.03060842289735583,0.5209940401578248,248.02717462024572,-75.5827626856959,-33.07141606943758,0.05372828577624489,-0.6302535746439055
GUIDED_NOGPS,5.91162109375,24.166723324325726,246.4592469544303,-76.20487282484933,-32.8058578794349,0.5822666677028011,249.9498063250666,-50.02193988234967,9.91133969798479,-1.7301520170047564,0.5308747456919486,-22.033146951065415,-1.3080833262162133,0.22872156535284033,-0.029113333385140057,0.5213585987887098,248.779778181371,-73.99400487873973,-32.79921595379413,0.5122810104438713,0.17188733853924698
GUIDED_NOGPS,5.9555182456970215,22.786709259621443,247.43239040743447,-74.06127717181734,-32.646494373619625,0.5983171313039836,249.96602148195748,-50.0148521639282,10.363179972466067,-1.6138205552262166,0.716968585714235,-21.986392598649385,-1.2043283364120532,0.18452366368063505,-0.02991585656519918,0.5215048371730429,249.2777274120436,-72.60706395101637,-32.06885109762718,0.398291081225409,1.7188733853924698
GUIDED_NOGPS,5.9970481395721436,24.08263523251207,248.82535627607427,-72.32341921878549,-31.79611067918961,0.6648950660893534,249.97837911268667,-50.00945058764036,10.815628681239307,-1.4358159003370468,0.722056863202483,-21.875099788765905,-1.1221251392170666,0.10982869112146162,-0.033244753304467675,0.5213058696802144,251.91011785147398,-70.36918882660032,-30.520264986147563,-0.04714622474367047,3.0366763141933633
