Mode,Time,Freq,North-Vision,East-Vision,Down-Vision,Yaw-Vision,North-Desired,East-Desired,Down-Desired,Roll-UAV,Pitch-UAV,Yaw-UAV,Roll-Control,Pitch-Control,Yaw-Control,Thrust-Control,northVraw,eastVraw,downVraw,yawVraw,zGyro
GUIDED_NOGPS,0.023596763610839844,42.417693995813146,194.3973928260825,-78.06851318060124,34.49657459694903,7.842817126148413,197.77491418353134,-79.23307618628792,13.577882039279896,0.7239630729502984,2.709385779582318,105.38123334551004,0.1304557469920678,0.29762686542913996,-0.3921408563074207,0.48954065372116545,194.3973928260825,-78.06851318060124,34.49657459694903,10.314588015926589,0.6302535746439055
GUIDED_NOGPS,0.028147220611572266,220.21967867268717,196.12033885038846,-78.65099676018839,36.1913044920532,10.100748498223131,197.77507047596916,-79.23283906785258,13.577895596490503,0.7239630729502984,2.709385779582318,105.38123334551004,-0.11833848868154885,-0.2449054796596207,-0.5050374249111566,0.48869329555221863,197.84328487469443,-79.23348033977554,37.886034387157366,8.576272113977879,0.6302535746439055
GUIDED_NOGPS,0.03125333786010742,325.41733260920165,196.61550687953797,-78.79738912151846,37.99390835815586,10.097771351286804,197.7761519104666,-79.23119837391046,13.577989952317655,0.7239630729502984,2.709385779582318,105.38123334551004,-0.04419314321563164,-0.10615087666336005,-0.5048885675643402,0.4877920407970809,197.60584293783697,-79.09017384417861,41.599116090361186,9.82280965507185,0.6302535746439055
GUIDED_NOGPS,0.06703639030456543,27.939674926725285,196.98669195508768,-79.32893353289798,42.4582934059329,10.07561709085842,197.77904917492836,-79.2268028009355,13.578244412536412,0.6719852800056484,2.575947788862364,105.40801451724566,-0.010604980212642764,0.03083304025832257,-0.5037808545429211,0.48555997550330177,198.1002471817368,-79.6631464147398,47.88972974028013,8.869398392187819,0.6875493541569879
GUIDED_NOGPS,0.11317777633666992,21.676325731148285,197.2094030004175,-79.47215555788607,45.79285852364049,10.07951821156329,197.78461583637403,-79.21835736320126,13.578736664343317,0.9632256134320499,1.9598446620465269,105.49303671203398,-0.008358802164851603,0.02521261746676449,-0.5039759105781645,0.4838929390703514,198.1002471817368,-79.6631464147398,47.88972974028013,8.869398392187819,1.1459155902616465
GUIDED_NOGPS,0.16070771217346191,21.041482930744728,197.96325096793817,-79.6517293044381,49.74543993886473,10.106185145133905,197.79366885295028,-79.20462261598377,13.57954278732981,1.229386345999811,1.0407389757232917,105.62607513668749,-0.025023319312108185,-0.01927880894233671,-0.5053092572566953,0.4819170514242325,198.16663266368576,-79.62889508383472,53.45686033603387,8.895373447868437,1.6615776058793874
GUIDED_NOGPS,0.20515060424804688,22.506702153918802,198.02700289107494,-79.49945235243626,53.171199875937894,10.1489463279663,197.80698908594306,-79.18441387876416,13.580737264455642,1.3996627485648172,0.08980604861082507,105.69945185894093,-0.01219357052445738,-0.009738638685910597,-0.507447316398315,0.4802047686942589,198.16204449037838,-79.2063155587343,58.167009551499646,8.976919323215824,1.4896902673401404
GUIDED_NOGPS,0.24306964874267578,26.377611470976667,198.03819833719172,-79.3428274808936,57.14004576990947,10.190684196638301,197.82532181178982,-79.15660045843156,13.58239299302229,1.5483429467478895,-0.5287800120508703,105.75043239090591,-0.006496286686126107,-0.009083073620105497,-0.5095342098319151,0.4782211736115564,197.66182016842083,-79.1932718001118,59.79626742219486,9.11228959716442,1.432394487827058
GUIDED_NOGPS,0.2784583568572998,28.264646818604525,197.93270141822546,-79.162036009149,59.78389936656242,10.216867107728472,197.84937723409175,-79.12010487248577,13.584581295646366,1.8043376897880268,-1.347999090961135,105.77114835465856,0.0014481849176520214,-0.0007173694835970828,-0.5108433553864237,0.476900340964542,197.57276258690555,-79.08652066860093,61.38842112599274,9.200594210784885,0.9740282517223995
STABILIZE,0.31977319717407227,24.208848229488325,197.90088856442978,-79.12931695237428,61.30423257973384,10.224528622491812,197.87983099562587,-79.07390207224009,13.587371931233035,2.0746059273679043,-1.9955405113094828,105.76131971244291,-0.0023599151163749194,0.0009209235764504752,-0.5112264311245907,0.4761415696757496,197.94118291275825,-79.10815838841012,62.72800919101389,9.376412323902983,0.17188733853924698
STABILIZE,0.35904860496520996,25.467872973465298,197.95820037754143,-79.04671704653981,62.75508320231356,10.209996660811143,197.9173246903574,-79.01701866602401,13.590833105949427,2.4626968491212056,-2.6890672474619994,105.68514261262976,-0.001103987193711983,-0.002315368123249748,-0.5104998330405571,0.4754178749518179,198.45319172924388,-78.94547208260842,64.148819289934,9.401279656423114,-0.9167324722093172
STABILIZE,0.3941986560821533,28.456023229938396,198.0595664299034,-78.95849446449273,64.03433325363471,10.159415415625082,197.9624663754518,-78.94853214238604,13.595031484198053,2.4939202051382727,-3.038045944706869,105.61636260768773,-0.0010895036208108833,-0.006158369195851568,-0.5079707707812541,0.47478034911528166,198.66887475218826,-78.82185292245968,65.2261712799562,9.52597186886237,-2.0626480624709638
STABILIZE,0.445080041885376,19.666085260413738,198.3954547048681,-78.7507710288196,65.31256380296664,10.028070609841036,198.01583108328722,-78.86757009329645,13.600032199590215,2.403892762348804,-3.1201106675845725,105.34394051264177,0.0022971468011140474,-0.024597994118348725,-0.5014035304920518,0.4741437341983118,199.34126154324423,-78.48498808139072,66.56270083900965,9.393897180677769,-5.729577951308232
STABILIZE,0.48095035552978516,27.870611062382054,199.07015489038918,-78.39556092373014,66.99203013734603,9.77904209968899,198.0779613334664,-78.77330943735,13.605898865919421,2.032698874828468,-2.864218910990514,105.10456970298951,0.00927602126993299,-0.06716129445649954,-0.4889521049844495,0.47330693436428667,200.9462635145111,-77.87984176734007,69.18721829307219,9.34515043432016,-7.792226013779196
STABILIZE,0.519371747970581,26.030720726871017,199.80595150286587,-77.96467147820123,68.91553966743915,9.506925017658357,198.1493676448291,-78.66497564296877,13.6126935881348,1.436235209919062,-2.6064697698290353,104.76909130152599,0.017720808316258038,-0.10170826215398493,-0.4753462508829179,0.4723485769603478,201.62016597514165,-77.52918458587294,70.99669987023556,9.348092854633236,-9.339212060632418
STABILIZE,0.5642390251159668,22.293526097586902,200.60680336388964,-77.54390292269755,71.18164228633985,9.163853157682002,198.23052904746427,-78.54184195160485,13.620476973314515,0.670266100047215,-1.90932004520865,104.24124745227823,0.023196226645407096,-0.13697652110447986,-0.45819265788410013,0.4712194173434873,202.45745103436266,-77.22268241487973,73.36100869571177,9.122814657140225,-11.058085446024888
STABILIZE,0.599534273147583,28.34161536850214,201.30674736612315,-77.30196992797187,73.45727676829104,8.719304688768508,198.3218935947222,-78.4032286009432,13.629308141639175,0.07257238743739865,-1.462377118637051,103.82044632770291,0.02062608746076312,-0.16769454058863764,-0.43596523443842544,0.4700860156866741,202.16859476335569,-77.15404278316296,76.01412173892575,9.543938690748732,-12.261296815799618
STABILIZE,0.6420092582702637,23.546573250696127,201.99141885631616,-77.10260204335422,76.26889937405797,8.321675642329298,198.4238788752268,-78.24850204810427,13.639244737365253,-0.26658527151335953,-1.0782205992890888,103.28885953478999,0.01838500612899589,-0.19288505720551283,-0.4160837821164649,0.46868517268165366,202.76461899420937,-76.93108093202002,79.43156768753629,8.602355257602113,-12.375888374825783
STABILIZE,0.6811087131500244,25.58235591907437,203.4716236143173,-78.09119494991114,80.98812972482834,7.83132691324317,198.53687252488768,-78.07707419284692,13.650342939798492,-0.3015300667718786,-1.0163048277412172,102.88770203426763,-0.062490355972352335,-0.2706825926380595,-0.39156634566215853,0.46633110660748506,208.34728730451678,-80.1884611345505,87.51869974802291,6.844938765762905,-12.032113697747288
STABILIZE,0.7159147262573242,28.736376217816083,205.14360410269524,-78.37122042995897,85.23033080685744,7.416570139816864,198.66123273891256,-77.88840160077109,13.662657474267329,-0.22219436465335252,-1.082146570679671,102.45024207830666,-0.07724757369038027,-0.35514346532657104,-0.37082850699084324,0.46421616333370497,209.98006841703116,-77.99411922330644,88.74072498501303,8.183888575547499,-11.229972784564136
STABILIZE,0.7511546611785889,28.384962609548946,205.9617353748112,-78.85146926197164,90.01530388993199,6.994742755238799,198.79728878381928,-77.68198472652058,13.676241623096297,0.25725333879684453,-1.3981575456264757,102.07934914599663,-0.10798031436660324,-0.36181191005698,-0.34973713776194,0.4618304688665822,206.5481073949426,-78.37182742805807,93.78648693675991,3.752647124965648,-10.542423430407148
STABILIZE,0.7861189842224121,28.60350800621948,205.41272461346858,-77.30586060519052,93.07147709802315,6.670405231394147,198.94534150944818,-77.45736713698581,13.691147236579452,0.9624264812991584,-1.8581890356385231,101.77358206742267,0.0005993109281083181,-0.30167339034617635,-0.3335202615697074,0.46030983506927814,199.4235409566425,-75.55163516420713,96.68721937229644,7.207785399650035,-8.708958485988513
STABILIZE,0.8301675319671631,22.706279774794282,204.29570628175335,-76.06292612515595,96.69774563737228,6.396608186536389,199.10566386097418,-77.21413473450659,13.707424743953775,1.8429852479894862,-2.7208775728608643,101.5029631423176,0.038179063127900134,-0.23337174665094196,-0.31983040932681944,0.45850483955329074,197.17952733563342,-74.26531578320268,99.61953060306038,6.789200734027617,-6.703606203030632
STABILIZE,0.8625707626342773,30.867479632914094,201.6899724022191,-73.64407316225031,99.96763188000206,6.128508854747952,199.278501390919,-76.95191498007492,13.725123164372587,2.4643390827297704,-3.52744906241897,101.35801969794075,0.18060539683186802,-0.05423810894154582,-0.3064254427373976,0.4568787456421853,195.3186179068455,-71.11526853934112,103.59614566464928,6.258971785426738,-3.4377467707849396
STABILIZE,0.9048938751220703,23.63281082725746,198.49710201324,-71.54373035521076,102.51750039268433,6.0310009640126685,199.46407277116344,-76.67037611653767,13.744290117878974,3.44417753049229,-4.404202880133071,101.19649938444829,0.2520026973315512,0.10161920886567383,-0.30155004820063347,0.45561339486259733,194.01571647213552,-69.25060674308853,104.33682491034325,6.289949469629377,-1.260507149287811
STABILIZE,0.9508450031280518,21.768915370003217,195.99062382867862,-69.8721606751727,104.08993182844529,5.911572656358892,199.6625703049596,-76.36922639179942,13.764971836379186,4.347473890207884,-5.635866133725729,101.00231027615565,0.3072464407309417,0.20944502771733203,-0.2955786328179446,0.45483752000396693,194.01571647213552,-69.25060674308853,104.33682491034325,6.289949469629377,-2.635605857601787
STABILIZE,0.9866127967834473,27.965382512568176,194.90445804534912,-68.05729229720525,104.20640556789938,5.810680649664539,199.87416043894294,-76.0482132820252,13.787213174616058,5.120611176891954,-6.106720165199368,100.84235407598312,0.38017183827618717,0.24488782958450478,-0.29053403248322696,0.45479040380335833,193.99271203999487,-65.67066340543879,103.9455668830116,6.093853482433246,-1.2032113697747289
STABILIZE,1.0300192832946777,23.51976941754378,194.32252290748104,-66.28694604683518,103.74475664284402,5.720229212820125,200.0989842751447,-75.70712271484324,13.811057621142425,5.288025943638137,-6.450793932846522,100.73781803073608,0.4325808829047226,0.26329872552121597,-0.28601146064100624,0.4550331504891492,194.26985164629303,-63.93956799197834,102.95187813517715,5.6630500954537695,-3.151267873219528
STABILIZE,1.0619606971740723,31.290735062629157,194.12625217262152,-63.76720174056289,102.29127676336613,5.599733409615119,200.33715808300389,-75.34577829254773,13.836547309294533,5.191540130101598,-6.2569719472217775,100.70320263202245,0.5448909317665026,0.2691306429765292,-0.279986670480756,0.4557726352729642,194.3372642325479,-61.691373824271665,99.97638527190959,5.075858819273492,-3.0366763141933633
STABILIZE,1.0987696647644043,27.174509384698116,194.19056172470397,-62.44077188017385,100.96821622633213,5.494943144677273,200.58877381137964,-74.96404051530162,13.863723028165452,4.577303352476466,-5.856547838261549,100.61387741805703,0.5504253401164291,0.27092563985831253,-0.27474715723386367,0.45644775340091664,194.3372642325479,-61.691373824271665,99.97638527190959,5.075858819273492,-3.552338329811104
STABILIZE,1.1401035785675049,24.19795422683505,194.0823563148013,-61.56799919612451,98.99569740962231,5.310860310226911,200.85389960056347,-74.56180600433933,13.892624233578493,3.2739967505756638,-4.652984409801147,100.42513880072207,0.5589892020848269,0.2945156286861689,-0.26554301551134557,0.4574484634119781,193.4746894226221,-61.321249939830345,97.03432168504762,4.378917765105825,-6.589014644004467
STABILIZE,1.1819980144500732,23.87318644665919,193.78168337309486,-61.67012760261244,97.63797366882191,5.049923135554072,201.13258029429124,-74.13900672516958,13.923289059060615,1.9888567443198022,-3.2732106384908777,100.18482542496434,0.5205749798877067,0.33430101388652833,-0.2524961567777036,0.45814265769511936,192.48934733146265,-61.99775904373545,95.90321404950839,3.8392388355877074,-7.849521793292278
STABILIZE,1.2127273082733154,32.55335133960448,193.1967992544092,-62.197345171460455,96.06706819881022,4.750903329075412,201.42483795175568,-73.69560921077809,13.955754326815848,1.4645140073519132,-2.5698821539925696,100.10151077746852,0.4699270360042662,0.399430589443192,-0.23754516645377063,0.45894434306400284,191.34543105286468,-63.27302653081573,95.26366886187454,4.011760478961861,-8.078704911344607
STABILIZE,1.2519829273223877,25.47607159994412,192.35169329725767,-63.49924173371062,95.46762485180159,4.495070849813221,201.73067235961832,-73.23161378483036,13.9900555586987,0.08961819839832989,-0.8401509406737092,99.72843901481326,0.3915852205729645,0.46610267236770236,-0.22475354249066104,0.45926121535344855,190.11173444679028,-65.22693962658083,95.23599164402174,3.5561259461102424,-8.995437383553925
STABILIZE,1.2918081283569336,25.115592814371258,190.72417187005755,-65.4215731517513,95.42189204897352,4.175374677046482,202.05006154402187,-72.74705378487448,14.026226987187572,-1.2142906674387306,1.305927793716501,99.17967429613775,0.28883678232275783,0.5928597479737485,-0.20876873385232408,0.459302167469107,186.1996570965475,-67.76475329785751,95.76601564102421,5.407054243675788,-10.026761414789407
STABILIZE,1.333571195602417,23.95089109815499,188.49965140542758,-67.66250450345642,95.83897175365581,3.866995505568703,202.38296228260242,-72.24199478554382,14.064301566358171,-1.7612426112198314,2.3910131600082756,98.77334634241369,0.1811093995975228,0.7420236521622642,-0.19334977527843517,0.45911266490635116,182.35208709947227,-69.99582058593107,96.5149079759214,6.153758085160732,-8.36518380891002
STABILIZE,1.3701329231262207,27.357070644481695,184.6005408122884,-70.39245878468991,96.85525347831235,3.5465354838207688,202.72931061650155,-71.71653382175984,14.104310982856932,-1.8452268306977198,3.102388461122505,98.41931031697526,0.045277749091400685,1.0177363878704748,-0.17732677419103846,0.4586245287522723,172.99379436576675,-73.41680247028133,98.28483681799132,4.177124027727899,-7.563042895726867
STABILIZE,1.4017298221588135,31.65416893074926,180.29114021121444,-72.68458139926726,97.65570648140313,3.295481064835465,203.08902236237859,-71.17079861193487,14.146285666874412,-1.8823254300614671,3.4900699984124284,98.19919381059326,-0.05789487655855036,1.2886055254096018,-0.16477405324177327,0.45824528959273564,169.79842804749484,-74.64112114158955,98.16737465029658,4.807145778345742,-7.16197243913529
STABILIZE,1.444056510925293,23.629881690140845,175.7423023457844,-74.27099877967004,98.1408676527659,3.0952367778355425,203.46199362442286,-70.60494678117482,14.190254803118728,-1.706905468164618,3.550552604173361,97.94577330181826,-0.10598390263268409,1.506455861275197,-0.15476183889177714,0.4580246935751764,167.3675451196402,-74.75507272713938,97.97039149000973,3.0829442363005626,-5.7868737308213145
STABILIZE,1.4851019382476807,24.36905342908271,170.9531024534427,-74.72813958005234,97.64282101869225,2.865592094146645,203.84810130636586,-70.01916508448194,14.236246341788952,-1.597271327032393,3.595275829084958,97.74587415537951,-0.11998037856625622,1.775667544132357,-0.14327960470733225,0.45829671266154837,162.25365763483902,-74.78822487142823,96.79069691577037,2.775895518524507,-3.896113006889598
STABILIZE,1.5187625885009766,29.715856518381546,166.58995815366606,-74.71081136608395,96.66697335180898,2.697160886440779,204.24720362349348,-69.4136686299577,14.284287009548535,-1.4695331291748146,3.552795467542064,97.63090158108068,-0.13152307152447007,2.0039734909954925,-0.13485804432203893,0.4588086568288698,160.53636560058902,-74.58913649968441,95.23983164964679,2.404718256629252,-2.7501974166279517
STABILIZE,1.5609352588653564,23.715390704512043,163.39452218112,-74.49112551756266,94.87601947480734,2.610320458136147,204.65914061465816,-68.78870010200538,14.334402320498716,-1.4022292988671552,3.186811733697978,97.59755659755268,-0.14455851814328502,2.004508383239558,-0.13051602290680736,0.4597291914228457,157.01661450303638,-74.09601518157551,92.59752985900482,0.7905799136295002,-0.5156620156177409
STABILIZE,1.6004106998443604,25.338939635590354,160.0508916367854,-73.97097518815696,92.61227326254692,2.526770712740121,205.08373465429116,-68.14452898453298,14.386616587151936,-1.1524767083981748,3.0411856972909592,97.62241165594236,-0.14727578377471812,2.0045482898431493,-0.12633853563700606,0.46088717166230253,153.0802753258217,-73.22777388321109,89.99945827898911,-1.048251392112718,0.4583662361046586
STABILIZE,1.6324937343597412,31.173986398602697,156.88659462477776,-73.60349565878495,88.57250021233646,2.4956843050711295,205.5207909644148,-67.48145078415588,14.440952931405254,-1.0453099731036168,3.0641953239442627,97.6546774695815,-0.1649501251308744,2.005285619245877,-0.12478421525355649,0.4629342263595344,151.5460600596021,-73.48669791156838,83.12051249901536,-1.4141719959989558,1.5469860468532228
STABILIZE,1.6797375679016113,21.170843491472212,155.59474584718643,-73.45457850662275,83.82814836673256,2.4454612584244733,205.97009812665453,-66.79978625339969,14.497433295513758,-0.9328048046424594,3.2727124615682897,97.7681747230196,-0.1897784120109247,2.0062761187238216,-0.12227306292122367,0.4653346424643906,155.79441374688236,-73.6492637250889,78.36447432219316,-6.446561591705674,2.291831180523293
STABILIZE,1.7191481590270996,25.37895647648956,154.05655748033004,-73.82874533396189,78.72436087126773,2.4999337944942472,206.43142859425126,-66.09988061390294,14.55607845306398,-0.9640109784648956,3.7463066795595727,97.84412642659014,-0.24352758244469552,2.0087187867906495,-0.12499668972471237,0.46791585879089814,152.8454237663071,-74.35027436522849,74.68809579259461,0.7874207661274681,2.0626480624709638
STABILIZE,1.755845546722412,27.25875089361149,152.12013437679389,-74.06873185313746,74.91398852306482,2.5369641243035197,206.90453920407356,-65.3821027796199,14.616908019947312,-1.2220876485414176,4.1430143118376686,97.8752925797729,-0.2795672757020889,2.0104144863302253,-0.12684820621517598,0.4698514597484412,147.3344989853556,-74.20665746909512,71.68939545440662,0.6384598503833132,1.3178029288008934
STABILIZE,1.7936749458312988,26.438799309136293,150.5662397568369,-74.68317476548131,70.71592045278966,2.5723904905675443,207.38917168862983,-64.64684458002327,14.679940465333413,-1.7262180414862407,4.8736712369788435,97.9109393370512,-0.3398689766785792,2.0132384905364438,-0.12861952452837722,0.4719820100062719,145.3108022260368,-75.49259246212046,65.77027011136767,1.1922966316507626,1.3178029288008934
STABILIZE,1.8372154235839844,22.971914296981115,149.31918819012384,-75.06394746444529,67.74331189238069,2.6035943714387697,207.8850531880805,-63.89451998330705,14.745193122643633,-2.2752307814059813,5.495578743928722,97.92973601764709,-0.3764921090386767,2.015037845518501,-0.1301797185719385,0.4735009406151315,145.3108022260368,-75.49259246212046,65.77027011136767,1.1922966316507626,1.1459155902616465
STABILIZE,1.8823895454406738,22.139722455356907,146.27432259863411,-75.89770081720403,64.01226140646412,2.637681877608297,208.39189676225024,-63.12556431958921,14.812682200524414,-2.6708355515765314,6.01737702198737,97.94903130205236,-0.4468424448198608,2.0184447172141917,-0.13188409388041486,0.4754002103970301,140.57008578943365,-76.7079175273713,60.496243996656915,1.2303783216682547,0.9740282517223995
STABILIZE,1.9197299480438232,26.783550446998724,143.42976667590455,-76.55186066170008,61.38155959990445,2.663702779270188,208.9094019026403,-62.3404335041145,14.882422793820712,-2.820601109507401,6.405713830550791,97.95392171749809,-0.5059153053061285,2.0213507585153456,-0.13318513896350942,0.4767504315969581,138.62264415265932,-77.4550719956086,57.878164691688646,1.2627273989415642,0.7448451336700702
STABILIZE,1.964719295501709,22.232668097850574,141.39832156654055,-77.428595367326,57.8892261303138,2.658294654007177,209.4372550444405,-61.53960326045719,14.954428894549412,-2.915098270778408,6.63624466786977,97.9250846588223,-0.5722288865586895,2.02438740206776,-0.13291473270035886,0.4785326013821178,137.17727343853565,-78.12279657899819,55.293269702595715,1.247875222209018,-0.40107045659157625
STABILIZE,2.002264976501465,26.641496490615175,139.0008194705649,-78.11398809273852,55.01927094391377,2.6467040194914717,209.97513007854158,-60.72356834372387,15.02871340287274,-2.8881540282763543,6.64282470136143,97.91052269551183,-0.6356595405753755,2.0272195455321196,-0.1323352009745736,0.48000472122947946,133.32329174615853,-78.76409570360893,51.88637843745682,2.223004010062027,-0.7448451336700702
STABILIZE,2.044515609741211,23.673360651111338,136.60331737458927,-78.55032932873864,53.02200885916982,2.630024659002787,210.52268886354736,-59.892841763756174,15.105288138071666,-2.7376027851475215,6.240494115849122,97.90800918589727,-0.6780052188061002,2.029004589407967,-0.13150123295013935,0.4810416396394509,133.32329174615853,-78.76409570360893,51.88637843745682,2.223004010062027,-0.40107045659157625
STABILIZE,2.079648971557617,28.468964019303733,135.15395856593426,-78.76409570360887,51.88637843745685,2.6048551819716343,211.079581737787,-59.04795400833354,15.184163849519337,-2.5791336452233518,5.585332125377744,97.9020805816977,-0.7207552513003381,2.0306900693208094,-0.1302427590985817,0.48164889270603123,133.32329174615853,-78.76409570360893,51.88637843745682,2.223004010062027,-0.7448451336700702
STABILIZE,2.119502544403076,25.097858997833868,135.13316754047457,-79.01313772302272,48.000299052368085,2.528760699784996,211.64544803132716,-58.189452266376016,15.265350227654475,-2.442028269805924,4.905684760505516,97.93147771588544,-0.7664139137875822,2.031867251229835,-0.1264380349892498,0.4836325255876432,138.51868902536086,-79.51122176185045,40.22814028219052,-4.306928834470895,0.0
STABILIZE,2.152463912963867,30.34513095065837,135.40145065783963,-79.26217974243656,44.114219667279315,2.4686324720899275,212.21991657798418,-57.31789965114701,15.348855914954799,-2.3735061045050636,4.587430388581479,97.96269851058156,-0.8182435865048618,2.0333876479708777,-0.12343162360449639,0.48561731812383774,138.51868902536086,-79.51122176185045,40.22814028219052,-4.306928834470895,0.6302535746439055
STABILIZE,2.182624340057373,33.16625416129619,136.4405301136801,-79.5112217618504,40.228140282190544,2.4222280895939803,212.8026062273364,-56.43387442345599,15.434688516910434,-2.324477512538831,4.256158956759868,97.98964360685726,-0.8680097884520607,2.034897944733967,-0.12111140447969902,0.48760327411735993,138.51868902536086,-79.51122176185045,40.22814028219052,-4.306928834470895,0.8594366926962349
STABILIZE,2.2194032669067383,27.19829844629471,137.47960956952056,-79.5112217618504,40.228140282190544,2.396513990014183,213.39312635673627,-55.53796921486137,15.522854612997328,-2.250258542583357,3.7240658760747185,98.08831251960727,-0.8943415425644794,2.035647522695718,-0.11982569950070916,0.4876473571654034,138.51868902536086,-79.51122176185045,40.22814028219052,-4.306928834470895,1.8907607239317168
STABILIZE,2.259366273880005,25.029264333794817,138.51868902536103,-79.5112217618504,40.228140282190544,2.4083711903772653,213.99107738332256,-54.63079025087316,15.613359767650666,-2.1372976724385127,3.239263317655445,98.27132060822859,-0.9288709995973963,2.0372660758221603,-0.12041855951886327,0.48769260974273004,138.51868902536086,-79.51122176185045,40.22814028219052,-4.306928834470895,3.2658594322456924
STABILIZE,2.299964189529419,24.636002138019748,138.51868902536103,-79.5112217618504,40.228140282190544,2.4473129769025275,214.5960512760326,-53.712956574155754,15.706208541238276,-2.076680597328296,2.9056960884990626,98.4061348820663,-0.9640022034689,2.0393393716020136,-0.12236564884512638,0.48773903412952385,138.51868902536086,-79.51122176185045,40.22814028219052,-4.306928834470895,3.2658594322456924
STABILIZE,2.3375070095062256,26.641834939307515,136.53781498215864,-77.76826080224993,32.43098044102853,2.525328254754641,215.20763206761455,-52.785099267730786,15.801404501034055,-2.0299569807635307,2.554013063229691,98.54067594833721,-0.8932038173569019,2.03741315767455,-0.12626641273773206,0.49168521203000276,128.61431880934884,-74.282338883049,16.836660758704493,-1.3682562894183832,3.2658594322456924
STABILIZE,2.372227668762207,28.80663727146605,134.5868649162614,-76.09851235434877,23.732186663475193,2.6368175760490056,215.82539636663947,-51.84786067817973,15.898950232191375,-1.9876646628662236,2.351989727959054,98.68690346827802,-0.8605010861331088,2.0374696985189447,-0.1318408788024503,0.49608338178435807,128.7639386958748,-74.50197641814698,14.131758949530512,1.3517498945207649,3.8388172273765155
STABILIZE,2.4125797748565674,24.788151720388164,132.51620553160336,-74.26010576699171,14.294697355949097,2.7457203867230895,216.44891386951363,-50.90189363884681,15.998847348716492,-1.9108209792787603,2.1061076135936494,98.83343151654229,-0.8201274564395036,2.0369909275747173,-0.13728601933615447,0.5008520749963837,128.16539210207063,-73.99600199977925,11.915672359612229,1.5577660682754697,3.724225668350351
STABILIZE,2.4571213722229004,22.45368794098438,130.35892406472936,-74.0125354842477,11.827712021809006,2.8788470893351277,217.07774787249068,-49.947860693041704,16.101096504441976,-1.8157091009824518,1.8654702307371682,99.01202047277062,-0.8739873456211174,2.0413712688813006,-0.14394235446675638,0.5021366922413165,127.73228169099086,-73.53962803481697,9.435704756284226,1.728057240492987,3.8388172273765155
STABILIZE,2.4925146102905273,28.258172312501685,128.06460811871617,-73.50525983219684,9.586798539172682,3.027046419313226,217.7114557836839,-48.9864333172423,16.205697404000105,-1.6904001025918707,1.7717481892152516,99.14646591639315,-0.8843670513736946,2.0439105193599643,-0.1513523209656613,0.5033094494324137,127.04710929529477,-72.98014946199437,7.409018501621541,2.194296804383413,3.380450991271857
STABILIZE,2.530728578567505,26.17268727964806,127.67165097330012,-73.02438135816203,7.402025832541057,3.1466106699721705,218.34958963507836,-48.018291144297464,16.312648813796297,-1.5579967788094677,1.5552813517275645,99.29234509668629,-0.8995296268418755,2.0463608760553886,-0.15733053349860854,0.5044553114906276,126.64953308226866,-72.5533665776748,5.361354239717361,2.24372348451692,3.9534087864026803
STABILIZE,2.5738518238067627,23.19576157768413,127.10056999343347,-72.48301306295974,5.496363059540838,3.2802354694962994,218.99169659454316,-47.0441211866298,16.421948572982508,-1.1847665344211158,1.2836949943595806,99.47485458149819,-0.9099710830960512,2.048791445805997,-0.164011773474815,0.5054627927567208,125.9085337965415,-71.91552314921014,3.7187164372835664,2.6462440511798633,3.7815214478634336
STABILIZE,2.61427640914917,24.743112663260852,126.40644874955194,-71.7285056419251,3.34545191050688,3.4354399845329113,219.63731947784356,-46.06461705943849,16.53359360443065,-1.027050316131234,1.0236626490246135,99.63080146062792,-0.9096945118729971,2.0509182749170236,-0.17177199922664557,0.5065940708469618,124.69478588266306,-70.71662719889044,0.956285054519668,2.591254608115051,4.18259190445501
STABILIZE,2.649785280227661,28.168785552622918,125.69332369669473,-70.88693536321502,1.5041952944744252,3.588588145207919,220.28599726065335,-45.08047820390187,16.647579925706015,-0.8118000527286028,0.5411985766224229,99.77646207486762,-0.9086220840086119,2.052950664194346,-0.17942940726039597,0.5075716923156158,124.16665642670478,-70.0286557415446,-0.16241560838000282,3.0327230677775248,4.010704565915763
STABILIZE,2.6957695484161377,21.750289101271008,125.02471260257866,-70.04829964182717,-0.22244966530207697,3.731166690831578,220.9372655905669,-44.092409110380416,16.763902660040674,-0.7183147199501093,0.3244630138795782,100.02321631901268,-0.9090454167222426,2.0549169803446055,-0.1865583345415789,0.5084931761626714,123.7040538247144,-69.3996159850466,-1.46121844204594,3.093719685189484,4.698253920072751
STABILIZE,2.7339751720428467,26.181346050611104,124.26788376141796,-69.36738062833321,-1.5555494749391767,3.9230962081688023,221.5906572991115,-43.10111854161938,16.882556047306906,-0.6846191022577621,0.15827656060608727,100.19108187824408,-0.9179601944672637,2.058118062663234,-0.19615481040844013,0.509219052761123,122.86538887646518,-68.67387015840859,-3.043014374391631,3.3143273275396865,5.042028597151244
STABILIZE,2.771322250366211,26.788511282421393,123.29504649121361,-68.44430064886943,-3.56835532036051,4.115375874341987,222.2457029137594,-42.10731875595154,17.00353345499059,-0.632169706095264,0.43351968386181977,100.4031319312163,-0.9091389982211721,2.0600875843659607,-0.20576879371709933,0.5102859443876755,121.04434744551973,-67.2594158031532,-6.200833144644004,3.6241053274920034,5.443099053742821
STABILIZE,2.8049771785736084,29.717961980203633,122.3787605098671,-67.51060588510747,-5.502059491933697,4.312427791685258,222.9019311699402,-41.11172473050004,17.126827389164642,-0.48619533004057464,0.6281104926550137,100.59893979434221,-0.9043930488331436,2.0623435472223632,-0.2156213895842629,0.5113144434405492,120.11335597593049,-66.59853169376072,-7.262330956765503,3.6663109109325944,6.130648407899809
STABILIZE,2.8395721912384033,28.90829140533462,121.3959499525611,-66.58980161677134,-7.132466356249457,4.5062086128933645,223.55886952305295,-40.115053384381106,17.25242950546242,-0.14979171808899927,1.1343407418827927,100.84822803866933,-0.9006935262676488,2.064582550120005,-0.22531043064466824,0.5121924479308559,119.25260364017467,-65.91145735340021,-7.93423496733891,3.9268096004106354,6.531718864491385
STABILIZE,2.879728078842163,24.90738497351481,120.28441553265796,-65.91100626705465,-7.768800955131838,4.71524715619943,224.21604466047836,-39.11802280190686,17.380330620051126,0.3475486530678246,1.631990565965743,101.11327352941169,-0.9104357166052551,2.068072299579191,-0.2357623578099715,0.5125745657875915,118.14638172519867,-65.22302975400316,-8.109836941291148,4.234602984395238,6.64631042351755
STABILIZE,2.925199270248413,21.994483424052692,119.18461892205127,-65.25791401349791,-7.9986648512180984,4.970526266712971,224.8729830135911,-38.121351455787945,17.510520720605236,0.7432180699116518,2.247292319492867,101.39732743661418,-0.9146003996362995,2.0717227747651883,-0.24852631333564856,0.5127545927859116,117.36640582343178,-64.63925493309051,-7.9519226450242835,4.217476516018408,7.219268218648373
STABILIZE,2.9672398567199707,23.792204845452638,118.03931167387891,-64.43039938474712,-7.4554848715348,5.266093328081225,225.5292112697719,-37.125757430336435,17.642988977279906,1.0501490554088653,3.253842356438837,101.72939074349269,-0.9076628329621277,2.0748648657273105,-0.26330466640406125,0.5125492369244073,115.31781120465789,-63.4289134671478,-6.304695028289013,4.5948847920646045,6.818197762056797
STABILIZE,3.0074188709259033,24.894375727072006,117.0802027196244,-63.832360622462,-6.853770900534087,5.546317990737546,226.1842568844198,-36.1319576446686,17.77772375368439,1.2599880480807009,4.236102106262126,102.05226744593753,-0.9178633171628973,2.07934864007431,-0.27731589953687735,0.5123157473271093,115.31781120465789,-63.4289134671478,-6.304695028289013,4.5948847920646045,7.448451336700702
STABILIZE,3.040738344192505,30.01978270516326,115.88853823739007,-63.029377541667564,-5.400646215341976,5.824833112509256,226.83764859296437,-35.14066707590756,17.91471261785545,1.2687097727639842,4.795360983710531,102.25440006423489,-0.9116685154517331,2.082196579149581,-0.29124165562546284,0.5116576794165987,113.29428122900308,-62.230305690707205,-3.5925485894479503,5.119847314768734,7.792226013779196
STABILIZE,3.077739715576172,27.033167046934015,114.76349382823473,-62.45273319883659,-3.968606939025022,6.061660885656366,227.48891692287796,-34.1525979823861,18.053942353230767,1.2112080109672334,5.763176590986536,102.66377428232877,-0.9237205910148624,2.0863613416124083,-0.3030830442828183,0.5110112746461279,112.52115967942196,-61.698980438654885,-2.0085771993381467,5.153665584824481,7.792226013779196
STABILIZE,3.119647979736328,23.865036329807513,113.44920060563695,-61.649102247415044,-1.9575534524098266,6.338978681449615,228.13759470568772,-33.1684591268495,18.19539896962236,0.9874915680058127,6.389970671400736,103.0043070237781,-0.9153644282469648,2.0888379741771317,-0.31694893407248076,0.510076476211016,110.79493971044293,-61.01802061288317,-0.27153456844342716,5.647855349697636,8.250592249883855
STABILIZE,3.1527888774871826,30.183752041969214,112.4463736470087,-61.11996613492488,-0.32010690503104317,6.656984328876206,228.78321758898815,-32.188954999658165,18.339067714189994,0.8274173336266898,6.893137900950881,103.26435281604799,-0.9287474155492406,2.0941810297442434,-0.3328492164438103,0.5093295873096105,110.30367641151672,-60.642897353236705,1.3197910526883998,5.600795847343292,8.307888029396937
STABILIZE,3.192570447921753,25.142994161301537,111.19079824399603,-60.551187983872104,1.2350242507064213,6.895989747682317,229.42532454845292,-31.214785041990496,18.484933082414607,0.8554512581056254,7.363741349859344,103.5510431762701,-0.9333255653762822,2.0975934267167053,-0.34479948738411587,0.5086249544158541,109.03993418959449,-59.99264598549656,2.656816267874247,5.934509991432421,7.448451336700702
STABILIZE,3.230562210083008,26.327112952327152,110.102994061771,-60.058634185615226,2.6114893095871508,7.157586084299246,230.06345839984738,-30.2466428690457,18.632978829071707,0.8888622490086534,7.7060362801145335,103.83793161197815,-0.9443741398646273,2.102082277952684,-0.35787930421496233,0.5080107447597423,107.85526031787802,-59.54035921811252,3.857860608198761,6.170144641636725,5.7868737308213145
STABILIZE,3.2741172313690186,22.962733429323816,108.84196100106212,-59.3985828897572,4.26679547584395,7.363554911931403,230.69716631104063,-29.285215493246255,18.783187979204794,0.9585439456428293,7.865052475502539,104.04918253281747,-0.9442717384217505,2.104528155040291,-0.3681777455965702,0.5072581962516804,106.21599437587763,-58.66274346566266,6.2857095514587975,6.632365077248281,4.698253920072751
STABILIZE,3.3050453662872314,32.34299285945621,107.79015227281029,-58.797843131620574,5.815692933383777,7.5669050734914345,231.32600031401768,-28.331182547441145,18.935542839098773,1.0798316701595654,7.942785150899161,104.17651774951402,-0.9542798098705148,2.108246753682649,-0.3783452536745717,0.5065599249528575,105.53589606918379,-58.19042671108669,7.30350864049373,6.8404513945969825,3.896113006889598
STABILIZE,3.350442886352539,22.030527454749823,106.8365962043437,-58.34786562927863,6.9642422774821,7.643486038502738,231.94951781689184,-27.38521550810826,19.090025007253367,1.5722234225203697,7.643922539802437,104.28836209717298,-0.970607061135407,2.1113288951369173,-0.3821743019251369,0.5060628913648856,105.53589606918379,-58.19042671108669,7.30350864049373,6.8404513945969825,1.7188733853924698
STABILIZE,3.387279748916626,27.154453227675596,105.99519652515605,-57.78044095443641,7.95086899058084,7.733872568412003,232.56728211591678,-26.44797691855719,19.24661538535653,1.7978490100765148,7.455527993246915,104.3183534578185,-0.9811886426048007,2.1138481679224634,-0.3866936284206002,0.5056478731973878,104.83293579365623,-56.96046944113597,9.245589690755018,7.011950809350168,0.2291831180523293
STABILIZE,3.4235472679138184,27.58031510560509,105.38511823525364,-57.1149052517271,8.854590108551244,7.736587366782635,233.17886290749868,-25.52011961213222,19.405294189257862,1.899947745006923,6.910126288963995,104.26117794427633,-0.9892549291376803,2.1149673560653213,-0.38682936833913173,0.5052753520403533,104.80486886836597,-56.193819602958804,10.014671994404948,7.118633791998079,-1.1459155902616465
STABILIZE,3.465613603591919,23.776424838157432,105.09854957345867,-56.1780363243253,10.006377760390357,7.675273337183301,233.78383680020875,-24.602285935414812,19.566040959942026,1.849077563285726,6.348806401933538,104.13726465235396,-0.9847683327125323,2.113606045372249,-0.3837636668591651,0.5047798315997758,104.78315106690279,-55.37981992888129,10.758871596011067,7.101679158754877,-3.380450991271857
STABILIZE,3.5092625617980957,22.911305696821383,104.97297223601807,-55.32675724434633,10.722054911981035,7.551535588461099,234.38178782679506,-23.695106971426554,19.72883457450215,1.7037382881021421,5.366911213457199,103.92011927826091,-0.9930186213607506,2.113154544753339,-0.37757677942305495,0.5045033898312605,104.90800938198072,-54.40663220119905,11.39262114552705,7.17408151849817,-4.755549699585833
STABILIZE,3.549447536468506,24.892011869436203,104.96576743212995,-54.03599109741236,11.35933949123847,7.386848208799939,234.97230795619487,-22.799201762832013,19.893653257113254,1.904935490648325,3.9640339003925384,103.68674537469992,-0.974624847850833,2.1087069318525646,-0.36934241043999694,0.5042671568829374,105.49987204974315,-52.32152116215688,11.926525732177256,7.1825884350839,-4.5263665815335035
STABILIZE,3.5835816860198975,29.301905114537416,105.22694820662298,-52.63050969095858,11.660687619521655,7.242614719508929,235.5549976055471,-21.915176535140972,20.060474590005654,2.3542518012347977,2.6872312072357354,103.50302694640492,-0.954940653970467,2.104432836127821,-0.3621307359754465,0.504199893485242,106.13883966612136,-51.16337570951999,11.662915980860628,7.101317499102194,-3.380450991271857
STABILIZE,3.6210808753967285,26.673857190099465,105.61867248710413,-51.149407657490876,11.571353981090747,7.127492641719201,236.12946615220415,-21.043623919911937,20.229275524438386,3.1017069363093843,1.338805976503415,103.326623650711,-0.934335769715896,2.1004751889095816,-0.35637463208596004,0.5043289607716738,106.76349027077177,-49.96332610079592,11.12462023023433,7.080297988209551,-3.380450991271857
STABILIZE,3.661597967147827,24.683120887915916,106.20588428577976,-49.987322526695515,10.962626334878538,7.048855544829396,236.69533244574433,-20.185122177954412,20.40003239167261,4.190819232725411,-0.08382864591128544,103.19799752826131,-0.9322041736677673,2.099279773605755,-0.35244277724146983,0.504718703028397,107.71921006028082,-48.83526576977079,10.100342793540628,6.968989198190258,-0.7448451336700702
STABILIZE,3.7041141986846924,23.527157481419156,107.20169828496032,-48.48861279204649,9.535503649280974,6.960472823380508,237.25222531998395,-19.340234422531807,20.572720913945034,5.518372792736347,-0.661942340604791,103.14653888305443,-0.9031920244069578,2.094712924910043,-0.3480236411690254,0.505518608632332,109.88707937788358,-46.66724650557292,7.381547924067936,0.9660116316347143,0.057295779513082325
STABILIZE,3.739149570465088,28.548799662394412,108.17626717986437,-46.94040262801698,8.012508427751385,6.954339132714786,237.79978410498973,-18.50950784256409,20.747316215441302,6.71702531518351,-0.8516886776465946,103.15797261972504,-0.8708644648267883,2.0907287160124284,-0.3477169566357393,0.5063674038938449,110.37271652426332,-45.31869560870741,6.555634565645562,6.9264912680022235,0.9167324722093172
STABILIZE,3.7802727222442627,24.318894190907457,109.03532876149343,-45.44184826211855,6.596744134844232,6.945845198134479,238.3376591390908,-17.693472925830775,20.92379283326945,7.4204242360076345,-0.4775772854944581,103.18258862149376,-0.8472405659897397,2.087779573360543,-0.34729225990672397,0.5071635243492126,110.43414757426666,-44.33960267207546,5.853049914819169,6.932944037141965,-0.5156620156177409
STABILIZE,3.82354474067688,23.115098675690124,109.8985112431091,-44.36995421486396,6.1609731658979525,6.892756254582328,238.86551228089098,-16.892642682173488,21.10212472843327,7.527114352164172,0.10994571515225393,103.13360250476643,-0.8466057801887374,2.087147327685218,-0.3446378127291164,0.5074705757812676,111.0794026788501,-43.45156436380918,6.074235017229098,6.484599966743957,-2.5783100780887045
STABILIZE,3.865306854248047,23.948839758816007,110.65044638921181,-43.524490978704115,6.25398661514808,6.750865416823066,239.38301742128107,-16.107511866698786,21.28228529680578,7.145781475707775,0.484575881516194,102.94486388743147,-0.8532789406757818,2.0864383479150352,-0.3375432708411533,0.5075141493408288,111.47888579079442,-42.782305900227854,6.834674913395947,6.361387492861084,-5.844169510334397
STABILIZE,3.9025938510894775,26.82620514099686,110.78703795079744,-42.57617204825131,7.275839584327925,6.523125035798607,239.88986099545085,-15.338556202980868,21.464247380102584,6.640157939377364,0.7225278260900965,102.77998995105654,-0.8518289740070615,2.0838235346020686,-0.32615625178993035,0.5070942038978873,110.57003718581167,-41.49464588071704,8.918608822358705,6.851570961197638,-7.906817572805361
STABILIZE,3.9439198970794678,24.20284134842872,111.08897019652645,-41.78073087118138,8.476026328792585,6.249149702001882,240.38574249490148,-14.586231606264676,21.647983276855328,5.843068886821352,0.9853326946195597,102.3971373575098,-0.8632247174517901,2.0820797502331847,-0.3124574851000941,0.5065859784740314,111.88237775290837,-41.06524083259941,9.674795250623083,6.508419277206215,-9.11002894258009
STABILIZE,3.975477695465088,31.695551306949998,111.41425580308601,-41.08644338256011,9.356350046887579,5.932377329820915,240.87037497945772,-13.850973406668032,21.833464753385073,5.631198980088495,1.2792934710480361,102.17151571865678,-0.8782497553442651,2.080060310267431,-0.2966188664910458,0.5062385573532487,112.06057560706435,-40.69944343436405,9.475646067680929,6.3718705160246145,-8.823550045014677
STABILIZE,4.029227018356323,18.608187186392254,111.6804307292967,-40.67810801447226,9.344913764741152,5.654589288214885,241.34348558928005,-13.133195572385006,22.020663054775746,5.594703144919001,3.5559224135214604,101.79612169168371,-0.9045411028071202,2.0793933534598854,-0.28272946441074426,0.5063378746450173,112.41027730990352,-40.26963977645347,8.884299975919427,6.169010955722854,-9.912169855763242
STABILIZE,4.067699909210205,25.99732235830813,111.9325027400248,-40.17744450159346,8.933199891850888,5.142714330987931,241.80481605687677,-12.433289932888272,22.209548915847535,5.120419931595193,5.6976204353327535,101.48404351831665,-0.9305846704109295,2.0753636913951086,-0.25713571654939654,0.5066381745119983,112.73924584443486,-39.56325029396301,8.439653631952293,5.572967224833803,-11.688339020668794
STABILIZE,4.1062846183776855,25.925492789724508,112.31879892663872,-39.66061196976912,8.996798495299972,4.7121446470848385,242.2541232191165,-11.751625402132106,22.400092572130305,4.374721649241181,7.4873848493095005,101.16289485373183,-0.9521510902790415,2.0714589745709007,-0.23560723235424194,0.5067016470384151,112.5015181188812,-39.14894583889103,9.666441878028182,5.5949605598034395,-13.006141949469688
STABILIZE,4.149611949920654,23.084946887555727,113.20178570755714,-39.511374064964116,9.990297595283048,4.226876314463015,242.69117952924015,-11.088547201755034,22.592263770837015,3.01619232757059,9.459677104231552,100.67720010185222,-0.9963386230628314,2.067996169855314,-0.21134381572315075,0.5063009830877769,116.29731165750043,-39.82192606203843,11.864797275868652,4.265345035504438,-14.667719555349075
STABILIZE,4.190463066101074,24.48327914402293,113.34525268352589,-39.18053300459615,11.958259131886658,3.6300864719737707,243.11577356887315,-10.444376084282595,22.786031781837128,1.6042332107873403,10.916188477753737,100.0962105506726,-1.0270555179830025,2.061014829551262,-0.18150432359868854,0.5054138863249752,112.77791048690807,-38.570727112859124,14.34353824176313,5.544727176481331,-15.98552248414997
STABILIZE,4.229438543319702,25.659670008993082,113.56785307277605,-38.942687134319605,14.331053122516776,3.033129668337864,243.52771056003786,-9.81940755633022,22.98136540863002,0.10966340288992893,11.842424454683643,99.40195597248665,-1.0658396935366492,2.0535953893848067,-0.1516564834168932,0.5043251561430566,113.52327925615442,-38.435408228061384,16.78482384991853,4.087208255203194,-15.928226704636886
STABILIZE,4.271983861923218,23.506719722019838,113.72283098278054,-38.470362014774174,16.582388370659,2.456974572116263,243.92681287716545,-9.21391110180599,23.178232999318404,-1.1091403320532074,12.18887640882243,98.72361573506683,-1.0864437814005898,2.0447363167743298,-0.12284872860581315,0.5032979223143297,113.51413539445728,-38.40495070340212,18.61880302029533,3.7900127124297285,-15.355268909506062
STABILIZE,4.311078310012817,25.585633067369397,114.20803891301394,-38.37325844399128,18.593156936839577,1.8545691713172765,244.31292055910845,-8.628129405113157,23.37660245758175,-1.7121243730207425,12.33088884827169,98.29447494951494,-1.1349495389381243,2.0356823982044063,-0.09272845856586383,0.5023917227603711,114.92755777004827,-38.27941640051045,20.375843940304854,3.03148672826417,-13.80828286265284
STABILIZE,4.357092618942261,21.736424788300287,114.15527107469222,-38.27524590428727,19.77925054522253,1.3753885725591901,244.68589182115272,-8.062277574353061,23.57644125364967,-2.1389027668934655,12.237716530256254,97.59759074849853,-1.1688533385734836,2.027479483599939,-0.06876942862795951,0.5018985953542136,116.03347246589195,-38.141370608949345,20.343104675067398,2.553130233357223,-11.172677005051053
STABILIZE,4.402029275894165,22.326753965719153,115.08636247468289,-38.14042526729603,20.172970954387704,0.867840385166273,245.04560356702981,-7.516542364528107,23.77771643527536,-2.185074418795929,11.995505215682908,97.24531008167678,-1.202455196573896,2.017983080882382,-0.04339201925831365,0.5018023727404438,117.4333674868613,-38.00048879242839,19.799964247790843,1.932290803433986,-9.740282517223996
STABILIZE,4.441067457199097,25.56084124053117,116.17931613745425,-37.92267349914861,19.721450451496974,0.4731352223562199,245.39195190092892,-6.991081400744065,23.980394638709,-2.2426477908572586,11.629573562031243,96.99758595066959,-1.2274398981380605,2.0100676076910187,-0.023656761117810995,0.502129472093606,118.98804757001118,-37.626161096068195,19.021282431632677,1.4930066353316391,-7.563042895726867
STABILIZE,4.482054710388184,24.400951765944697,117.9627660513369,-37.45272716442711,18.599043242371966,0.182847518470643,245.7248526395094,-6.486022401413493,24.184442099671173,-2.4525213613617676,10.753613753808155,96.77003136828145,-1.2334718509799225,2.003926176883464,-0.009142375923532151,0.5027926994286496,122.4313849638705,-36.731531604784834,16.975883047692367,0.7158904718671693,-6.245239966925974
STABILIZE,4.520902395248413,25.747090310857928,119.8684999179125,-36.87480727743749,17.222174233046427,-0.061316647734762385,246.044241823913,-6.001462401457502,24.389824664326266,-2.857830122795613,9.433099984397387,96.6337690943397,-1.2356247826758089,1.9986765172688472,0.0030658323867381195,0.5035838252156399,124.45622710292626,-36.26672913145955,15.669357219814218,0.4633110815727406,-4.583662361046586
STABILIZE,4.565762042999268,22.2941185850586,121.9833774887455,-36.25143682749937,15.554144465384972,-0.20466564600094023,246.35007623177557,-5.537466975509915,24.59650780025592,-3.629881836288474,6.6480019847523,96.6472518877613,-1.233413634696936,1.995581385804581,0.010233282300047011,0.5045211816674354,126.60786032005694,-35.75604974625384,14.017193128648314,0.5869600296052226,-2.0626480624709638
STABILIZE,4.609405517578125,22.917064162036052,124.39762818405438,-35.67217240868329,12.589393114911019,-0.2883845569082425,246.64233388924006,-5.0940694611184085,24.8044566074324,-3.922889694606028,4.6382427271381435,96.77510619883476,-1.231209111961455,1.9937776969006484,0.014419227845412125,0.5061075317462607,129.5046209634057,-34.993738348336585,8.081628996270512,2.5270870342862963,0.0
STABILIZE,4.647130012512207,26.513337884649424,126.5009428627333,-35.2478421476423,10.060150373729783,-0.2862738118495049,246.92101458296787,-4.671270181948557,25.013635829192015,-3.999939777972472,2.8142757140057344,96.95377028714395,-1.2334695932384767,1.9938121286161956,0.014313690592475246,0.5074767427277311,129.5046209634057,-34.993738348336585,8.081628996270512,2.5270870342862963,1.432394487827058
STABILIZE,4.673150539398193,38.44599252034905,127.91559006264033,-34.99373834833656,8.081628996270515,-0.23156963122313268,247.1861403721516,-4.269035670986341,25.224009863208565,-4.014112420500249,2.3369607504640872,97.01874587671828,-1.241941008147311,1.9949641847368065,0.011578481561156635,0.508571190433469,129.5046209634057,-34.993738348336585,8.081628996270512,2.5270870342862963,2.0053522829578814
STABILIZE,4.712911128997803,25.156415500602776,128.92526883473622,-34.99373834833656,8.081628996270515,-0.13510910802011486,247.43775610052745,-3.8872978937402536,25.435542772466725,-3.7586761521464656,0.504100190702087,97.34226461694512,-1.2571475041112328,1.9970299641188576,0.006755455401005743,0.5086769568880981,129.5046209634057,-34.993738348336585,8.081628996270512,2.5270870342862963,4.1252961249419275
STABILIZE,4.7498533725738525,27.0755724254572,129.50462096340598,-34.99373834833656,8.081628996270515,0.029248578151792423,247.67592990838665,-3.5259534714447227,25.648198296235467,-3.438336864978283,-0.14614032830717955,97.58694931377165,-1.2659757684122142,2.000645999739884,-0.0014624289075896213,0.5087832846499825,129.5046209634057,-34.993738348336585,8.081628996270512,2.5270870342862963,5.7868737308213145
STABILIZE,4.785917520523071,27.756994996955818,129.50462096340598,-34.99373834833656,8.081628996270515,0.2213900435621502,247.90075374458837,-3.1848629042626726,25.86193986104147,-3.0851104303999,-0.48158313808181774,97.82485163275237,-1.2727171289976644,2.0049028175388397,-0.01106950217810751,0.5088901554323855,129.5046209634057,-34.993738348336585,8.081628996270512,2.5270870342862963,5.958761069360562
STABILIZE,4.822969913482666,27.02445813252236,132.3755577347125,-34.731626634089274,-1.9187354847818632,0.4207683943720176,248.11234387857178,-2.8638497944884875,26.076730591642544,-2.665318466274454,-0.48245099899323246,98.09733519950085,-1.2617263522163185,2.0092118438987336,-0.02103841971860088,0.5139977330382122,143.85930481993833,-34.20740320559473,-21.91946444688662,1.3239154659198533,6.187944187412891
STABILIZE,4.859502792358398,27.37760603647472,135.73122691946,-34.511307650724206,-12.663253415430882,0.6349386384530338,248.3108414123679,-2.5627000697501785,26.29253332200102,-2.357502757836312,-0.47463731594359077,98.30563547861873,-1.2579414111076255,2.013817127440132,-0.03174693192265169,0.519477893368716,146.28296688714332,-34.33278139824139,-24.15192479567655,1.1897339841823396,6.130648407899809
STABILIZE,4.896917104721069,26.736428771768786,139.3775989157861,-34.31397680048166,-23.77960980262318,0.8610091108201111,248.49641279261232,-2.281161206212971,26.509310606257216,-2.06450749268004,-0.29983335173251224,98.55157010006339,-1.2533928235620357,2.018608761585494,-0.04305045554100556,0.5251444602044402,147.73648094503616,-34.40174579760895,-25.267440165306375,1.6529394019457158,6.703606203030632
STABILIZE,4.937263011932373,24.78800522437015,143.48222104707742,-34.39043995481793,-25.10283204615133,1.0956551541600144,248.66925032255722,-2.018941451781302,26.72702472970277,-1.659931055591267,-0.22935772564860174,98.77674094643119,-1.2635940325279955,2.0237963006020006,-0.05478275770800072,0.5259149283879271,150.0277316198622,-34.43679266860356,-25.889131177471064,1.6760953065285236,6.589014644004467
STABILIZE,4.975202322006226,26.363021533897346,147.91431937084218,-34.42781412761608,-25.65687394843323,1.3638703785470447,248.82957267408312,-1.7757090493021224,26.94563771975413,-0.6636796098923542,-0.10169650082131813,99.07649062834638,-1.2645219655497986,2.0295312695137553,-0.06819351892735225,0.5263012558340937,151.66511258222963,-34.44490391663585,-25.814050502522246,1.8649995048733388,7.16197243913529
STABILIZE,5.017938137054443,23.402188286363103,150.14838092800227,-34.37705819831484,-25.647494501640505,1.6374568243168692,248.97762539971205,-1.5510914597672922,27.165111356925934,0.99478535626574,-0.04768768709394145,99.41690042639064,-1.2591615220753036,2.0351639906477876,-0.08187284121584347,0.5264063029292833,155.0296126057387,-34.24947800970524,-25.2393018249282,2.325343081201723,7.964113352318443
STABILIZE,5.060500621795654,23.50079282812719,152.26199771387073,-34.31447834283215,-25.245398466833894,1.9659999949329334,249.11368144461875,-1.3446745855167137,27.385407185804404,2.7916118656791626,-0.028643358779800503,99.78926184937222,-1.2526759853624971,2.041797575267824,-0.09829999974664667,0.5263154028263192,156.8510508164857,-34.24905310215551,-24.68284307305123,2.4559173604892095,8.307888029396937
STABILIZE,5.094316720962524,29.589863701780626,154.70359594909058,-34.40094839078502,-24.268067819583163,2.2986709640520604,249.23804165864362,-1.1560019934410661,27.60648652602081,4.0194190505985254,-0.10680089328713907,100.0898994558795,-1.2556059040646086,2.0487512654826934,-0.11493354820260303,0.525937277172802,159.94447212113536,-34.70431406049445,-22.882058560770055,2.689198209040228,8.193296470370772
STABILIZE,5.135491847991943,24.287913093328548,156.68694404934521,-34.55256040771475,-23.48232006486378,2.5400656911986195,249.35103530830452,-0.9845741381836888,27.828310483224822,4.824601450434179,-0.2628972094853907,100.34859287069374,-1.2595403826881535,2.053855247689072,-0.12700328455993098,0.5256553152740443,159.94447212113536,-34.70431406049445,-22.882058560770055,2.689198209040228,7.505747116213785
STABILIZE,5.175703287124634,24.873264661056652,158.7745809850124,-34.944483306865386,-22.091529635459946,2.825035434855138,249.45302058880918,-0.8298475853446234,28.050839960058006,5.194876677511148,-0.34656924129344185,100.61697832394022,-1.275666375815366,2.060442134864722,-0.1412517717427569,0.5250711847977589,162.10329726056543,-35.42482179960743,-20.51047178483972,3.4620770431809547,6.531718864491385
STABILIZE,5.215574741363525,25.08615038637288,160.4567973230046,-35.29324768143727,-21.056588405816324,3.0835295021717877,249.54438513606704,-0.6912342346829519,28.274035667127134,5.0848470257372975,-0.4058266818720031,100.87823988988238,-1.2848001673377418,2.066216020839936,-0.1541764751085894,0.5246653120364717,163.44069429569976,-35.7506071842101,-19.7772348718392,3.865374470277942,5.614986392282068
STABILIZE,5.258315086364746,23.413684345675705,162.08301212008487,-35.726144586113406,-19.854856230999456,3.307984108608669,249.62554653870234,-0.5681005433190194,28.497858133977697,4.721262395839179,-0.45901517920789064,101.09088416931239,-1.2996099373927903,2.0716591506382644,-0.16539920543043346,0.5241763571824886,164.98212480188707,-36.00300477452286,-19.276862036319454,3.764196044944768,5.099324376664327
STABILIZE,5.294365882873535,27.73441953038729,163.30505969397007,-35.95813799077326,-19.280829700276268,3.521229257881687,249.69695285006503,-0.45976674893790914,28.72226772006724,4.266945533006611,-0.3784091286048083,101.26402263458303,-1.3024208723479787,2.0762167804665768,-0.17606146289408436,0.5240015487101718,166.05470999056132,-36.120802013586996,-18.78839219267016,4.170557403937238,4.239887683968092
STABILIZE,5.331488132476807,26.945637230338306,164.71915974755348,-36.10963424759193,-18.80472000641281,3.6775877365146923,249.75908310024414,-0.3655060929914953,28.94722462573884,3.497470508378137,-0.33188721606397054,101.4183234381228,-1.3043602192814692,2.0795457788832197,-0.18387938682573463,0.5238759723160759,167.01497238905242,-36.2050959546661,-18.34890579024884,4.234448737346,4.068000345428845
STABILIZE,5.374093055725098,23.473698938331438,165.85163800708352,-36.193845985107366,-18.302459009552106,3.8148924759027705,249.81244780807953,-0.2845440439017466,29.17268890319447,2.4705865713862165,-0.17462357784788143,101.55691480657153,-1.3038160084245645,2.0823155327089857,-0.19074462379513854,0.5237375739563733,167.7656885582158,-36.25563998706915,-17.77007904573733,4.75108448096961,2.9220847551671985
STABILIZE,5.413975238800049,25.081200031095086,167.27015801503345,-36.32909095493137,-17.579721379011005,3.9447745562791363,249.85758949317398,-0.21605752026380287,29.398620467468433,1.4826354597153089,0.18290857063068044,101.65899881390654,-1.3081802541634666,2.085257806120025,-0.19723872781395682,0.5234891709232398,170.5332943354494,-36.52653692305903,-16.620179301046853,4.764409473890325,2.119943841984046
STABILIZE,5.4532012939453125,25.497598755000062,168.38752444306107,-36.45913290513361,-16.70173383662855,4.0284068821404135,249.8950831879054,-0.159174114047687,29.624979107400772,0.283426303531216,0.4802722220088513,101.72014266735648,-1.3122712212653742,2.087247118231002,-0.2014203441070207,0.5231633564720146,170.56895694202515,-36.59522180527281,-15.714943163101461,5.217611241965088,1.088619810748564
STABILIZE,5.507248163223267,18.50523482826322,169.6439008659066,-36.62537500338154,-15.71021243215686,4.076752330428573,249.92553694943956,-0.11297131380206338,29.85172449661071,-0.5975119388644441,0.8961145225250319,101.74679406549788,-1.318871237381791,2.088701576372086,-0.20383761652142868,0.5227809684643838,172.3365921047891,-36.75436628181294,-14.795514832322263,4.778779860277112,0.34377467707849396
STABILIZE,5.535880088806152,34.93652076131773,171.09647344827476,-36.769850897584355,-14.146514683401142,4.1133434347451505,249.94959237174152,-0.07647572785640477,30.07881620447001,-1.1441480397572847,1.423278767950371,101.77019429359434,-1.3251239143451194,2.089898995036462,-0.20566717173725754,0.5221126654439355,174.2778353008933,-36.95996460566747,-11.929086054779694,4.67524679906343,0.34377467707849396
STABILIZE,5.5746119022369385,25.82476880071915,172.60104375975703,-36.892556325488805,-12.303689520140367,4.1339209368874466,249.9679250975883,-0.04866230752361389,30.306213707076445,-1.3528296355299207,1.8060783208093223,101.78861531378587,-1.3294201500622895,2.0906317302373805,-0.20669604684437234,0.5213049516136085,175.28854011562692,-36.96333808898616,-10.186467673319136,4.703624903106771,0.40107045659157625
STABILIZE,5.610827207565308,27.61899870277816,173.71109740153832,-36.98144831555066,-10.092873295908298,4.168066370847256,249.9812453305811,-0.028453570304122877,30.533876398227147,-1.1780681465577432,1.8774683117879418,101.82761569394664,-1.3317823405893383,2.0915073338139685,-0.2084033185423628,0.5203133748470677,176.08356254435606,-37.02104225199848,-8.163066159626059,4.377293607636318,1.260507149287811
STABILIZE,5.65097451210022,24.913154784178857,175.07599953836308,-37.044940135491686,-7.967374952462926,4.21870952638488,249.9902983471573,-0.01471882308669592,30.76176360039211,-0.4312351456670092,1.6211606607064533,101.90086264260586,-1.3321945558198804,2.092582389907778,-0.21093547631924403,0.5193645692764275,177.39346762614878,-37.15044006549056,-5.552591024443576,4.251911376165992,1.948056503444799
