E-kp,E-ki,E-kd,E-I-Tot,E-P,E-I,E-D,E-PID,N-kp,N-ki,N-kd,N-I-Tot,N-P,N-I,N-D,N-PID,Y-kp,Y-ki,Y-kd,Y-I-Tot,Y-P,Y-I,Y-D,Y-PID,D-kp,D-ki,D-kd,D-I-Tot,D-P,D-I,D-D,D-PID,errorN,desiredN,actualN,errorE,desiredE,actualE,errorD,desiredD,actualD,errorY,desiredY,actualY,roll,pitch,yaw-rate,thrust,dt,Time,Mode
0.03,0.0,0.01,-0.0012709904647846479,-0.0011357849817641272,-0.0,-0.011277359932563506,-0.012413144914327634,0.03,0.0,0.01,-0.0012584091985725152,-0.0011245420860766778,-0.0,-0.011165727728064113,-0.01229026981414079,0.5,0,0,-0.001257510258002018,-0.018728979550802854,-0.0,-0.0,-0.018728979550802854,0.002,8e-05,0.0,-0.0014674975494129406,-8.742586843777193e-05,-1.1739980395303526e-07,-0.0,-8.754326824172496e-05,-0.03748473620255593,0.0,0.03748473620255593,-0.03785949939213758,0.0,0.03785949939213758,-0.04371293421888596,0.0,0.04371293421888596,-0.03745795910160571,0,0.03745795910160571,-0.01242117720578656,0.012282151912060309,0.018728979550802854,0.4,0.03357124328613281,0.03384208679199219,STABILIZE
0.03,0.0,0.01,-0.004034887989261178,-0.0024768981566356874,-0.0,-0.013353931143579316,-0.015830829300215003,0.03,0.0,0.01,-0.003909675490530796,-0.0023759623984415065,-0.0,-0.012460828061432557,-0.014836790459874063,0.5,0,0,-0.003937626767295464,-0.04003028080605779,-0.0,-0.0,-0.04003028080605779,0.002,8e-05,0.0,-0.005139272668830581,-0.0002193668649513049,-4.111418135064465e-07,-0.0,-0.00021977800676481132,-0.07919874661471689,0.0,0.07919874661471689,-0.08256327188785625,0.0,0.08256327188785625,-0.10968343247565245,0.0,0.10968343247565245,-0.08006056161211558,0,0.08006056161211558,-0.01585154558858671,0.014814655241878328,0.04003028080605779,0.4,0.03347611427307129,0.06726908683776855,STABILIZE
0.03,0.0,0.01,-0.007421978958411386,-0.0030015189200039275,-0.0,-0.005165557377895302,-0.00816707629789923,0.03,0.0,0.01,-0.007174632117020433,-0.0028932878321421456,-0.0,-0.005093725596501998,-0.007987013428644144,0.5,0,0,-0.0072219188863023205,-0.048507037571989244,-0.0,-0.0,-0.048507037571989244,0.002,8e-05,0.0,-0.009908050488559032,-0.0002817280272182195,-7.926440390847226e-07,-0.0,-0.0002825206712573042,-0.09644292773807152,0.0,0.09644292773807152,-0.10005063066679759,0.0,0.10005063066679759,-0.14086401360910975,0.0,0.14086401360910975,-0.09701407514397849,0,0.09701407514397849,-0.00818058831522793,0.007973173369606705,0.048507037571989244,0.4,0.033853769302368164,0.10112714767456055,STABILIZE
0.03,0.0,0.01,-0.01122496339974636,-0.0034120487260019643,-0.0,-0.004092539317619965,-0.007504588043621929,0.03,0.0,0.01,-0.010821539395909057,-0.0032720158409091896,-0.0,-0.003775509704575408,-0.007047525545484597,0.5,0,0,-0.010923871074561275,-0.05535670490075755,-0.0,-0.0,-0.05535670490075755,0.002,8e-05,0.0,-0.015669479843108156,-0.00034461141405106474,-1.2535583874486527e-06,-0.0,-0.0003458649724385134,-0.10906719469697299,0.0,0.10906719469697299,-0.11373495753339881,0.0,0.11373495753339881,-0.17230570702553236,0.0,0.17230570702553236,-0.1107134098015151,0,0.1107134098015151,-0.007518192053647281,0.007033011180369761,0.05535670490075755,0.4,0.033437252044677734,0.13451695442199707,STABILIZE
0.03,0.0,0.01,-0.01535192071841559,-0.0037008973216385195,-0.0,-0.002878092910173032,-0.0065789902318115516,0.03,0.0,0.01,-0.01475451090394452,-0.003526938273464528,-0.0,-0.0025400519748579637,-0.0060669902483224914,0.5,0,0,-0.014886297953664553,-0.05922254537551365,-0.0,-0.0,-0.05922254537551365,0.002,8e-05,0.0,-0.02234740134609538,-0.0003992336225159866,-1.7877921076876306e-06,-0.0,-0.00040102141462367426,-0.11756460911548426,0.0,0.11756460911548426,-0.12336324405461732,0.0,0.12336324405461732,-0.1996168112579933,0.0,0.1996168112579933,-0.1184450907510273,0,0.1184450907510273,-0.006591518192005144,0.0060533768318168715,0.05922254537551365,0.4,0.03345370292663574,0.16798686981201172,STABILIZE
0.03,0.0,0.01,-0.02039375522314577,-0.004034067764927759,-0.0,-0.0029619557110696277,-0.006996023475997386,0.03,0.0,0.01,-0.019440744115399724,-0.003749544400858321,-0.0,-0.0019790155568533726,-0.005728559957711694,0.5,0,0,-0.019720039867972043,-0.06445948203375097,-0.0,-0.0,-0.06445948203375097,0.002,8e-05,0.0,-0.031103553092157045,-0.00046706424642940065,-2.4882842473725637e-06,-0.0,-0.00046955253067677323,-0.12498481336194403,0.0,0.12498481336194403,-0.13446892549759196,0.0,0.13446892549759196,-0.23353212321470032,0.0,0.23353212321470032,-0.12891896406750195,0,0.12891896406750195,-0.007008895361353294,0.005712803994485076,0.06445948203375097,0.4,0.03749442100524902,0.20548796653747559,STABILIZE
0.03,0.0,0.01,-0.025173734563292798,-0.004289284245128375,-0.0,-0.002544632168937716,-0.006833916414066091,0.03,0.0,0.01,-0.023916623406479313,-0.0040164019884097475,-0.0,-0.002660699658872707,-0.006677101647282455,0.5,0,0,-0.024291877978172345,-0.06837516713603078,-0.0,-0.0,-0.06837516713603078,0.002,8e-05,0.0,-0.03996060436479384,-0.0005298545980862846,-3.196848349183507e-06,-0.0,-0.0005330514464354681,-0.13388006628032492,0.0,0.13388006628032492,-0.14297614150427918,0.0,0.14297614150427918,-0.2649272990431423,0.0,0.2649272990431423,-0.13675033427206157,0,0.13675033427206157,-0.006849833463620196,0.006660771838402285,0.06837516713603078,0.4,0.0334320068359375,0.23890399932861328,STABILIZE
0.03,0.0,0.01,-0.030327817644672676,-0.004621095171345133,-0.0,-0.003305534325848407,-0.00792662949719354,0.03,0.0,0.01,-0.028568294701182093,-0.004170638194850517,-0.0,-0.0015365168365358511,-0.005707155031386368,0.5,0,0,-0.029150350800794245,-0.07260090348510896,-0.0,-0.0,-0.07260090348510896,0.002,8e-05,0.0,-0.05072126732395446,-0.0006431929385680583,-4.057701385916357e-06,-0.0,-0.0006472506399539747,-0.1390212731616839,0.0,0.1390212731616839,-0.15403650571150443,0.0,0.15403650571150443,-0.3215964692840292,0.0,0.3215964692840292,-0.14520180697021792,0,0.14520180697021792,-0.007941067383070223,0.005687048668298496,0.07260090348510896,0.4,0.033460140228271484,0.2723703384399414,STABILIZE
0.03,0.0,0.01,-0.03560819805171704,-0.004731230470424784,-0.0,-0.001096460319369424,-0.005827690789794207,0.03,0.0,0.01,-0.03325167169003999,-0.004196314319440014,-0.0,-0.000255620604863559,-0.004451934924303573,0.5,0,0,-0.03419927975311519,-0.07539749241791706,-0.0,-0.0,-0.07539749241791706,0.002,8e-05,0.0,-0.06259633933171996,-0.0007093390777512409,-5.007707146537597e-06,-0.0,-0.0007143467848977785,-0.1398771439813338,0.0,0.1398771439813338,-0.1577076823474928,0.0,0.1577076823474928,-0.35466953887562047,0.0,0.35466953887562047,-0.15079498483583412,0,0.15079498483583412,-0.005839387502278445,0.004436581804714121,0.07539749241791706,0.4,0.03348207473754883,0.30585455894470215,STABILIZE
0.03,0.0,0.01,-0.04111411870046953,-0.004849369334843064,-0.0,-0.0011561271400390841,-0.006005496474882148,0.03,0.0,0.01,-0.03818600548364288,-0.004345941126485236,-0.0,-0.0014642735339819707,-0.005810214660467207,0.5,0,0,-0.039493271392570556,-0.07771186193026354,-0.0,-0.0,-0.07771186193026354,0.002,8e-05,0.0,-0.0757192660285394,-0.0007705392354485228,-6.057541282283153e-06,-0.0,-0.0007765967767308059,-0.14486470421617453,0.0,0.14486470421617453,-0.16164564449476881,0.0,0.16164564449476881,-0.3852696177242614,0.0,0.3852696177242614,-0.15542372386052708,0,0.15542372386052708,-0.006021235471856144,0.005793902458877893,0.07771186193026354,0.4,0.03406167030334473,0.3399357795715332,STABILIZE
0.03,0.0,0.01,-0.046504283666603294,-0.0048265388181539075,-0.0,0.0002271469853603969,-0.004599391832793511,0.03,0.0,0.01,-0.04290608247128615,-0.004226519030247033,-0.0,0.0011881627347842918,-0.003038356295462741,0.5,0,0,-0.044641194328611966,-0.0768271164233977,-0.0,0.0,-0.0768271164233977,0.002,8e-05,0.0,-0.08929232548242934,-0.0008102522371382388,-7.143386038594347e-06,-0.0,-0.0008173956231768331,-0.1408839676749011,0.0,0.1408839676749011,-0.16088462727179692,0.0,0.16088462727179692,-0.40512611856911934,0.0,0.40512611856911934,-0.1536542328467954,0,0.1536542328467954,-0.0046075234635158105,0.003026010862983969,0.0768271164233977,0.4,0.03350329399108887,0.3734252452850342,STABILIZE
0.03,0.0,0.01,-0.05197287244774784,-0.004900493633013984,-0.0,-0.0007363571477772656,-0.005636850780791249,0.03,0.0,0.01,-0.04756788664128297,-0.00417752048429688,-0.0,0.00048787127125330337,-0.003689649213043577,0.5,0,0,-0.049693165884087315,-0.07545259978569563,-0.0,0.0,-0.07545259978569563,0.002,8e-05,0.0,-0.10379589105145015,-0.0008664591368562881,-8.303671284116013e-06,-0.0,-0.0008747628081404042,-0.139250682809896,0.0,0.139250682809896,-0.1633497877671328,0.0,0.1633497877671328,-0.43322956842814403,0.0,0.43322956842814403,-0.15090519957139126,0,0.15090519957139126,-0.005646548989295778,0.0036747901370966524,0.07545259978569563,0.4,0.033477783203125,0.40691685676574707,STABILIZE
0.03,0.0,0.01,-0.05747543406210456,-0.004889983090007102,-0.0,0.00010378272919358568,-0.004786200360813516,0.03,0.0,0.01,-0.05216428232762827,-0.004084697047747227,-0.0,0.0009165529860772614,-0.003168144061669966,0.5,0,0,-0.05453589289630739,-0.0717267546127702,-0.0,0.0,-0.0717267546127702,0.002,8e-05,0.0,-0.12027487744827164,-0.0009762963805883665,-9.621990195861732e-06,-0.0,-0.000985918370784228,-0.1361565682582409,0.0,0.1361565682582409,-0.16299943633357009,0.0,0.16299943633357009,-0.4881481902941832,0.0,0.4881481902941832,-0.1434535092255404,0,0.1434535092255404,-0.0047941175474495576,0.003156150761700452,0.0717267546127702,0.4,0.03375816345214844,0.4406867027282715,STABILIZE
0.03,0.0,0.01,-0.06279291258745726,-0.0047588452593458576,-0.0,0.0013040112083778613,-0.0034548340509679963,0.03,0.0,0.01,-0.05654300263187442,-0.003918709264647408,-0.0,0.0016505529222539152,-0.0022681563423934932,0.5,0,0,-0.05922168500071567,-0.06989202192990063,-0.0,0.0,-0.06989202192990063,0.002,8e-05,0.0,-0.13735085570458527,-0.0010188029004888942,-1.0988068456366824e-05,-0.0,-0.001029790968945261,-0.13062364215491362,0.0,0.13062364215491362,-0.1586281753115286,0.0,0.1586281753115286,-0.5094014502444472,0.0,0.5094014502444472,-0.13978404385980125,0,0.13978404385980125,-0.003460357366177283,0.0022597208702869426,0.06989202192990063,0.4,0.03352165222167969,0.47418761253356934,STABILIZE
0.03,0.0,0.01,-0.06816693892600882,-0.00480350778578974,-0.0,-0.0004435672622162278,-0.005247075048005968,0.03,0.0,0.01,-0.060827631927353194,-0.003829763548498401,-0.0,0.0008833671298834709,-0.0029463964186149305,0.5,0,0,-0.06387974876330972,-0.06939255640851046,-0.0,0.0,-0.06939255640851046,0.002,8e-05,0.0,-0.15530573558251504,-0.0010699166677301257,-1.2424458846601204e-05,-0.0,-0.0010823411265767269,-0.1276587849499467,0.0,0.1276587849499467,-0.16011692619299134,0.0,0.16011692619299134,-0.5349583338650629,0.0,0.5349583338650629,-0.1387851128170209,0,0.1387851128170209,-0.005254196577729272,0.0029336780221441696,0.06939255640851046,0.4,0.03356313705444336,0.5077569484710693,STABILIZE
0.03,0.0,0.01,-0.07345551968762576,-0.004739050443549268,-0.0,0.0006417739362592664,-0.004097276507290002,0.03,0.0,0.01,-0.06516122498234296,-0.0038832944064055913,-0.0,-0.0005329836477319463,-0.004416278054137537,0.5,0,0,-0.06850386938748382,-0.06906055985776914,-0.0,0.0,-0.06906055985776914,0.002,8e-05,0.0,-0.17400429827441388,-0.001117041109427177,-1.3920343861953111e-05,-0.0,-0.0011309614532891302,-0.12944314688018638,0.0,0.12944314688018638,-0.15796834811830895,0.0,0.15796834811830895,-0.5585205547135885,0.0,0.5585205547135885,-0.13812111971553828,0,0.13812111971553828,-0.004107910773222203,0.004406388056888812,0.06906055985776914,0.4,0.033478736877441406,0.5412850379943848,STABILIZE
0.03,0.0,0.01,-0.07868142532396075,-0.004679188986224187,-0.0,0.0005955439248384505,-0.004083645061385737,0.03,0.0,0.01,-0.06943947794570395,-0.0038306765447986934,-0.0,0.000523479534549333,-0.0033071970102493604,0.5,0,0,-0.07298746006649696,-0.06690887533479281,-0.0,0.0,-0.06690887533479281,0.002,8e-05,0.0,-0.19335602863058263,-0.0011551478327173359,-1.5468482290446612e-05,-0.0,-0.0011706163150077824,-0.12768921815995646,0.0,0.12768921815995646,-0.15597296620747292,0.0,0.15597296620747292,-0.577573916358668,0.0,0.577573916358668,-0.13381775066958562,0,0.13381775066958562,-0.004091358074745073,0.0032976503993299103,0.06690887533479281,0.4,0.03350520133972168,0.5747330188751221,STABILIZE
0.03,0.0,0.01,-0.08375893066350991,-0.00454877383269212,-0.0,0.001298163824997721,-0.003250610007694399,0.03,0.0,0.01,-0.07358844571010902,-0.0037169268641447993,-0.0,0.0011322742528813519,-0.0025846526112634476,0.5,0,0,-0.07740866712741346,-0.06601362165971408,-0.0,0.0,-0.06601362165971408,0.002,8e-05,0.0,-0.21344559064587865,-0.0011998395260973853,-1.7075647251670292e-05,-0.0,-0.0012169151733490557,-0.12389756213815999,0.0,0.12389756213815999,-0.15162579442307067,0.0,0.15162579442307067,-0.5999197630486927,0.0,0.5999197630486927,-0.13202724331942817,0,0.13202724331942817,-0.0032565572134223763,0.0025771553423766737,0.06601362165971408,0.4,0.03348708152770996,0.6082499027252197,STABILIZE
0.03,0.0,0.01,-0.08874871618634461,-0.004478670375899894,-0.0,0.000699139992527845,-0.003779530383372049,0.03,0.0,0.01,-0.07757801617312653,-0.003580909632991785,-0.0,0.0013564963886705643,-0.002224413244321221,0.5,0,0,-0.08169115217568365,-0.06406367178558905,-0.0,0.0,-0.06406367178558905,0.002,8e-05,0.0,-0.2341957018397167,-0.0012416419887546055,-1.873565614717734e-05,-0.0,-0.0012603776449017828,-0.1193636544330595,0.0,0.1193636544330595,-0.1492890125299965,0.0,0.1492890125299965,-0.6208209943773028,0.0,0.6208209943773028,-0.1281273435711781,0,0.1281273435711781,-0.003784495259703407,0.0022159557372895726,0.06406367178558905,0.4,0.033423662185668945,0.6416680812835693,STABILIZE
0.03,0.0,0.01,-0.09349641469617037,-0.004256098298815831,-0.0,0.002216954024450877,-0.0020391442743649545,0.03,0.0,0.01,-0.08128319133758255,-0.0033215229824765536,-0.0,0.002583649693538985,-0.0007378732889375688,0.5,0,0,-0.08567486067364136,-0.05952025992540052,-0.0,0.0,-0.05952025992540052,0.002,8e-05,0.0,-0.2562047389748238,-0.0013153408304457505,-2.0496379117985908e-05,-0.0,-0.0013358372095637365,-0.11071743274921846,0.0,0.11071743274921846,-0.14186994329386104,0.0,0.14186994329386104,-0.6576704152228753,0.0,0.6576704152228753,-0.11904051985080104,0,0.11904051985080104,-0.0020406729138643183,0.0007336350733323989,0.05952025992540052,0.4,0.03346514701843262,0.6751186847686768,STABILIZE
0.03,0.0,0.01,-0.09811029373265497,-0.004137785990344781,-0.0,0.001178933312116433,-0.0029588526782283477,0.03,0.0,0.01,-0.0848481331921981,-0.0031970856508758833,-0.0,0.0012399666390653285,-0.0019571190118105545,0.5,0,0,-0.08947715101757217,-0.056832380418334084,-0.0,0.0,-0.056832380418334084,0.002,8e-05,0.0,-0.2787973992457613,-0.0013507591972607797,-2.2303791939660906e-05,-0.0,-0.0013730629892004407,-0.10656952169586278,0.0,0.10656952169586278,-0.13792619967815936,0.0,0.13792619967815936,-0.6753795986303899,0.0,0.6753795986303899,-0.11366476083666817,0,0.11366476083666817,-0.0029627294336069697,0.00195124532058076,0.056832380418334084,0.4,0.03345179557800293,0.7085752487182617,STABILIZE
0.03,0.0,0.01,-0.10260946117310035,-0.004036292000968886,-0.0,0.0010116918120887596,-0.0030246001888801265,0.03,0.0,0.01,-0.08838761718468839,-0.0031753410193223926,-0.0,0.0002167504286197492,-0.0029585905907026436,0.5,0,0,-0.09315056627586484,-0.05492489006594214,-0.0,0.0,-0.05492489006594214,0.002,8e-05,0.0,-0.3019794096553727,-0.0013864693030618315,-2.4158352772429817e-05,-0.0,-0.0014106276558342613,-0.10584470064407976,0.0,0.10584470064407976,-0.13454306669896288,0.0,0.13454306669896288,-0.6932346515309157,0.0,0.6932346515309157,-0.10984978013188428,0,0.10984978013188428,-0.0030302669557256043,0.002952786271135348,0.05492489006594214,0.4,0.033440351486206055,0.7420175075531006,STABILIZE
0.03,0.0,0.01,-0.10696200452485125,-0.0039047804739313586,-0.0,0.001310915892853669,-0.00259386458107769,0.03,0.0,0.01,-0.09164369638233305,-0.0029211138052013742,-0.0,0.002534154251680578,-0.0003869595535207961,0.5,0,0,-0.09665803629572028,-0.052444051441485715,-0.0,0.0,-0.052444051441485715,0.002,8e-05,0.0,-0.32552526887757954,-0.0014082404072372216,-2.6042021510206365e-05,-0.0,-0.001434282428747428,-0.09737046017337915,0.0,0.09737046017337915,-0.1301593491310453,0.0,0.1301593491310453,-0.7041202036186108,0.0,0.7041202036186108,-0.10488810288297143,0,0.10488810288297143,-0.0025945686190331084,0.00038221046840579973,0.052444051441485715,0.4,0.03344011306762695,0.7754662036895752,STABILIZE
0.03,0.0,0.01,-0.11117076610007105,-0.0037769210739125514,-0.0,0.0012748930054023412,-0.0025020280685102104,0.03,0.0,0.01,-0.09482348100260535,-0.0028535224265304735,-0.0,0.0006739572990359504,-0.0021795651274945232,0.5,0,0,-0.10010492862112104,-0.05155372520966823,-0.0,0.0,-0.05155372520966823,0.002,8e-05,0.0,-0.3496644070387244,-0.0014441559272243211,-2.7973152563097956e-05,-0.0,-0.001472129079787419,-0.09511741421768245,0.0,0.09511741421768245,-0.12589736913041838,0.0,0.12589736913041838,-0.7220779636121606,0.0,0.7220779636121606,-0.10310745041933646,0,0.10310745041933646,-0.002505946283083923,0.00217505903986559,0.05155372520966823,0.4,0.03343009948730469,0.8088963031768799,STABILIZE
0.03,0.0,0.01,-0.11523254888918708,-0.00364585511888386,-0.0,0.0013071640592380006,-0.00233869105964586,0.03,0.0,0.01,-0.09792762330639454,-0.002786277281576831,-0.0,0.0006706580410024002,-0.002115619240574431,0.5,0,0,-0.1034922008679414,-0.0506735773480842,-0.0,0.0,-0.0506735773480842,0.002,8e-05,0.0,-0.3743670408592168,-0.0014782051567058484,-2.9949363268737347e-05,-0.0,-0.0015081545199745858,-0.09287590938589438,0.0,0.09287590938589438,-0.12152850396279534,0.0,0.12152850396279534,-0.7391025783529241,0.0,0.7391025783529241,-0.1013471546961684,0,0.1013471546961684,-0.0023424295942357965,0.0021114791591688824,0.0506735773480842,0.4,0.03342247009277344,0.8423306941986084,STABILIZE
0.03,0.0,0.01,-0.11911490839166972,-0.003481154411505863,-0.0,0.0016408938765213757,-0.0018402605349844873,0.03,0.0,0.01,-0.10084903795187623,-0.0026195141059072702,-0.0,0.0016614420067876262,-0.000958072099119644,0.5,0,0,-0.10672048796453713,-0.04824456991826405,-0.0,0.0,-0.04824456991826405,0.002,8e-05,0.0,-0.40026214731270393,-0.0015479394941714513,-3.2020971785016317e-05,-0.0,-0.0015799604659564677,-0.08731713686357567,0.0,0.08731713686357567,-0.11603848038352876,0.0,0.11603848038352876,-0.7739697470857256,0.0,0.7739697470857256,-0.0964891398365281,0,0.0964891398365281,-0.001841871369068367,0.0009549716454110729,0.04824456991826405,0.4,0.03345751762390137,0.8757760524749756,STABILIZE
0.03,0.0,0.01,-0.12280563897796194,-0.0033092106218663366,-0.0,0.0017129948235193224,-0.0015962157983470142,0.03,0.0,0.01,-0.1037367809256977,-0.002589229828284537,-0.0,0.00030170796462333283,-0.002287521863661204,0.5,0,0,-0.10981489567985031,-0.046242185390665755,-0.0,0.0,-0.046242185390665755,0.002,8e-05,0.0,-0.4262606339277358,-0.0015540639095224967,-3.4100850714218866e-05,-0.0,-0.0015881647602367156,-0.0863076609428179,0.0,0.0863076609428179,-0.1103070207288779,0.0,0.1103070207288779,-0.7770319547612483,0.0,0.7770319547612483,-0.09248437078133151,0,0.09248437078133151,-0.0015999061361904616,0.002284942342161117,0.046242185390665755,0.4,0.033458709716796875,0.9092879295349121,STABILIZE
0.03,0.0,0.01,-0.1264735352416906,-0.0032880572729403154,-0.0,0.00021069729161782337,-0.003077359981322492,0.03,0.0,0.01,-0.10647491010653441,-0.002454574753471336,-0.0,0.0013412277963626004,-0.0011133469571087354,0.5,0,0,-0.11276147169742236,-0.04402392183523861,-0.0,0.0,-0.04402392183523861,0.002,8e-05,0.0,-0.45265183780742896,-0.0015772127239327832,-3.621214702459432e-05,-0.0,-0.0016134248709573776,-0.08181915844904453,0.0,0.08181915844904453,-0.10960190909801051,0.0,0.10960190909801051,-0.7886063619663916,0.0,0.7886063619663916,-0.08804784367047722,0,0.08804784367047722,-0.003079067254869668,0.0011086165890594525,0.04402392183523861,0.4,0.03346562385559082,0.9427437782287598,STABILIZE
0.03,0.0,0.01,-0.1301171465753071,-0.003269058709203756,-0.0,0.0001893951862548799,-0.0030796635229488763,0.03,0.0,0.01,-0.10906001804236287,-0.002319366375299912,-0.0,0.0013478816779038641,-0.0009714846973960479,0.5,0,0,-0.11555690809939531,-0.041801228136776725,-0.0,0.0,-0.041801228136776725,0.002,8e-05,0.0,-0.47937803380587546,-0.0015985880635607157,-3.835024270447004e-05,-0.0,-0.0016369383062651856,-0.07731221250999706,0.0,0.07731221250999706,-0.1089686236401252,0.0,0.1089686236401252,-0.7992940317803578,0.0,0.7992940317803578,-0.08360245627355345,0,0.08360245627355345,-0.0030810777743747425,0.0009669900103468281,0.041801228136776725,0.4,0.033437252044677734,0.9761443138122559,STABILIZE
0.03,0.0,0.01,-0.13364776399801692,-0.0031558216657757315,-0.0,0.001124625186644072,-0.0020311964791316596,0.03,0.0,0.01,-0.11154184665852736,-0.0022183679452934483,-0.0,0.001003076155630769,-0.0012152917896626793,0.5,0,0,-0.11823677746615201,-0.03992309180192604,-0.0,0.0,-0.03992309180192604,0.002,8e-05,0.0,-0.5064709887872745,-0.001614458588654103,-4.0517679102981963e-05,-0.0,-0.0016549762677570848,-0.07394559817644827,0.0,0.07394559817644827,-0.10519405552585771,0.0,0.10519405552585771,-0.8072292943270515,0.0,0.8072292943270515,-0.07984618360385208,0,0.07984618360385208,-0.0020328881111019025,0.0012124599781431575,0.03992309180192604,0.4,0.03356289863586426,1.0097332000732422,STABILIZE
0.03,0.0,0.01,-0.13696192233739066,-0.0029760189214282644,-0.0,0.0017939743988209607,-0.0011820445226073037,0.03,0.0,0.01,-0.11380081657958578,-0.002028490053760554,-0.0,0.0018944987605630714,-0.00013399129319748276,0.5,0,0,-0.12079135359371233,-0.03823226549723385,-0.0,0.0,-0.03823226549723385,0.002,8e-05,0.0,-0.5334923268588319,-0.001617625656321959,-4.267938614870655e-05,-0.0,-0.0016603050424706656,-0.06761633512535181,0.0,0.06761633512535181,-0.09920063071427548,0.0,0.09920063071427548,-0.8088128281609794,0.0,0.8088128281609794,-0.0764645309944677,0,0.0764645309944677,-0.001182222289046442,0.00013241366757420773,0.03823226549723385,0.4,0.03340864181518555,1.0431406497955322,STABILIZE
0.03,0.0,0.01,-0.14002984574077912,-0.0027350372816115154,-0.0,0.002387042679367523,-0.00034799460224399243,0.03,0.0,0.01,-0.115842550223174,-0.0018201946072599461,-0.0,0.0020632697208507783,0.0002430751135908322,0.5,0,0,-0.12314494149490689,-0.034970183459204496,-0.0,0.0,-0.034970183459204496,0.002,8e-05,0.0,-0.5613534056969229,-0.0016558668369172046,-4.490827245575384e-05,-0.0,-0.0017007751093729585,-0.06067315357533154,0.0,0.06067315357533154,-0.09116790938705052,0.0,0.09116790938705052,-0.8279334184586022,0.0,0.8279334184586022,-0.06994036691840899,0,0.06994036691840899,-0.0003476976237639404,-0.0002434997258048966,0.034970183459204496,0.4,0.03365135192871094,1.0767686367034912,STABILIZE
0.03,0.0,0.01,-0.14303179021021853,-0.0026450526296219806,-0.0,0.0008809628514435912,-0.0017640897781783893,0.03,0.0,0.01,-0.11781463312336529,-0.0017376280987494938,-0.0,0.0008083381461492889,-0.0009292899526002049,0.5,0,0,-0.12544686690577608,-0.03380427765624339,-0.0,0.0,-0.03380427765624339,0.002,8e-05,0.0,-0.5896226362413177,-0.001660559310807977,-4.716981089930542e-05,-0.0,-0.0017077291217072826,-0.05792093662498313,0.0,0.05792093662498313,-0.08816842098739935,0.0,0.08816842098739935,-0.8302796554039885,0.0,0.8302796554039885,-0.06760855531248677,0,0.06760855531248677,-0.001765185104391688,0.000927207694484291,0.03380427765624339,0.4,0.034047842025756836,1.1108384132385254,STABILIZE
0.03,0.0,0.01,-0.1458944018775741,-0.002569827753041669,-0.0,0.0007503442389096321,-0.001819483514132037,0.03,0.0,0.01,-0.1197092046437444,-0.0017007973972558521,-0.0,0.00036737454333009143,-0.0013334228539257607,0.5,0,0,-0.1276105361501205,-0.0323728697115213,-0.0,0.0,-0.0323728697115213,0.002,8e-05,0.0,-0.6176942323060036,-0.0016800315008810547,-4.941553858448029e-05,-0.0,-0.001729447039465535,-0.056693246575195075,0.0,0.056693246575195075,-0.08566092510138898,0.0,0.08566092510138898,-0.8400157504405273,0.0,0.8400157504405273,-0.0647457394230426,0,0.0647457394230426,-0.0018209891550414758,0.001331365938722754,0.0323728697115213,0.4,0.03341794013977051,1.1442434787750244,STABILIZE
0.03,0.0,0.01,-0.14866004781300943,-0.0024794539075574107,-0.0,0.0009002429151496778,-0.001579210992407733,0.03,0.0,0.01,-0.12119376672189729,-0.001330937991203245,-0.0,0.00368428839246774,0.0023533504012644953,0.5,0,0,-0.12953630784431894,-0.028774845995679987,-0.0,0.0,-0.028774845995679987,0.002,8e-05,0.0,-0.6460058293547112,-0.0016921254942577958,-5.16804663483769e-05,-0.0,-0.0017438059606061727,-0.04436459970677484,0.0,0.04436459970677484,-0.08264846358524702,0.0,0.08264846358524702,-0.8460627471288978,0.0,0.8460627471288978,-0.05754969199135997,0,0.05754969199135997,-0.001576846416656301,-0.0023549354233081132,0.028774845995679987,0.4,0.0334627628326416,1.1777119636535645,STABILIZE
0.03,0.0,0.01,-0.15193532502667978,-0.0024366789028355696,-0.0,0.00035358822670158194,-0.0020830906761339875,0.03,0.0,0.01,-0.12294998660629214,-0.001306559311432985,-0.0,0.00020151988773225448,-0.0011050394237007305,0.5,0,0,-0.13178525069978936,-0.027885434077332356,-0.0,0.0,-0.027885434077332356,0.002,8e-05,0.0,-0.6804771767780796,-0.0017096894815143478,-5.4438174142246375e-05,-0.0,-0.0017641276556565942,-0.043551977047766165,0.0,0.043551977047766165,-0.081222630094519,0.0,0.081222630094519,-0.8548447407571739,0.0,0.8548447407571739,-0.05577086815466471,0,0.05577086815466471,-0.0020841653182264064,0.0011030112507274877,0.027885434077332356,0.4,0.04032468795776367,1.2180418968200684,STABILIZE
0.03,0.0,0.01,-0.15459326620680197,-0.002268294401308539,-0.0,0.00159666446988423,-0.000671629931424309,0.03,0.0,0.01,-0.12429039596766076,-0.0011439090799271242,-0.0,0.0015422906699175225,0.0003983815899903983,0.5,0,0,-0.13352571300797256,-0.024755256304298583,-0.0,0.0,-0.024755256304298583,0.002,8e-05,0.0,-0.7107383194378446,-0.00172166289170699,-5.685906555502757e-05,-0.0,-0.0017785219572620176,-0.038130302664237475,0.0,0.038130302664237475,-0.0756098133769513,0.0,0.0756098133769513,-0.860831445853495,0.0,0.860831445853495,-0.049510512608597165,0,0.049510512608597165,-0.000671285430631223,-0.00039896181101773786,0.024755256304298583,0.4,0.03515338897705078,1.2532422542572021,STABILIZE
0.03,0.0,0.01,-0.15697509070980603,-0.0021353659456754396,-0.0,0.0013241524955723985,-0.0008112134501030411,0.03,0.0,0.01,-0.12530415998357614,-0.0009088650964026166,-0.0,0.0023413653297252065,0.00143250023332259,0.5,0,0,-0.13503930368289746,-0.022616205761942024,-0.0,0.0,-0.022616205761942024,0.002,8e-05,0.0,-0.7394263661973793,-0.0017146373300801381,-5.915410929579035e-05,0.0,-0.0017737914393759285,-0.030295503213420553,0.0,0.030295503213420553,-0.07117886485584798,0.0,0.07117886485584798,-0.857318665040069,0.0,0.857318665040069,-0.04523241152388405,0,0.04523241152388405,-0.0008100823036614725,-0.0014331402029780184,0.022616205761942024,0.4,0.0334625244140625,1.2866582870483398,STABILIZE
0.03,0.0,0.01,-0.1592679441322165,-0.0020563776536603904,-0.0,0.0007871306023846399,-0.0012692470512757504,0.03,0.0,0.01,-0.12612182823190093,-0.0007333372022512577,-0.0,0.001749162737084421,0.0010158255348331631,0.5,0,0,-0.13643953275881351,-0.020930250443805667,-0.0,0.0,-0.020930250443805667,0.002,8e-05,0.0,-0.7680679839676023,-0.0017125090268657252,-6.144543871740819e-05,0.0,-0.0017739544655831334,-0.024444573408375254,0.0,0.024444573408375254,-0.06854592178867969,0.0,0.06854592178867969,-0.8562545134328626,0.0,0.8562545134328626,-0.041860500887611334,0,0.041860500887611334,-0.001268504546832226,-0.0010167525800592976,0.020930250443805667,0.4,0.03344988822937012,1.3201158046722412,STABILIZE
0.03,0.0,0.01,-0.16186487971370545,-0.0019715113421466604,-0.0,0.0007158646560546149,-0.0012556466860920456,0.03,0.0,0.01,-0.12704331909340782,-0.0006995667116639514,-0.0,0.00028486097955566706,-0.00041470573210828434,0.5,0,0,-0.13795492163538534,-0.019173921622725985,-0.0,0.0,-0.019173921622725985,0.002,8e-05,0.0,-0.8021970004660782,-0.0017273113126787187,-6.417576003728627e-05,-0.0,-0.001791487072716005,-0.02331889038879838,0.0,0.02331889038879838,-0.06571704473822201,0.0,0.06571704473822201,-0.8636556563393594,0.0,0.8636556563393594,-0.03834784324545197,0,0.03834784324545197,-0.0012559239657730754,0.0004138652398235868,0.019173921622725985,0.4,0.03951692581176758,1.3596320152282715,STABILIZE
0.03,0.0,0.01,-0.1639722542634715,-0.0018887897736141286,-0.0,0.0008237930868841835,-0.001064996686729945,0.03,0.0,0.01,-0.1277918165143228,-0.0006708604668105578,-0.0,0.00028587472989381616,-0.0003849857369167416,0.5,0,0,-0.13912386211807004,-0.01746156000842779,-0.0,0.0,-0.01746156000842779,0.002,8e-05,0.0,-0.8313379705035768,-0.0017412239700858425,-6.650703764028616e-05,-0.0,-0.0018077310077261287,-0.022362015560351927,0.0,0.022362015560351927,-0.06295965912047095,0.0,0.06295965912047095,-0.8706119850429213,0.0,0.8706119850429213,-0.03492312001685558,0,0.03492312001685558,-0.0010652311467088912,0.00038433652500946075,0.01746156000842779,0.4,0.03347182273864746,1.3931419849395752,STABILIZE
0.03,0.0,0.01,-0.16603049994774632,-0.001847942141550058,-0.0,0.0004074886645804584,-0.0014404534769695996,0.03,0.0,0.01,-0.12844315697086933,-0.0005847890207396996,-0.0,0.000858633336760126,0.0002738443160204264,0.5,0,0,-0.14022216994780468,-0.016434783421527245,-0.0,0.0,-0.016434783421527245,0.002,8e-05,0.0,-0.8605380916402758,-0.0017477710848331593,-6.884304733122208e-05,-0.0,-0.0018166141321643815,-0.01949296735798999,0.0,0.01949296735798999,-0.06159807138500193,0.0,0.06159807138500193,-0.8738855424165797,0.0,0.8738855424165797,-0.03286956684305449,0,0.03286956684305449,-0.0014402961403433988,-0.00027467063338189703,0.016434783421527245,0.4,0.03341412544250488,1.4265167713165283,STABILIZE
0.03,0.0,0.01,-0.1680640021189791,-0.0018244380577570293,-0.0,0.0002343070196353014,-0.0015901310381217278,0.03,0.0,0.01,-0.1291091157467133,-0.0005974916342530664,-0.0,-0.00012662954829912828,-0.0007241211825521947,0.5,0,0,-0.14109104590572238,-0.012992448754342726,-0.0,0.0,-0.012992448754342726,0.002,8e-05,0.0,-0.8906115799610379,-0.001798775773739744,-7.124892639688304e-05,-0.0,-0.0018700247001366271,-0.01991638780843555,0.0,0.01991638780843555,-0.06081460192523431,0.0,0.06081460192523431,-0.899387886869872,0.0,0.899387886869872,-0.02598489750868545,0,0.02598489750868545,-0.0015904592794791267,0.0007233999486712794,0.012992448754342726,0.4,0.03343772888183594,1.4599626064300537,STABILIZE
0.03,0.0,0.01,-0.1700591256588012,-0.0017896861071418058,-0.0,0.00034637277659334325,-0.0014433133305484626,0.03,0.0,0.01,-0.12982329018298006,-0.00064063605142787,-0.0,-0.0004300205112743184,-0.0010706565627021884,0.5,0,0,-0.14198683894214517,-0.013392557070285058,-0.0,-0.0,-0.013392557070285058,0.002,8e-05,0.0,-0.9204412177318931,-0.0017838724347643408,-7.363529741855145e-05,0.0,-0.0018575077321828922,-0.021354535047595668,0.0,0.021354535047595668,-0.05965620357139353,0.0,0.05965620357139353,-0.8919362173821703,0.0,0.8919362173821703,-0.026785114140570117,0,0.026785114140570117,-0.001443813692373468,0.001069981713447035,0.013392557070285058,0.4,0.03344368934631348,1.4934039115905762,STABILIZE
0.03,0.0,0.01,-0.17192973639280265,-0.0016778627820845879,-0.0,0.0011144559597692043,-0.0005634068223153836,0.03,0.0,0.01,-0.13045000191204914,-0.0005621352781674449,-0.0,0.0007823560474686927,0.00022022076930124784,0.5,0,0,-0.1429804748461292,-0.014854192376264742,-0.0,-0.0,-0.014854192376264742,0.002,8e-05,0.0,-0.9500338553639286,-0.0017695605826836538,-7.600270842911429e-05,0.0,-0.0018455632911127682,-0.018737842605581496,0.0,0.018737842605581496,-0.0559287594028196,0.0,0.0559287594028196,-0.8847802913418269,0.0,0.8847802913418269,-0.029708384752529484,0,0.029708384752529484,-0.0005632925601046939,-0.0002205128712657185,0.014854192376264742,0.4,0.033446311950683594,1.5268504619598389,STABILIZE
0.03,0.0,0.01,-0.17381957527953518,-0.0016948076321500023,-0.0,-0.0001688460289046985,-0.0018636536610547008,0.03,0.0,0.01,-0.13117038262286088,-0.0006460374666373125,-0.0,-0.0008360387542446068,-0.0014820762208819192,0.5,0,0,-0.1438877845811742,-0.013561257121561261,-0.0,0.0,-0.013561257121561261,0.002,8e-05,0.0,-0.9800281033473854,-0.0017932562315176532,-7.840224826779085e-05,-0.0,-0.001871658479785444,-0.02153458222124375,0.0,0.02153458222124375,-0.05649358773833341,0.0,0.05649358773833341,-0.8966281157588265,0.0,0.8966281157588265,-0.027122514243122522,0,0.027122514243122522,-0.0018643550332737206,0.0014811938437534653,0.013561257121561261,0.4,0.03345227241516113,1.560314655303955,STABILIZE
0.03,0.0,0.01,-0.17572451012525045,-0.0017094543874088136,-0.0,-0.00014604150719844223,-0.0018554958946072559,0.03,0.0,0.01,-0.1319899921589514,-0.0007355029074004777,-0.0,-0.0008920520333925439,-0.0016275549407930216,0.5,0,0,-0.14471497526097998,-0.012371768164829348,-0.0,0.0,-0.012371768164829348,0.002,8e-05,0.0,-1.0100760559550384,-0.0017976329403370317,-8.080608447640307e-05,-0.0,-0.0018784390248134347,-0.024516763580015925,0.0,0.024516763580015925,-0.056981812913627125,0.0,0.056981812913627125,-0.8988164701685158,0.0,0.8988164701685158,-0.024743536329658696,0,0.024743536329658696,-0.0018561985912161096,0.001626753481684145,0.012371768164829348,0.4,0.03343057632446289,1.5937390327453613,STABILIZE
0.03,0.0,0.01,-0.17764002165380355,-0.0017182227306521464,-0.0,-8.739160646169902e-05,-0.0018056143371138454,0.03,0.0,0.01,-0.13267285290876585,-0.0006125292616158809,-0.0,0.0012256436774118777,0.0006131144157959968,0.5,0,0,-0.14536117120925765,-0.009660679408045532,-0.0,0.0,-0.009660679408045532,0.002,8e-05,0.0,-1.0398329410078415,-0.0017794709325764315,-8.318663528062732e-05,0.0,-0.0018626575678570589,-0.020417642053862695,0.0,0.020417642053862695,-0.057274091021738215,0.0,0.057274091021738215,-0.8897354662882158,0.0,0.8897354662882158,-0.019321358816091063,0,0.019321358816091063,-0.0018054074791950558,-0.0006137232725866692,0.009660679408045532,0.4,0.03344464302062988,1.6271865367889404,STABILIZE
0.03,0.0,0.01,-0.1794992674200445,-0.0016421500072286586,-0.0,0.0007465561548789596,-0.000895593852349699,0.03,0.0,0.01,-0.1333852373119225,-0.0006292024830899573,-0.0,-0.0001636262717168424,-0.0007928287548067997,0.5,0,0,-0.14591306858744824,-0.008124246760354377,-0.0,0.0,-0.008124246760354377,0.002,8e-05,0.0,-1.0711416125284523,-0.0018435265918910631,-8.569132900227619e-05,-0.0,-0.0019292179208933392,-0.020973416102998577,0.0,0.020973416102998577,-0.054738333574288624,0.0,0.054738333574288624,-0.9217632959455315,0.0,0.9217632959455315,-0.016248493520708753,0,0.016248493520708753,-0.0008958186544104505,0.0007925747417280751,0.008124246760354377,0.4,0.033966064453125,1.6616356372833252,STABILIZE
0.03,0.0,0.01,-0.18114466693576348,-0.0014763414560343526,-0.0,0.0016530266867955026,0.00017668523076114998,0.03,0.0,0.01,-0.13431381357198505,-0.000833168853353315,-0.0,-0.002033440680987755,-0.00286660953434107,0.5,0,0,-0.1461038538734797,-0.0028530479910684895,-0.0,0.0,-0.0028530479910684895,0.002,8e-05,0.0,-1.1019535088238235,-0.0018430733450171986,-8.815628070590588e-05,0.0,-0.0019312296257231044,-0.027772295111777166,0.0,0.027772295111777166,-0.04921138186781175,0.0,0.04921138186781175,-0.9215366725085993,0.0,0.9215366725085993,-0.005706095982136979,0,0.005706095982136979,0.00017639974377658014,0.0028666271162360486,0.0028530479910684895,0.4,0.03343534469604492,1.6945981979370117,STABILIZE
0.03,0.0,0.01,-0.18274477442748077,-0.0014359589880267613,-0.0,0.0004026643917803909,-0.0010332945962463703,0.03,0.0,0.01,-0.13508311378861415,-0.0006903808439606108,-0.0,0.0014237774408646293,0.0007333965969040185,0.5,0,0,-0.14630799933062558,-0.0030533834504957906,-0.0,-0.0,-0.0030533834504957906,0.002,8e-05,0.0,-1.1325070353827638,-0.0018279443227128657,-9.06005628306211e-05,0.0,-0.0019185448855434867,-0.023012694798687026,0.0,0.023012694798687026,-0.047865299600892044,0.0,0.047865299600892044,-0.9139721613564329,0.0,0.9139721613564329,-0.006106766900991581,0,0.006106766900991581,-0.0010332164226292632,-0.000733506724571447,0.0030533834504957906,0.4,0.03342938423156738,1.7280206680297852,STABILIZE
0.03,0.0,0.01,-0.18427138837575274,-0.0013691065157391967,-0.0,0.0006661667840909008,-0.000702939731648296,0.03,0.0,0.01,-0.1357334720791772,-0.0005832579835804256,-0.0,0.0010674502970529733,0.00048419231347254777,0.5,0,0,-0.14644685738524985,-0.0020755243717001533,-0.0,0.0,-0.0020755243717001533,0.002,8e-05,0.0,-1.162859396290506,-0.0018147183459575477,-9.30287517032405e-05,0.0,-0.001907747097660788,-0.019441932786014186,0.0,0.019441932786014186,-0.04563688385797322,0.0,0.04563688385797322,-0.9073591729787738,0.0,0.9073591729787738,-0.004151048743400307,0,0.004151048743400307,-0.0007029046503279749,-0.00048424323981134063,0.0020755243717001533,0.4,0.03345131874084473,1.7614645957946777,STABILIZE
0.03,0.0,0.01,-0.18579430884976034,-0.001365803847889989,-0.0,3.2910425387262756e-05,-0.0013328934225027263,0.03,0.0,0.01,-0.13648764238795705,-0.0006763640828764438,-0.0,-0.0009277836809159312,-0.001604147763792375,0.5,0,0,-0.14671866229814715,-0.004062722493246034,-0.0,-0.0,-0.004062722493246034,0.002,8e-05,0.0,-1.1932171793321291,-0.0018150554630318669,-9.545737434657033e-05,-0.0,-0.0019105128373784373,-0.022545469429214794,0.0,0.022545469429214794,-0.0455267949296663,0.0,0.0455267949296663,-0.9075277315159334,0.0,0.9075277315159334,-0.008125444986492068,0,0.008125444986492068,-0.0013331209025460144,0.0016039587223572835,0.004062722493246034,0.4,0.033451080322265625,1.7949302196502686,STABILIZE
0.03,0.0,0.01,-0.1872516272349961,-0.0013004169176449958,-0.0,0.0006483008726843894,-0.0006521160449606064,0.03,0.0,0.01,-0.1373625543257764,-0.0007807149741034678,-0.0,-0.0010346222646390978,-0.0018153372387425654,0.5,0,0,-0.1468658204160327,-0.002188573524334373,-0.0,0.0,-0.002188573524334373,0.002,8e-05,0.0,-1.2237006661830507,-0.0018134331482333747,-9.789605329464406e-05,0.0,-0.0019113292015280187,-0.026023832470115593,0.0,0.026023832470115593,-0.04334723058816653,0.0,0.04334723058816653,-0.9067165741166874,0.0,0.9067165741166874,-0.004377147048668746,0,0.004377147048668746,-0.0006522547268856027,0.0018152874146305136,0.002188573524334373,0.4,0.03361964225769043,1.8285558223724365,STABILIZE
0.03,0.0,0.01,-0.18856066145733189,-0.0011741595506682453,-0.0,0.0012583177798689144,8.415822920066905e-05,0.03,0.0,0.01,-0.13831135219271137,-0.0008510396887313927,-0.0,-0.0007008766371377011,-0.0015519163258690938,0.5,0,0,-0.14694127682999206,-0.0011280309762956892,-0.0,0.0,-0.0011280309762956892,0.002,8e-05,0.0,-1.2538295889542719,-0.001801641842490164,-0.00010030636711634176,0.0,-0.0019019482096065059,-0.02836798962437976,0.0,0.02836798962437976,-0.03913865168894151,0.0,0.03913865168894151,-0.9008209212450821,0.0,0.9008209212450821,-0.0022560619525913784,0,0.0022560619525913784,8.409712132949065e-05,0.0015519196384559714,0.0011280309762956892,0.4,0.03344607353210449,1.8620011806488037,STABILIZE
0.03,0.0,0.01,-0.18995691059341166,-0.001247329112072796,-0.0,-0.0007262833425092838,-0.00197361245458208,0.03,0.0,0.01,-0.13952744968663272,-0.0010863919397262902,-0.0,-0.0023361137642274694,-0.0034225057039537596,0.5,0,0,-0.1482652222116722,-0.019712284561676837,-0.0,-0.0,-0.019712284561676837,0.002,8e-05,0.0,-1.2843008848920678,-0.0018147541879005124,-0.00010274407079136544,-0.0,-0.001917498258691878,-0.03621306465754301,0.0,0.03621306465754301,-0.041577637069093204,0.0,0.041577637069093204,-0.9073770939502562,0.0,0.9073770939502562,-0.039424569123353674,0,0.039424569123353674,-0.0019759669741212468,0.0034211468737339597,0.019712284561676837,0.4,0.03358173370361328,1.8955800533294678,STABILIZE
0.03,0.0,0.01,-0.19126845351402433,-0.0011774169470040103,-0.0,0.0006973615804377014,-0.00048005536656630884,0.03,0.0,0.01,-0.1401206930135944,-0.0005325748291450666,-0.0,0.00552422851056572,0.004991653681420653,0.5,0,0,-0.15025267024618771,-0.029736668168348517,-0.0,-0.0,-0.029736668168348517,0.002,8e-05,0.0,-1.3144155000504107,-0.0018023280154833737,-0.00010515324000403287,0.0,-0.0019074812554874066,-0.017752494304835553,0.0,0.017752494304835553,-0.03924723156680034,0.0,0.03924723156680034,-0.9011640077416868,0.0,0.9011640077416868,-0.05947333633669703,0,0.05947333633669703,-0.00047487374472142006,-0.00499214929231726,0.029736668168348517,0.4,0.033417463302612305,1.9290087223052979,STABILIZE
0.03,0.0,0.01,-0.19250307628236676,-0.0011045646590528918,-0.0,0.0007241983783344072,-0.00038036628071848463,0.03,0.0,0.01,-0.14010368785888785,1.521379112081781e-05,-0.0,0.005445369550133741,0.005460583341254559,0.5,0,0,-0.1528352772222683,-0.03850914988162675,-0.0,-0.0,-0.03850914988162675,0.002,8e-05,0.0,-1.3439794179591174,-0.0017633056154169745,-0.0001075183534367294,0.0,-0.0018708239688537038,0.000507126370693927,0.0,-0.000507126370693927,-0.03681882196842973,0.0,0.03681882196842973,-0.8816528077084872,0.0,0.8816528077084872,-0.0770182997632535,0,0.0770182997632535,-0.00037302569802303594,-0.005461089704711765,0.03850914988162675,0.4,0.03353238105773926,1.9625420570373535,STABILIZE
0.03,0.0,0.01,-0.1936571934326609,-0.0010351894029897747,-0.0,0.0006914041986112936,-0.00034378520437848114,0.03,0.0,0.01,-0.1402076178741546,-9.322038965392386e-05,-0.0,-0.0010806712957199562,-0.00117389168537388,0.5,0,0,-0.15490017863772332,-0.030868675433754884,-0.0,0.0,-0.030868675433754884,0.002,8e-05,0.0,-1.3732091651958338,-0.0017478482482652948,-0.00010985673321566672,0.0,-0.0018577049814809616,-0.0031073463217974624,0.0,0.0031073463217974624,-0.03450631343299249,0.0,0.03450631343299249,-0.8739241241326474,0.0,0.8739241241326474,-0.06173735086750977,0,0.06173735086750977,-0.00034504989637851226,0.0011735205685239015,0.030868675433754884,0.4,0.033446550369262695,1.9959845542907715,STABILIZE
0.03,0.0,0.01,-0.19493551043908708,-0.0011452357334560729,-0.0,-0.001095441978721206,-0.002240677712177279,0.03,0.0,0.01,-0.14045584110039486,-0.0002223815431814294,-0.0,-0.0012857180152628096,-0.001508099558444239,0.5,0,0,-0.15715063037249888,-0.03360274655565327,-0.0,-0.0,-0.03360274655565327,0.002,8e-05,0.0,-1.4022940993065853,-0.0017371333131193357,-0.00011218352794452683,0.0,-0.0018493168410638626,-0.007412718106047647,0.0,0.007412718106047647,-0.038174524448535765,0.0,0.038174524448535765,-0.8685666565596678,0.0,0.8685666565596678,-0.06720549311130654,0,0.06720549311130654,-0.0022424451065079383,0.0015054703027048773,0.03360274655565327,0.4,0.033486127853393555,2.0294809341430664,STABILIZE
0.03,0.0,0.01,-0.19602405231280118,-0.0009767265146298034,-0.0,0.0016799988841505321,0.0007032723695207287,0.03,0.0,0.01,-0.14036109673753086,8.501219250777973e-05,-0.0,0.00306464617514581,0.00314965836765359,0.5,0,0,-0.15890836864737953,-0.026286380896519378,-0.0,0.0,-0.026286380896519378,0.002,8e-05,0.0,-1.4312768225799208,-0.001733707262949706,-0.00011450214580639367,0.0,-0.0018482094087560997,0.0028337397502593243,0.0,-0.0028337397502593243,-0.03255755048766012,0.0,0.03255755048766012,-0.866853631474853,0.0,0.866853631474853,-0.052572761793038755,0,0.052572761793038755,0.0007061620981300864,-0.0031490117417732966,0.026286380896519378,0.4,0.033434391021728516,2.062908887863159,STABILIZE
0.03,0.0,0.01,-0.1970153516711704,-0.0008901202146559273,-0.0,0.0008640737552346579,-2.6046459421269312e-05,0.03,0.0,0.01,-0.1407009973407914,-0.0003052079025186255,-0.0,-0.0038932380551899444,-0.00419844595770857,0.5,0,0,-0.16100353399971595,-0.03135529507166825,-0.0,-0.0,-0.03135529507166825,0.002,8e-05,0.0,-1.4599106860290851,-0.0017140856906385942,-0.00011679285488232682,0.0,-0.0018308785455209212,-0.01017359675062085,0.0,0.01017359675062085,-0.02967067382186424,0.0,0.02967067382186424,-0.8570428453192971,0.0,0.8570428453192971,-0.0627105901433365,0,0.0627105901433365,-3.0641668343916655e-05,0.004198414934949726,0.03135529507166825,0.4,0.033410072326660156,2.096313714981079,STABILIZE
0.03,0.0,0.01,-0.19800758701341462,-0.0008896972154940029,-0.0,4.2142911565177744e-06,-0.0008854829243374852,0.03,0.0,0.01,-0.1409957696824439,-0.00026431041145914824,-0.0,0.0004074569181452652,0.00014314650668611697,0.5,0,0,-0.16316272299239282,-0.03226762094170404,-0.0,-0.0,-0.03226762094170404,0.002,8e-05,0.0,-1.4883929587271858,-0.0017025933016473075,-0.00011907143669817487,0.0,-0.0018216647383454824,-0.008810347048638275,0.0,0.008810347048638275,-0.029656573849800097,0.0,0.029656573849800097,-0.8512966508236537,0.0,0.8512966508236537,-0.06453524188340808,0,0.06453524188340808,-0.0008853211292597415,-0.00014414378153759897,0.03226762094170404,0.4,0.03345751762390137,2.1297807693481445,STABILIZE
0.03,0.0,0.01,-0.19926056663098116,-0.0011230958794732433,-0.0,-0.002324495361249704,-0.0034475912407229475,0.03,0.0,0.01,-0.14042201258583553,0.00051428149507401,-0.0,0.007754257218901067,0.008268538713975078,0.5,0,0,-0.1654717297847231,-0.03449425643462467,-0.0,-0.0,-0.03449425643462467,0.002,8e-05,0.0,-1.5168270495234382,-0.0016991077248785017,-0.00012134616396187507,0.0,-0.0018204538888403768,0.017142716502467,0.0,-0.017142716502467,-0.03743652931577478,0.0,0.03743652931577478,-0.8495538624392508,0.0,0.8495538624392508,-0.06898851286924934,0,0.06898851286924934,-0.0034376327891965097,-0.008272683883375168,0.03449425643462467,0.4,0.033469438552856445,2.163259506225586,STABILIZE
0.03,0.0,0.01,-0.20029030015058746,-0.0009245061584046209,-0.0,0.0019810672332864964,0.0010565610748818756,0.03,0.0,0.01,-0.13978239958901237,0.0005742516323880689,-0.0,0.0005982428162408319,0.0011724944486289008,0.5,0,0,-0.1680595851813202,-0.03872342060124005,-0.0,-0.0,-0.03872342060124005,0.002,8e-05,0.0,-1.545267778689174,-0.0017022934421126105,-0.00012362142229513392,-0.0,-0.0018259148644077445,0.019141721079602297,0.0,-0.019141721079602297,-0.030816871946820697,0.0,0.030816871946820697,-0.8511467210563053,0.0,0.8511467210563053,-0.0774468412024801,0,0.0774468412024801,0.0010581449727084104,-0.0011710652218186023,0.03872342060124005,0.4,0.033414602279663086,2.1966724395751953,STABILIZE
0.03,0.0,0.01,-0.2007732128205059,-0.00043325520882336237,-0.0,0.00489706745485468,0.004463812246031317,0.03,0.0,0.01,-0.13977828459233635,3.691855391744145e-06,-0.0,-0.005687662725862426,-0.005683970870470682,0.5,0,0,-0.17059617806293018,-0.037929289879246174,-0.0,0.0,-0.037929289879246174,0.002,8e-05,0.0,-1.5733285132646073,-0.0016783516876553973,-0.0001258662810611686,0.0,-0.0018042179687165658,0.0001230618463914715,0.0,-0.0001230618463914715,-0.01444184029411208,0.0,0.01444184029411208,-0.8391758438276986,0.0,0.8391758438276986,-0.07585857975849235,0,0.07585857975849235,0.004456282860836569,0.005689875893935881,0.037929289879246174,0.4,0.03343844413757324,2.2301266193389893,STABILIZE
0.03,0.0,0.01,-0.201779609990131,-0.000901964915628569,-0.0,-0.004667471516906474,-0.005569436432535043,0.03,0.0,0.01,-0.1391587374547555,0.0005552577039581629,-0.0,0.005492563628412382,0.006047821332370544,0.5,0,0,-0.17245565435032723,-0.027775355881617357,-0.0,0.0,-0.027775355881617357,0.002,8e-05,0.0,-1.601398110904121,-0.0016771239712503514,-0.0001281118488723297,0.0,-0.001805235820122681,0.018508590131938764,0.0,-0.018508590131938764,-0.030065497187618966,0.0,0.030065497187618966,-0.8385619856251757,0.0,0.8385619856251757,-0.055550711763234714,0,0.055550711763234714,-0.005563570194019669,-0.006053218296124868,0.027775355881617357,0.4,0.03347349166870117,2.263622283935547,STABILIZE
0.03,0.0,0.01,-0.2040581508974138,-0.0020458160396694494,-0.0,-0.011411342569064365,-0.013457158608733814,0.03,0.0,0.01,-0.13762379081810308,0.0013781707579895706,-0.0,0.00820958476740698,0.00958775552539655,0.5,0,0,-0.1733599258464606,-0.013531855152659079,-0.0,0.0,-0.013531855152659079,0.002,8e-05,0.0,-1.6294079272259054,-0.0016765972561986668,-0.00013035263417807244,0.0,-0.0018069498903767393,0.045939025266319024,0.0,-0.045939025266319024,-0.06819386798898165,0.0,0.06819386798898165,-0.8382986280993334,0.0,0.8382986280993334,-0.027063710305318157,0,0.027063710305318157,-0.013452628323155807,-0.009594110955915452,0.013531855152659079,0.4,0.03341269493103027,2.297004222869873,STABILIZE
0.03,0.0,0.01,-0.20508657326829954,-0.0009224010058796451,-0.0,0.01119556394255009,0.010273162936670445,0.03,0.0,0.01,-0.13653032280384847,0.0009807410114746715,-0.0,-0.003960646783200818,-0.002979905771726147,0.5,0,0,-0.17433770216661224,-0.01461626867789065,-0.0,-0.0,-0.01461626867789065,0.002,8e-05,0.0,-1.6578988341405982,-0.0017035828819308796,-0.00013263190673124786,-0.0,-0.0018362147886621274,0.03269136704915572,0.0,-0.03269136704915572,-0.030746700195988172,0.0,0.030746700195988172,-0.8517914409654398,0.0,0.8517914409654398,-0.0292325373557813,0,0.0292325373557813,0.01027164123972187,0.0029851467927375147,0.01461626867789065,0.4,0.033448219299316406,2.330460786819458,STABILIZE
0.03,0.0,0.01,-0.20486507698590772,0.00019871577492716104,-0.0,0.011175687438991902,0.011374403213919063,0.03,0.0,0.01,-0.13586734851206575,0.0005947885387770993,-0.0,-0.0038473103560809152,-0.003252521817303816,0.5,0,0,-0.17538782708225867,-0.01570202323711075,-0.0,-0.0,-0.01570202323711075,0.002,8e-05,0.0,-1.6869816255309438,-0.0017394451246979257,-0.0001349585300424755,-0.0,-0.0018744036547404012,0.01982628462590331,0.0,-0.01982628462590331,0.006623859164238702,0.0,-0.006623859164238702,-0.8697225623489628,0.0,0.8697225623489628,-0.0314040464742215,0,0.0314040464742215,0.011372618785221798,0.003258755684439978,0.01570202323711075,0.4,0.03343915939331055,2.3639113903045654,STABILIZE
0.03,0.0,0.01,-0.2053854037768323,-0.00046597816600448547,-0.0,-0.006614067008826183,-0.007080045174830669,0.03,0.0,0.01,-0.13506986037632815,0.0007141897464880407,-0.0,0.0011881070972725343,0.001902296843760575,0.5,0,0,-0.17524647876093258,0.002109739260279981,-0.0,0.0,0.002109739260279981,0.002,8e-05,0.0,-1.7156623148303995,-0.0017123309469622386,-0.00013725298518643198,0.0,-0.0018495839321486707,0.02380632488293469,0.0,-0.02380632488293469,-0.01553260553348285,0.0,0.01553260553348285,-0.8561654734811193,0.0,0.8561654734811193,0.004219478520559962,0,-0.004219478520559962,-0.007080185247986354,-0.0019017754372219957,-0.002109739260279981,0.4,0.03349900245666504,2.397404193878174,STABILIZE
0.03,0.0,0.01,-0.20471507849610318,0.0006022981854449385,-0.0,0.010665152286329775,0.011267450471774713,0.03,0.0,0.01,-0.13397705660338805,0.0009819019935714093,-0.0,0.002672709060895883,0.003654611054467292,0.5,0,0,-0.17602040919247383,-0.011589818355821579,-0.0,-0.0,-0.011589818355821579,0.002,8e-05,0.0,-1.7444590433035343,-0.0017249553119698278,-0.00013955672346428275,-0.0,-0.0018645120354341105,0.03273006645238031,0.0,-0.03273006645238031,0.020076606181497952,0.0,-0.020076606181497952,-0.8624776559849139,0.0,0.8624776559849139,-0.023179636711643158,0,0.023179636711643158,0.011268928062694753,-0.003650052384711951,0.011589818355821579,0.4,0.033388376235961914,2.4307894706726074,STABILIZE
0.03,0.0,0.01,-0.203726841674485,0.000885619651274581,-0.0,0.002821130548172677,0.003706750199447258,0.03,0.0,0.01,-0.1335328574773056,0.0003980740916873215,-0.0,-0.005813377832342268,-0.005415303740654946,0.5,0,0,-0.1783384143372121,-0.03462177727423544,-0.0,-0.0,-0.03462177727423544,0.002,8e-05,0.0,-1.7722865384792374,-0.0016625283895680813,-0.00014178292307833902,0.0,-0.0018043113126464203,0.013269136389577385,0.0,-0.013269136389577385,0.029520655042486032,0.0,-0.029520655042486032,-0.8312641947840406,0.0,0.8312641947840406,-0.06924355454847088,0,0.06924355454847088,0.003700202947844676,0.005419779496383161,0.03462177727423544,0.4,0.03347611427307129,2.464287281036377,STABILIZE
0.03,0.0,0.01,-0.20404553825389554,-0.00028576434215235526,-0.0,-0.011670444830439138,-0.011956209172591494,0.03,0.0,0.01,-0.13362224675633153,-8.015231466734063e-05,-0.0,-0.0047645476830304396,-0.00484469999769778,0.5,0,0,-0.17970000377126127,-0.020348179325839835,-0.0,0.0,-0.020348179325839835,0.002,8e-05,0.0,-1.798615435821825,-0.0015738815568959413,-0.000143889234865746,0.0,-0.0017177707917616874,-0.002671743822244688,0.0,0.002671743822244688,-0.009525478071745176,0.0,0.009525478071745176,-0.7869407784479706,0.0,0.7869407784479706,-0.04069635865167967,0,0.04069635865167967,-0.011959647276243976,0.0048362064548863005,0.020348179325839835,0.4,0.033457279205322266,2.497706890106201,STABILIZE
0.03,0.0,0.01,-0.20467216851429518,-0.0005618499343113743,-0.0,-0.002750490850678348,-0.003312340784989722,0.03,0.0,0.01,-0.1343252724785762,-0.0006303477198986189,-0.0,-0.005481298087088394,-0.0061116458069870126,0.5,0,0,-0.1815787875560824,-0.028075954109787145,-0.0,-0.0,-0.028075954109787145,0.002,8e-05,0.0,-1.8246553410734865,-0.0015565286240501815,-0.00014597242728587892,0.0,-0.0017025010513360603,-0.021011590663287297,0.0,0.021011590663287297,-0.018728331143712477,0.0,0.018728331143712477,-0.7782643120250907,0.0,0.7782643120250907,-0.05615190821957429,0,0.05615190821957429,-0.0033183288242817654,0.006108396660328229,0.028075954109787145,0.4,0.03345894813537598,2.5311830043792725,STABILIZE
0.03,0.0,0.01,-0.20395759121499313,0.0006405818638907047,-0.0,0.011976870852274973,0.012617452716165678,0.03,0.0,0.01,-0.13402953336813656,0.000265114929869505,-0.0,0.008919292158894117,0.009184407088763622,0.5,0,0,-0.18350404899490827,-0.028764967348868287,-0.0,-0.0,-0.028764967348868287,0.002,8e-05,0.0,-1.8505951842633188,-0.001550249181420969,-0.0001480476147410655,0.0,-0.0016982967961620345,0.008837164328983502,0.0,-0.008837164328983502,0.021352728796356826,0.0,-0.021352728796356826,-0.7751245907104845,0.0,0.7751245907104845,-0.057529934697736575,0,0.057529934697736575,0.012626668295950334,-0.00917173344362181,0.028764967348868287,0.4,0.03346538543701172,2.5646700859069824,STABILIZE
0.03,0.0,0.01,-0.20492679251180967,-0.00086922934463251,-0.0,-0.015045288798496932,-0.01591451814312944,0.03,0.0,0.01,-0.1343108013178907,-0.0002522554978351431,-0.0,-0.005155603201695679,-0.005407858699530822,0.5,0,0,-0.18419001497740792,-0.010253490225522788,-0.0,0.0,-0.010253490225522788,0.002,8e-05,0.0,-1.8768975933114787,-0.0015726231385426055,-0.0001501518074649183,-0.0,-0.0017227749460075239,-0.008408516594504771,0.0,0.008408516594504771,-0.028974311487750336,0.0,0.028974311487750336,-0.7863115692713027,0.0,0.7863115692713027,-0.020506980451045577,0,0.020506980451045577,-0.01591645267385716,0.0054021623191970744,0.010253490225522788,0.4,0.03345036506652832,2.5981101989746094,STABILIZE
0.03,0.0,0.01,-0.20763658309477218,-0.0024320470505385795,-0.0,-0.015584829552166685,-0.018016876602705265,0.03,0.0,0.01,-0.13518970070743674,-0.0007888154462950247,-0.0,-0.0053507170475896775,-0.006139532493884702,0.5,0,0,-0.1835987129571837,0.008844929095908546,-0.0,0.0,0.008844929095908546,0.002,8e-05,0.0,-1.9036806137803903,-0.0016025239821230938,-0.00015229444910243124,-0.0,-0.0017548184312255251,-0.02629384820983416,0.0,0.02629384820983416,-0.08106823501795266,0.0,0.08106823501795266,-0.8012619910615468,0.0,0.8012619910615468,0.017689858191817093,0,-0.017689858191817093,-0.01801498018625775,0.006145094844615111,-0.008844929095908546,0.4,0.03342604637145996,2.6315255165100098,STABILIZE
0.03,0.0,0.01,-0.2094451016081218,-0.001621347960802891,-0.0,0.008075519064455033,0.006454171103652142,0.03,0.0,0.01,-0.13667195859416814,-0.0013288533041250488,-0.0,-0.00537941397942812,-0.006708267283553168,0.5,0,0,-0.18420913128852767,-0.009120729752518392,-0.0,-0.0,-0.009120729752518392,0.002,8e-05,0.0,-1.9306755886832534,-0.0016134107258733686,-0.00015445404709466028,-0.0,-0.0017678647729680288,-0.04429511013750163,0.0,0.04429511013750163,-0.05404493202676303,0.0,0.05404493202676303,-0.8067053629366843,0.0,0.8067053629366843,-0.018241459505036785,0,0.018241459505036785,0.006452035041858592,0.006710321780767067,0.009120729752518392,0.4,0.033463239669799805,2.6650161743164062,STABILIZE
0.03,0.0,0.01,-0.21102926876972128,-0.0014124266442542561,-0.0,0.002069689229204499,0.000657262584950243,0.03,0.0,0.01,-0.13812510386993807,-0.0012956089200822447,-0.0,0.00032933711466877515,-0.0009662718054134695,0.5,0,0,-0.18515413638208175,-0.01404260869103518,-0.0,-0.0,-0.01404260869103518,0.002,8e-05,0.0,-1.9578005756012626,-0.0016122900485393307,-0.00015662404604810102,0.0,-0.0017689140945874318,-0.043186964002741496,0.0,0.043186964002741496,-0.04708088814180854,0.0,0.04708088814180854,-0.8061450242696654,0.0,0.8061450242696654,-0.02808521738207036,0,0.02808521738207036,0.0006567888593626046,0.0009665938659693896,0.01404260869103518,0.4,0.033647775650024414,2.6986465454101562,STABILIZE
0.03,0.0,0.01,-0.21507356032689234,-0.003625138181640044,-0.0,-0.022037605256529657,-0.0256627434381697,0.03,0.0,0.01,-0.1346497480765757,0.0031151673422166455,-0.0,0.04392933489118734,0.047044502233403986,0.5,0,0,-0.19282938614946368,-0.11466301984758692,-0.0,-0.0,-0.11466301984758692,0.002,8e-05,0.0,-1.9861595910450014,-0.0016946577371345247,-0.00015889276728360012,-0.0,-0.0018535505044181247,0.10383891140722153,0.0,-0.10383891140722153,-0.12083793938800147,0.0,0.12083793938800147,-0.8473288685672623,0.0,0.8473288685672623,-0.22932603969517384,0,0.22932603969517384,-0.02547424302386109,-0.047146840122359625,0.11466301984758692,0.4,0.03346872329711914,2.7321596145629883,STABILIZE
0.03,0.0,0.01,-0.21951360149606405,-0.003970848511913163,-0.0,-0.0034353118666492818,-0.007406160378562445,0.03,0.0,0.01,-0.13159463953859116,0.002732265924924367,-0.0,-0.0038048784412713687,-0.0010726125163470017,0.5,0,0,-0.200061930485213,-0.10780432289818095,-0.0,0.0,-0.10780432289818095,0.002,8e-05,0.0,-2.0137381824020726,-0.0016442851808258735,-0.00016109905459216583,0.0,-0.0018053842354180394,0.09107553083081224,0.0,-0.09107553083081224,-0.13236161706377209,0.0,0.13236161706377209,-0.8221425904129367,0.0,0.8221425904129367,-0.2156086457963619,0,0.2156086457963619,-0.007410144258134354,0.0010447350079570087,0.10780432289818095,0.4,0.03354477882385254,2.7656755447387695,STABILIZE
0.03,0.0,0.01,-0.22208519719181816,-0.0023021708469462133,-0.0,0.016598345617685927,0.014296174770739713,0.03,0.0,0.01,-0.13018522572510755,0.0012617502035963625,-0.0,-0.014627227709269053,-0.01336547750567269,0.5,0,0,-0.20775010170586666,-0.11471142009701721,-0.0,-0.0,-0.11471142009701721,0.002,8e-05,0.0,-2.0430098512014787,-0.001746992672363477,-0.0001634407880961183,-0.0,-0.0019104334604595952,0.04205834011987875,0.0,-0.04205834011987875,-0.07673902823154044,0.0,0.07673902823154044,-0.8734963361817384,0.0,0.8734963361817384,-0.22942284019403442,0,0.22942284019403442,0.014242542474737467,0.013422614718655843,0.11471142009701721,0.4,0.03351092338562012,2.799203872680664,STABILIZE
0.03,0.0,0.01,-0.2256309665935443,-0.003181320010425614,-0.0,-0.008764293785541164,-0.01194561379596678,0.03,0.0,0.01,-0.12654002981519483,0.0032705270355374706,-0.0,0.020025623678060902,0.023296150713598373,0.5,0,0,-0.21432279527850898,-0.09828539881388118,-0.0,0.0,-0.09828539881388118,0.002,8e-05,0.0,-2.0720449640710177,-0.0017367172934194557,-0.00016576359712568143,0.0,-0.001902480890545137,0.10901756785124903,0.0,-0.10901756785124903,-0.10604400034752047,0.0,0.10604400034752047,-0.8683586467097278,0.0,0.8683586467097278,-0.19657079762776236,0,0.19657079762776236,-0.011865619038594183,-0.023336996633329516,0.09828539881388118,0.4,0.03343677520751953,2.8326449394226074,STABILIZE
0.03,0.0,0.01,-0.22974684718552385,-0.003691569247810733,-0.0,-0.005084966634736485,-0.008776535882547218,0.03,0.0,0.01,-0.1218166911081868,0.004236403736241255,-0.0,0.009625591645208296,0.013861995381449551,0.5,0,0,-0.219798259187229,-0.08184985663544632,-0.0,0.0,-0.08184985663544632,0.002,8e-05,0.0,-2.100982658932251,-0.0017302980826740077,-0.0001680786127145801,0.0,-0.0018983766953885879,0.14121345787470851,0.0,-0.14121345787470851,-0.12305230826035776,0.0,0.12305230826035776,-0.8651490413370039,0.0,0.8651490413370039,-0.16369971327089264,0,0.16369971327089264,-0.008736895022078153,-0.01388701420126564,0.08184985663544632,0.4,0.033448219299316406,2.866093635559082,STABILIZE
