Mode,Time,Freq,North-Vision,East-Vision,Down-Vision,Yaw-Vision,North-Desired,East-Desired,Down-Desired,Roll-UAV,Pitch-UAV,Yaw-UAV,Roll-Control,Pitch-Control,Yaw-Control,Thrust-Control
GUIDED_NOGPS,0.0020172595977783203,500.8722235490805,286.3820486018642,163.21412412863208,-83.33788362526005,-16.067387796880027,300,0,30,-0.3625943058293198,0.30241281536124986,86.01032508573364,10.0,2.723603185548335,15.0,0.5113359366001712
GUIDED_NOGPS,0.0037872791290283203,574.6409097136594,286.8672850862338,163.49918999045772,-83.55048232466581,-15.306674916434687,300,0,30,-0.3625943058293198,0.30241281536124986,86.01032508573364,10.0,2.626573807863742,15.0,0.5113602951935726
GUIDED_NOGPS,0.005491018295288086,585.6330633901144,286.2846507487298,163.17472847197732,-83.43171647012213,-14.508471239540276,300,0,30,-0.3625943058293198,0.30241281536124986,86.01032508573364,10.0,2.743128993513273,14.508471239540276,0.5113531026685232
GUIDED_NOGPS,0.006972789764404297,696.381205379379,286.69700858906003,163.3340401421309,-83.6526379489583,-14.478442512490156,300,0,30,-0.3625943058293198,0.30241281536124986,86.01032508573364,10.0,2.6606759829487205,14.478442512490156,0.5113783656956976
GUIDED_NOGPS,0.01110696792602539,241.17670059226037,286.6912792462569,163.23017523210757,-83.65209435170004,-14.495942716827765,300,0,30,-0.3356399781260694,0.3053110567251567,85.98381712156483,10.0,2.661870833824954,14.495942716827765,0.5113866771930031
GUIDED_NOGPS,0.01303243637084961,521.0315527950311,287.5160078969244,163.513362564441,-83.91958306998798,-15.537158371753316,300,0,30,-0.3356399781260694,0.3053110567251567,85.98381712156483,10.0,2.496952236696597,15.0,0.5114183779754196
GUIDED_NOGPS,0.015622138977050781,387.1069681587448,287.50748986454755,163.4077986620823,-83.9182506880313,-15.556628116686127,300,0,30,-0.3356399781260694,0.3053110567251567,85.98381712156483,10.0,2.4986796260673976,15.0,0.5114225822255497
GUIDED_NOGPS,0.0180208683013916,418.2592740327084,287.85602149959186,163.32973079148323,-84.02000121718693,-15.516473892220256,300,0,30,-0.3356399781260694,0.3053110567251567,85.98381712156483,10.0,2.42901596783294,15.0,0.5114407696340691
GUIDED_NOGPS,0.020333290100097656,435.0035262393694,287.794339607821,163.024079617056,-83.90212008684942,-15.106933797614658,300,0,30,-0.31916550848714575,0.3288061604180601,85.9485187039342,10.0,2.44137238774422,15.0,0.5114327220410408
GUIDED_NOGPS,0.03361964225769043,75.32197180569274,287.8115647528012,162.66248322738508,-83.78721725092305,-14.732263521624589,300,0,30,-0.3078986312035337,0.3428770971602268,85.90154749301202,10.0,2.437954003398346,14.732263521624589,0.5114262066710213
GUIDED_NOGPS,0.03494429588317871,760.3886874546773,287.56888021523633,162.19467604886395,-83.70426975760985,-15.038724005685921,300,0,30,-0.3078986312035337,0.3428770971602268,85.90154749301202,10.0,2.4866548125634664,15.0,0.5114478952506135
GUIDED_NOGPS,0.0365900993347168,612.3965542414951,287.3566337289388,161.70354846803977,-83.5963254886439,-14.648284721307538,300,0,30,-0.3078986312035337,0.3428770971602268,85.90154749301202,10.0,2.52911968228271,14.648284721307538,0.5114398990883038
GUIDED_NOGPS,0.039328575134277344,366.0909487649472,287.47415137015605,161.37455175889818,-83.55143822425502,-14.033707039533633,300,0,30,-0.3078986312035337,0.3428770971602268,85.90154749301202,10.0,2.5056424343155426,14.033707039533633,0.5114401751698348
GUIDED_NOGPS,0.04311966896057129,264.0750487943084,286.8398035774629,160.48169444895362,-83.21148489778506,-12.895531379621422,300,0,30,-0.28168169712638025,0.33630416066200025,85.85683707470511,10.0,2.6325734308916093,12.895531379621422,0.5114167503351097
GUIDED_NOGPS,0.044820547103881836,594.2623972796827,287.4101674055135,160.17233691357328,-83.25477466216354,-12.978667094278606,300,0,30,-0.28168169712638025,0.33630416066200025,85.85683707470511,10.0,2.5185198668365225,12.978667094278606,0.5114245339528587
GUIDED_NOGPS,0.04619479179382324,730.2061281337047,288.1368371316308,159.86327887294274,-83.34141893251144,-13.691908277745753,300,0,30,-0.28168169712638025,0.33630416066200025,85.85683707470511,10.0,2.3732069507554288,13.691908277745753,0.5114372166553918
GUIDED_NOGPS,0.04730415344238281,909.2356384131801,289.09855554659515,159.80744099991998,-83.52655517415666,-14.854936022209463,300,0,30,-0.28168169712638025,0.33630416066200025,85.85683707470511,10.0,2.1808758734310043,14.854936022209463,0.5114583557630338
GUIDED_NOGPS,0.049241065979003906,517.8153086419753,289.81299518167526,159.58796008322884,-83.60790235486705,-15.591147604785425,300,0,30,-0.2547234740808688,0.34659042555203945,85.83623039397918,10.0,2.0379984411353984,15.0,0.5114688312735036
GUIDED_NOGPS,0.05263543128967285,295.5608484250581,289.8711898549413,158.8578410681403,-83.42773310949116,-24.554214355051304,300,0,30,-0.2547234740808688,0.34659042555203945,85.83623039397918,10.0,2.026398731646412,15.0,0.5114595996285686
GUIDED_NOGPS,0.053951263427734375,763.5725468778445,290.2012975825547,158.38782507061475,-83.31937546468752,-24.131451361267477,300,0,30,-0.2547234740808688,0.34659042555203945,85.83623039397918,10.0,1.9603930582169895,15.0,0.5114524349944446
GUIDED_NOGPS,0.05553245544433594,637.3353593678772,290.1262631148542,157.6556317805201,-83.13043923794254,-24.72622777714321,300,0,30,-0.2547234740808688,0.34659042555203945,85.83623039397918,10.0,1.9754128403577733,15.0,0.5114364948494142
GUIDED_NOGPS,0.07645440101623535,47.80160466812546,290.3790774695692,157.23968868373973,-83.07942892267357,-15.482135947240058,300,0,30,-0.12830829186964976,0.4115736457283341,85.79780374970869,10.0,1.9250538727719237,15.0,0.5114793253444301
GUIDED_NOGPS,0.07915210723876953,371.5061116031887,290.9482251802188,156.81156803701472,-83.01522524752139,-15.585873563434731,300,0,30,-0.011623261079855977,0.46144021652836253,85.75806570911756,10.0,1.8112480569175382,15.0,0.5114788296279957
GUIDED_NOGPS,0.08264327049255371,287.14342438556855,291.3835187766022,156.2672914499813,-82.90442735190096,-14.726064205493875,300,0,30,-0.011623261079855977,0.46144021652836253,85.75806570911756,10.0,1.7241993463327665,14.726064205493875,0.5114703727783545
GUIDED_NOGPS,0.08462285995483398,506.37498490884946,292.19467915190455,155.54432956919632,-82.9107169637726,-15.335843194836784,300,0,30,-0.011623261079855977,0.46144021652836253,85.75806570911756,10.0,1.5619945972199019,15.0,0.5114789076088725
GUIDED_NOGPS,0.08650922775268555,534.034122740005,292.31698413757783,154.400100195072,-82.75907547307938,-16.395127991864996,300,0,30,-0.011623261079855977,0.46144021652836253,85.75806570911756,10.0,1.5375526615226294,15.0,0.5114693385284457
GUIDED_NOGPS,0.08835148811340332,544.997920997921,292.6325640625059,153.3959945043592,-82.62509375142032,-16.023470156970124,300,0,30,-0.011623261079855977,0.46144021652836253,85.75806570911756,10.0,1.4744489828114768,15.0,0.5114597028465848
GUIDED_NOGPS,0.10640311241149902,55.41936762549053,292.2755189593161,152.31933778999039,-82.29261529664903,-15.384233337376847,300,0,30,0.4120092303704811,0.5905173449066751,85.63190528495825,10.0,1.5460005018759913,15.0,0.5114678856704563
GUIDED_NOGPS,0.10793256759643555,656.8996084573218,292.3692411801639,151.46646988169925,-82.10538691822272,-13.763806875949678,300,0,30,0.4120092303704811,0.5905173449066751,85.63190528495825,10.0,1.5272664314387137,13.763806875949678,0.5114522108945386
GUIDED_NOGPS,0.11055898666381836,381.61259212082615,292.9005533728,150.78981697558928,-82.05017385892482,-13.877886688046033,300,0,30,0.7970588503132756,0.700632480766857,85.59747430135222,10.0,1.4210141572145556,13.877886688046033,0.5114498980412819
GUIDED_NOGPS,0.11284732818603516,438.7347280334728,293.5916151916724,150.02109654984392,-82.0295024624189,-21.819504606955277,300,0,30,0.7970588503132756,0.700632480766857,85.59747430135222,10.0,1.2828180974262147,15.0,0.5114535313316467
GUIDED_NOGPS,0.11629128456115723,290.9276548519109,294.65853127770293,149.5571917574288,-82.15013959704095,-22.369654002835702,300,0,30,0.7970588503132756,0.700632480766857,85.59747430135222,10.0,1.0694546412031405,15.0,0.511473893126107
GUIDED_NOGPS,0.11873269081115723,410.6426473467789,294.6775725503259,148.4802014659032,-81.98809131192223,-22.828988574502365,300,0,30,0.7970588503132756,0.700632480766857,85.59747430135222,10.0,1.0656623083898003,15.0,0.511464388406036
GUIDED_NOGPS,0.12205338478088379,301.9222574143392,294.89344383159636,147.50384130972748,-81.85156513645725,-23.03284086235638,300,0,30,0.7970588503132756,0.700632480766857,85.59747430135222,10.0,1.0224961996314306,15.0,0.5114543049655157
GUIDED_NOGPS,0.12363553047180176,635.1156874621441,295.3207165601871,146.63391264200837,-81.74500861267016,-22.61512174711051,300,0,30,0.7970588503132756,0.700632480766857,85.59747430135222,10.0,0.9370567818304346,15.0,0.5114508746469077
GUIDED_NOGPS,0.12808609008789062,226.82948461413662,295.8337900964018,145.75453239973714,-81.68319277157882,-22.217747787292097,300,0,30,0.7970588503132756,0.700632480766857,85.59747430135222,10.0,0.8344509219270368,15.0,0.5114494364585945
GUIDED_NOGPS,0.13126683235168457,315.3849161591097,296.6487947662251,145.1252187367263,-81.7777765575354,-15.099885555065347,300,0,30,0.7970588503132756,0.700632480766857,85.59747430135222,10.0,0.671468101855378,15.0,0.5114709784342415
GUIDED_NOGPS,0.14528632164001465,71.36447007979855,297.0744006530592,144.0472179550124,-81.63252174469511,-22.063136105659115,300,0,30,0.7970588503132756,0.700632480766857,85.59747430135222,10.0,0.5863674900868437,15.0,0.5114721474437293
GUIDED_NOGPS,0.15520286560058594,100.92165543792107,297.33374865502924,142.98312894489047,-81.5005232734702,-21.57057487462569,300,0,30,0.7970588503132756,0.700632480766857,85.59747430135222,10.0,0.5345418364249296,15.0,0.5114957039484376
GUIDED_NOGPS,0.15674924850463867,649.4741406008052,296.73787570438844,141.49342033967324,-81.13073959180099,-19.64910095969152,300,0,30,0.7970588503132756,0.700632480766857,85.59747430135222,10.0,0.6537246707141068,15.0,0.5114643426544726
GUIDED_NOGPS,0.1610701084136963,231.72950276243094,296.5259257845826,139.79949344465194,-80.98308395801449,-13.813294371923073,300,0,30,0.7970588503132756,0.700632480766857,85.59747430135222,10.0,0.6961223825634801,13.813294371923073,0.5114545146071793
GUIDED_NOGPS,0.1631755828857422,477.2219820229833,296.5039223023371,138.20435286140037,-80.81316220893123,-13.537935632104913,300,0,30,0.7970588503132756,0.700632480766857,85.59747430135222,10.0,0.7005363129664407,13.537935632104913,0.5114459118126133
GUIDED_NOGPS,0.16629958152770996,321.08275281328946,297.01208751191285,136.79744898997538,-80.83847323621538,-13.756396928927742,300,0,30,0.7970588503132756,0.700632480766857,85.59747430135222,10.0,0.5989098790311249,13.756396928927742,0.5114533454578267
GUIDED_NOGPS,0.17038893699645996,245.16623801730185,298.1141025592677,136.07553900810308,-80.98003558058087,-13.269703477914879,300,0,30,0.7970588503132756,0.700632480766857,85.59747430135222,10.0,0.3785133330343645,13.269703477914879,0.5114751088567009
GUIDED_NOGPS,0.17855286598205566,122.57953648771078,299.1799133634759,135.23324417433153,-81.21420704760253,-15.001995204299826,300,0,30,1.2018512921345508,0.8325043304544684,85.58200392288214,10.0,0.1653585250641471,15.0,0.5115184688662486
GUIDED_NOGPS,0.18816447257995605,104.12094431894347,300.15604996056646,134.32557673009094,-81.39278519967729,-15.7709403199756,300,0,30,3.2518154978026357,1.4333887285824591,85.44308470535324,10.0,-0.02987002022842171,15.0,0.5115538279445002
GUIDED_NOGPS,0.19044995307922363,439.1481520259659,300.4991392113513,133.1795984509691,-81.44161500132161,-16.044310778377806,300,0,30,3.2518154978026357,1.4333887285824591,85.44308470535324,10.0,-0.09849016823481176,15.0,0.5115689716312994
GUIDED_NOGPS,0.19190764427185059,699.7504170837504,301.0924400561016,132.12236290836685,-81.50448845274609,-15.81756285177569,300,0,30,3.2518154978026357,1.4333887285824591,85.44308470535324,10.0,-0.21715233646053153,15.0,0.5115793402659877
GUIDED_NOGPS,0.19325542449951172,738.824026774705,301.26141133327565,130.9228101490479,-81.46456310935052,-16.340229853206736,300,0,30,3.2518154978026357,1.4333887285824591,85.44308470535324,10.0,-0.2509485560537323,15.0,0.5115788189872447
GUIDED_NOGPS,0.19498682022094727,579.4838353136225,301.8102599819083,129.75725829395643,-81.4565794600595,-22.147560213180167,300,0,30,3.8630986454985594,1.5759951810460977,85.44152742222249,10.0,-0.36072023617891336,15.0,0.5115804223189144
GUIDED_NOGPS,0.19649767875671387,666.1855146124524,302.3570069078459,128.66458894947155,-81.50559729307956,-21.831748624543945,300,0,30,3.8630986454985594,1.5759951810460977,85.44152742222249,10.0,-0.470073673056491,15.0,0.5115891576600915
GUIDED_NOGPS,0.19961261749267578,322.2669227814061,302.89946653255606,127.5720120673645,-81.52036606045472,-21.407018382605155,300,0,30,3.8630986454985594,1.5759951810460977,85.44152742222249,10.0,-0.5785715140300208,15.0,0.5115951854291475
GUIDED_NOGPS,0.20281744003295898,312.8443350488551,302.8071554270207,126.21785713887384,-81.4957511186362,-15.86087554242055,300,0,30,3.8630986454985594,1.5759951810460977,85.44152742222249,10.0,-0.5601178570043395,15.0,0.5115995269689437
GUIDED_NOGPS,0.2171638011932373,69.73421783297587,303.0774969225358,125.01904296649998,-81.50562715610667,-16.0122375283249,300,0,30,3.8630986454985594,1.5759951810460977,85.44152742222249,10.0,-0.6142345149452397,15.0,0.5116355578736752
GUIDED_NOGPS,0.21826791763305664,912.5987815491732,303.1044743768844,123.6740788034321,-81.45305772345233,-15.720368113367693,300,0,30,3.8630986454985594,1.5759951810460977,85.44152742222249,10.0,-0.6196343424380102,15.0,0.5116334146935761
GUIDED_NOGPS,0.21933603286743164,941.6937584193983,303.55386709906037,122.54047150849912,-81.57472656077103,-16.338356350165153,300,0,30,3.8630986454985594,1.5759951810460977,85.44152742222249,10.0,-0.7095168404120687,15.0,0.5116480640281468
GUIDED_NOGPS,0.22095513343811035,621.4704400651948,303.5221750731462,121.16572246901593,-81.581165360709,-15.802080305449204,300,0,30,3.8630986454985594,1.5759951810460977,85.44152742222249,10.0,-0.703182911107263,15.0,0.5116515437903817
GUIDED_NOGPS,0.22251248359680176,644.7815526518064,304.1898539870819,120.04100962835382,-81.7083371103402,-22.121231721620465,300,0,30,3.8630986454985594,1.5759951810460977,85.44152742222249,10.0,-0.8367244218108316,15.0,0.511667315277121
GUIDED_NOGPS,0.22359251976013184,939.7947568899843,304.61723680805886,118.85258729622139,-81.80578618809346,-20.525005551457138,300,0,30,3.8630986454985594,1.5759951810460977,85.44152742222249,10.0,-0.9222081029047515,15.0,0.5116805068802608
GUIDED_NOGPS,0.2273850440979004,263.89228639738263,304.9736007634825,117.63303629238993,-81.91521194048609,-19.226565860280417,300,0,30,4.43398976199032,1.6988404021370083,85.44502447907753,10.0,-0.9934955860369508,15.0,0.5116980614200879
GUIDED_NOGPS,0.22953081130981445,467.69669937555756,305.0691362538125,115.95378893233062,-82.05726376294989,-11.97880058007936,300,0,30,4.43398976199032,1.6988404021370083,85.44502447907753,10.0,-1.0126134609774773,11.97880058007936,0.5117170312289373
GUIDED_NOGPS,0.23478150367736816,190.7368804001819,305.639713819825,114.35479168677641,-82.20247825278787,-12.200237151347059,300,0,30,5.410401589223609,1.9446906067123841,85.43870655409528,10.0,-1.1267570725485492,12.200237151347059,0.5117427330558243
GUIDED_NOGPS,0.23685646057128906,493.5055888928109,306.2805387100166,112.79878551280673,-82.34577595459554,-13.456107558315466,300,0,30,5.410401589223609,1.9446906067123841,85.43870655409528,10.0,-1.254937638490838,13.456107558315466,0.5117626395296855
GUIDED_NOGPS,0.2502751350402832,74.46082834774272,307.5160682884457,111.91234385078263,-82.47265782018059,-15.001878368532374,300,0,30,5.410401589223609,1.9446906067123841,85.43870655409528,10.0,-1.5021434923615071,15.0,0.5118052378044333
GUIDED_NOGPS,0.2527000904083252,413.2726376982954,308.5822660976048,111.19238407529667,-82.20215379216438,-14.427549528071305,300,0,30,5.410401589223609,1.9446906067123841,85.43870655409528,10.0,-1.7154089157573018,14.427549528071305,0.5117849495391485
GUIDED_NOGPS,0.2553126811981201,384.19932215810206,309.97296827610165,110.64996790703576,-81.53439194955614,-16.367512448900644,300,0,30,5.410401589223609,1.9446906067123841,85.43870655409528,10.0,-1.9935645261992578,15.0,0.511721567541334
GUIDED_NOGPS,0.257387638092041,482.88095786322816,311.1102093510725,109.84563850400582,-80.51413157695178,-18.29657511276784,300,0,30,5.410401589223609,1.9446906067123841,85.43870655409528,10.0,-2.2210436483290854,15.0,0.5116256902185552
GUIDED_NOGPS,0.25979065895080566,417.8009761928479,311.8199953538872,108.45483624121039,-79.19636396385441,-22.00350751558237,300,0,30,5.902273820320668,2.0824025883054738,85.41901511871812,10.0,-2.3630310420850305,15.0,0.5114994921174641
GUIDED_NOGPS,0.26264119148254395,354.9681787406906,312.4437665284318,106.63307304042071,-77.93819744343328,-19.91539688500392,300,0,30,5.902273820320668,2.0824025883054738,85.41901511871812,10.0,-2.4878131176810174,15.0,0.5113785053110642
GUIDED_NOGPS,0.26416897773742676,650.5822863347294,311.8399261860358,104.22882939765623,-77.09317767351506,-17.168762595602825,300,0,30,5.902273820320668,2.0824025883054738,85.41901511871812,10.0,-2.3670769954900837,15.0,0.5112997824740285
GUIDED_NOGPS,0.2666933536529541,397.15026986080863,311.54706406927795,102.01142727892609,-77.15507630478884,-12.662919288867778,300,0,30,6.396224990246352,2.223384096076884,85.42323617562519,10.0,-2.3085304974654144,12.662919288867778,0.5113107840024694
GUIDED_NOGPS,0.26787400245666504,852.5008130081301,311.10750497088515,100.08498969429361,-77.65512440289432,-10.006411304430467,300,0,30,6.396224990246352,2.223384096076884,85.42323617562519,10.0,-2.220634016367173,10.006411304430467,0.5113637620754509
GUIDED_NOGPS,0.26996517181396484,481.1637031088677,311.49622540654224,98.62302784660716,-78.48711079966432,-7.675627665721033,300,0,30,6.396224990246352,2.223384096076884,85.42323617562519,10.0,-2.298391235216255,7.675627665721033,0.5114494391322757
GUIDED_NOGPS,0.27454066276550293,219.0351454384041,311.45130012699224,96.97258407696268,-79.20293088679647,-7.201875711301535,300,0,30,6.827602662751432,2.322218214027438,85.451069196493,10.0,-2.289455631467853,7.201875711301535,0.5115304529451078
GUIDED_NOGPS,0.2888622283935547,69.86896770002166,312.1367070874228,95.32878051341261,-80.42065618186228,-8.322132842392065,300,0,30,6.827602662751432,2.322218214027438,85.451069196493,10.0,-2.4265709656750256,8.322132842392065,0.5116584016330283
GUIDED_NOGPS,0.2940664291381836,192.39926605504587,312.0830741494597,93.50289084930968,-81.6290868113522,-7.979490342240709,300,0,30,7.178325619555594,2.366460337489372,85.49118289748849,10.0,-2.4160496515791627,7.979490342240709,0.5118171729461983
GUIDED_NOGPS,0.2953178882598877,803.5065134099617,311.79643992124255,91.86609581073083,-82.815035429572,-6.573633879488976,300,0,30,7.178325619555594,2.366460337489372,85.49118289748849,10.0,-2.3587484980359394,6.573633879488976,0.5119406819265422
GUIDED_NOGPS,0.2976083755493164,438.04741514360313,310.69605230700546,90.45979981354667,-83.63488112853408,-8.075088643908751,300,0,30,7.178325619555594,2.366460337489372,85.49118289748849,10.0,-2.1386827899759893,8.075088643908751,0.5120251769029529
GUIDED_NOGPS,0.29964137077331543,493.5055888928109,311.9705196901972,90.36909211282301,-84.86623704577949,-12.05109984745233,300,0,30,7.454659705448677,2.378159170877135,85.52644033398408,10.0,-2.3936116932455285,12.05109984745233,0.5121551114038669
GUIDED_NOGPS,0.3013637065887451,582.4613248159977,312.1098853544641,90.43250589230435,-86.27969647598843,-16.88690363322169,300,0,30,7.454659705448677,2.378159170877135,85.52644033398408,10.0,-2.421502588286557,15.0,0.5122998684143389
GUIDED_NOGPS,0.30371689796447754,426.38040052861646,312.53478304571416,90.85619691555837,-88.23686118879958,-17.928876372375793,300,0,30,7.454659705448677,2.378159170877135,85.52644033398408,10.0,-2.5065030760979634,15.0,0.5124995371046148
GUIDED_NOGPS,0.3058967590332031,459.8513320907795,311.2259111543886,90.77637526868595,-89.78503116322793,-15.551388308526422,300,0,30,7.6568606256377345,2.3581633651950993,85.5472314298176,10.0,-2.2447571647229565,15.0,0.5126604291676297
GUIDED_NOGPS,0.3093221187591553,293.2464517933301,311.0420418936215,90.9507780955741,-90.93010312161952,-12.966593776098312,300,0,30,7.6568606256377345,2.3581633651950993,85.5472314298176,10.0,-2.20800720366808,12.966593776098312,0.5127801693684482
GUIDED_NOGPS,0.3191962242126465,101.32637580325651,311.3408113912481,91.29763136009194,-91.39616572248389,-11.319453800540833,300,0,30,7.985063168087894,2.2353207054251274,85.56326871398879,10.0,-2.2678241950658564,11.319453800540833,0.5128402827950679
GUIDED_NOGPS,0.3245100975036621,188.54194012406725,311.5862433400905,92.03553499563326,-91.54733794172519,-14.271532722856756,300,0,30,7.985063168087894,2.2353207054251274,85.56326871398879,10.0,-2.317000174202203,14.271532722856756,0.5128741970487004
GUIDED_NOGPS,0.3264753818511963,510.3801411535653,312.00234672394623,93.24235373456185,-92.12489489310262,-16.281750422323416,300,0,30,7.985063168087894,2.2353207054251274,85.56326871398879,10.0,-2.4002881382231207,15.0,0.5129456458131937
GUIDED_NOGPS,0.32804226875305176,642.1163502755664,311.4132386799215,94.07895399633401,-92.97406747984233,-16.141142709020258,300,0,30,7.985063168087894,2.2353207054251274,85.56326871398879,10.0,-2.2824826956405087,15.0,0.513034046791383
GUIDED_NOGPS,0.3296520709991455,624.3381958916344,310.3936239932919,94.17198191693943,-93.9454165849423,-12.636699464204645,300,0,30,7.985063168087894,2.2353207054251274,85.56326871398879,10.0,-2.0785761257229756,12.636699464204645,0.5131350853744763
GUIDED_NOGPS,0.33074402809143066,926.303886925795,309.81368890458754,93.90884179293637,-94.83546138476142,-11.574397530114567,300,0,30,7.985063168087894,2.2353207054251274,85.56326871398879,10.0,-1.9626044989613016,11.574397530114567,0.513228005487016
GUIDED_NOGPS,0.33182430267333984,929.3826722800798,309.25039700701626,93.77039497046538,-95.28511133530496,-13.153607489425454,300,0,30,7.985063168087894,2.2353207054251274,85.56326871398879,10.0,-1.849956251360196,13.153607489425454,0.5132757149650715
GUIDED_NOGPS,0.3327322006225586,1107.260823653643,310.5161296466479,94.58377828129532,-95.7550308386933,-14.75300742341455,300,0,30,7.985063168087894,2.2353207054251274,85.56326871398879,10.0,-2.1031137935948716,14.75300742341455,0.5133253411634309
GUIDED_NOGPS,0.3343949317932129,604.6279371486233,311.5827685991363,95.79522377258344,-95.4578837669509,-12.879940955158034,300,0,30,7.985063168087894,2.2353207054251274,85.56326871398879,10.0,-2.3164518460020527,12.879940955158034,0.513297849478222
GUIDED_NOGPS,0.33568644523620605,793.1739788199698,313.0934554930114,97.46946766969909,-94.58131487567404,-9.999794852329208,300,0,30,7.985063168087894,2.2353207054251274,85.56326871398879,10.0,-2.6186106460406746,9.999794852329208,0.5132142689602046
GUIDED_NOGPS,0.3386960029602051,331.749110179546,314.2953502469887,99.36655451154199,-93.00281467316405,-8.37161348210905,300,0,30,7.985063168087894,2.2353207054251274,85.56326871398879,10.0,-2.8590255200766985,8.37161348210905,0.5130626008937016
GUIDED_NOGPS,0.33975958824157715,947.0092571686611,314.4792822163329,101.11226004665987,-90.84548843222366,-9.47434444989372,300,0,30,7.985063168087894,2.2353207054251274,85.56326871398879,10.0,-2.895838084542253,9.47434444989372,0.5128512367161856
GUIDED_NOGPS,0.3415200710296631,570.4207806337549,314.2078438217147,102.83789328719581,-88.69861928922036,-11.399258986670949,300,0,30,7.985063168087894,2.2353207054251274,85.56326871398879,10.0,-2.841566570357916,11.399258986670949,0.5126392507497005
GUIDED_NOGPS,0.3438847064971924,424.1812297734628,312.85221679440104,104.14485481802551,-86.6560660300351,-13.503370525080138,300,0,30,7.985063168087894,2.2353207054251274,85.56326871398879,10.0,-2.5704633221779334,13.503370525080138,0.5124390177360104
GUIDED_NOGPS,0.34604763984680176,463.7664750110571,311.5625607409252,105.43932051700926,-85.37856952331585,-12.955019914683428,300,0,30,8.036979435969162,2.203112521507109,85.58896388564638,10.0,-2.312559491318202,12.955019914683428,0.5123167323528428
GUIDED_NOGPS,0.3480710983276367,495.7806146572104,310.71680987434684,106.57616369417754,-85.06527950021622,-17.371341896639592,300,0,30,8.036979435969162,2.203112521507109,85.58896388564638,10.0,-2.1434356660553666,15.0,0.512291061276912
GUIDED_NOGPS,0.3632628917694092,65.90361862262935,309.9821216252075,107.5740487572527,-85.75212637570803,-21.027916105169634,300,0,30,8.071244787487823,2.156390612489637,85.62851751112993,10.0,-1.9966332434668137,15.0,0.5123911077151625
GUIDED_NOGPS,0.36596083641052246,371.1116616528048,309.72812255215683,108.47603879775062,-87.3097558753389,-21.416290640681837,300,0,30,8.071244787487823,2.156390612489637,85.62851751112993,10.0,-1.9458813608569934,15.0,0.512558430740003
GUIDED_NOGPS,0.36802220344543457,487.7097674418605,309.1244309925983,109.17163046368846,-89.27086320910745,-17.730677655396075,300,0,30,8.071244787487823,2.156390612489637,85.62851751112993,10.0,-1.825157667860913,15.0,0.5127583633241601
GUIDED_NOGPS,0.3711068630218506,325.41733260920165,308.47336090328594,109.62809782765744,-91.22599467330097,-17.275431730320037,300,0,30,8.071244787487823,2.156390612489637,85.62851751112993,10.0,-1.6949615874134305,15.0,0.5129590089817504
GUIDED_NOGPS,0.37351155281066895,417.3021589891553,307.6837198890791,109.98401445060445,-92.87747998943398,-19.48543048689093,300,0,30,8.071244787487823,2.156390612489637,85.62851751112993,10.0,-1.5370549556841462,15.0,0.5131310567859337
GUIDED_NOGPS,0.376556396484375,329.2749254200031,306.8307676845514,110.4036915158669,-93.67519031807863,-21.87405641709861,300,0,30,8.071244787487823,2.156390612489637,85.62851751112993,10.0,-1.3664806914828733,15.0,0.5132166855995667
GUIDED_NOGPS,0.4033634662628174,37.33746383584813,306.5337651776743,111.26913913246624,-93.90488313131084,-18.991021243630545,300,0,30,7.708185228382149,1.6235300960182129,85.8108289204559,10.0,-1.307190656323073,15.0,0.5132815520203319
GUIDED_NOGPS,0.4064979553222656,320.0781440781441,307.11831019899375,112.70924215896538,-93.41171036796356,-16.774212903425394,300,0,30,7.708185228382149,1.6235300960182129,85.8108289204559,10.0,-1.4241964568187586,15.0,0.5132657982954271
GUIDED_NOGPS,0.40851640701293945,497.3089874318236,308.1806435835774,114.59842972768631,-92.30807283667905,-12.702640899533193,300,0,30,7.708185228382149,1.6235300960182129,85.8108289204559,10.0,-1.636686421719479,12.702640899533193,0.5131623980737434
GUIDED_NOGPS,0.4128296375274658,232.1527647091382,309.01951509714405,116.553445018763,-90.32546398629093,-12.080874707419042,300,0,30,7.708185228382149,1.6235300960182129,85.8108289204559,10.0,-1.804502244741656,12.080874707419042,0.5129752152796521
GUIDED_NOGPS,0.414888858795166,488.1638733705773,309.0046838279766,118.3128039860291,-87.79426204483612,-13.074933570640951,300,0,30,7.708185228382149,1.6235300960182129,85.8108289204559,10.0,-1.8015480435145081,13.074933570640951,0.5127252483952672
GUIDED_NOGPS,0.41707444190979004,458.8452029318455,308.3583750484282,119.79552946998753,-85.14062391472204,-14.174522126493391,300,0,30,7.708185228382149,1.6235300960182129,85.8108289204559,10.0,-1.672305545945774,14.174522126493391,0.5124651904398642
GUIDED_NOGPS,0.4185342788696289,688.2678043977683,307.99140933242035,121.35687277232269,-82.97988433334258,-15.070729233916458,300,0,30,7.708185228382149,1.6235300960182129,85.8108289204559,10.0,-1.5989282700864236,15.0,0.5122536030257475
GUIDED_NOGPS,0.4211432933807373,389.5517785827064,307.13509091446286,122.5494528429014,-81.3582831035164,-15.057215481681103,300,0,30,7.708185228382149,1.6235300960182129,85.8108289204559,10.0,-1.4276729680030238,15.0,0.5120940591282976
GUIDED_NOGPS,0.423828125,370.32526929189476,306.730734988196,123.65103979448651,-80.84447542912143,-19.19726336729815,300,0,30,7.708185228382149,1.6235300960182129,85.8108289204559,10.0,-1.3468256627705915,15.0,0.5120505436783881
GUIDED_NOGPS,0.4285755157470703,211.22546205368383,305.16511827969697,124.3945940921992,-81.68788728172444,-20.094827757814812,300,0,30,7.6170389152292675,1.495832665852243,85.8887272279399,10.0,-1.0337280869117387,15.0,0.5121460278121118
GUIDED_NOGPS,0.4305136203765869,517.9431958508274,304.66435592202265,125.3413681351861,-83.74971046311114,-23.806445046416062,300,0,30,7.6170389152292675,1.495832665852243,85.8887272279399,10.0,-0.93358305511923,15.0,0.5123558387921835
GUIDED_NOGPS,0.4325590133666992,490.5045023973804,302.9070193518467,125.80148992444397,-85.94119320912233,-19.270279767194463,300,0,30,7.6170389152292675,1.495832665852243,85.8887272279399,10.0,-0.582122656710352,15.0,0.5125805034109782
GUIDED_NOGPS,0.43493127822875977,424.1383355243199,301.9305336834439,126.31486736451694,-87.65400468009493,-17.988884599184406,300,0,30,7.6170389152292675,1.495832665852243,85.8887272279399,10.0,-0.3868305101104754,15.0,0.5127578631882401
GUIDED_NOGPS,0.4469881057739258,83.13783944499504,300.73113680761355,126.49518962483496,-88.51198603691182,-14.5745900059835,300,0,30,7.6170389152292675,1.495832665852243,85.8887272279399,10.0,-0.14695905031252185,14.5745900059835,0.5128693218018555
GUIDED_NOGPS,0.4490835666656494,475.92238738227616,300.6632812015366,127.20622956421857,-89.11353143698723,-16.792408734603768,300,0,30,7.6170389152292675,1.495832665852243,85.8887272279399,10.0,-0.13338963066805834,15.0,0.512935587780606
GUIDED_NOGPS,0.4515993595123291,416.3080893300248,300.398305572693,127.96355570142367,-89.1537163893101,-16.92565241275176,300,0,30,7.6170389152292675,1.495832665852243,85.8887272279399,10.0,-0.08039576126576146,15.0,0.5129471231542898
GUIDED_NOGPS,0.45403504371643066,394.6094646721234,301.24185229399376,130.3366696058835,-88.48073814716452,-16.60201504041467,300,0,30,7.54226371174326,1.4324357037498308,85.86540213192431,10.0,-0.24910779305005756,15.0,0.5128849534736727
GUIDED_NOGPS,0.45531463623046875,786.3337082864642,301.144097981534,132.53072593721615,-86.55601013815566,-14.382452167608585,300,0,30,7.54226371174326,1.4324357037498308,85.86540213192431,10.0,-0.22955910729634296,14.382452167608585,0.5126969158160561
GUIDED_NOGPS,0.4813077449798584,38.483383796678595,300.1964402917547,134.42748306497023,-83.71172033372352,-14.197446746611059,300,0,30,7.257040988419051,1.0620201376297589,86.20707551496503,10.0,-0.04003264325869278,14.197446746611059,0.5124712287529087
GUIDED_NOGPS,0.4839622974395752,377.4231980563304,298.5661488120566,135.3302062092906,-80.96555313605973,-20.100659550668396,300,0,30,7.257040988419051,1.0620201376297589,86.20707551496503,10.0,0.28602874751019897,15.0,0.5122014022016782
GUIDED_NOGPS,0.48508191108703613,898.1379014989293,297.9864443002031,136.0501188839077,-79.36411446419007,-26.452108415373214,300,0,30,7.257040988419051,1.0620201376297589,86.20707551496503,10.0,0.4019732782430713,15.0,0.5120451997463542
GUIDED_NOGPS,0.48752450942993164,411.4886686942019,298.62963733078533,137.56191690933642,-78.35825643677187,-32.4519204285703,300,0,30,7.257040988419051,1.0620201376297589,86.20707551496503,10.0,0.27333604108309584,15.0,0.5119467788848969
GUIDED_NOGPS,0.4891343116760254,623.6883271375465,298.846941801142,138.45196115094413,-77.9674389970538,-32.820395267197604,300,0,30,7.257040988419051,1.0620201376297589,86.20707551496503,10.0,0.22987832910076708,15.0,0.511913656285071
GUIDED_NOGPS,0.4939241409301758,209.18178644456634,297.8933767247102,139.2483972747918,-77.53040396948245,-25.856979177980193,300,0,30,7.240051746632291,1.0274192530681205,86.27911352014115,10.0,0.42059985967142927,15.0,0.5118786458597299
GUIDED_NOGPS,0.5068178176879883,77.5975727077629,297.45868949570354,140.047609209362,-78.9256211332442,-20.26405973761779,300,0,30,7.414531490301205,1.1709641094906953,86.79654133090463,10.0,0.5075469755671695,15.0,0.5120264571655744
GUIDED_NOGPS,0.508167028427124,744.462903798367,297.1426585699731,141.17681048752138,-81.03982734805129,-15.437558338309918,300,0,30,7.414531490301205,1.1709641094906953,86.79654133090463,10.0,0.5707856369430817,15.0,0.5122631191174372
GUIDED_NOGPS,0.5126953125,222.0735955948536,297.9974971910312,142.39961988344078,-83.20025115071165,-17.942947866846755,300,0,30,7.414531490301205,1.1709641094906953,86.79654133090463,10.0,0.3998204288079809,15.0,0.5124820061428389
GUIDED_NOGPS,0.5174164772033691,212.01556892281252,297.2161796758913,143.09450644653347,-84.98294966311809,-18.002474822292854,300,0,30,7.414531490301205,1.1709641094906953,86.79654133090463,10.0,0.5561042083135135,15.0,0.5126770259917536
GUIDED_NOGPS,0.5213010311126709,257.6195565382962,296.7034685879028,144.09194847361755,-86.43556751152066,-19.578193900964607,300,0,30,7.518055813777442,1.2782042693188307,86.90481348962768,10.0,0.6586595599941024,15.0,0.5128315658583384
GUIDED_NOGPS,0.5237171649932861,415.6480031711426,296.19075749991435,145.08939050070163,-87.88818535992323,-21.15391297963636,300,0,30,7.518055813777442,1.2782042693188307,86.90481348962768,10.0,0.7612093900754483,15.0,0.5129815394560072
GUIDED_NOGPS,0.5301761627197266,155.00014781966001,295.9018245933465,145.9847053481993,-88.20476090356021,-20.566425204529637,300,0,30,7.518055813777442,1.2782042693188307,86.90481348962768,10.0,0.8190256766103703,15.0,0.513030332922031
GUIDED_NOGPS,0.5315432548522949,737.6545902215969,295.2531213379788,147.48188617267832,-87.47484318641385,-17.785292646336284,300,0,30,7.518055813777442,1.2782042693188307,86.90481348962768,10.0,0.9487729857342392,15.0,0.5129606365933862
GUIDED_NOGPS,0.532646656036377,912.0034790171776,294.1448759743398,149.2493948450352,-86.04212453488007,-22.287150276501123,300,0,30,7.518055813777442,1.2782042693188307,86.90481348962768,10.0,1.1704300057212484,15.0,0.512820514847132
GUIDED_NOGPS,0.5335698127746582,1090.8462938881664,293.8802314084799,151.35988082886084,-84.20042491540771,-29.826451113396388,300,0,30,7.518055813777442,1.2782042693188307,86.90481348962768,10.0,1.2233650017415996,15.0,0.5126386151143884
GUIDED_NOGPS,0.534569501876831,1007.2776176753122,293.62699955705517,152.72132201262784,-82.6620601448467,-37.495589720209345,300,0,30,7.518055813777442,1.2782042693188307,86.90481348962768,10.0,1.274017168696673,15.0,0.5124868281109014
GUIDED_NOGPS,0.5355551242828369,1023.7500610202587,293.892835790112,154.2910183080613,-81.67651326145304,-31.23553787737124,300,0,30,7.518055813777442,1.2782042693188307,86.90481348962768,10.0,1.2208560928735817,15.0,0.5123905302216076
GUIDED_NOGPS,0.5366487503051758,922.433252694084,293.4808840358777,155.2859582174355,-81.0841782784897,-25.325567067498714,300,0,30,7.518055813777442,1.2782042693188307,86.90481348962768,10.0,1.3032529001927668,15.0,0.5123334970582253
GUIDED_NOGPS,0.5377755165100098,893.7362028553164,292.74725118843406,155.93185398759275,-81.0695724384489,-18.251127789665347,300,0,30,7.518055813777442,1.2782042693188307,86.90481348962768,10.0,1.449987728293249,15.0,0.5123345659440831
GUIDED_NOGPS,0.5389118194580078,886.1829706317346,291.73109622745915,156.2418555699387,-81.62871184710637,-16.614222704448725,300,0,30,7.518055813777442,1.2782042693188307,86.90481348962768,10.0,1.6532279173504767,15.0,0.512392963004631
GUIDED_NOGPS,0.5525283813476562,73.48501147572577,291.142706075822,156.73773326968515,-82.87260110905831,-15.654027411812942,300,0,30,7.744317782865163,1.7323132382685367,87.37432752336352,10.0,1.7709165528534239,15.0,0.5125200548641509
GUIDED_NOGPS,0.5539321899414062,715.2633015006821,291.382343838778,157.740400342361,-84.75249002179835,-16.0141527071478,300,0,30,7.744317782865163,1.7323132382685367,87.37432752336352,10.0,1.7231077772279997,15.0,0.512739676376466
GUIDED_NOGPS,0.555321216583252,732.1179961598883,292.0425814060952,159.1314037729469,-86.8897613197064,-18.128417444978837,300,0,30,7.744317782865163,1.7323132382685367,87.37432752336352,10.0,1.591071588130075,15.0,0.5129567304705651
GUIDED_NOGPS,0.556692361831665,728.5572346708356,291.3367739028678,159.88835165259877,-88.44750159776913,-27.437912556379402,300,0,30,7.744317782865163,1.7323132382685367,87.37432752336352,10.0,1.732244289841373,15.0,0.5131155674179936
GUIDED_NOGPS,0.5579853057861328,779.0312035661218,290.38658053327003,160.85400196437408,-89.66005641335153,-26.688800540448543,300,0,30,7.744317782865163,1.7323132382685367,87.37432752336352,10.0,1.9222948730854597,15.0,0.5132397876520024
GUIDED_NOGPS,0.5595088005065918,659.4817610062893,288.66436088263464,161.5972776912451,-90.06102583274786,-25.145060970457042,300,0,30,7.744317782865163,1.7323132382685367,87.37432752336352,10.0,2.2667530136251552,15.0,0.5132828947757211
GUIDED_NOGPS,0.5631506443023682,275.28905224468366,288.40262064525245,163.44953647166702,-90.38992436258168,-14.66878069903816,300,0,30,7.8051184193093235,1.8993343086420913,87.51287791067723,10.0,2.319120081747826,14.66878069903816,0.513319733614232
GUIDED_NOGPS,0.5644149780273438,794.6767715043577,287.67711285322065,164.88410629295007,-89.92330194851526,-14.025473248704472,300,0,30,7.8051184193093235,1.8993343086420913,87.51287791067723,10.0,2.4642673966478568,14.025473248704472,0.5132819771913094
GUIDED_NOGPS,0.5658352375030518,710.4173441734417,287.8380826789228,166.73726522477918,-89.44700289603914,-14.520151082524881,300,0,30,7.8051184193093235,1.8993343086420913,87.51287791067723,10.0,2.432088793731526,14.520151082524881,0.5132373648557055
GUIDED_NOGPS,0.5674223899841309,632.148304446119,287.23935591555284,167.97033349062863,-88.4786347085133,-14.829959920081663,300,0,30,7.8051184193093235,1.8993343086420913,87.51287791067723,10.0,2.5518510467965894,14.829959920081663,0.5131436663350629
GUIDED_NOGPS,0.5700254440307617,385.5413181358581,286.85031029803105,169.1988682573839,-87.59593834974709,-14.937118557321076,300,0,30,7.859301456221388,2.0468557225437887,87.64910603367314,10.0,2.6296969234338565,14.937118557321076,0.5130619702674603
GUIDED_NOGPS,0.5739643573760986,256.4852932183697,285.59033904356,169.64070677408395,-86.65446329227545,-14.113523056421576,300,0,30,7.859301456221388,2.0468557225437887,87.64910603367314,10.0,2.8817124230866256,14.113523056421576,0.5129712631792672
GUIDED_NOGPS,0.5766761302947998,367.2127473297146,285.3583543088359,170.4027627677571,-86.41126672111365,-13.83209717461751,300,0,30,7.859301456221388,2.0468557225437887,87.64910603367314,10.0,2.9281781291140456,13.83209717461751,0.512957877172743
GUIDED_NOGPS,0.5799887180328369,302.42295767539116,284.3699328472703,170.55741869498362,-86.39070689659526,-13.156566604758131,300,0,30,7.86954161733453,2.1786736777699804,87.77855177882321,10.0,3.125923692513881,13.156566604758131,0.5129649464039274
GUIDED_NOGPS,0.5811965465545654,833.5262321144675,284.1785230771223,171.1511627718631,-87.0024781360176,-13.18068715210398,300,0,30,7.86954161733453,2.1786736777699804,87.77855177882321,10.0,3.1642257972835672,13.18068715210398,0.5130291038899903
GUIDED_NOGPS,0.5823945999145508,839.0286057211442,284.112797632128,171.88843084292807,-88.0381946803861,-13.592562139478511,300,0,30,7.86954161733453,2.1786736777699804,87.77855177882321,10.0,3.177388192759886,13.592562139478511,0.5131352472059543
GUIDED_NOGPS,0.5835633277893066,862.1385405960946,284.7390120827692,173.6260492443455,-89.84758628241379,-14.248266674114115,300,0,30,7.86954161733453,2.1786736777699804,87.77855177882321,10.0,3.0521644047726815,14.248266674114115,0.5133191866247363
GUIDED_NOGPS,0.5845127105712891,1061.8491139240507,285.1270854752058,174.98403609088018,-91.22354296715578,-14.246243125769888,300,0,30,7.86954161733453,2.1786736777699804,87.77855177882321,10.0,2.974565527168449,14.246243125769888,0.5134593580345371
GUIDED_NOGPS,0.5854346752166748,1092.2666666666667,285.1093682862748,175.80657754689204,-92.02429896271754,-14.042338749533087,300,0,30,7.86954161733453,2.1786736777699804,87.77855177882321,10.0,2.9781227645946986,14.042338749533087,0.5135416953130277
GUIDED_NOGPS,0.5863237380981445,1132.67728868485,285.1093682862748,175.80657754689204,-92.02429896271754,-14.042338749533087,300,0,30,7.86954161733453,2.1786736777699804,87.77855177882321,10.0,2.9781363689735723,14.042338749533087,0.5135439249898162
GUIDED_NOGPS,0.5873277187347412,1003.6621201244317,285.1093682862748,175.80657754689204,-92.02429896271754,-14.042338749533087,300,0,30,7.86954161733453,2.1786736777699804,87.77855177882321,10.0,2.9781494692235837,14.042338749533087,0.5135460720428823
GUIDED_NOGPS,0.5891296863555908,557.3825913621263,285.1093682862748,175.80657754689204,-92.02429896271754,-14.042338749533087,300,0,30,7.86954161733453,2.1786736777699804,87.77855177882321,10.0,2.9781699219445366,14.042338749533087,0.5135494241222085
GUIDED_NOGPS,0.5919613838195801,354.21873152605355,285.1093682862748,175.80657754689204,-92.02429896271754,-14.042338749533087,300,0,30,7.843109639020227,2.304992903827489,87.89572367403478,10.0,2.97819578517525,14.042338749533087,0.5135536629519069
GUIDED_NOGPS,0.593926191329956,510.6908559600633,285.1093682862748,175.80657754689204,-92.02429896271754,-14.042338749533087,300,0,30,7.843109639020227,2.304992903827489,87.89572367403478,10.0,2.9782376527222376,14.042338749533087,0.5135605247938604
GUIDED_NOGPS,0.5970933437347412,316.646836780915,285.1093682862748,175.80657754689204,-92.02429896271754,-14.042338749533087,300,0,30,7.843109639020227,2.304992903827489,87.89572367403478,10.0,2.9782650034881146,14.042338749533087,0.5135650074217253
GUIDED_NOGPS,0.5992274284362793,470.8468792096991,285.1093682862748,175.80657754689204,-92.02429896271754,-14.042338749533087,300,0,30,7.843109639020227,2.304992903827489,87.89572367403478,10.0,2.9783159063023867,14.042338749533087,0.5135733500902516
GUIDED_NOGPS,0.6005887985229492,736.7475847532057,285.1093682862748,175.80657754689204,-92.02429896271754,-14.042338749533087,300,0,30,7.843109639020227,2.304992903827489,87.89572367403478,10.0,2.978343700843671,14.042338749533087,0.5135779054502664
GUIDED_NOGPS,0.6031544208526611,391.040835353347,285.1093682862748,175.80657754689204,-92.02429896271754,-14.042338749533087,300,0,30,7.804192928676787,2.444817975195051,88.0096034180664,10.0,2.9783792774304905,14.042338749533087,0.5135837362412625
GUIDED_NOGPS,0.6162290573120117,76.52303369761545,285.1093682862748,175.80657754689204,-92.02429896271754,-14.042338749533087,300,0,30,7.793241574116317,2.6106511262615526,88.12603082265845,10.0,2.9784112896132418,14.042338749533087,0.5135889828476303
GUIDED_NOGPS,0.6175951957702637,739.7361552028219,285.1093682862748,175.80657754689204,-92.02429896271754,-14.042338749533087,300,0,30,7.793241574116317,2.6106511262615526,88.12603082265845,10.0,2.9785997024501936,14.042338749533087,0.5136198625910645
GUIDED_NOGPS,0.6263649463653564,114.14935771826693,285.1093682862748,175.80657754689204,-92.02429896271754,-14.042338749533087,300,0,30,7.793241574116317,2.6106511262615526,88.12603082265845,10.0,2.9787196815692,14.042338749533087,0.5136395264551213
GUIDED_NOGPS,0.62984299659729,290.3838271946829,285.1093682862748,175.80657754689204,-92.02429896271754,-14.042338749533087,300,0,30,7.793241574116317,2.6106511262615526,88.12603082265845,10.0,2.9787625325224893,14.042338749533087,0.5136465494715192
GUIDED_NOGPS,0.6317675113677979,517.3043907252097,285.1093682862748,175.80657754689204,-92.02429896271754,-14.042338749533087,300,0,30,7.793241574116317,2.6106511262615526,88.12603082265845,10.0,2.9788076698066748,14.042338749533087,0.5136539472039535
GUIDED_NOGPS,0.6337947845458984,495.4877731836976,285.1093682862748,175.80657754689204,-92.02429896271754,-14.042338749533087,300,0,30,7.793241574116317,2.6106511262615526,88.12603082265845,10.0,2.978828236134132,14.042338749533087,0.5136573179027102
GUIDED_NOGPS,0.635509729385376,585.4695700725852,285.1093682862748,175.80657754689204,-92.02429896271754,-14.042338749533087,300,0,30,7.793241574116317,2.6106511262615526,88.12603082265845,10.0,2.978858774982532,14.042338749533087,0.5136623230383401
GUIDED_NOGPS,0.6368227005004883,764.268221574344,285.1093682862748,175.80657754689204,-92.02429896271754,-14.042338749533087,300,0,30,7.793241574116317,2.6106511262615526,88.12603082265845,10.0,2.978884485554506,14.042338749533087,0.5136665368481789
GUIDED_NOGPS,0.6608443260192871,41.6469303253865,285.1093682862748,175.80657754689204,-92.02429896271754,-14.042338749533087,300,0,30,7.79262600331737,3.6575650198813587,88.83204015640598,10.0,2.9789014377750487,14.042338749533087,0.5136693152163064
GUIDED_NOGPS,0.6631100177764893,442.67060686015833,285.1093682862748,175.80657754689204,-92.02429896271754,-14.042338749533087,300,0,30,7.79262600331737,3.6575650198813587,88.83204015640598,10.0,2.97926023196662,14.042338749533087,0.5137281194504586
GUIDED_NOGPS,0.664405107498169,799.6766444232602,285.1093682862748,175.80657754689204,-92.02429896271754,-14.042338749533087,300,0,30,7.79262600331737,3.6575650198813587,88.83204015640598,10.0,2.9792962523288464,14.042338749533087,0.5137340229736047
GUIDED_NOGPS,0.6673448085784912,336.8918875502008,285.1093682862748,175.80657754689204,-92.02429896271754,-14.042338749533087,300,0,30,7.79262600331737,3.6575650198813587,88.83204015640598,10.0,2.979317287283133,14.042338749533087,0.5137374704775116
GUIDED_NOGPS,0.6683225631713867,1029.5297005400098,285.1093682862748,175.80657754689204,-92.02429896271754,-14.042338749533087,300,0,30,7.79262600331737,3.6575650198813587,88.83204015640598,10.0,2.979355988048817,14.042338749533087,0.5137438133028434
GUIDED_NOGPS,0.6693124771118164,1020.0155642023346,285.1093682862748,175.80657754689204,-92.02429896271754,-14.042338749533087,300,0,30,7.79262600331737,3.6575650198813587,88.83204015640598,10.0,2.9793696350301295,14.042338749533087,0.5137460499619182
GUIDED_NOGPS,0.6724467277526855,319.7121731839317,285.1093682862748,175.80657754689204,-92.02429896271754,-14.042338749533087,300,0,30,7.79262600331737,3.6575650198813587,88.83204015640598,10.0,2.979385181370184,14.042338749533087,0.5137485979145947
GUIDED_NOGPS,0.6751253604888916,374.25751762291424,285.1093682862748,175.80657754689204,-92.02429896271754,-14.042338749533087,300,0,30,7.750639122942009,3.8689290657288113,88.97802861972583,10.0,2.979434546946446,14.042338749533087,0.5137566886389536
GUIDED_NOGPS,0.676783561706543,606.5515545914678,285.1093682862748,175.80657754689204,-92.02429896271754,-14.042338749533087,300,0,30,7.750639122942009,3.8689290657288113,88.97802861972583,10.0,2.9794794783188427,14.042338749533087,0.5137640526236704
GUIDED_NOGPS,0.6851036548614502,120.29092577721693,285.1093682862748,175.80657754689204,-92.02429896271754,-14.042338749533087,300,0,30,7.750639122942009,3.8689290657288113,88.97802861972583,10.0,2.9796014100496393,14.042338749533087,0.5137840365091869
GUIDED_NOGPS,0.6862137317657471,907.2688730261735,285.1093682862748,175.80657754689204,-92.02429896271754,-14.042338749533087,300,0,30,7.750639122942009,3.8689290657288113,88.97802861972583,10.0,2.979620037966119,14.042338749533087,0.5137870895139127
GUIDED_NOGPS,0.6874270439147949,850.7716024340771,285.1093682862748,175.80657754689204,-92.02429896271754,-14.042338749533087,300,0,30,7.750639122942009,3.8689290657288113,88.97802861972583,10.0,2.9796367416724343,14.042338749533087,0.5137898271520362
GUIDED_NOGPS,0.6891305446624756,583.3524339360223,285.1093682862748,175.80657754689204,-92.02429896271754,-14.042338749533087,300,0,30,7.750639122942009,3.8689290657288113,88.97802861972583,10.0,2.9796567115657444,14.042338749533087,0.5137931000987834
GUIDED_NOGPS,0.6903481483459473,826.6267244777296,285.1093682862748,175.80657754689204,-92.02429896271754,-14.042338749533087,300,0,30,7.750639122942009,3.8689290657288113,88.97802861972583,10.0,2.979680458875318,14.042338749533087,0.5137969921415908
GUIDED_NOGPS,0.6915192604064941,863.5585752522132,285.1093682862748,175.80657754689204,-92.02429896271754,-14.042338749533087,300,0,30,7.750639122942009,3.8689290657288113,88.97802861972583,10.0,2.979698025281024,14.042338749533087,0.5137998711710139
GUIDED_NOGPS,0.6925437450408936,980.4357176250585,285.1093682862748,175.80657754689204,-92.02429896271754,-14.042338749533087,300,0,30,7.750639122942009,3.8689290657288113,88.97802861972583,10.0,2.979715254417421,14.042338749533087,0.513802694924003
GUIDED_NOGPS,0.6935441493988037,1007.0357743097239,285.1093682862748,175.80657754689204,-92.02429896271754,-14.042338749533087,300,0,30,7.750639122942009,3.8689290657288113,88.97802861972583,10.0,2.9797299984115395,14.042338749533087,0.5138051113769525
GUIDED_NOGPS,0.6945340633392334,1017.5409995147986,285.1093682862748,175.80657754689204,-92.02429896271754,-14.042338749533087,300,0,30,7.750639122942009,3.8689290657288113,88.97802861972583,10.0,2.979744895064398,14.042338749533087,0.5138075528497615
GUIDED_NOGPS,0.6957316398620605,841.3849548645937,285.1093682862748,175.80657754689204,-92.02429896271754,-14.042338749533087,300,0,30,7.750639122942009,3.8689290657288113,88.97802861972583,10.0,2.97975965325933,14.042338749533087,0.5138099716301399
GUIDED_NOGPS,0.702995777130127,137.78017213060903,285.1093682862748,175.80657754689204,-92.02429896271754,-14.042338749533087,300,0,30,7.70349971861152,4.276434800197874,89.27198630122484,10.0,2.9798331886193528,14.042338749533087,0.5138220236383129
GUIDED_NOGPS,0.7048594951629639,546.3467500325648,285.1093682862748,175.80657754689204,-92.02429896271754,-14.042338749533087,300,0,30,7.70349971861152,4.276434800197874,89.27198630122484,10.0,2.979886668881188,14.042338749533087,0.5138307887351661
GUIDED_NOGPS,0.7078239917755127,340.33625446283673,285.1093682862748,175.80657754689204,-92.02429896271754,-14.042338749533087,300,0,30,7.70349971861152,4.276434800197874,89.27198630122484,10.0,2.9799219330501208,14.042338749533087,0.5138365683227286
GUIDED_NOGPS,0.7144746780395508,150.43052865648087,285.1093682862748,175.80657754689204,-92.02429896271754,-14.042338749533087,300,0,30,7.643689459597011,4.455503577215391,89.42143084026473,10.0,2.980029969285377,14.042338749533087,0.5138542748191663
GUIDED_NOGPS,0.7166521549224854,460.9125274725275,285.1093682862748,175.80657754689204,-92.02429896271754,-14.042338749533087,300,0,30,7.643689459597011,4.455503577215391,89.42143084026473,10.0,2.9800612217246316,14.042338749533087,0.5138593969080935
GUIDED_NOGPS,0.7189719676971436,432.26878285066476,285.1093682862748,175.80657754689204,-92.02429896271754,-14.042338749533087,300,0,30,7.5711408977804275,4.616168409514309,89.56982353017243,10.0,2.9800999615425514,14.042338749533087,0.5138657461338543
GUIDED_NOGPS,0.724851131439209,170.33398310591292,285.1093682862748,175.80657754689204,-92.02429896271754,-14.042338749533087,300,0,30,7.448758422005786,4.730457538009309,89.66372497088176,10.0,2.9801267797779407,14.042338749533087,0.5138701414831393
GUIDED_NOGPS,0.7300443649291992,192.90364715080716,285.1093682862748,175.80657754689204,-92.02429896271754,-14.042338749533087,300,0,30,7.448758422005786,4.730457538009309,89.66372497088176,10.0,2.980271929838026,14.042338749533087,0.5138939307147404
GUIDED_NOGPS,0.7312154769897461,860.5465736561346,285.1093682862748,175.80657754689204,-92.02429896271754,-14.042338749533087,300,0,30,7.448758422005786,4.730457538009309,89.66372497088176,10.0,2.980290241786416,14.042338749533087,0.5138969319341754
GUIDED_NOGPS,0.7333991527557373,459.59938636861716,285.1093682862748,175.80657754689204,-92.02429896271754,-14.042338749533087,300,0,30,7.448758422005786,4.730457538009309,89.66372497088176,10.0,2.9803075525774876,14.042338749533087,0.5138997690698801
GUIDED_NOGPS,0.7358369827270508,411.246592803216,285.1093682862748,175.80657754689204,-92.02429896271754,-14.042338749533087,300,0,30,7.383954440934351,4.949900416984417,89.83572279456102,10.0,2.980345060474878,14.042338749533087,0.5139059163911928
GUIDED_NOGPS,0.7370743751525879,812.3773000193686,285.1093682862748,175.80657754689204,-92.02429896271754,-14.042338749533087,300,0,30,7.383954440934351,4.949900416984417,89.83572279456102,10.0,2.980376639532832,14.042338749533087,0.5139110920109822
GUIDED_NOGPS,0.7387332916259766,605.5882183078256,285.1093682862748,175.80657754689204,-92.02429896271754,-14.042338749533087,300,0,30,7.383954440934351,4.949900416984417,89.83572279456102,10.0,2.980396971546874,14.042338749533087,0.5139144243071637
GUIDED_NOGPS,0.741558313369751,354.78802233124685,285.1093682862748,175.80657754689204,-92.02429896271754,-14.042338749533087,300,0,30,7.383954440934351,4.949900416984417,89.83572279456102,10.0,2.9804345930507683,14.042338749533087,0.5139205902479067
GUIDED_NOGPS,0.742889404296875,755.0502250225022,285.1093682862748,175.80657754689204,-92.02429896271754,-14.042338749533087,300,0,30,7.383954440934351,4.949900416984417,89.83572279456102,10.0,2.980463424251403,14.042338749533087,0.5139253155102238
GUIDED_NOGPS,0.7447772026062012,533.0161392807219,285.1093682862748,175.80657754689204,-92.02429896271754,-14.042338749533087,300,0,30,7.383954440934351,4.949900416984417,89.83572279456102,10.0,2.9804796522304824,14.042338749533087,0.5139279751794826
GUIDED_NOGPS,0.7469596862792969,459.3477165699266,285.1093682862748,175.80657754689204,-92.02429896271754,-14.042338749533087,300,0,30,7.383954440934351,4.949900416984417,89.83572279456102,10.0,2.980511611160185,14.042338749533087,0.5139332130579924
GUIDED_NOGPS,0.7484323978424072,681.1146476128613,285.1093682862748,175.80657754689204,-92.02429896271754,-14.042338749533087,300,0,30,7.383954440934351,4.949900416984417,89.83572279456102,10.0,2.9805423097677317,14.042338749533087,0.5139382443771965
GUIDED_NOGPS,0.7573471069335938,112.29428930952317,285.1093682862748,175.80657754689204,-92.02429896271754,-14.042338749533087,300,0,30,7.257373106367443,5.304359060377752,90.08332398216315,10.0,2.980668881614183,14.042338749533087,0.5139589887500727
GUIDED_NOGPS,0.7598223686218262,405.2859213450575,285.1093682862748,175.80657754689204,-92.02429896271754,-14.042338749533087,300,0,30,7.257373106367443,5.304359060377752,90.08332398216315,10.0,2.9807020369623825,14.042338749533087,0.5139644227144587
GUIDED_NOGPS,0.7621419429779053,432.8040449901971,285.1093682862748,175.80657754689204,-92.02429896271754,-14.042338749533087,300,0,30,7.257373106367443,5.304359060377752,90.08332398216315,10.0,2.9807369922636324,14.042338749533087,0.5139701516804449
GUIDED_NOGPS,0.7654025554656982,310.00029563932003,285.1093682862748,175.80657754689204,-92.02429896271754,-14.042338749533087,300,0,30,7.257373106367443,5.304359060377752,90.08332398216315,10.0,2.9807718978620366,14.042338749533087,0.5139758725004303
GUIDED_NOGPS,0.7696399688720703,235.74100719424462,285.1093682862748,175.80657754689204,-92.02429896271754,-14.042338749533087,300,0,30,7.257373106367443,5.304359060377752,90.08332398216315,10.0,2.9808252929189933,14.042338749533087,0.5139846236327107
GUIDED_NOGPS,0.7726747989654541,329.84460522176784,285.1093682862748,175.80657754689204,-92.02429896271754,-14.042338749533087,300,0,30,7.209958786922861,5.486785729145977,90.20803640621841,10.0,2.9808941100588906,14.042338749533087,0.5139959023526657
GUIDED_NOGPS,0.7762303352355957,281.8373874479237,285.1093682862748,175.80657754689204,-92.02429896271754,-14.042338749533087,300,0,30,7.166283142275215,5.643719570610775,90.3325166038419,10.0,2.98094270879125,14.042338749533087,0.5140038673958695
GUIDED_NOGPS,0.7792136669158936,338.19577487502016,285.1093682862748,175.80657754689204,-92.02429896271754,-14.042338749533087,300,0,30,7.109978050965392,5.7887112531986284,90.45559661268553,10.0,2.980978757555102,14.042338749533087,0.5140097755738731
GUIDED_NOGPS,0.7822141647338867,332.88126984126984,285.1093682862748,175.80657754689204,-92.02429896271754,-14.042338749533087,300,0,30,7.109978050965392,5.7887112531986284,90.45559661268553,10.0,2.9810479936189833,14.042338749533087,0.5140211229529775
GUIDED_NOGPS,0.7833631038665771,876.0033416875522,285.1093682862748,175.80657754689204,-92.02429896271754,-14.042338749533087,300,0,30,7.109978050965392,5.7887112531986284,90.45559661268553,10.0,2.98106478608038,14.042338749533087,0.5140238751375312
GUIDED_NOGPS,0.7855679988861084,456.2497552485587,285.1093682862748,175.80657754689204,-92.02429896271754,-14.042338749533087,300,0,30,7.109978050965392,5.7887112531986284,90.45559661268553,10.0,2.981083683812307,14.042338749533087,0.5140269723634041
GUIDED_NOGPS,0.7875888347625732,496.89657623504326,285.1093682862748,175.80657754689204,-92.02429896271754,-14.042338749533087,300,0,30,7.109978050965392,5.7887112531986284,90.45559661268553,10.0,2.9811168320601,14.042338749533087,0.5140324051640757
GUIDED_NOGPS,0.789862871170044,440.8560016817322,285.1093682862748,175.80657754689204,-92.02429896271754,-14.042338749533087,300,0,30,7.109978050965392,5.7887112531986284,90.45559661268553,10.0,2.98114949748025,14.042338749533087,0.5140377588321682
GUIDED_NOGPS,0.7919585704803467,479.2394881170018,285.1093682862748,175.80657754689204,-92.02429896271754,-14.042338749533087,300,0,30,7.109978050965392,5.7887112531986284,90.45559661268553,10.0,2.9811824540170675,14.042338749533087,0.5140431602125511
GUIDED_NOGPS,0.7961974143981934,236.40536579866983,285.1093682862748,175.80657754689204,-92.02429896271754,-14.042338749533087,300,0,30,7.0613547880377165,5.90757148579566,90.57972164047217,10.0,2.98121228637502,14.042338749533087,0.5140480495585984
GUIDED_NOGPS,0.8028848171234131,149.8715071821625,285.1093682862748,175.80657754689204,-92.02429896271754,-14.042338749533087,300,0,30,6.988874101226011,6.007610278361074,90.69386093169226,10.0,2.9813311116779686,14.042338749533087,0.5140675243190654
GUIDED_NOGPS,0.8061387538909912,309.7713441654357,285.1093682862748,175.80657754689204,-92.02429896271754,-14.042338749533087,300,0,30,6.988874101226011,6.007610278361074,90.69386093169226,10.0,2.981381602668663,14.042338749533087,0.5140757994921565
GUIDED_NOGPS,0.8110935688018799,202.89783281733747,285.1093682862748,175.80657754689204,-92.02429896271754,-14.042338749533087,300,0,30,6.917852086688926,6.088810555421948,90.80582822275628,10.0,2.9814377917355817,14.042338749533087,0.5140850085460529
GUIDED_NOGPS,0.8132927417755127,452.89968685887055,285.1093682862748,175.80657754689204,-92.02429896271754,-14.042338749533087,300,0,30,6.917852086688926,6.088810555421948,90.80582822275628,10.0,2.981505416007185,14.042338749533087,0.5140960917619888
GUIDED_NOGPS,0.8145208358764648,819.0400312438977,285.1093682862748,175.80657754689204,-92.02429896271754,-14.042338749533087,300,0,30,6.917852086688926,6.088810555421948,90.80582822275628,10.0,2.981529106513506,14.042338749533087,0.514099974495081
GUIDED_NOGPS,0.8159341812133789,712.3478260869565,285.1093682862748,175.80657754689204,-92.02429896271754,-14.042338749533087,300,0,30,6.917852086688926,6.088810555421948,90.80582822275628,10.0,2.9815470066383183,14.042338749533087,0.5141029082190809
GUIDED_NOGPS,0.8174796104431152,650.2796899224807,285.1093682862748,175.80657754689204,-92.02429896271754,-14.042338749533087,300,0,30,6.917852086688926,6.088810555421948,90.80582822275628,10.0,2.9815666321619125,14.042338749533087,0.5141061247256796
GUIDED_NOGPS,0.8221287727355957,215.68980767252904,285.1093682862748,175.80657754689204,-92.02429896271754,-14.042338749533087,300,0,30,6.87523896334404,6.17089149999893,90.92015192908394,10.0,2.9816280116259906,14.042338749533087,0.5141161844548017
GUIDED_NOGPS,0.8372194766998291,66.29738401960009,285.1093682862748,175.80657754689204,-92.02429896271754,-14.042338749533087,300,0,30,6.830440179464749,6.22672915023743,91.02943495580415,10.0,2.981863556961357,14.042338749533087,0.5141547889344162
GUIDED_NOGPS,0.8396821022033691,407.055900621118,285.1093682862748,175.80657754689204,-92.02429896271754,-14.042338749533087,300,0,30,6.776669515223824,6.268027035280267,91.13333579345839,10.0,2.9818919479367882,14.042338749533087,0.5141594420464406
GUIDED_NOGPS,0.8423049449920654,382.20375432841263,285.1093682862748,175.80657754689204,-92.02429896271754,-14.042338749533087,300,0,30,6.776669515223824,6.268027035280267,91.13333579345839,10.0,2.9819325267599943,14.042338749533087,0.5141660926742307
