Mode,Time,Freq,North-Vision,East-Vision,Down-Vision,Yaw-Vision,North-Desired,East-Desired,Down-Desired,Roll-UAV,Pitch-UAV,Yaw-UAV,Roll-Control,Pitch-Control,Yaw-Control,Thrust-Control,northVraw,eastVraw,downVraw,yawVraw,zGyro
GUIDED_NOGPS,0.002521991729736328,400.79350215002387,262.990417973637,-45.555269429737066,-13.472901149354414,15.63714491168804,259.0416337628887,-42.47274522291609,-8.73002641242257,-0.29021591177260536,-0.19587274992304066,125.69054812554367,-1.7052320900287783,-2.0,-0.6254857964675216,0.5023714373684659,262.990417973637,-45.555269429737066,-13.472901149354414,10.04991148397363,3.7815214478634336
GUIDED_NOGPS,0.0152587890625,78.5259019339861,262.8143239516003,-45.45457847083675,-13.770106714702365,18.190468199860536,259.04160670426427,-42.472618116013564,-8.730004551658242,-0.22116527392492846,-0.2748427567764934,125.75725175297801,-0.08924280583235024,-0.13738394045370964,-0.7276187279944215,0.5025200510815221,262.6382299295635,-45.35388751193644,-14.067312280050317,16.931082967625343,3.896113006889598
GUIDED_NOGPS,0.040900468826293945,39.01315226490559,263.3109831190239,-45.59862053511466,-14.017654782030291,18.021141772640362,259.04141947748406,-42.47173862503395,-8.729852404541845,-0.09801162710430948,-0.43096487294711766,125.88337802619147,-0.10460349833988498,-0.19025265570900618,-0.7208456709056145,0.5026439011887442,264.30430145387106,-45.88670466367047,-14.512750916686144,7.037863948554389,4.068000345428845
GUIDED_NOGPS,0.0832223892211914,23.632278202860007,263.8626668099258,-45.684386245104214,-14.743275575649577,18.038060535465036,259.04091787937716,-42.46938238619961,-8.729442091902019,0.140773146981085,-0.6556359949276064,126.10139766449828,-0.10455929229415989,-0.2060223603205025,-0.7215224214186015,0.5030069167418738,265.51771788263176,-45.81256655970573,-15.649763530212269,13.237606797319842,5.213915935690491
GUIDED_NOGPS,0.12667632102966309,23.016918458845286,263.9961335695514,-45.86775990760949,-15.401573997842789,18.213548394961123,259.0399541334438,-42.464855224786135,-8.728648344496877,0.38557303654879965,-1.139701266442489,126.50254833483146,-0.11231993863103078,-0.20131190478772232,-0.728541935798445,0.503336462826673,264.5300006080535,-45.90400849945227,-16.04220754662995,16.013513060843195,7.047380880109126
GUIDED_NOGPS,0.1696164608001709,23.291595864014482,264.0382398469029,-46.09468369895827,-16.23067746729223,18.264122356826388,259.0383868012116,-42.45749273872162,-8.727348485319563,0.5442806461245382,-1.6958159089951619,127.04567131725254,-0.12075008730307886,-0.2010100579553229,-0.7305648942730555,0.5037516644909863,263.20094936039465,-46.567476037716794,-17.000061325034473,5.457195185699078,8.36518380891002
GUIDED_NOGPS,0.21401429176330566,22.53160857793631,264.51715286734196,-46.588736790080326,-17.006020472812665,18.428490091972158,259.03608069359154,-42.446659882185955,-8.725422411903821,0.6982868443954866,-2.0413674521022718,127.48825391509102,-0.14165314341483912,-0.2300926386765916,-0.7371396036788863,0.5041402990304544,265.03279503175895,-47.29472583307189,-17.975792546773572,8.479963943702003,9.740282517223996
GUIDED_NOGPS,0.2559964656829834,23.821121681101804,264.70441653837497,-47.35431524320048,-17.95650019312445,18.64887058482006,259.03290678223476,-42.43175054921008,-8.72275257862955,0.866196319608819,-2.294229379469195,127.92774926742466,-0.17242460719278957,-0.23140562971872022,-0.7459548233928024,0.5046168738072474,265.24061980903593,-48.20074385881272,-18.893646707565303,8.568853420126246,10.313240312354818
GUIDED_NOGPS,0.29491305351257324,25.698974933980356,264.18462867437086,-47.937370702884444,-18.76407895095721,19.063604996859922,259.02874211088834,-42.41218715727523,-8.719223979028369,0.921938507281498,-2.442442350024356,128.1553994724612,-0.18913471516339203,-0.1930491908518609,-0.7625441998743969,0.5050224274859644,262.9187785626114,-48.316642416768694,-19.422797598532757,19.579673198416017,10.485127650894066
GUIDED_NOGPS,0.3386695384979248,22.85811447848147,264.24342235277675,-49.12344994284428,-19.715935343956406,19.438507806867324,259.0234697067517,-42.38742023091223,-8.714724128089188,0.9974697273312609,-2.706226390204364,128.7990491790865,-0.2377457555221714,-0.21026588731883247,-0.777540312274693,0.5055006056079336,264.8239690000831,-50.85296355295139,-20.831361725771174,18.378514196536543,10.542423430407148
GUIDED_NOGPS,0.38288307189941406,22.62214479496459,264.70280274961004,-50.49814963840681,-20.402381809811548,19.66705105930493,259.0169784918331,-42.35692798530072,-8.70914304456376,0.9862207259333672,-2.765370278887974,129.25999132541398,-0.28595726624272993,-0.2379750557623939,-0.7866820423721973,0.5058466193826239,265.49785134456107,-52.32484294550032,-20.952986105130723,7.038929681673949,10.657014989433312
GUIDED_NOGPS,0.4214768409729004,25.916842254861372,264.42228876987105,-52.009213770800024,-20.91146118584857,20.091086226117092,259.0091631943054,-42.320215909868494,-8.702373233272251,0.8816078410581595,-2.7893041155133447,129.62354863455542,-0.34220945613579534,-0.2094419533513093,-0.8036434490446837,0.5061045439762881,263.630225133064,-52.84983481394835,-20.950035726643822,19.257292949316508,10.141352973815572
GUIDED_NOGPS,0.46296215057373047,24.11406494342747,264.2879329984166,-53.54629674154097,-21.02701261625589,20.39034512950864,258.9999242598629,-42.27681635189067,-8.6943096674088,0.7006316269932108,-2.6362993403685966,130.04508058937193,-0.39110900321708325,-0.20850365557034647,-0.8156138051803455,0.5061663514744236,264.5688409517636,-55.46421246517424,-21.178016016993148,15.62225769384699,9.969465635276325
GUIDED_NOGPS,0.5032050609588623,24.849097404482468,264.61794547624703,-54.59275324809894,-21.1020225868767,20.703714299383506,258.98916776307726,-42.22628810008904,-8.68484977084708,0.4352598346354392,-2.4885410042800644,130.46470009122083,-0.4174953305997599,-0.23360383646961555,-0.8281485719753403,0.5062085864080148,264.5688409517636,-55.46421246517424,-21.178016016993148,15.62225769384699,9.625690958197831
GUIDED_NOGPS,0.5419280529022217,25.830971516551195,264.78145552515434,-56.2699250856775,-20.759558170518364,20.988766508273187,258.97680531875363,-42.16821596823129,-8.673893400445868,0.29429409499605835,-2.3563896504450117,130.79933837941644,-0.4871462779970589,-0.23673316622704701,-0.8395506603309275,0.5060428323850362,265.6415192446195,-57.88135032668405,-19.92264247756881,15.163519899304063,9.339212060632418
GUIDED_NOGPS,0.5762503147125244,29.139050027441797,264.87509756149893,-57.39734864738269,-19.980876975349084,21.205972983480702,258.96275399328744,-42.10221037873025,-8.6613428283546,0.1955681528345272,-2.2688483965134276,131.14431757401545,-0.5171230193389725,-0.23961583937215444,-0.8482389193392281,0.5056597670734972,265.9660615262839,-58.846483150289814,-18.841972431485303,13.073708415459421,9.339212060632418
GUIDED_NOGPS,0.6170713901519775,24.50401944288652,264.72414030516455,-58.58738270679684,-18.805399794104996,21.471492633081322,258.94693621602,-42.02790694624321,-8.647102724318938,0.17856998644512076,-2.1903857446492596,131.5172595630765,-0.5547572759959848,-0.227767488098081,-0.858859705323253,0.505079148534893,262.8754388513921,-59.03431464341668,-17.65158447326089,19.587060666945106,8.36518380891002
GUIDED_NOGPS,0.6686208248138428,19.40235457384064,264.04529094249676,-59.16992973608681,-17.75547110782307,21.80236927880093,258.9292796905952,-41.94496606127118,-8.631080137986329,0.33122348709528926,-2.023224548676014,131.9371932536272,-0.561538220643642,-0.19179963458685523,-0.8720947711520373,0.5045621954849183,261.17459413842477,-59.62899141455395,-16.772856418723034,22.138521242118884,7.563042895726867
GUIDED_NOGPS,0.7099454402923584,24.206752467247647,263.48879687216413,-60.05061818932463,-16.487696787889817,22.187021635477628,258.9097173063158,-41.85307247375809,-8.613184481211578,0.41754467180595334,-1.873410325647308,132.1652122888789,-0.6011430872036163,-0.1701746556393307,-0.8874808654191051,0.5039372561533392,261.78637060010027,-61.48854851000328,-15.03864947168554,22.79204879139101,6.0733526283867265
GUIDED_NOGPS,0.7486581802368164,25.833357969943336,262.826064909019,-61.22309781344736,-15.380155025359132,22.317006813846064,258.88818704949944,-41.75193487669013,-8.593327510362396,0.49887114728391335,-1.710038070394421,132.36741320906796,-0.6493357485555357,-0.14099031311219506,-0.8926802725538425,0.5033934137574984,262.32785942889376,-62.55175351578487,-14.32895918566884,15.391963429102248,4.469070802020421
GUIDED_NOGPS,0.7900853157043457,24.14404789316141,262.42707712615504,-62.54202999589034,-14.126670986732591,22.38563437248524,258.8646319148349,-41.64128548969497,-8.571423308624977,0.5487181880117837,-1.548248498038273,132.49169533120553,-0.6965359148527202,-0.1334007203572676,-0.8954253748994095,0.5027776238390538,263.97112261196406,-63.5857879618829,-13.012404302843406,16.78889658697402,2.3491269600363753
GUIDED_NOGPS,0.8354299068450928,22.05694212181449,262.41251357879435,-63.33380413731242,-12.980522658559908,22.320148799948072,258.83899981673864,-41.52087964264108,-8.547388268309554,0.6476205011323319,-1.324887651800516,132.5179369179967,-0.7140568590834786,-0.14318389034984885,-0.8928059519979229,0.5022165671951252,262.802621114589,-63.86387093426953,-11.600204487167488,11.281657712305503,0.5156620156177409
GUIDED_NOGPS,0.8709352016448975,28.173705104350688,262.78814180879607,-63.78759125894859,-11.21494815669917,22.234682357079393,258.81124350071076,-41.3904953592369,-8.521141073155958,0.7034939565031222,-1.2117156861216358,132.5061616718676,-0.7299130727972489,-0.17047476553626253,-0.8893872942831758,0.5013469035417716,263.05273528843327,-63.913114880693364,-9.032235680086629,13.296795896596052,-0.7448451336700702
GUIDED_NOGPS,0.9022290706634521,31.957332358072946,262.9705567410468,-63.76727275735499,-9.603128593026609,22.105638033470296,258.7813204546916,-41.24993294063022,-8.492602680639191,0.7867440373669399,-1.0815137109643869,132.4532960076917,-0.7236115005769302,-0.17431654826258747,-0.8842255213388118,0.5005552629561937,262.6984452613538,-63.5248324571021,-8.176945611825724,15.037882288348982,-2.0626480624709638
GUIDED_NOGPS,0.9355416297912598,30.02923951487034,263.04467390753877,-63.65425993163251,-8.46204230124602,21.95030378729729,258.7491928204175,-41.09901454900735,-8.461696304274978,0.8608246426308684,-1.0522291681762515,132.4118230990514,-0.7226976171041829,-0.1750767691272763,-0.8780121514918916,0.5000001729984855,262.6984452613538,-63.5248324571021,-8.176945611825724,15.037882288348982,-2.807493196141034
GUIDED_NOGPS,0.9701926708221436,28.86909358717573,262.6501961310168,-63.292308880463956,-7.746084881447804,21.719364060253074,258.7148273047776,-40.937583791192445,-8.428347395925343,0.9211412961393106,-1.0304971070628575,132.31204769565585,-0.7108120169080451,-0.14722490837604613,-0.868774562410123,0.4996588687427612,261.99873372935434,-62.827261727187704,-6.884363420691982,10.915386421617143,-3.4377467707849396
GUIDED_NOGPS,1.0151433944702148,22.247054892246982,262.5474110891325,-62.792060532308064,-6.923722664264825,21.42153037873545,258.6781950911697,-40.76550530224674,-8.392483628104156,0.8519552151067837,-1.0681670944393589,131.84426169978002,-0.6990097985330702,-0.15329710603051536,-0.856861215149418,0.49926561951808035,262.2886959051675,-62.02408741263444,-5.709858960276786,12.394726034243646,-7.849521793292278
GUIDED_NOGPS,1.062960147857666,20.918595952240832,262.5522938673409,-61.57335406581149,-5.557998643444807,20.953922375947112,258.63927175085684,-40.58266432906783,-8.354034876282709,0.5498556813128553,-1.136704520944146,131.31963486963133,-0.6543117417814449,-0.1574401676804324,-0.8381568950378845,0.49860198188358107,263.0771491794754,-59.868713057612375,-4.079773549365668,9.714366253254568,-10.886198107485642
GUIDED_NOGPS,1.0987308025360107,27.9594171210687,262.19007162589725,-59.78800953818205,-4.495913922412775,20.496447541980366,258.5980371543232,-40.38896631398893,-8.312933201195275,0.3835386006714879,-1.1127191377348826,130.83963649551953,-0.5850209061912526,-0.13466962645328073,-0.8198579016792147,0.49809149036060874,260.88733405413547,-57.47122814429936,-3.6981092575958887,21.267701931197678,-13.06343772898277
GUIDED_NOGPS,1.1411676406860352,23.568404668386126,262.175631511893,-56.97955798907899,-3.928195903467344,19.989391649253168,258.55447538263076,-40.18433647837816,-8.269112831144666,0.38959489739202646,-1.0634305716933665,130.26904249225666,-0.4885431844010531,-0.1455299338533689,-0.7995756659701267,0.4978295415361613,262.62624469133266,-53.59873276532525,-4.006704903440493,15.262190209585683,-14.839606893888321
GUIDED_NOGPS,1.1874809265136719,21.599859925224788,262.68615619311635,-54.15685251787946,-4.026563568913137,19.32318720905222,258.5085746387752,-39.968719406237746,-8.222510144307805,0.5321623964330546,-0.8843635022231422,129.56642093233745,-0.4086756001501711,-0.17920053196858815,-0.7729274883620889,0.49790202671230266,264.5513571354712,-51.40059664401378,-4.374876545703049,13.283076963347881,-15.813635145610721
GUIDED_NOGPS,1.235590934753418,20.78662298851714,261.8926356284613,-50.70767356846974,-4.15160639665801,18.700533433415266,258.4603271590424,-39.74207862780338,-8.173063651041279,0.6975325353790233,-0.7199167728364476,128.71296147478768,-0.29770565862818965,-0.12191486614724507,-0.7480213373366107,0.49798927137280835,258.32109308189195,-47.123691296070184,-4.073237740830504,22.577296324179528,-16.558480279280793
GUIDED_NOGPS,1.2742795944213867,25.85421841964137,262.2534182172797,-46.84257579862537,-3.848404583839999,17.895253476181843,258.40972912436456,-39.50439620314342,-8.120713976186908,0.7879742718303355,-0.5291409448598231,128.09093614707461,-0.15961654359794952,-0.1644087234351817,-0.7158101390472738,0.49786384530382655,264.8810621235676,-42.00343945579213,-3.097099464986462,15.744710767812649,-17.76169164905552
GUIDED_NOGPS,1.3144605159759521,24.893932469567385,263.572841896771,-42.712786309473266,-3.252751129550912,17.15399219169257,258.35678057167667,-39.25567230575817,-8.065403841377309,0.7696431646759321,-0.42369074816148056,127.28833427808475,-0.03341677236206457,-0.2427703424343473,-0.6861596876677029,0.4975936736440868,267.484452451592,-39.01122817655746,-2.587916182835789,11.418768614558516,-18.96490301883025
GUIDED_NOGPS,1.3592357635498047,22.33650374378255,264.5191910732176,-38.83754433169216,-2.5152087827230885,16.330055256385954,258.3014853052724,-38.99592480617915,-8.007078047341457,0.4743010892095263,-0.28499447227596864,126.37721436356173,0.06953548003484862,-0.2710334334110878,-0.6532022102554381,0.4972540653676908,267.3579905735655,-35.49796536272685,-1.8606107003470336,8.67044790101248,-19.652452372987238
GUIDED_NOGPS,1.4063055515289307,21.25086258872884,264.86229568739554,-34.13597482691491,-1.735373654597531,15.492034908616878,258.24385080816086,-38.725188855568355,-7.945683456210243,0.03913438260259464,-0.1496875710443698,125.40387142569989,0.22221223958485248,-0.27325725696934916,-0.6196813963446751,0.4968948450991936,266.26688020636084,-27.898730941460393,-0.7575940806097885,15.896132565757966,-19.93893127055265
GUIDED_NOGPS,1.4461004734039307,25.13410475979314,265.3912272419426,-28.874235117094667,-1.0956342604763953,14.622216357774507,258.18388815342234,-38.44351646931754,-7.881168973822046,-0.39540157204274223,3.9220226874682595e-05,124.68498035517771,0.4062076269369821,-0.30307345893022325,-0.5848886543109802,0.4966072326433272,260.96575085462723,-23.22600904709671,-0.6686980004723818,18.72143547171393,-20.970255301788132
GUIDED_NOGPS,1.4904186725616455,22.56688600620894,263.8421589433658,-23.358408601332417,-0.8004353369651288,13.930612512279085,258.121611915565,-38.15097611064745,-7.813485532028288,-0.8943394737536219,0.27524525768984814,123.70412420922885,0.5679493569556577,-0.1951669441607889,-0.5572245004911635,0.4964934749024684,257.13572063068364,-18.95048581544012,-0.9750139298132339,23.68257410425022,-21.428621537892788
GUIDED_NOGPS,1.525871753692627,28.210656586717604,264.28870519600446,-19.371677422386675,-0.8561924540910409,12.991800985553263,258.0570400818807,-37.847652274207135,-7.742586070999003,-1.229877052402994,0.5252927735927556,122.93468973884858,0.6739795791861609,-0.26361954998571757,-0.5196720394221306,0.496556803191546,269.71718371478534,-15.938537404623169,-0.9248654319875247,9.811250123156995,-21.48591731740587
GUIDED_NOGPS,1.5627694129943848,27.119864475164558,264.541556781032,-15.492036258042964,-0.8277991610122662,12.2746253476534,257.99019396380186,-37.53364506967316,-7.6684255215283965,-1.6146253436095146,0.8640612985238082,122.18459836419778,0.7832356097004893,-0.2707856987061869,-0.490985013906136,0.49657968681974196,268.62224849870313,-11.587085554065574,-0.5835181212360574,10.35275542507108,-20.626480624709636
GUIDED_NOGPS,1.606325387954712,22.958836924154845,264.7064925383228,-11.594658632087464,-0.47456813697472017,11.585757362281466,257.92109810825707,-37.20906980534892,-7.590960787340409,-2.0225171972100946,1.3253128310763491,121.17124417817801,0.8850554070113187,-0.2767702301375559,-0.46343029449125867,0.49644180367481716,267.09155899281507,-7.258352937573619,0.08467914229940425,10.847365771473022,-19.595156593474155
GUIDED_NOGPS,1.6508216857910156,22.47787477826546,264.6206965337172,-5.737047527610382,0.4840108426829542,10.840751720175431,257.8497802090278,-36.87405657176386,-7.510150727394278,-2.301663826937342,1.6248752163978823,120.41933597320798,1.0955933451305497,-0.2705115435018438,-0.43363006880701727,0.49600291921496137,260.5367708315991,1.6342959088080782,1.9508715069854985,16.443013347855725,-18.22005788516018
GUIDED_NOGPS,1.6899847984313965,25.540917920581663,266.21132092479627,0.07996874988316449,1.6192022212238386,10.105902362830246,257.7762710181045,-36.52874982527278,-7.4259561381901005,-2.528175951703414,1.7559243484556244,119.77343230415656,1.284014916011001,-0.38018451361098293,-0.40423609451320985,0.49547742082029306,265.0888425860792,5.863963278415063,2.822056014386596,14.403297800862376,-16.844959176846203
GUIDED_NOGPS,1.731184482574463,24.275402245630282,267.200788280256,7.259702662050702,3.2330997263988865,9.359650041040686,257.7006042570429,-36.17330797165509,-7.338339736074404,-2.6913227039919847,1.9167529985729164,119.01814998573656,1.521518346055269,-0.40569458478251214,-0.37438600164162744,0.49471428026876335,274.6645204920839,14.280848798928993,4.926371657824547,-2.8019738009385264,-15.29797312999298
GUIDED_NOGPS,1.7623326778411865,32.11245434987329,268.04566353197345,12.823986501598343,4.6037446878345625,8.682199847526533,257.6228165283202,-35.807902949714055,-7.247266139545695,-2.6546830079630976,1.9178095434601528,118.60082542744877,1.6901372973016826,-0.44662223417726843,-0.34728799390106135,0.49407449458630986,272.84662475729016,18.327147427451003,6.062806391292526,2.109358033554784,-13.57909974460051
GUIDED_NOGPS,1.8091540336608887,21.36180008760046,269.19667668486846,16.978381217943657,5.683994813469872,8.23355726390827,257.54294722669124,-35.43271981487608,-7.152701851560034,-2.524523294601338,1.815172290802371,118.09782297621236,1.7415937988511576,-0.49238358540129296,-0.32934229055633085,0.493581651667485,272.84662475729016,18.327147427451003,6.062806391292526,2.109358033554784,-11.573747461642629
GUIDED_NOGPS,1.8527467250823975,22.972920865831217,269.4561643223814,20.672317073743322,5.933387828662354,7.735525912012838,257.4610384505452,-35.04795632278998,-7.054615241836593,-2.2734327341069753,1.5545750674787029,117.62891682931263,1.8443185368853643,-0.48770628768564533,-0.3094210364805135,0.4935059984647505,261.8342090191642,25.362656366327986,5.674550703401992,12.867073052504281,-9.797578296737077
GUIDED_NOGPS,1.8874688148498535,28.803472098229616,269.16195064177447,24.244027007120128,5.5395578821742015,7.344690403518331,257.3771349132613,-34.65382251292621,-6.9529765291632195,-1.991654347115157,1.45066483831436,117.36057235720118,1.9570759817382677,-0.46540738911216256,-0.29378761614073323,0.49375373279433127,263.6177741830443,29.042277227581426,4.881316551828071,10.375847996651544,-8.422479588423101
GUIDED_NOGPS,1.926511526107788,25.61892022306513,268.30052021121594,29.125075012543153,4.78666870920365,7.069787801226461,257.29128385456545,-34.250540292176204,-6.847757763701999,-1.6503071056073075,1.3331819560521443,117.14301717175793,2.0,-0.42046432496149505,-0.28279151204905845,0.49418278676354715,270.35736833929155,32.970291443720065,3.804138872380871,4.29578391042044,-6.359831525952138
GUIDED_NOGPS,1.9536609649658203,36.85259153172309,268.12279561254985,32.83900858345796,3.757211741359613,6.856535653508564,257.20353495188635,-33.83834301845154,-6.73893280929482,-1.3418308965320844,1.2235780171626556,116.99671451973626,2.0,-0.4334568015674137,-0.27426142614034255,0.4947519277246728,271.95800176395954,36.50445707907242,2.586179799869878,4.840653550895539,-4.469070802020421
GUIDED_NOGPS,1.9925322532653809,25.729558629573965,266.259707969396,36.02050724685149,2.569216582653246,6.811912789332083,257.1139402317118,-33.4174750842833,-6.626477325768932,-0.9022211385298463,1.1186491293166287,116.89856470136317,2.0,-0.32008108645579875,-0.27247651157328334,0.4954021530457889,263.53118654152087,38.586773217762,1.3173310757089716,11.026392256784874,-1.8334649444186344
GUIDED_NOGPS,2.0331437587738037,24.628335212326192,264.9556985166922,38.43108662625719,1.0750331230658492,6.805612961228819,257.02255398094485,-32.98819150042128,-6.510368751242517,-0.4193139576052511,0.9947708421137538,116.8943436444561,2.0,-0.2872958445682894,-0.2722245184491528,0.49620729906284583,255.31416175564527,40.2020295819372,-0.6784115063813201,15.315465946472813,0.0
GUIDED_NOGPS,2.065511703491211,30.89817747852607,264.68005446860286,41.50513837225474,-0.9820168554219636,6.807452651231253,256.92943265826034,-32.55075747943326,-6.39058628443024,-0.1417244375859944,0.9067658823705493,116.92191028794628,2.0,-0.30445699141979954,-0.27229810604925014,0.4972957152854959,262.2395539425976,45.72661231706505,-3.5849701355935606,10.310258203201627,0.9740282517223995
GUIDED_NOGPS,2.106893301010132,24.17104065096873,262.50197183361763,44.34235081570895,-3.2169321277451943,6.903335411911375,256.8346348054608,-32.105448019304305,-6.267110866948826,0.2441548769181848,0.7719922695027405,117.00373595420302,2.0,-0.1761665249398207,-0.276133416476455,0.49847491063039817,259.466955164365,47.09841054812464,-5.387414741260721,13.427600338292777,2.2345354010102105
GUIDED_NOGPS,2.1516261100769043,22.35936583753585,261.5944456345651,47.701676155773704,-5.4388863452859,6.9739408771112466,256.73822095883287,-31.65254748703597,-6.139925165622611,0.5630260469407853,0.6824685531645601,117.13952011490288,2.0,-0.17613234476509432,-0.2789576350844499,0.49964948058983166,267.42037076869707,50.280005602131475,-7.344274159003435,6.221471940686271,3.495042550298022
GUIDED_NOGPS,2.1821460723876953,32.7736329681664,261.7164246434733,49.501494672832955,-7.148203310705331,7.133996318943632,256.64025356050377,-31.192349202245637,-6.009013554789112,0.6860902076111065,0.6754589648071287,117.24387174504234,2.0,-0.2102523583985381,-0.2853598527577453,0.5005695948779582,264.14108158606194,51.126067868242785,-8.712921031851856,10.124019550278277,4.411775022507339
GUIDED_NOGPS,2.2184722423553467,27.539750492449112,262.00167682175186,50.81520937275945,-8.758247600824456,7.339138258573098,256.54079686979725,-30.725155020765726,-5.8743620986045855,0.8298966389345516,0.54901402058021,117.54024731350754,2.0,-0.22903130624676424,-0.29356553034292393,0.50144194275111,256.74042264703775,51.0395546479041,-10.217547611618091,13.152263894578681,6.359831525952138
GUIDED_NOGPS,2.257793664932251,25.432817720429064,264.19183536133426,52.516031089746186,-10.657139352703005,7.5193348797481825,256.43991687458987,-30.25127491824298,-5.7359585333495975,0.920537037841176,0.4140855011564592,117.86730409172442,2.0,-0.36831005355599183,-0.3007733951899273,0.5024605904096767,273.19034664050935,55.38247075309169,-13.040949414639082,2.9868668852767684,8.021409131831525
GUIDED_NOGPS,2.2987985610961914,24.395416739370674,266.17645961572396,54.251789754311204,-12.994509702188155,7.8279708399229735,256.33768120266757,-29.771026573737736,-5.593792249734577,0.9667525523647152,0.3425470069242448,118.20860864454995,2.0,-0.44448346824784896,-0.31311883359691894,0.5037003587262268,269.39007643631373,56.33334386193784,-15.725032080307304,9.040894427033905,9.568395178684748
GUIDED_NOGPS,2.335874319076538,26.975271244541343,268.541208346457,56.85207146905585,-15.585305679355097,8.137029728000291,256.23415903308154,-29.284734953323174,-5.447854275205382,0.9396846194056605,0.27242460300604443,118.65276218589754,2.0,-0.558662316920064,-0.32548118912001167,0.5050687257020748,279.24411442236203,58.84039979213802,-17.989935543118914,1.412714864004812,11.172677005051053
GUIDED_NOGPS,2.3711154460906982,28.381313268012775,270.54423862348,57.76190339101448,-17.651631063155914,8.533397930360987,256.1294210075048,-28.79273189368459,-5.2981372562488716,0.8686767454945915,0.20616536475457387,119.0443779121494,2.0,-0.6363912775737176,-0.3413359172144395,0.5061767469034535,274.15623297117696,58.11196651896759,-19.23992556604154,7.1365873248035,13.06343772898277
GUIDED_NOGPS,2.405087471008301,29.443423444925696,274.0985894484329,58.44841141453083,-19.31252430219646,8.945811436302625,256.02353914158823,-28.295355685718686,-5.144635440698454,0.7810462188561212,0.10113605178340686,119.56964678008006,2.0,-0.8310159474198462,-0.357832457452105,0.507083944430749,274.51217677180233,58.39286793248691,-20.707711797428935,6.0481267906857425,14.32394487827058
GUIDED_NOGPS,2.4516403675079346,21.48864422323208,274.53705362695155,58.21385454668762,-20.68937708940901,9.391479300820903,255.91658673631693,-27.792950658132796,-4.987344660039659,0.6786805195787005,-0.04897709874319292,120.21023656195722,2.0,-0.7565464491489644,-0.3756591720328361,0.5078510162146846,275.38266753310256,58.13672918860838,-22.12049390475657,7.35730080896937,15.2406773504799
GUIDED_NOGPS,2.5009124279022217,20.296557964877984,275.0797943309387,57.89728332745128,-22.054656879620993,10.061391152684612,255.8086382893665,-27.28586676104417,-4.826262311715698,0.6126257601155072,-0.36597586311828434,121.04797292403762,2.0,-0.7840728972242611,-0.4024556461073845,0.5086141972839526,272.10377995624964,57.16225286125857,-23.335764936677474,9.425533799876007,16.386592940741544
GUIDED_NOGPS,2.535892963409424,28.59492773384238,274.68380094850426,57.29572056041574,-24.063493662513746,10.812627505553682,255.69976940645935,-26.77445914957924,-4.661387341433029,0.5785288688094218,-0.5817800922152007,121.54159069535444,2.0,-0.7511787382281196,-0.4325051002221473,0.5097010531605404,277.2641475101898,56.588179631380314,-26.734222146107196,10.413203210092732,16.443888720254627
GUIDED_NOGPS,2.573157787322998,26.83993831229083,275.0611422262262,56.39658534543966,-26.187418499757182,11.359985778455075,255.59005671272075,-26.259087767472884,-4.492720225466917,0.6099004079149664,-0.862182836419496,122.24899338769266,2.0,-0.7919219448631188,-0.45439943113820297,0.5108473491371451,276.0429393597866,55.43932354368014,-28.49226841648688,11.108645252772277,16.27200138171538
GUIDED_NOGPS,2.6096322536468506,27.44873531625274,276.16143663861834,55.72912481819221,-28.756239503447627,11.929255812760331,255.4795777640353,-25.740116930667703,-4.320262952966998,0.6898046032199769,-1.0345817736299368,122.72945621466803,2.0,-0.860738501479063,-0.47717023251041324,0.5122179882752403,280.0136488337633,55.1598712795162,-31.042227947748817,10.806841280607046,15.98552248414997
GUIDED_NOGPS,2.6476616859436035,26.287182636925987,277.61273189427766,55.06106080488112,-30.94269487897047,12.448953450608691,255.36841095840316,-25.217914910913258,-4.144019008262841,0.8261260543475871,-1.2398690855501937,123.44672170016776,2.0,-0.9305531740447271,-0.4979581380243477,0.5133993379353539,282.63914381139887,54.58398759144704,-33.29358827267573,9.615887275338181,15.412564689019145
GUIDED_NOGPS,2.692385196685791,22.366639114784697,279.9411663388798,54.512241490091505,-33.16823745071367,12.985818871735338,255.25663544729616,-24.69285351936538,-3.96399335316951,0.752237174628095,-1.3134069575793708,123.96169064283004,2.0,-1.0419314415424685,-0.5194327548694135,0.5146021220487721,283.74595217926026,53.7928655993113,-35.16889613171646,10.14321327085014,14.495832216809829
GUIDED_NOGPS,2.7187042236328125,38.00358806154069,284.8010949829484,54.39529294661474,-36.395202420050424,13.524745986977827,255.14433104701425,-24.165307690185358,-3.780192409293135,0.7747332564331783,-1.3090413994826746,124.1395897499522,2.0,-1.3754183466848753,-0.540989839479113,0.5163075050053787,301.56379073053296,54.80902564908589,-40.72312285575909,4.283219106560793,14.094761760218251
GUIDED_NOGPS,2.757704019546509,25.64586326866283,289.90526525709765,54.47030563249435,-38.87171394774489,13.76403780822934,255.03157815004172,-23.635655064139314,-3.592624040336462,0.6365283806419371,-1.211285811090748,124.90060942727501,2.0,-1.5286745692029937,-0.5505615123291736,0.5176395449537042,301.56379073053296,54.80902564908589,-40.72312285575909,4.283219106560793,11.860226359208042
GUIDED_NOGPS,2.7969818115234375,25.466945159566716,288.603821989081,52.95029522656637,-39.66130990990674,14.247073774511934,254.9184576364033,-23.104275572197363,-3.4012975344044243,0.6732042019682313,-1.1300513830840246,125.30063994658431,2.0,-1.3170901263516668,-0.5698829509804774,0.5181300061877512,273.50643249367965,49.23283438152737,-37.53768401820202,18.139305616616866,10.370536091867901
GUIDED_NOGPS,2.8423714637756348,22.05021659586996,290.32653296384797,51.89744884688876,-39.56493629697404,14.624859975458236,254.8050507850207,-22.57155101913295,-3.2062235863097053,0.8575757137417638,-1.1978002429047927,125.72498593933886,2.0,-1.4613241715981036,-0.5849943990183294,0.5181793563553322,291.2526986852339,51.650486510053064,-40.43400201696099,11.599796727338813,9.339212060632418
GUIDED_NOGPS,2.8833167552948,24.424254776476616,291.904628469013,50.68926010373328,-39.422803220106836,15.032021720504051,254.6914391850686,-22.037864667122093,-3.0074142798782972,1.3358100847787182,-1.5203085420212779,126.10813223101991,2.0,-1.5297318051608317,-0.6012808688201621,0.5182076944701143,291.63642970508545,51.18445941961945,-40.29672362515746,13.87339898867279,8.193296470370772
GUIDED_NOGPS,2.9211924076080322,26.407172358214968,289.69732799042606,51.35356800990976,-40.241018215913094,15.325716324375163,254.57770464733102,-21.503600819342616,-2.8048830702550704,1.8076257855431532,-1.7056557569899173,126.3325995679032,2.0,-1.3493174837840107,-0.6130286529750065,0.518718067572829,290.52728833759835,51.22575810005681,-39.9923290056208,13.646292878289074,6.130648407899809
GUIDED_NOGPS,2.972991466522217,19.311592100961825,287.1951121599492,51.15351811664822,-40.36524333061644,15.538717193486761,254.46392911555768,-20.9691444035735,-2.5986447662093237,2.557058900712694,-1.9685437617281845,126.5689104528073,2.0,-1.2630071317041465,-0.6215486877394705,0.5188832992822036,289.05271157814826,51.050336830268456,-40.80667736107101,15.209043514530677,4.411775022507339
GUIDED_NOGPS,3.009822130203247,27.15216800238228,292.0055530818743,51.6521335228882,-41.633256684420076,15.766700959124748,254.35019457782013,-20.434880555794038,-2.388715512440368,3.2227376749585988,-2.1140579537875444,126.71059589695005,2.0,-1.6390333498609158,-0.63066803836499,0.5196222705859899,297.5586371033056,52.68030563833941,-44.100763686568364,13.31580318842532,2.979380534680281
GUIDED_NOGPS,3.048621416091919,25.77889774620013,291.94390685859827,51.96052433669985,-43.302693193336104,15.872299566387536,254.236582977868,-19.901194203783163,-2.17511277188307,3.7284491499745744,-2.264624778285421,126.7822172605868,2.0,-1.5096327794652973,-0.6348919826555014,0.5205637902107265,290.94446756885344,52.15093054149172,-45.000638532368896,16.02061864905322,1.776169164905552
GUIDED_NOGPS,3.0912182331085205,23.481846836002887,292.7421919621711,52.788126202657416,-45.240153785612584,15.925218696566704,254.1231761264854,-19.368469650718758,-1.9578553080134213,4.111824252992805,-2.4184974143415836,126.79942933729524,2.0,-1.5661550699276878,-0.6370087478626681,0.5216411492387996,295.6278552229497,53.53314242814116,-46.619059137900415,14.937900856302278,0.2864788975654116
GUIDED_NOGPS,3.1319470405578613,24.558252825106855,294.1057331734496,53.78793201333471,-46.78552116482212,15.938268657218186,254.010055612847,-18.83709015877681,-1.7369631671541033,4.330824450332332,-2.6352880454846117,126.75603031530898,2.0,-1.6402324453392383,-0.6375307462887275,0.522524278998834,297.3449943939909,55.679723070371296,-48.736865824197,14.902925512313246,-0.8021409131831525
GUIDED_NOGPS,3.169966697692871,26.30993796222533,295.7641897366181,54.9641961896279,-48.03093026209816,15.906674874669214,253.89730271587445,-18.30743753273076,-1.5124576607800542,4.390055850814682,-2.8805861786759803,126.68718200847525,2.0,-1.7212671240730872,-0.6362669949867685,0.5232592363006591,297.3449943939909,55.679723070371296,-48.736865824197,14.902925512313246,-1.604281826366305
GUIDED_NOGPS,3.2075355052948,26.628303695567986,295.6880723368057,56.604211288144434,-49.225020297762775,15.851717435739353,253.78499831559256,-17.779891703550746,-1.2843613478240163,4.327424296786135,-3.1665166803529314,126.59231068090376,2.0,-1.677082945168015,-0.6340686974295742,0.5239703294749694,297.1780501042435,58.45318772369077,-50.201329244894296,15.459393611030308,-2.119943841984046
GUIDED_NOGPS,3.2458529472351074,26.09826273084773,296.81567682051457,58.04554546467049,-50.10707915908164,15.75639141998951,253.67322280448556,-17.254830312002852,-1.052698016982121,4.1174399491510245,-3.6056432024713914,126.43562614134368,2.0,-1.7580587258235962,-0.6302556567995804,0.5245271905710498,296.58248998739793,60.00372559994946,-51.383042408153585,14.750237463245043,-3.380450991271857
GUIDED_NOGPS,3.291038751602173,22.134932027357934,297.44307161605184,60.21914305980681,-51.56859683339639,15.620942925398758,253.5620559988534,-16.732628292248393,-0.8174926690194315,3.925574385836666,-4.032667056267411,126.20655525695979,2.0,-1.771561934069656,-0.6248377170159504,0.5253755520821884,298.76482920063575,62.20051585578025,-53.12141884714126,13.771629394553145,-4.239887683968092
STABILIZE,3.3386037349700928,21.02829640028076,298.32838530755896,62.3201599838155,-53.17672300214591,15.419940645858699,253.45157705016794,-16.213657455443233,-0.5787714990755184,3.9068955260039737,-4.423805523051008,125.97793516506113,2.0,-1.8160181388036887,-0.6167976258343479,0.5262989757515352,301.7715628515263,64.75623849571684,-55.02570775114286,12.19867096521854,-4.984732817638163
STABILIZE,3.3759398460388184,26.79159134606172,300.6298661586859,65.97426019189815,-56.14956931070864,15.17169462538347,253.34186435642934,-15.698286073336867,-0.33656187897001644,3.939021747651952,-4.63410021740653,125.7621285080454,2.0,-1.9581881367063612,-0.6068677850153388,0.5279065037158693,308.85239864962574,70.9660262241974,-60.30158133384176,9.96626432955307,-5.844169510334397
STABILIZE,3.4169435501098633,24.389316927657248,303.4911523191155,69.81779969959918,-59.12757707318831,14.910714662341901,253.23299547352218,-15.186878461871942,-0.09089233950819242,3.6393997048968867,-4.581138503695429,125.43169761637853,2.0,-2.0,-0.596428586493676,0.52951834236684,311.4844809063915,73.73113437888331,-62.05544213458025,8.876027555119393,-7.219268218648373
STABILIZE,3.4561867713928223,25.489696078371793,304.18746902026714,72.72525208741529,-61.04775788657622,14.616934239071238,253.1250470265718,-14.679794564783315,0.15820744721349733,3.1909664097040498,-4.237810934215099,125.15365427564565,2.0,-2.0,-0.5846773695628495,0.5306029826668949,300.06407349315623,73.4785956591652,-60.78625019130658,13.2484163518819,-8.078704911344607
STABILIZE,3.500560760498047,22.5416592769349,305.4666046302086,75.74668414190434,-61.678146455636345,14.27882261863968,253.0180946213005,-14.177389537197428,0.4107066855018413,2.41397646944127,-3.4099523063350023,124.75794043589178,2.0,-2.0,-0.5711529047455872,0.531044426570569,305.1605072503432,80.03032238766454,-62.192747041022116,10.347590246001175,-9.224620501606255
STABILIZE,3.5432915687561035,23.407543000011163,305.12253899646134,78.43645084770633,-60.579754458761535,13.884694632792632,252.9122127553839,-13.680013329231528,0.6665734737613089,1.7044046584330415,-2.4661431064443002,124.34545165153638,2.0,-2.0,-0.5553877853117053,0.5306231639662614,300.05123468279,81.80043449628927,-58.760266143955846,13.654990297132485,-10.370536091867901
STABILIZE,3.5873217582702637,22.716486944653564,303.14557037009,82.13931423702628,-58.60682772145912,13.450181069170286,252.80747472980715,-13.188010269592937,0.9257748221884885,1.0159191354965231,-1.504933359312756,123.8522573519481,2.0,-1.9708648640789723,-0.5380072427668114,0.5297663012718238,298.967555517769,84.58718582712508,-54.867469979399324,13.807896174992251,-11.860226359208042
STABILIZE,3.625127077102661,26.45614300672394,301.37238262013585,85.14748352749429,-54.99675015842299,12.976041333104371,252.70395256022113,-12.701718649178375,1.188276670466525,0.9558494360152593,-0.734335515617756,123.42476947217534,2.0,-1.902635782185623,-0.5190416533241748,0.5280925134144447,302.6185421566208,89.05483025906852,-51.36251435191376,12.459238050031871,-12.261296815799618
STABILIZE,3.661165475845337,27.755709228071336,304.1624815689021,91.002735474344,-49.300989446787334,12.508408733292422,252.60171688829882,-12.221470304673133,1.454043905459562,1.4796946363907952,-0.13465288393814367,122.98457744054636,2.0,-2.0,-0.5003363493316969,0.5253775166761234,314.0145682369874,99.3661903368384,-41.6729840090489,8.231796134655582,-12.433184154338864
STABILIZE,3.7060964107513428,22.26536007389398,303.5073784193984,95.85428027315221,-42.86693958895353,12.061059726428539,252.50083689309147,-11.747590202150377,1.7230403789071644,2.886023649585545,0.25450746934836715,122.4598549877493,2.0,-2.0,-0.48244238905714154,0.5222949899839303,301.8849915028248,99.14182022354973,-35.5653204058979,10.732055585369963,-13.06343772898277
STABILIZE,3.74346923828125,26.75826166841044,302.95184974781733,99.7796769433643,-36.44983214224842,11.51535217682241,252.40138020238493,-11.280396020670466,1.9952289251187718,4.4852046548211915,0.32870696259253623,121.95810929132016,2.0,-2.0,-0.46061408707289636,0.5192225305336836,297.27359132488476,100.8310202697048,-32.11119201179843,10.592163514737166,-13.06343772898277
STABILIZE,3.785184621810913,23.97389013049219,302.19747402078144,101.00870005716483,-32.88762113264478,11.060158526072325,252.30341280405582,-10.820197735880129,2.270571378668123,6.502611162984824,-0.01615038249889183,121.33596102020203,2.0,-1.980057116848919,-0.442406341042893,0.5175790962556565,295.1956768825893,103.05325967823993,-30.98635098023799,10.522610900142652,-12.146705256773453
STABILIZE,3.8319618701934814,21.38281851411908,300.7486803688245,103.22433432736106,-31.73555736010144,10.561283653694545,252.20699895742794,-10.367297203611827,2.5490285920877067,8.281661571474759,-0.6908579464560399,120.72457712721585,2.0,-1.9126775902542197,-0.4224513461477818,0.5171422929760946,295.3745738968364,105.78872303413848,-32.10912908826787,10.155587623861024,-11.917522138721123
STABILIZE,3.8706822395324707,25.829062671272947,297.0761312871638,105.84671019856962,-32.64206845029847,10.037399171157979,252.11220110462835,-9.921987743482859,2.83056045356318,9.738797907306001,-1.430086332118758,120.13663444346116,2.0,-1.706565885928875,-0.40149596684631916,0.5177363144519308,295.65182282868346,108.69814788333048,-34.83072528238953,8.366957130175834,-11.401860123103383
STABILIZE,3.9108951091766357,24.873117157292977,293.8141079338084,108.02561634527929,-36.78653628942526,9.62698306103812,252.01907978194382,-9.484553722494852,3.1151259046278224,10.91207670387339,-2.203178902408105,119.52997704138062,2.0,-1.592784786601002,-0.38507932244152476,0.5199508310970266,285.57487473604783,109.58997811836888,-43.41975449761837,10.577944941095225,-10.427831871380983
STABILIZE,3.955557107925415,22.39434468987095,291.79938082910337,110.19682503892125,-42.673809421329395,9.23227460916375,251.9276935311769,-9.055270138632807,3.402682957856964,11.386907186104445,-2.873207013051428,118.98613005890753,2.0,-1.551952946555658,-0.36929098436655006,0.5230382461895932,287.19995580136,112.30234911506432,-49.77094848398029,9.488541158476067,-9.511099399171666
STABILIZE,4.001640558242798,21.703244901866427,290.05542932995616,112.56800824261622,-51.256593036816554,8.793594977492273,251.83809881100234,-8.634402204464578,3.6931887145624227,10.796480874812802,-3.4515788942316448,118.44091703860043,2.0,-1.4926364389813562,-0.3517437990996909,0.5274748908756894,286.4759193868531,115.81169749441537,-60.579076128851014,6.932146586995955,-8.995437383553925
STABILIZE,4.041540145874023,25.0671097219151,287.9429379156717,115.06823521514185,-58.22947287091972,8.372696624228414,251.75034990832324,-8.222204930739878,3.9865993824869506,9.658302420390108,-3.738038308682449,117.99334840266783,2.0,-1.3970344733359321,-0.33490786496913655,0.5311080361267033,284.81211682541425,117.0906590359458,-64.33839399992786,7.339785891980355,-9.11002894258009
STABILIZE,4.078141927719116,27.32783862497638,285.3679690709302,117.21165679376963,-63.6108355083173,8.025031611316775,251.66449884962742,-7.818922709989877,4.282870293498661,8.43902742240456,-3.8914456381014046,117.65973464284774,2.0,-1.279446147919754,-0.321001264452671,0.5339468529009079,282.7769786049759,118.73261385094766,-65.91503639617305,7.166945072819118,-8.708958485988513
STABILIZE,4.118913888931274,24.532397496636836,284.3419891556106,118.71110707339578,-65.41797712837126,7.73956462240506,251.58059531234352,-7.424788900126131,4.581955921285468,7.15215446909022,-3.921215017598905,117.29895039050932,2.0,-1.2875303447208901,-0.3095825848962024,0.5349999665248284,280.4449751594496,120.31004833329376,-66.00050098901288,8.013253029512498,-8.193296470370772
STABILIZE,4.164537191390991,21.92080025504471,283.5750043077684,121.1302259411777,-65.92713881971788,7.399764842027163,251.49868653619745,-7.0400254080400515,4.883809899049519,6.152018406661716,-3.846523483930231,116.9650907438791,2.0,-1.2680737330813672,-0.29599059368108654,0.5354054743593837,283.36503156214917,124.3480156392916,-65.86587907396775,5.412856649309333,-7.677634454753031
STABILIZE,4.210033655166626,21.98814173302648,282.8333140384102,124.63623670754883,-64.75905853966451,7.041415071762007,251.41881723456854,-6.664842273202041,5.188385037201643,5.478933146034578,-3.654972536204516,116.6686468735222,2.0,-1.2420191859867642,-0.2816566028704803,0.534973721788433,282.7674680400621,129.250646150061,-62.41079555601288,4.562420637007762,-7.16197243913529
STABILIZE,4.259403705596924,20.257640740311427,281.4186976263302,127.45179993061687,-62.565911602349935,6.739165758760973,251.34102950584577,-6.2994372512610255,5.495633341055788,4.815576209219654,-3.279812870097341,116.3874889665278,2.0,-1.1760549962022935,-0.26956663035043893,0.5340307724717028,277.73903476501414,128.7567380024979,-59.42106017706921,5.132646435298028,-5.271211715203574
STABILIZE,4.303958892822266,22.449121154381384,280.3043187270965,129.6327675799217,-59.150050395753794,6.454026160043828,251.26536274478414,-5.94399539764332,5.805506028523434,4.33785484942239,-2.8954072622880846,116.2424020881784,2.0,-1.1381623019298548,-0.25816104640175314,0.5324777782121386,277.20508410880734,130.89091858720602,-55.6182954541793,2.7628346457203747,-3.9534087864026803
STABILIZE,4.351274251937866,21.139260028324756,279.02305356496817,129.93394036512277,-56.01268486364759,6.279169481271467,251.19185355386088,-5.598688651152244,6.117953547808064,3.6560704891135956,-2.5037578119772066,116.14000389214155,2.0,-1.0874766411292158,-0.2511667792508587,0.5310653192057279,274.0386493488082,130.15416450566423,-52.99869895969427,4.009906789112918,-2.2345354010102105
STABILIZE,4.398381471633911,21.229780277070564,277.1802112500607,130.471520495849,-53.139564860026155,6.184501804086063,251.12053565463162,-5.263675417567171,6.4329255950995705,2.9329045739446316,-2.0840956214459907,116.14259936402617,2.0,-1.0052673869909512,-0.24738007216344252,0.5297862452275629,274.1508199876118,130.3694783946767,-50.80170016620491,4.0581090736964285,0.5729577951308232
STABILIZE,4.44701075553894,20.57069991221058,274.92750109538133,129.88892274615367,-49.755857165653445,6.186822601271857,251.05143979908684,-4.939100153242904,6.750371132268722,2.0452546835136554,-1.8487892012367046,116.27304231679507,2.0,-0.9099283843323723,-0.24747290405087427,0.528253114148961,271.5039172666653,129.14312533811997,-45.46717237106115,3.854530628017841,2.521014298575622
STABILIZE,4.491703033447266,22.373439733714555,273.8465782822162,129.51547533052727,-46.58693629270221,6.274260095413977,250.984593681008,-4.625092948708968,7.0702384045615805,1.3291534251023063,-1.5611870107603927,116.47633606725132,2.0,-0.8919170100276569,-0.2509704038165591,0.5268285873486319,272.3344206991884,129.033822258785,-43.4919363408406,3.0088496927754704,4.18259190445501
STABILIZE,4.539840936660767,20.77725268737306,272.702442634771,128.7215706531987,-43.52323775267271,6.462014333402825,250.92002184732374,-4.321769112268655,7.3924749582939295,1.1058440187267358,-1.4945510448875134,116.7836945799019,2.0,-0.8487952347145269,-0.258480573336113,0.5254578563554834,271.48440587158115,127.98776436269101,-41.61060454611641,2.8614482113532773,7.276563998161455
STABILIZE,4.579643487930298,25.13049053031438,271.1586394391776,126.71037887098878,-40.77694231793798,6.779109719307454,250.85774560946635,-4.029228753598559,7.717027658545744,1.5804598836074646,-1.6113159035132318,117.13678803923487,2.0,-0.7748125059652892,-0.27116438877229815,0.5242469849882418,266.31963337084113,123.10954999149011,-37.22828606685694,5.48022666485933,9.224620501606255
STABILIZE,4.626438617706299,21.373120942509757,269.4465068977554,124.08052724297465,-38.373924934618465,7.1424523789004315,250.79778295472784,-3.7475563673477126,8.043842706855601,2.844102723224357,-1.5006188141914236,117.64186686797898,2.0,-0.7106313518560037,-0.28569809515601724,0.523208883820737,265.59015728050093,121.14426737474264,-36.28288419088205,5.344653591229488,11.802930579694959
STABILIZE,4.665660619735718,25.50767789920515,266.1284946719437,118.50597922650302,-36.94571327792557,7.682447242875181,250.74014845761627,-3.4768204167369703,8.372865658915115,3.697967296369277,-1.4633156293176932,118.11820426069566,2.0,-0.5322085460492862,-0.30729788971500727,0.5226592894684203,254.9138561376072,111.2641203132761,-37.32596957603773,10.401334960701774,13.750987083139758
STABILIZE,4.708114385604858,23.56152009662107,262.6443817596275,114.55750266709833,-36.9782744476525,8.204440066038071,250.68485319121203,-3.217072917157921,8.704041442263401,4.513648123846063,-1.3221647541992079,118.70890634087505,2.0,-0.3978039184521335,-0.32817760264152285,0.522841157944958,254.9138561376072,111.2641203132761,-37.32596957603773,10.401334960701774,15.584452027558392
STABILIZE,4.749811172485352,23.98554338129332,261.7135586270023,110.52378828546479,-39.378887675170915,8.820215259120914,250.63190463852413,-2.968349019772674,9.037314373981486,5.613593740615964,-1.0832449504755735,119.59357976293178,2.0,-0.42221527788865465,-0.3528086103648366,0.5242081010245762,266.8302902084553,109.04312422984201,-43.48472387343728,5.933159526492318,16.844959176846203
STABILIZE,4.794696569442749,22.283221854462962,261.33015235307545,108.0655254780301,-41.764765104767484,9.469444238215475,250.58130660384631,-2.7306665951127087,9.372628178386742,6.687012183310005,-0.7387900796170738,120.3841195178474,2.0,-0.42237212010943004,-0.378777769528619,0.5255686966415771,264.4026020012066,103.88933189097196,-44.48360186482741,7.760141275097197,17.47521275149011
STABILIZE,4.833846092224121,25.548385524849092,260.50355504491745,103.68268303005777,-44.2817625213994,10.172659382391792,250.5330591241135,-2.5040258166783502,9.709926004727352,7.762556949270035,-0.39544564810723,121.20374221824893,2.0,-0.3794123178905476,-0.4069063752956717,0.5269958442630633,261.457170739711,98.11559296935913,-44.87696182593349,7.713702770890791,18.334649444186343
STABILIZE,4.873271942138672,25.368978782086952,262.4612136876258,97.37997584875309,-45.31687062877973,10.863371758818579,250.48715838025794,-2.288408744537932,10.049150444876728,8.569772611044238,-0.20274319985655948,121.87904302148809,2.0,-0.5297606644965799,-0.43453487035274313,0.5276830105368282,264.7021493511489,90.13500268592797,-46.59004819557826,9.225476190693968,18.621128341751756
STABILIZE,4.915127515792847,23.896580996929107,264.5038949435699,91.11784094774272,-46.064749597245914,11.543123336476976,250.44359660856549,-2.0837789089271865,10.390243551027956,8.981884027448004,-0.05759218176197396,122.69175357044956,2.0,-0.6123038145981515,-0.46172493345907906,0.5282274965741369,265.1272624173275,85.10292718794088,-46.72723877022597,9.933664587340203,17.933578987594768
STABILIZE,4.958919525146484,22.840936443193144,264.01370473678026,84.90775592814919,-46.674730694900745,12.25222812155754,250.40236201203186,-1.8900808938482072,10.733146853388211,8.422090260810222,-0.15393200000500382,123.432952038801,2.0,-0.5342308191315254,-0.4900891248623016,0.5287039387741445,264.3793391745073,79.48533791057852,-46.706905118898,10.395024979437508,17.647100090029355
STABILIZE,5.0039942264556885,22.18738891239949,264.36398106898275,78.24680418293319,-46.87639901218415,12.963578049888902,250.363438671719,-1.7072399206693234,11.07780137787322,6.680800980033524,-0.4322379561753846,124.20444922631063,2.0,-0.5686713877360292,-0.5185431219955561,0.5289771001950286,266.15398366221905,70.15214745028,-47.19505314742848,9.868084860290594,16.157409822689214
STABILIZE,5.047464370727539,23.00883751803435,264.09005904329047,71.34304534244089,-46.658554624456194,13.638034175854024,250.3268064581111,-1.5351614317236368,11.42414766380171,4.740626409022989,-0.7290398778551748,124.77575356924717,2.0,-0.5450770414233117,-0.545521367034161,0.529041351144129,260.08756061124956,64.39165066646402,-46.07370560704208,13.090314520073107,13.750987083139758
STABILIZE,5.088815927505493,24.187906923099103,262.686748018389,64.91329673658727,-46.33505952893685,14.204721294162828,250.2924409424712,-1.3737306739087245,11.772125781589773,2.805342680345004,-0.9994850600232378,125.2721717181237,1.9932731117194136,-0.46256422056655294,-0.5681888517665131,0.5290535926552633,257.68559422664134,60.19609209301766,-45.73641983233997,13.286827274878291,11.401860123103383
STABILIZE,5.129936933517456,24.32749840496491,262.2957944102811,60.00158536125059,-46.47606307682886,14.63963363873277,250.2603133081971,-1.222812282285858,12.121675350445438,1.3825577137272838,-1.1350135155160388,125.67500261499272,1.859774872691277,-0.47261221017623095,-0.5855853455493109,0.5292988692136371,263.17249437678817,55.41701332426998,-47.61806379110449,10.87158693316404,9.682986737710912
STABILIZE,5.168124198913574,26.190991801077786,260.94068890053046,55.72346268334649,-46.7260333716815,14.99679841011586,250.2303902621779,-1.0822498636791948,12.472735556062913,0.4743478333166586,-1.1972911803682151,125.98210158045482,1.7263054640169864,-0.39411889205212725,-0.5998719364046344,0.5295993844638722,257.60381162575413,51.557282632751715,-46.82361649160002,13.200993610908412,7.563042895726867
STABILIZE,5.206484317779541,26.07927674735278,258.55599202346696,51.79499802774426,-47.03076633993725,15.273336645736832,250.20263394615006,-0.9518655802750544,12.825245168317265,0.10846793302219158,-1.2717899746362482,126.21150031391888,1.6029657275158127,-0.27248378631451986,-0.6109334658294733,0.5299280057541272,254.2304992769015,48.41069812621099,-46.650618737107195,13.32062612994207,6.0733526283867265
STABILIZE,5.242879867553711,27.477686643431777,257.8018653142029,48.75712059706774,-46.92669049542394,15.468327027627556,250.1770018480538,-0.8314597332210809,13.179142558958612,0.019132667206101538,-1.4003448069864664,126.3976502895584,1.5176005740322063,-0.285032509850735,-0.6187330811051023,0.5300529165271912,256.3169270649294,46.30338103224043,-47.305836257564536,12.492110902490694,3.8388172273765155
STABILIZE,5.288395881652832,21.975123908920395,256.10512263975374,45.820021733394206,-46.92889983477128,15.582507364243027,250.15344671338926,-0.7208103462259174,13.534365719306733,0.2337476963354952,-1.4815149885263095,126.47856071046638,1.4350175276211554,-0.2008117273967277,-0.623300294569721,0.530231632777039,249.20188085439565,42.745986041731086,-46.83024450964202,14.76963010757882,1.260507149287811
STABILIZE,5.319244146347046,32.423500309214596,252.27179931560744,42.07917996671152,-47.235662889784784,15.668564304850932,250.13191645657287,-0.6196727491579992,13.890852277945443,0.40290202688591537,-1.4708217937721257,126.4593542185203,1.2686564063275858,0.03557868696856109,-0.6267425721940373,0.5305632575838651,244.00587775605666,37.18817282616295,-47.570907902147695,18.478388745221736,-0.8594366926962349
STABILIZE,5.353048086166382,29.587358916478554,249.55221254166796,39.040777231352365,-47.32402010464583,15.641030212406967,250.11235407229347,-0.5277791616448582,14.248539518417017,0.5563278725208242,-1.4352594533631022,126.35181972022762,1.1921971332321124,0.1021875719350713,-0.6256412084962787,0.5307862798115315,244.00587775605666,37.18817282616295,-47.570907902147695,18.478388745221736,-3.20856365273261
STABILIZE,5.392755031585693,25.189350853697352,248.4442685054625,36.692369529676725,-48.3598372036714,15.534381785370744,250.0946975468687,-0.444838276672769,14.607364396916664,0.6240738508555361,-1.2203396537224231,126.15858000822962,1.1393821310552308,0.09348822041670031,-0.6213752714148297,0.531483600800294,248.69077909587432,35.70076293670415,-49.937695806718715,14.990802921401226,-5.099324376664327
STABILIZE,5.441000461578369,20.734319386221625,246.58005418511462,35.552355175005744,-49.28633036427316,15.34894240288685,250.0788797696013,-0.37053484418576943,14.96726355998692,0.5843444547225702,-0.8799866316256334,125.8916835362222,1.129391730946259,0.1782750471269202,-0.613957696115474,0.53212679696213,246.99585546318974,33.768129762150004,-50.35038738395298,13.728739695970063,-6.64631042351755
STABILIZE,5.480765104293823,25.14932604211637,245.44889556939515,33.529774491977264,-49.84333136050811,15.058261860716893,250.06482844413506,-0.3045292546847662,15.328173362212139,0.49576052972550144,-0.5528530137805803,125.56795989032028,1.0402722711243813,0.21300206267517913,-0.6023304744286757,0.5325857523613601,243.54608777579827,31.120430777077495,-49.24191089085256,13.590378498872667,-7.964113352318443
STABILIZE,5.513421535491943,30.62810074264475,245.1345268387914,31.714904337916554,-49.427728333369856,14.783107043067638,250.05246599981146,-0.2464571228270387,15.690029883912876,0.5853104462424511,-0.16476198530557307,125.30222455047176,0.977396260553784,0.20586174280170183,-0.5913242817227056,0.5325588791086414,242.43403410303782,30.25615247452204,-48.690886725303955,13.442795682218915,-7.7349302342661135
STABILIZE,5.553482532501221,24.967432779136978,244.3385483143674,30.35948132890884,-48.43603706461715,14.530999860872914,250.04170950302577,-0.19592887102542988,16.052768948840352,0.8145212427826182,0.15387279613872157,124.9630919978023,0.9496875550073429,0.24773364333736925,-0.5812399944349166,0.5322444030067287,240.02598513393642,29.701860735126854,-47.37531357769488,13.377072889232494,-8.078704911344607
STABILIZE,5.590636253356934,26.920732724868742,243.51935064073183,29.820575936924257,-47.490919771497595,14.205025845520948,250.03247056858328,-0.15252931304750916,16.41632614187089,1.0395895829520254,0.3272533062380871,124.69832654481591,0.9465977827887339,0.28233073948394893,-0.568201033820838,0.5319536229566842,244.59479072769668,29.503714601123768,-46.40655901149388,9.290770083768749,-7.7349302342661135
STABILIZE,5.6375110149383545,21.33800015262127,243.03913769363317,29.569763312458164,-46.72947720022757,13.908240662153862,250.02465527105562,-0.11581723761530327,16.780636826700366,1.3477601410618902,0.40317363362712916,124.35277361432662,0.9450205581239073,0.2895209694522019,-0.5563296264861545,0.5317550570134639,244.59479072769668,29.503714601123768,-46.40655901149388,9.290770083768749,-7.39115555718762
STABILIZE,5.6692681312561035,31.496335455965397,241.74465325091643,28.91007973876917,-45.504508246025544,13.577441496282665,250.01816405613698,-0.0853249920038337,17.14563616353859,1.5358251309899602,0.42858145709190054,124.16934205397676,0.9105577425388263,0.3712854269984538,-0.5430976598513066,0.5313250722047821,237.0736655622146,27.72281001405988,-43.7004067150888,10.888305086183607,-5.958761069360562
STABILIZE,5.704972267150879,28.015817035374585,241.33475692387992,28.23584934585287,-44.80460523415976,13.369206520375338,250.01289165200035,-0.06055806564084776,17.511259126803843,1.7184632154573376,0.38817789994351326,124.00388755152238,0.8898226278069047,0.3584583823689882,-0.5347682608150135,0.5311579321804818,240.3845524678555,27.481023422374854,-44.3068499758965,7.1800171373705695,-4.984732817638163
STABILIZE,5.747729063034058,23.40062151652263,239.62015463242173,27.09696489398714,-43.61075007758787,13.206630770451465,250.0087269806539,-0.04099467370603804,17.877440522817167,1.9200129197977165,0.15099173696944554,123.7960175743222,0.8466008070448017,0.4558029214935438,-0.5282652308180587,0.5307440953002025,231.45297367664554,26.087061245526574,-42.82499354177821,13.257123115511291,-3.6096341093241864
STABILIZE,5.7892515659332275,24.07945529491463,236.84713871382763,26.26931217596628,-43.40409133006715,13.037936186492153,250.0055530692971,-0.02608534073009139,18.244115007496987,2.0205293987182094,-0.1191595069404689,123.66694065938731,0.8253286110737261,0.59259465524128,-0.5215174474596862,0.530824103168782,230.7297111347262,25.239851859997316,-43.08043047252663,12.137131290363072,-2.864788975654116
STABILIZE,5.836596250534058,21.126269927216864,233.9187510814175,24.91945604612398,-43.56764640066001,12.91145322062857,250.00324696167712,-0.015252484194476779,18.61121710405336,1.850385331068372,-0.33921158009260427,123.58391287983663,0.7748639628253866,0.7053305761925486,-0.5164581288251427,0.5310894317523567,229.95285256564583,23.431455032847936,-44.79751518767506,9.934721642519037,-1.3750987083139758
STABILIZE,5.868861198425293,31.003237585559482,233.2518904536154,23.844110598748085,-44.738222654095445,12.821413377800566,250.00167962944488,-0.0078899981299827,18.97868122068258,1.6303517474517633,-0.3842181778134777,123.5662226898863,0.7360758481052201,0.6908745163067459,-0.5128565351120227,0.531858451937389,233.739362423204,22.861024903398878,-46.33672230208453,10.132148150787927,-0.40107045659157625
STABILIZE,5.908815383911133,25.03449304946252,229.17577195109067,22.28873564871728,-45.08065483802054,12.8212476193032,250.00071588351153,-0.003362836716561901,19.34644166826149,1.3728238403863695,-0.3994044364223399,123.55518510418756,0.6823746736203999,0.9341400339231662,-0.512849904772128,0.532213548253141,220.0039599552317,20.57372700990491,-44.10772702430192,16.259266879460995,-0.2291831180523293
STABILIZE,5.949612140655518,24.52020695098068,227.4721381967547,21.05386781143315,-45.18525093885328,12.81552993688136,250.00021428540464,-0.0010065978821529598,19.71443267804196,1.2232777022825865,-0.47544461228697454,123.55301310403149,0.6495315648325638,0.9428064611904482,-0.5126211974752544,0.5324498418084476,222.93480490496586,19.72685152099554,-45.111303490173256,13.94545835092255,0.2291831180523293
