E-kp,E-ki,E-kd,E-I-Tot,E-P,E-I,E-D,E-PID,N-kp,N-ki,N-kd,N-I-Tot,N-P,N-I,N-D,N-PID,D-kp,D-ki,D-kd,D-I-Tot,D-P,D-I,D-D,D-PID,Y-kp,Y-ki,Y-kd,Y-I-Tot,Y-P,Y-I,Y-D,Y-PID,errorN,desiredN,actualN,errorE,desiredE,actualE,errorD,desiredD,actualD,errorY,desiredY,actualY,roll,pitch,yaw-rate,thrust,dt,Time,Mode
0.03,0.005,0.04,-0.003296157268572352,-0.0029932850404230825,-1.648078634286176e-05,-0.12081078531656764,-0.12382055114333358,0.03,0.005,0.04,-0.0030504368929626675,-0.002770143040660984,-1.5252184464813337e-05,-0.1118046399397284,-0.1145900351648542,0.002,8e-05,0,-0.004689884102006058,-0.00028392981645023374,-3.751907281604847e-07,-0.0,-0.0002843050071783942,0.1,0.02,0.005,-0.0031444523398512975,-0.009518399136010608,-6.288904679702596e-05,-0.014406311866169353,-0.023987600048976987,-0.09233810135536615,0.0,0.09233810135536615,-0.09977616801410275,0.0,0.09977616801410275,-0.14196490822511687,0.0,0.14196490822511687,-0.09518399136010607,0,0.09518399136010607,-0.12401074564505346,0.11438417726713458,0.023987600048976987,0.4,0.0330355167388916,0.0333094596862793,STABILIZE
0.03,0.005,0.04,-0.0070199155183554365,-0.0033420390986009063,-3.5099577591777186e-05,-0.06736102797820061,-0.0707381666543933,0.03,0.005,0.04,-0.006452171072000764,-0.0030530254293641714,-3.226085536000382e-05,-0.061544194775642255,-0.06462948106036644,0.002,8e-05,0,-0.010366337945817143,-0.00033963770676260813,-8.293070356653715e-07,-0.0,-0.0003404670137982735,0.1,0.02,0.005,-0.006705051785618045,-0.010652018528952898,-0.0001341010357123609,-0.00805100016285041,-0.01883711972751567,-0.10176751431213905,0.0,0.10176751431213905,-0.11140130328669688,0.0,0.11140130328669688,-0.16981885338130406,0.0,0.16981885338130406,-0.10652018528952897,0,0.10652018528952897,-0.07085819881187869,0.06449785814190467,0.01883711972751567,0.4,0.033426523208618164,0.06669759750366211,STABILIZE
0.03,0.005,0.04,-0.011072111141081854,-0.003635641724366593,-5.536055570540927e-05,-0.048809887269213,-0.052500889549285,0.03,0.005,0.04,-0.010103883560574319,-0.0032763270890451097,-5.051941780287159e-05,-0.04399756540543358,-0.04732441191228156,0.002,8e-05,0,-0.016980309873337682,-0.00039560499281957577,-1.3584247898670147e-06,-0.0,-0.00039696341760944275,0.1,0.02,0.005,-0.010590506599929208,-0.011620137950090962,-0.00021181013199858418,-0.00584988875667539,-0.017681836838764935,-0.10921090296817033,0.0,0.10921090296817033,-0.12118805747888643,0.0,0.12118805747888643,-0.1978024964097879,0.0,0.1978024964097879,-0.11620137950090961,0,0.11620137950090961,-0.05259675999292188,0.04721783777934449,0.017681836838764935,0.4,0.033437252044677734,0.10015487670898438,STABILIZE
0.03,0.005,0.04,-0.016488215222527823,-0.004843492487095372,-8.244107611263912e-05,-0.04860910524146087,-0.05353503880466888,0.03,0.005,0.04,-0.014831857571235802,-0.004228114204501652,-7.415928785617902e-05,-0.04245551270706747,-0.0467577861994253,0.002,8e-05,0,-0.026686808137737973,-0.0005786859670426381,-2.134944651019038e-06,-0.0,-0.0005808209116936572,0.1,0.02,0.005,-0.015502723937614631,-0.014642928700702407,-0.0003100544787522926,-0.005513753881075053,-0.020466737060529754,-0.1409371401500551,0.0,0.1409371401500551,-0.16144974956984576,0.0,0.16144974956984576,-0.28934298352131904,0.0,0.28934298352131904,-0.14642928700702407,0,0.14642928700702407,-0.0536543614636831,0.046620815587171016,0.020466737060529754,0.4,0.03354668617248535,0.1336956024169922,STABILIZE
0.03,0.005,0.04,-0.022096868439741225,-0.005026294076599134,-0.00011048434219870612,-0.04034346985792091,-0.045480248276718746,0.03,0.005,0.04,-0.01968788002178203,-0.004351810663583806,-9.843940010891015e-05,-0.03494976817586063,-0.039400018239553344,0.002,8e-05,0,-0.037420594088445336,-0.000641284846279353,-2.993647527075627e-06,-0.0,-0.0006442784938064287,0.1,0.02,0.005,-0.02057919325079089,-0.015164560100658395,-0.0004115838650158178,-0.004566826182416948,-0.02014297014809116,-0.14506035545279355,0.0,0.14506035545279355,-0.1675431358866378,0.0,0.1675431358866378,-0.3206424231396765,0.0,0.3206424231396765,-0.15164560100658395,0,0.15164560100658395,-0.045584369478812004,0.039279507122776725,0.02014297014809116,0.4,0.03347587585449219,0.16717934608459473,STABILIZE
0.03,0.005,0.04,-0.02791234479899682,-0.005213684585765429,-0.0001395617239949841,-0.017674638456157386,-0.0230278847659178,0.03,0.005,0.04,-0.024490234079658273,-0.004305401274151581,-0.00012245117039829135,-0.012219001115037969,-0.01664685355958784,0.002,8e-05,0,-0.04925985875716419,-0.000707608318412377,-3.940788700573135e-06,-0.0,-0.0007115491071129501,0.1,0.02,0.005,-0.025826273797339067,-0.015680356618461448,-0.0005165254759467813,-0.0018397042549026144,-0.018036586349310844,-0.14351337580505272,0.0,0.14351337580505272,-0.17378948619218096,0.0,0.17378948619218096,-0.35380415920618846,0.0,0.35380415920618846,-0.15680356618461447,0,0.15680356618461447,-0.023073356557880734,0.01658376999899762,0.018036586349310844,0.4,0.0334627628326416,0.20068955421447754,STABILIZE
0.03,0.005,0.04,-0.0337294263580198,-0.00521345213991716,-0.000168647131790099,-0.014890532547678744,-0.020272631819386003,0.03,0.005,0.04,-0.029162038914892906,-0.004187018983385226,-0.00014581019457446452,-0.009019158336341355,-0.013351987514301045,0.002,8e-05,0,-0.062256586443925725,-0.0007765385108547795,-4.980526915514059e-06,-0.0,-0.0007815190377702936,0.1,0.02,0.005,-0.03116918545365475,-0.015961620344827922,-0.0006233837090730951,-0.001584592373374945,-0.01816959642727596,-0.13956729944617421,0.0,0.13956729944617421,-0.17378173799723867,0.0,0.17378173799723867,-0.3882692554273897,0.0,0.3882692554273897,-0.1596162034482792,0,0.1596162034482792,-0.020309749449547096,0.01329545970484113,0.01816959642727596,0.4,0.03347349166870117,0.2341306209564209,STABILIZE
0.03,0.005,0.04,-0.039414794480847865,-0.005098493138707797,-0.00019707397240423933,-0.011632635373100986,-0.016928202484213024,0.03,0.005,0.04,-0.03359250302508049,-0.003973127223967032,-0.00016796251512540245,-0.005533295448063322,-0.009674385187155757,0.002,8e-05,0,-0.0761755106673858,-0.0008321424179677648,-6.0940408533908645e-06,-0.0,-0.0008382364588211557,0.1,0.02,0.005,-0.03649814421123704,-0.015929581031524098,-0.0007299628842247408,-0.0012854818381522687,-0.017945025753901105,-0.13243757413223442,0.0,0.13243757413223442,-0.1699497712902599,0.0,0.1699497712902599,-0.4160712089838824,0.0,0.4160712089838824,-0.15929581031524098,0,0.15929581031524098,-0.016955034102119206,0.009627283453391694,0.017945025753901105,0.4,0.03345322608947754,0.267667293548584,STABILIZE
0.03,0.005,0.04,-0.04500540583232556,-0.005014732829706865,-0.0002250270291616278,-0.001363440744208239,-0.006603200603076732,0.03,0.005,0.04,-0.037959266149965774,-0.003916950942427347,-0.0001897963307498289,0.002480483623788902,-0.0016262636493882742,0.002,8e-05,0,-0.09083650401476509,-0.0008767194382749566,-7.266920321181208e-06,-0.0,-0.0008839863585961377,0.1,0.02,0.005,-0.041676610964928286,-0.015483474945554363,-0.0008335322192985657,-0.00025102747922374935,-0.016568034644076676,-0.13056503141424491,0.0,0.13056503141424491,-0.16715776099022883,0.0,0.16715776099022883,-0.4383597191374783,0.0,0.4383597191374783,-0.15483474945554362,0,0.15483474945554362,-0.00660757126283311,0.0016084134009565587,0.016568034644076676,0.4,0.033445119857788086,0.3010556697845459,STABILIZE
0.03,0.005,0.04,-0.051016962056059614,-0.005396702668019685,-0.0002550848102802981,-0.0029552772832202867,-0.00860706476152027,0.03,0.005,0.04,-0.04193565774991229,-0.003569691833172779,-0.00020967828874956146,0.006236881044181887,0.0024575109222595465,0.002,8e-05,0,-0.10765046005189337,-0.001006283209964703,-8.61203680415147e-06,-0.0,-0.0010148952467688543,0.1,0.02,0.005,-0.04689220817097685,-0.015607177414988264,-0.000937844163419537,-0.00013222118633894354,-0.016677242764746743,-0.11898972777242597,0.0,0.11898972777242597,-0.17989008893398953,0.0,0.17989008893398953,-0.5031416049823515,0.0,0.5031416049823515,-0.15607177414988263,0,0.15607177414988263,-0.008600338660636456,-0.0024809471305110194,0.016677242764746743,0.4,0.03341794013977051,0.33446669578552246,STABILIZE
0.03,0.005,0.04,-0.05696283112618981,-0.005330584118114328,-0.00028481415563094903,-0.0009350491242203094,-0.006550447397965587,0.03,0.005,0.04,-0.045664876734537264,-0.0033433153771038303,-0.00022832438367268633,0.0076710488685726285,0.004099409107796112,0.002,8e-05,0,-0.12518838340037092,-0.0010482053401382621,-1.0015070672029674e-05,-0.0,-0.0010582204108102917,0.1,0.02,0.005,-0.05204316778919044,-0.01539310918221324,-0.0010408633557838088,8.589133300931624e-05,-0.016348081204987732,-0.11144384590346101,0.0,0.11144384590346101,-0.17768613727047763,0.0,0.17768613727047763,-0.524102670069131,0.0,0.524102670069131,-0.15393109182213238,0,0.15393109182213238,-0.006539410280740384,-0.004116992752816406,0.016348081204987732,0.4,0.0334627628326416,0.36796116828918457,STABILIZE
0.03,0.005,0.04,-0.06288037112902117,-0.0053077581432160875,-0.0003144018556451059,-0.0007549112354740053,-0.006377071234335199,0.03,0.005,0.04,-0.04915454415686074,-0.0031300693648189885,-0.0002457727207843037,0.00842814938484121,0.005052307299237918,0.002,8e-05,0,-0.14363024680271916,-0.0011027662463687893,-1.1490419744217533e-05,-0.0,-0.0011142566661130069,0.1,0.02,0.005,-0.057160441079979515,-0.015299853749616676,-0.0011432088215995904,0.00019779907188788602,-0.01624526349932838,-0.10433564549396629,0.0,0.10433564549396629,-0.17692527144053627,0.0,0.17692527144053627,-0.5513831231843946,0.0,0.5513831231843946,-0.15299853749616676,0,0.15299853749616676,-0.006363557195233737,-0.00506931813922811,0.01624526349932838,0.4,0.033446550369262695,0.4013631343841553,STABILIZE
0.03,0.005,0.04,-0.06879320517629867,-0.005300778757712178,-0.0003439660258814933,-0.0016156700997545382,-0.0072604148833482094,0.03,0.005,0.04,-0.05254774973892014,-0.003041964635928281,-0.0002627387486946007,0.007425234430601322,0.00412053104597844,0.002,8e-05,0,-0.16300474427163808,-0.0011579323192390388,-1.3040379541731047e-05,-0.0,-0.00117097269878077,0.1,0.02,0.005,-0.06220372912672342,-0.015070806956219207,-0.0012440745825344685,0.0002566675484783259,-0.01605821399027535,-0.10139882119760936,0.0,0.10139882119760936,-0.1766926252570726,0.0,0.1766926252570726,-0.5789661596195194,0.0,0.5789661596195194,-0.15070806956219207,0,0.15070806956219207,-0.007249551332183241,-0.004139614216476769,0.01605821399027535,0.4,0.03346395492553711,0.43483757972717285,STABILIZE
0.03,0.005,0.04,-0.07475523396261814,-0.005351362710055414,-0.0003737761698130907,-0.002687093752522395,-0.008412232632390899,0.03,0.005,0.04,-0.05587240675641356,-0.002984126079357876,-0.0002793620337820678,0.007438787536366819,0.004175299423226875,0.002,8e-05,0,-0.18364747852854663,-0.0012352255951249543,-1.4691798282283731e-05,-0.0,-0.001249917393407238,0.1,0.02,0.005,-0.06722000786919169,-0.015008273172204191,-0.0013444001573838338,0.0001419926090145764,-0.01621068072057345,-0.0994708693119292,0.0,0.0994708693119292,-0.17837875700184713,0.0,0.17837875700184713,-0.6176127975624771,0.0,0.6176127975624771,-0.1500827317220419,0,0.1500827317220419,-0.008401266847624354,-0.004197320394021515,0.01621068072057345,0.4,0.033423423767089844,0.46826171875,STABILIZE
0.03,0.005,0.04,-0.08111088072432428,-0.0054331388443573285,-0.0004055544036216214,-0.0002604627598257139,-0.006099156007804664,0.03,0.005,0.04,-0.05893385232477818,-0.002617083588972508,-0.0002946692616238909,0.0074567889577240075,0.0045450361071276086,0.002,8e-05,0,-0.20551888031164997,-0.0012464544476606047,-1.6441510424932e-05,-0.0,-0.0012628959580855367,0.1,0.02,0.005,-0.07229762135921605,-0.014468697482005475,-0.001445952427184321,0.00033276188874104207,-0.015581888020448754,-0.08723611963241694,0.0,0.08723611963241694,-0.18110462814524428,0.0,0.18110462814524428,-0.6232272238303024,0.0,0.6232272238303024,-0.14468697482005474,0,0.14468697482005474,-0.006087659156486912,-0.004560423578690303,0.015581888020448754,0.4,0.03509378433227539,0.5033485889434814,STABILIZE
0.03,0.005,0.04,-0.08716829692583446,-0.005434808976567753,-0.0004358414846291723,-0.0008006849804452392,-0.006671335441642164,0.03,0.005,0.04,-0.06127829870329836,-0.0021034741215052457,-0.0003063914935164918,0.009748946352852976,0.007339080737831238,0.002,8e-05,0,-0.22789281922834959,-0.0013382832990226868,-1.823142553826797e-05,-0.0,-0.0013565147245609547,0.1,0.02,0.005,-0.07695955570207079,-0.013942535767642815,-0.0015391911140414157,0.00042615000044632,-0.01505557688123791,-0.07011580405017485,0.0,0.07011580405017485,-0.1811602992189251,0.0,0.1811602992189251,-0.6691416495113434,0.0,0.6691416495113434,-0.13942535767642814,0,0.13942535767642814,-0.006653456556192223,-0.007355293230468729,0.01505557688123791,0.4,0.03343677520751953,0.536794900894165,STABILIZE
0.03,0.005,0.04,-0.09325736111305623,-0.00545293925115745,-0.00046628680556528115,-0.0011269964595793794,-0.007046222516302111,0.03,0.005,0.04,-0.06344724815291344,-0.0019423591579806833,-0.00031723624076456723,0.009331270959665747,0.007071675560920497,0.002,8e-05,0,-0.25075871910390085,-0.001365139854123953,-2.006069752831207e-05,-0.0,-0.0013852005516522652,0.1,0.02,0.005,-0.08151677299866167,-0.013603748353090438,-0.0016303354599732334,0.0004993994956380283,-0.014734684317425643,-0.06474530526602278,0.0,0.06474530526602278,-0.18176464170524834,0.0,0.18176464170524834,-0.6825699270619765,0.0,0.6825699270619765,-0.13603748353090436,0,0.13603748353090436,-0.007029412377833219,-0.007088385472766575,0.014734684317425643,0.4,0.033499717712402344,0.5702824592590332,STABILIZE
0.03,0.005,0.04,-0.0992081925192127,-0.0053384181194392885,-0.0004960409625960635,-0.0002694090884215896,-0.006103868170456941,0.03,0.005,0.04,-0.06532744025569918,-0.001686697354449317,-0.00032663720127849594,0.010667860617112612,0.0086545260613848,0.002,8e-05,0,-0.2742278558581142,-0.0014035917151192614,-2.193822846864914e-05,-0.0,-0.0014255299435879105,0.1,0.02,0.005,-0.08592526324393811,-0.013182675718448023,-0.001718505264878762,0.0005568667106591848,-0.0143443142726676,-0.05622324514831056,0.0,0.05622324514831056,-0.1779472706479763,0.0,0.1779472706479763,-0.7017958575596307,0.0,0.7017958575596307,-0.13182675718448023,0,0.13182675718448023,-0.006083939603541137,-0.008668546988392561,0.0143443142726676,0.4,0.03344154357910156,0.6037740707397461,STABILIZE
0.03,0.005,0.04,-0.10499806201481078,-0.005191689293906021,-0.0005249903100740539,0.0013036787991922822,-0.004413000804787792,0.03,0.005,0.04,-0.06666179707759173,-0.0011964977849219015,-0.00033330898538795866,0.014113551495152914,0.012583744724843055,0.002,8e-05,0,-0.29861249410088303,-0.001457689335911097,-2.3888999528070645e-05,-0.0,-0.0014815783354391676,0.1,0.02,0.005,-0.09033994013206169,-0.013195248904746963,-0.0018067988026412337,0.0005343990794107872,-0.01446764862797741,-0.03988325949739672,0.0,0.03988325949739672,-0.17305630979686737,0.0,0.17305630979686737,-0.7288446679555485,0.0,0.7288446679555485,-0.13195248904746962,0,0.13195248904746962,-0.004384008695570679,-0.012593874509468235,0.01446764862797741,0.4,0.03345656394958496,0.6371955871582031,STABILIZE
0.03,0.005,0.04,-0.11079961968447553,-0.005207959536588638,-0.0005539980984223777,0.0017952431673995046,-0.003966714467611512,0.03,0.005,0.04,-0.0678117285228249,-0.0010322738784343164,-0.0003390586426141245,0.012634919593419424,0.011263587072370983,0.002,8e-05,0,-0.323523370660214,-0.0014908046485550977,-2.5881869652817124e-05,-0.0,-0.001516686518207915,0.1,0.02,0.005,-0.09461744870430834,-0.012799488706371813,-0.0018923489740861668,0.0004990689815060232,-0.014192768698951957,-0.03440912928114388,0.0,0.03440912928114388,-0.17359865121962129,0.0,0.17359865121962129,-0.7454023242775488,0.0,0.7454023242775488,-0.12799488706371812,0,0.12799488706371812,-0.003941542500788177,-0.011272420331007962,0.014192768698951957,0.4,0.03341937065124512,0.670609712600708,STABILIZE
0.03,0.005,0.04,-0.11660726308711883,-0.005200770458241377,-0.0005830363154355942,0.0018657882379998442,-0.0039180185356771265,0.03,0.005,0.04,-0.068903511283592,-0.0009776963107670175,-0.00034451755641796,0.008973194894086614,0.007650981026901637,0.002,8e-05,0,-0.34881972375285336,-0.0015101997688719763,-2.7905577900228273e-05,-0.0,-0.0015381053467722046,0.1,0.02,0.005,-0.09867021205329156,-0.01209755858979569,-0.001973404241065831,0.0005512359750375781,-0.013519726855823944,-0.03258987702556725,0.0,0.03258987702556725,-0.17335901527471256,0.0,0.17335901527471256,-0.7550998844359882,0.0,0.7550998844359882,-0.12097558589795689,0,0.12097558589795689,-0.0039018553623474993,-0.007659236557989211,0.013519726855823944,0.4,0.03350067138671875,0.70412278175354,STABILIZE
0.03,0.005,0.04,-0.12207552411844061,-0.004855386089403242,-0.000610377620592203,0.00473610274622219,-0.0007296609637732557,0.03,0.005,0.04,-0.06960793837093922,-0.0006254758983365123,-0.0003480396918546961,0.010470624008705371,0.009497108418514163,0.002,8e-05,0,-0.37569555881164524,-0.0015909086385123483,-3.005564470493162e-05,-0.0,-0.0016209642832172798,0.1,0.02,0.005,-0.10253744365649754,-0.011445992563970057,-0.002050748873129951,0.0006429510278888104,-0.012853790409211198,-0.020849196611217077,0.0,0.020849196611217077,-0.16184620298010807,0.0,0.16184620298010807,-0.7954543192561742,0.0,0.7954543192561742,-0.11445992563970056,0,0.11445992563970056,-0.0007106871225835482,-0.009498547112525211,0.012853790409211198,0.4,0.033786773681640625,0.7379164695739746,STABILIZE
0.03,0.005,0.04,-0.12752793850715707,-0.004889133192762061,-0.0006376396925357854,0.0035539138973889016,-0.001972858987908945,0.03,0.005,0.04,-0.06980897071666552,-0.00018026397926453747,-0.00034904485358332757,0.011980549592621563,0.011451240759773698,0.002,8e-05,0,-0.40299592660691386,-0.0016320003683589109,-3.223967412855311e-05,-0.0,-0.001664240042487464,0.1,0.02,0.005,-0.10633969761208341,-0.011364828310455396,-0.0021267939522416684,0.0005412977531262527,-0.012950324509570812,-0.006008799308817916,0.0,0.006008799308817916,-0.16297110642540205,0.0,0.16297110642540205,-0.8160001841794554,0.0,0.8160001841794554,-0.11364828310455395,0,0.11364828310455395,-0.001950141165134303,-0.011455131468495866,0.012950324509570812,0.4,0.03345632553100586,0.771369457244873,STABILIZE
0.03,0.005,0.04,-0.132827011295587,-0.004753563979097909,-0.000664135056477935,0.0034654126378155584,-0.0019522863977602858,0.03,0.005,0.04,-0.06995542172489892,-0.00013137472634097705,-0.0003497771086244946,0.008463232018372409,0.007982080183406938,0.002,8e-05,0,-0.43060833324175857,-0.0016513246347825347,-3.4448666659340686e-05,-0.0,-0.0016857733014418754,0.1,0.02,0.005,-0.11002913706836637,-0.011032110209130622,-0.0022005827413673273,0.0006445447166094162,-0.012588148233888532,-0.004379157544699235,0.0,0.004379157544699235,-0.158452132636597,0.0,0.158452132636597,-0.8256623173912674,0.0,0.8256623173912674,-0.11032110209130622,0,0.11032110209130622,-0.0019369135605627474,-0.007985824446613244,0.012588148233888532,0.4,0.03344273567199707,0.804833173751831,STABILIZE
0.03,0.005,0.04,-0.1379760562652685,-0.004621550580104635,-0.0006898802813263425,0.00464847747256049,-0.0006629533888704879,0.03,0.005,0.04,-0.06992557033605308,2.6793260546321218e-05,-0.0003496278516802654,0.008414729335655456,0.008091894744521511,0.002,8e-05,0,-0.4586373460773822,-0.0016771718677020288,-3.669098768619058e-05,-0.0,-0.0017138628553882195,0.1,0.02,0.005,-0.11358839822928554,-0.010648774403697785,-0.002271767964585711,0.0006408106305546899,-0.012279731737728805,0.000893108684877374,0.0,-0.000893108684877374,-0.15405168600348784,0.0,0.15405168600348784,-0.8385859338510144,0.0,0.8385859338510144,-0.10648774403697785,0,0.10648774403697785,-0.000647912966496507,-0.008093112907903571,0.012279731737728805,0.4,0.03342413902282715,0.8382546901702881,STABILIZE
0.03,0.005,0.04,-0.14298037727852567,-0.0044862127606362205,-0.0007149018863926283,0.005669705461023382,0.00046859081399453374,0.03,0.005,0.04,-0.06972548869098391,0.0001793667566290194,-0.00034862744345491955,0.009196087340525745,0.009026826653699844,0.002,8e-05,0,-0.48709792611674757,-0.0017009329472065652,-3.896783408933981e-05,-0.0,-0.001739900781295905,0.1,0.02,0.005,-0.11702292468841953,-0.010263141517694753,-0.0023404584937683904,0.0005465192761912434,-0.0120570807352719,0.00597889188763398,0.0,-0.00597889188763398,-0.14954042535454068,0.0,0.14954042535454068,-0.8504664736032825,0.0,0.8504664736032825,-0.10263141517694753,0,0.10263141517694753,0.0004847594119927694,-0.009025972806262514,0.0120570807352719,0.4,0.033464670181274414,0.8717188835144043,STABILIZE
0.03,0.005,0.04,-0.14795685746701076,-0.004463130410218777,-0.0007397842873350538,0.003127724194560132,-0.002075190502993699,0.03,0.005,0.04,-0.06933786118730627,0.00034764171341502594,-0.00034668930593653133,0.0077576204331752845,0.007758572840653779,0.002,8e-05,0,-0.5160005807318926,-0.001728079711806264,-4.1280046458551413e-05,-0.0,-0.0017693597582648156,0.1,0.02,0.005,-0.1203292317320808,-0.009884147666075047,-0.002406584634641616,0.0004669723554511209,-0.01182375994526554,0.011588057113834198,0.0,-0.011588057113834198,-0.14877101367395926,0.0,0.14877101367395926,-0.864039855903132,0.0,0.864039855903132,-0.09884147666075047,0,0.09884147666075047,-0.002061803036320701,-0.007762141224357132,0.01182375994526554,0.4,0.03345060348510742,0.9051628112792969,STABILIZE
0.03,0.005,0.04,-0.15285237281548542,-0.004390298471552498,-0.0007642618640774271,0.003977292418086805,-0.0011772679175431205,0.03,0.005,0.04,-0.06864429856186066,0.0006219870059989807,-0.0003432214928093033,0.006395977484962876,0.006674742998152554,0.002,8e-05,0,-0.5450867927137488,-0.001738967781971896,-4.360694341709991e-05,-0.0,-0.001782574725388996,0.1,0.02,0.005,-0.12350320575233936,-0.009488067001451507,-0.0024700641150467873,0.0005611143138698304,-0.011397016802628463,0.02073290019996602,0.0,-0.02073290019996602,-0.1463432823850833,0.0,0.1463432823850833,-0.869483890985948,0.0,0.869483890985948,-0.09488067001451506,0,0.09488067001451506,-0.0011662130669029035,-0.0066766833775196936,0.011397016802628463,0.4,0.03345227241516113,0.9386241436004639,STABILIZE
0.03,0.005,0.04,-0.1575727032713987,-0.004231262617289407,-0.0007878635163569935,0.004163471872881126,-0.0008556542607652739,0.03,0.005,0.04,-0.06771992301574921,0.0008286020924018452,-0.00033859961507874605,0.007652435747425626,0.008142438224748725,0.002,8e-05,0,-0.5747507969560073,-0.0017727034636193812,-4.598006375648059e-05,-0.0,-0.0018186835273758617,0.1,0.02,0.005,-0.12652289751098494,-0.009022750259703892,-0.0025304579502196988,0.0006006606884113234,-0.010952547521512267,0.027620069746728173,0.0,-0.027620069746728173,-0.14104208724298023,0.0,0.14104208724298023,-0.8863517318096906,0.0,0.8863517318096906,-0.0902275025970389,0,0.0902275025970389,-0.0008428307621158255,-0.008143775584103861,0.010952547521512267,0.4,0.03346753120422363,0.9720754623413086,STABILIZE
0.03,0.005,0.04,-0.16231056032652147,-0.004177103467127419,-0.0008115528016326074,0.003534670257163627,-0.0014539860115963996,0.03,0.005,0.04,-0.06669294663309583,0.0009054276139464975,-0.0003334647331654791,0.0069925985110912085,0.0075645613918722265,0.002,8e-05,0,-0.6047321631123701,-0.0017621928657324014,-4.837857304898961e-05,-0.0,-0.001810571438781391,0.1,0.02,0.005,-0.12920160958625398,-0.007872235180631635,-0.00258403219172508,0.0008240873007133609,-0.009632180071643353,0.03018092046488325,0.0,-0.03018092046488325,-0.13923678223758063,0.0,0.13923678223758063,-0.8810964328662007,0.0,0.8810964328662007,-0.07872235180631634,0,0.07872235180631634,-0.0014435912056676753,-0.007566551975916166,0.009632180071643353,0.4,0.0340273380279541,1.0061030387878418,STABILIZE
0.03,0.005,0.04,-0.16685735873287444,-0.004074636010888082,-0.0008342867936643722,0.0032724544382074405,-0.0016364683663450132,0.03,0.005,0.04,-0.06509593066587009,0.001431173803731669,-0.00032547965332935046,0.00996480147684092,0.011070495627243238,0.002,8e-05,0,-0.634694656467702,-0.0017900691650201792,-5.077557251741616e-05,-0.0,-0.0018408447375375954,0.1,0.02,0.005,-0.13160503218121458,-0.007179463716069794,-0.0026321006436242915,0.0009157950076475868,-0.0088957693520465,0.04770579345772231,0.0,-0.04770579345772231,-0.13582120036293605,0.0,0.13582120036293605,-0.8950345825100896,0.0,0.8950345825100896,-0.07179463716069794,0,0.07179463716069794,-0.0016225951696476326,-0.011072537516861061,0.0088957693520465,0.4,0.03347635269165039,1.0396006107330322,STABILIZE
0.03,0.005,0.04,-0.17118506504497333,-0.003862943908332742,-0.0008559253252248667,0.004768069649754001,4.9200416196392566e-05,0.03,0.005,0.04,-0.06327749308887352,0.0016231513541258298,-0.0003163874654443676,0.010146526949127177,0.01145329083780864,0.002,8e-05,0,-0.6651290605068854,-0.0018110655269162257,-5.3210324840550835e-05,-0.0,-0.0018642758517567765,0.1,0.02,0.005,-0.13421899109715643,-0.007777466046883421,-0.0026843798219431288,0.0006245682933307686,-0.009837277575495781,0.05410504513752766,0.0,-0.05410504513752766,-0.12876479694442475,0.0,0.12876479694442475,-0.9055327634581128,0.0,0.9055327634581128,-0.0777746604688342,0,0.0777746604688342,6.474733680821432e-05,-0.011453213500095136,0.009837277575495781,0.4,0.03360939025878906,1.0732121467590332,STABILIZE
0.03,0.005,0.04,-0.17566816801791213,-0.004024003295318859,-0.0008783408400895607,0.0029024561604511466,-0.0019998879749572726,0.03,0.005,0.04,-0.061193505326823695,0.0018705735006562696,-0.0003059675266341185,0.009933652203519024,0.011498258177541175,0.002,8e-05,0,-0.6956220187098735,-0.0018246850456557565,-5.564976149678988e-05,-0.0,-0.0018803348071525464,0.1,0.02,0.005,-0.13640475203165398,-0.006539748069056423,-0.0027280950406330796,0.0008764890359684735,-0.008391354073721028,0.06235245002187566,0.0,-0.06235245002187566,-0.1341334431772953,0.0,0.1341334431772953,-0.9123425228278782,0.0,0.9123425228278782,-0.06539748069056422,0,0.06539748069056422,-0.001986762547555087,-0.01150053336195342,0.008391354073721028,0.4,0.03342270851135254,1.1066291332244873,STABILIZE
0.03,0.005,0.04,-0.17996433166856338,-0.003849617173134654,-0.0008998216583428169,0.0030242513565074424,-0.0017251874749700286,0.03,0.005,0.04,-0.05912799994533564,0.0018508152003411547,-0.00029563999972667817,0.008129985091053378,0.009685160291667855,0.002,8e-05,0,-0.7265194689802655,-0.001845729738421315,-5.812155751842125e-05,-0.0,-0.001903851295939736,0.1,0.02,0.005,-0.13867835154836827,-0.006790932916042581,-0.0027735670309673656,0.0006624282588230632,-0.008902071688186883,0.06169384001137183,0.0,-0.06169384001137183,-0.1283205724378218,0.0,0.1283205724378218,-0.9228648692106575,0.0,0.9228648692106575,-0.0679093291604258,0,0.0679093291604258,-0.0017137070130744032,-0.009687198251942242,0.008902071688186883,0.4,0.033479928970336914,1.1401128768920898,STABILIZE
0.03,0.005,0.04,-0.18405317515247313,-0.0036737350846365656,-0.0009202658757623657,0.004004491881315778,-0.0005895090790831534,0.03,0.005,0.04,-0.057100951634678036,0.0018212579000445011,-0.0002855047581733902,0.00729185760875597,0.008827610750627081,0.002,8e-05,0,-0.7576643349673421,-0.0018655313714547115,-6.0613146797387374e-05,-0.0,-0.0019261445182520989,0.1,0.02,0.005,-0.1410361887214763,-0.007061547827883319,-0.002820723774429526,0.00024326617217429496,-0.00963900543013855,0.06070859666815004,0.0,-0.06070859666815004,-0.12245783615455219,0.0,0.12245783615455219,-0.9327656857273557,0.0,0.9327656857273557,-0.07061547827883319,0,0.07061547827883319,-0.0005786288457454328,-0.008828330599710207,0.00963900543013855,0.4,0.03338980674743652,1.1735069751739502,STABILIZE
0.03,0.005,0.04,-0.18811031854040008,-0.003639354279600394,-0.0009405515927020004,0.0034623912642293975,-0.0011175146080729973,0.03,0.005,0.04,-0.05400786337529035,0.002774573860880022,-0.00027003931687645175,0.010705164862241847,0.013209699406245418,0.002,8e-05,0,-0.789373680462801,-0.0018962692252161547,-6.314989443702408e-05,-0.0,-0.001959419119653179,0.1,0.02,0.005,-0.14327509716566042,-0.0066945140532637575,-0.0028655019433132083,0.00014606865418463708,-0.009413947342392329,0.0924857953626674,0.0,-0.0924857953626674,-0.12131180932001315,0.0,0.12131180932001315,-0.9481346126080773,0.0,0.9481346126080773,-0.06694514053263757,0,0.06694514053263757,-0.0011020794626712632,-0.013210996107810163,0.009413947342392329,0.4,0.03344392776489258,1.2069499492645264,STABILIZE
0.03,0.005,0.04,-0.19197544274707615,-0.0034609895789751654,-0.0009598772137353808,0.0032024536418140564,-0.00121841315089649,0.03,0.005,0.04,-0.05120844311619366,0.002506714875338447,-0.0002560422155809683,0.007049942836638857,0.009300615496396335,0.002,8e-05,0,-0.8213619341671816,-0.0019095723155847274,-6.570895473337454e-05,-0.0,-0.001975281270318102,0.1,0.02,0.005,-0.14549583943058164,-0.00662847679703399,-0.002909916788611633,0.0003437066286530284,-0.009194686956992595,0.08355716251128156,0.0,-0.08355716251128156,-0.11536631929917218,0.0,0.11536631929917218,-0.9547861577923636,0.0,0.9547861577923636,-0.0662847679703399,0,0.0662847679703399,-0.0012076525726430131,-0.00930201883904101,0.009194686956992595,0.4,0.033503055572509766,1.2404587268829346,STABILIZE
0.03,0.005,0.04,-0.19601813726899087,-0.0036228292034964846,-0.0009800906863449543,0.0031983159670380106,-0.0014046039228034282,0.03,0.005,0.04,-0.048599261395702524,0.00233819787346869,-0.0002429963069785126,0.003733501368154653,0.00582870293464483,0.002,8e-05,0,-0.8535011446328884,-0.0019200868731042318,-6.828009157063107e-05,-0.0,-0.001988366964674863,0.1,0.02,0.005,-0.14709878335768234,-0.004788219044821096,-0.002941975667153647,0.0005230950474439501,-0.007207099664530793,0.077939929115623,0.0,-0.077939929115623,-0.12076097344988282,0.0,0.12076097344988282,-0.9600434365521159,0.0,0.9600434365521159,-0.04788219044821096,0,0.04788219044821096,-0.0013997323749050307,-0.005829874729266038,0.007207099664530793,0.4,0.033476829528808594,1.2739744186401367,STABILIZE
0.03,0.005,0.04,-0.19949113385266587,-0.003116071532685152,-0.0009974556692633294,0.005850912675981117,0.0017373854740326362,0.03,0.005,0.04,-0.04557930902686458,0.0027095873491022227,-0.00022789654513432288,0.006852842094699389,0.00933453289866729,0.002,8e-05,0,-0.8858468524846921,-0.0019347660732968956,-7.086774819877537e-05,-0.0,-0.002005633821495671,0.1,0.02,0.005,-0.1495893707768281,-0.0074487534222791784,-0.0029917874155365623,-0.0001975818781374525,-0.010638122715953192,0.09031957830340742,0.0,-0.09031957830340742,-0.10386905108950506,0.0,0.10386905108950506,-0.9673830366484477,0.0,0.9673830366484477,-0.07448753422279178,0,0.07448753422279178,0.001749519387325679,-0.009332266318266594,0.010638122715953192,0.4,0.03343629837036133,1.3073844909667969,STABILIZE
0.03,0.005,0.04,-0.20243617289867083,-0.0026179929884169563,-0.0010121808644933542,0.008381942542157997,0.004751768689247687,0.03,0.005,0.04,-0.04208478933376754,0.003106453908250705,-0.0002104239466688377,0.01022485255708736,0.013120882518669228,0.002,8e-05,0,-0.918933277250643,-0.0019608122155244465,-7.351466218005145e-05,-0.0,-0.002034326877704498,0.1,0.02,0.005,-0.15301374363725592,-0.010146989562539841,-0.0030602748727451183,-0.0009160672152416503,-0.014123331650526611,0.10354846360835684,0.0,-0.10354846360835684,-0.08726643294723188,0.0,0.08726643294723188,-0.9804061077622233,0.0,0.9804061077622233,-0.1014698956253984,0,0.1014698956253984,0.004774998095411338,-0.013112446641784764,0.014123331650526611,0.4,0.03374767303466797,1.3411331176757812,STABILIZE
0.03,0.005,0.04,-0.20575858683942694,-0.00297712214125232,-0.0010287929341971347,0.005247311578411406,0.0012413965029619512,0.03,0.005,0.04,-0.03858678432857576,0.0031344643794739965,-0.00019293392164287883,0.0028466505112774323,0.00578818096910855,0.002,8e-05,0,-0.9518954826485497,-0.001969100645182934,-7.615163861188398e-05,-0.0,-0.002045252283794818,0.1,0.02,0.005,-0.15542616709896845,-0.0072056838090303645,-0.003108523341979369,-0.0001472726415218514,-0.010461479792531585,0.10448214598246655,0.0,-0.10448214598246655,-0.09923740470841068,0.0,0.09923740470841068,-0.9845503225914671,0.0,0.9845503225914671,-0.07205683809030364,0,0.07205683809030364,0.0012486749039956687,-0.005786615175804242,0.010461479792531585,0.4,0.03347945213317871,1.3746130466461182,STABILIZE
0.03,0.005,0.04,-0.2084046276489446,-0.0023682435079963307,-0.001042023138244723,0.008671665997457752,0.005261399351216698,0.03,0.005,0.04,-0.03474076200797264,0.003442243732453102,-0.0001737038100398632,0.007427260857601823,0.010695800780015061,0.002,8e-05,0,-0.9851766809741489,-0.0019858091779848225,-7.881413447793192e-05,-0.0,-0.0020646233124627543,0.1,0.02,0.005,-0.15922817293275118,-0.011342827871781043,-0.0031845634586550237,-0.0014012507110288436,-0.01592864204146491,0.11474145774843673,0.0,-0.11474145774843673,-0.07894145026654435,0.0,0.07894145026654435,-0.9929045889924112,0.0,0.9929045889924112,-0.11342827871781042,0,0.11342827871781042,0.005282563471102937,-0.010685363851199602,0.01592864204146491,0.4,0.03351902961730957,1.4081294536590576,STABILIZE
0.03,0.005,0.04,-0.21184643069252362,-0.003088392105619912,-0.001059232153462618,0.004216812312429268,6.918805334673803e-05,0.03,0.005,0.04,-0.030256414798103468,0.004023885837295638,-0.00015128207399051733,0.013408889092322539,0.017281492855627658,0.002,8e-05,0,-1.018480467102286,-0.001992272632746525,-8.147843736818288e-05,-0.0,-0.002073751070114708,0.1,0.02,0.005,-0.1612974486306269,-0.006189328334357557,-0.003225948972612538,-0.0004095188206129415,-0.009824796127583036,0.1341295279098546,0.0,-0.1341295279098546,-0.10294640352066373,0.0,0.10294640352066373,-0.9961363163732626,0.0,0.9961363163732626,-0.06189328334357557,0,0.06189328334357557,8.785619648105528e-05,-0.017281408032755192,0.009824796127583036,0.4,0.033432960510253906,1.4415838718414307,STABILIZE
0.03,0.005,0.04,-0.21564407398251675,-0.0034064550877447165,-0.0010782203699125838,-0.002360763960987307,-0.006845439418644608,0.03,0.005,0.04,-0.025045833270461844,0.004673849174227086,-0.0001252291663523092,0.015629249921611518,0.020177869929486295,0.002,8e-05,0,-1.05216947944995,-0.0020145846384114047,-8.417355835599601e-05,-0.0,-0.0020987581967674006,0.1,0.02,0.005,-0.16419587908975058,-0.008666228350946603,-0.003283917581795012,-0.0003544027709325474,-0.012304548703674163,0.1557949724742362,0.0,-0.1557949724742362,-0.1135485029248239,0.0,0.1135485029248239,-1.0072923192057024,0.0,1.0072923192057024,-0.08666228350946603,0,0.08666228350946603,-0.006814911720377891,-0.020188200860132555,0.012304548703674163,0.4,0.033445119857788086,1.4750142097473145,STABILIZE
0.03,0.005,0.04,-0.22020517888500712,-0.004091682287869728,-0.0011010258944250356,-0.011760511292106632,-0.016953219474401395,0.03,0.005,0.04,-0.018922819610369068,0.0054928415541828195,-9.461409805184534e-05,0.01902398962665765,0.024422217082788626,0.002,8e-05,0,-1.0856670054358928,-0.002003333792933993,-8.685336043487143e-05,-0.0,-0.0020901871533688648,0.1,0.02,0.005,-0.16503615195577892,-0.002512643812122836,-0.0033007230391155786,0.0022852184361947378,-0.0035281484150436774,0.18309471847276065,0.0,-0.18309471847276065,-0.13638940959565762,0.0,0.13638940959565762,-1.0016668964669966,0.0,1.0016668964669966,-0.02512643812122836,0,0.02512643812122836,-0.01694250774807556,-0.024429649383330802,0.0035281484150436774,0.4,0.033441781997680664,1.508453369140625,STABILIZE
0.03,0.005,0.04,-0.2256571703113403,-0.004881483498224995,-0.0011282858515567016,-0.01518583713224064,-0.021195606482022337,0.03,0.005,0.04,-0.01309502884866889,0.005217958395338266,-6.547514424334445e-05,0.01661316116192492,0.02176564441301984,0.002,8e-05,0,-1.1221581598208772,-0.0021781761810446896,-8.977265278567018e-05,-0.0,-0.00226794883383036,0.1,0.02,0.005,-0.16126901436103683,0.0112431211315168,-0.0032253802872207367,0.005512122039170751,0.013529862883466814,0.17393194651127553,0.0,-0.17393194651127553,-0.16271611660749985,0.0,0.16271611660749985,-1.0890880905223448,0.0,1.0890880905223448,0.11243121131516798,0,-0.11243121131516798,-0.02123827625798764,-0.021724010505525162,-0.013529862883466814,0.4,0.033506155014038086,1.542052984237671,STABILIZE
0.03,0.005,0.04,-0.2293327307511818,-0.00329814684408297,-0.001146663653755909,-0.007400932931194025,-0.011845743429032905,0.03,0.005,0.04,-0.007933599436657038,0.00463144394026563,-3.966799718328519e-05,0.009486433618806427,0.014078209561888773,0.002,8e-05,0,-1.1585100450526316,-0.002174613595502864,-9.268080360421053e-05,-0.0,-0.0022672943991070746,0.1,0.02,0.005,-0.15910502407908064,0.006472625364099842,-0.003182100481581613,0.005319505255351412,0.008610030137869642,0.154381464675521,0.0,-0.154381464675521,-0.10993822813609899,0.0,0.10993822813609899,-1.0873067977514321,0.0,1.0873067977514321,0.06472625364099842,0,-0.06472625364099842,-0.011861639826540414,-0.014064818608157127,-0.008610030137869642,0.4,0.033432960510253906,1.5754284858703613,STABILIZE
0.03,0.005,0.04,-0.23202891253753694,-0.002415164672436063,-0.0011601445626876847,0.005373762490553716,0.0017984532554299686,0.03,0.005,0.04,-0.005051333114758709,0.002581854024988278,-2.5256665573793548e-05,-0.01147253199714406,-0.008915934637729574,0.002,8e-05,0,-1.1918959969667962,-0.001993747158217248,-9.53516797573437e-05,-0.0,-0.002089098837974592,0.1,0.02,0.005,-0.15189804712373758,0.021519365182389963,-0.0030379609424747516,0.00827087952515152,0.026752283765066734,0.08606180083294261,0.0,-0.08606180083294261,-0.0805054890812021,0.0,0.0805054890812021,-0.996873579108624,0.0,0.996873579108624,0.21519365182389963,0,-0.21519365182389963,0.0018319272958616756,0.00890911706954789,-0.026752283765066734,0.4,0.033490657806396484,1.6089189052581787,STABILIZE
0.03,0.005,0.04,-0.23446510503937248,-0.002183952627182316,-0.0011723255251968624,0.009752185471449092,0.006395907319069913,0.03,0.005,0.04,-0.0028507003781940185,0.001972782381877765,-1.4253501890970092e-05,-0.02150827472388606,-0.019549745843899263,0.002,8e-05,0,-1.2247467745837821,-0.0019632970171703868,-9.797974196670257e-05,0.0,-0.0020612767591370895,0.1,0.02,0.005,-0.14350733816834912,0.025073156648111078,-0.0028701467633669825,0.010073411569006268,0.03227642145375036,0.06575941272925884,0.0,-0.06575941272925884,-0.0727984209060772,0.0,0.0727984209060772,-0.9816485085851934,0.0,0.9816485085851934,0.2507315664811108,0,-0.2507315664811108,0.006481397278886163,0.019521569668150038,-0.03227642145375036,0.4,0.033464908599853516,1.6424086093902588,STABILIZE
0.03,0.005,0.04,-0.23627573757898132,-0.0016249103073392689,-0.0011813786878949067,0.019675778069207055,0.016869489073972878,0.03,0.005,0.04,-0.00017726066700195393,0.0023992166537030023,-8.863033350097697e-07,-0.02463724573299995,-0.02223891538263196,0.002,8e-05,0,-1.2571825749566858,-0.0019405839377405693,-0.00010057460599653487,0.0,-0.0020411585437371043,0.1,0.02,0.005,-0.13520670123121656,0.02483071564139962,-0.002704134024624331,0.008160798503645917,0.030287380120421207,0.07997388845676674,0.0,-0.07997388845676674,-0.05416367691130897,0.0,0.05416367691130897,-0.9702919688702846,0.0,0.9702919688702846,0.2483071564139962,0,-0.2483071564139962,0.016965708863985112,0.022165598159202736,-0.030287380120421207,0.4,0.03342890739440918,1.6758873462677002,STABILIZE
0.03,0.005,0.04,-0.23893425797498122,-0.0023201986581127244,-0.0011946712898749062,0.020567763615370844,0.017052893667383214,0.03,0.005,0.04,0.002520858113829772,0.002354757775841701,1.260429056914886e-05,-0.022794421415464478,-0.020427059349053627,0.002,8e-05,0,-1.2908819757391126,-0.0019607223274077747,-0.00010327055805912901,0.0,-0.002063992885466904,0.1,0.02,0.005,-0.12851092227360067,0.019478926919719638,-0.0025702184454720134,0.0024984465652150563,0.019407155039462682,0.07849192586139003,0.0,-0.07849192586139003,-0.07733995527042414,0.0,0.07733995527042414,-0.9803611637038873,0.0,0.9803611637038873,0.19478926919719636,0,-0.19478926919719636,0.017122241146141026,0.020368966449337406,-0.019407155039462682,0.4,0.03437447547912598,1.7101669311523438,STABILIZE
0.03,0.005,0.04,-0.2405316385891565,-0.0014244397615036468,-0.0012026581929457825,0.015039076531259474,0.012411978576810045,0.03,0.005,0.04,0.004890732278384883,0.0021132990846364067,2.4453661391924414e-05,-0.020030217624708097,-0.017892464878679765,0.002,8e-05,0,-1.3241111377578867,-0.001975439841991026,-0.00010592889102063094,0.0,-0.0020813687330116567,0.1,0.02,0.005,-0.12154886653162081,0.020694356190955096,-0.0024309773306324164,0.004286610764597169,0.022549989624919848,0.07044330282121355,0.0,-0.07044330282121355,-0.0474813253834549,0.0,0.0474813253834549,-0.987719920995513,0.0,0.987719920995513,0.20694356190955093,0,-0.20694356190955093,0.012476522313583044,0.017847518107138728,-0.022549989624919848,0.4,0.03364229202270508,1.743849515914917,STABILIZE
0.03,0.005,0.04,-0.24302031221190978,-0.002232144927780011,-0.001215101561059549,0.0015688630041534105,-0.0018783834846861497,0.03,0.005,0.04,0.007478964033391732,0.0023214407590602852,3.739482016695866e-05,-0.0020510851730019437,0.0003077504062253002,0.002,8e-05,0,-1.3567957510926871,-0.0019543688708903903,-0.00010854366008741498,0.0,-0.002062912530977805,0.1,0.02,0.005,-0.11354856400390859,0.023918811670962655,-0.0022709712800781717,0.0007578215577814982,0.02240566194866598,0.07738135863534285,0.0,-0.07738135863534285,-0.07440483092600036,0.0,0.07440483092600036,-0.9771844354451951,0.0,0.9771844354451951,0.23918811670962653,0,-0.23918811670962653,-0.001879651854310441,-0.00029990620977372276,-0.02240566194866598,0.4,0.0334477424621582,1.7772769927978516,STABILIZE
0.03,0.005,0.04,-0.2446167262453673,-0.0014322664740506817,-0.0012230836312268365,0.006105397496840247,0.0034500473915627288,0.03,0.005,0.04,0.008694311538579457,0.0010903822251120633,4.3471557692897286e-05,-0.007015250190104095,-0.005881396407299134,0.002,8e-05,0,-1.3883324217753534,-0.0018862657253617113,-0.00011106659374202828,0.0,-0.0019973323191037396,0.1,0.02,0.005,-0.10539067172775647,0.02439691993257322,-0.0021078134345551293,-0.00016114147781724078,0.02212796502020085,0.03634607417040211,0.0,-0.03634607417040211,-0.04774221580168939,0.0,0.04774221580168939,-0.9431328626808556,0.0,0.9431328626808556,0.2439691993257322,0,-0.2439691993257322,0.003475059412221557,0.005866652604795201,-0.02212796502020085,0.4,0.03343820571899414,1.8106956481933594,STABILIZE
0.03,0.005,0.04,-0.24535932266228025,-0.0006143706968545977,-0.0012267966133114013,0.007660671726933699,0.0058195044167677,0.03,0.005,0.04,0.009232096923908695,0.00044492482648439993,4.6160484619543475e-05,-0.015163680936685017,-0.014672595625581073,0.002,8e-05,0,-1.4219876861256464,-0.0018562624992338997,-0.00011375901489005172,0.0,-0.0019700215141239515,0.1,0.02,0.005,-0.09725375739909543,0.02243965278442533,-0.0019450751479819087,-0.0006283843262650463,0.019866193310178377,0.014830827549479998,0.0,-0.014830827549479998,-0.02047902322848659,0.0,0.02047902322848659,-0.9281312496169498,0.0,0.9281312496169498,0.2243965278442533,0,-0.2243965278442533,0.005876924246316954,0.014649691309090834,-0.019866193310178377,0.4,0.03626132011413574,1.8469603061676025,STABILIZE
0.03,0.005,0.04,-0.24674855032613163,-0.0012288597147421768,-0.0012337427516306582,0.00822291148246651,0.005760309016093676,0.03,0.005,0.04,0.00989270200025749,0.0005843469625624019,4.946351000128745e-05,-0.01372253637822919,-0.0130887259056655,0.002,8e-05,0,-1.4531193649951357,-0.0018358625688437845,-0.00011624954919961087,0.0,-0.0019521121180433954,0.1,0.02,0.005,-0.0890941706612456,0.02405890143614097,-0.0017818834132249121,0.0014059660298887389,0.0236829840528048,0.019478232085413397,0.0,-0.019478232085413397,-0.04096199049140589,0.0,0.04096199049140589,-0.9179312844218922,0.0,0.9179312844218922,0.2405890143614097,0,-0.2405890143614097,0.005815218553326844,0.013064422642106022,-0.0236829840528048,0.4,0.033915042877197266,1.880915880203247,STABILIZE
0.03,0.005,0.04,-0.2478555892833506,-0.0009933094055205717,-0.0012392779464167531,0.0030013308729293963,0.0007687435209920712,0.03,0.005,0.04,0.01082294354524427,0.0008346749407650459,5.411471772622135e-05,-0.009812064319202552,-0.008923274660711284,0.002,8e-05,0,-1.4829882226113653,-0.0017866891379557587,-0.00011863905780890923,0.0,-0.001905328195764668,0.1,0.02,0.005,-0.08245806892029596,0.019847847968048192,-0.0016491613784059191,-0.0002147937525779959,0.017983892837064277,0.027822498025501533,0.0,-0.027822498025501533,-0.03311031351735239,0.0,0.03311031351735239,-0.8933445689778794,0.0,0.8933445689778794,0.1984784796804819,0,-0.1984784796804819,0.0007996499889173583,0.008920558119690935,-0.017983892837064277,0.4,0.03343486785888672,1.9143548011779785,STABILIZE
0.03,0.005,0.04,-0.24862063700256914,-0.000686266031247947,-0.0012431031850128457,0.011889094136779046,0.009959724920518253,0.03,0.005,0.04,0.012084707320412887,0.0011318321675958837,6.042353660206444e-05,-0.009102105517071954,-0.007909849812874006,0.002,8e-05,0,-1.5127437601061624,-0.0017794284035042487,-0.000121019500808493,0.0,-0.0019004479043127416,0.1,0.02,0.005,-0.07619398078793765,0.018730120984575178,-0.0015238796157587531,-0.0015130308336313697,0.015693210535185055,0.037727738919862794,0.0,-0.037727738919862794,-0.022875534374931568,0.0,0.022875534374931568,-0.8897142017521243,0.0,0.8897142017521243,0.18730120984575177,0,-0.18730120984575177,0.00998552913658148,0.007877249038661757,-0.015693210535185055,0.4,0.03344392776489258,1.947817087173462,STABILIZE
0.03,0.005,0.04,-0.2502722673951717,-0.0014824818374619025,-0.0012513613369758586,-0.0008425121365194991,-0.0035763553109572598,0.03,0.005,0.04,0.013223783669376028,0.0010224200319778353,6.611891834688014e-05,-0.0001574752767020051,0.0009310636736227103,0.002,8e-05,0,-1.5424229193773695,-0.0017759750110262252,-0.00012339383355018958,0.0,-0.001899368844576415,0.1,0.02,0.005,-0.06892043967493791,0.02176211788938931,-0.0013784087934987583,-0.0007488532095762504,0.019634855886314303,0.034080667732594515,0.0,-0.034080667732594515,-0.04941606124873008,0.0,0.04941606124873008,-0.8879875055131126,0.0,0.8879875055131126,0.21762117889389307,0,-0.21762117889389307,-0.0035798658772926415,-0.0009174732558215521,-0.019634855886314303,0.4,0.03342294692993164,1.9811828136444092,STABILIZE
0.03,0.005,0.04,-0.2510495843118463,-0.0006970730189879861,-0.0012552479215592316,-0.0005966310365192129,-0.0025489519770664306,0.03,0.005,0.04,0.014076681993159713,0.0007648520142763818,7.038340996579857e-05,0.002536090042173956,0.0033713254664161363,0.002,8e-05,0,-1.5716472659476968,-0.0017471641278462569,-0.00012573178127581576,0.0,-0.0018728959091220726,0.1,0.02,0.005,-0.06261504219999346,0.018848264500156357,-0.0012523008439998694,-0.001080102930705676,0.016515860725450814,0.02549506714254606,0.0,-0.02549506714254606,-0.023235767299599537,0.0,0.023235767299599537,-0.8735820639231284,0.0,0.8735820639231284,0.18848264500156356,0,-0.18848264500156356,-0.002560028621354681,-0.0033629220983754132,-0.016515860725450814,0.4,0.03345346450805664,2.0146470069885254,STABILIZE
0.03,0.005,0.04,-0.25135232536954155,-0.0002712797202550733,-0.0012567616268477078,0.00762646733976865,0.006098425992665869,0.03,0.005,0.04,0.014671867014826099,0.0005333324373208054,7.33593350741305e-05,-0.00040424227643089816,0.00020244949596403774,0.002,8e-05,0,-1.6007827848126415,-0.001740513926839279,-0.00012806262278501133,0.0,-0.0018685765496242901,0.1,0.02,0.005,-0.05677526066172397,0.017443006840160293,-0.0011355052132344793,-0.001977285880138091,0.01433021574678772,0.017777747910693514,0.0,-0.017777747910693514,-0.009042657341835776,0.0,0.009042657341835776,-0.8702569634196394,0.0,0.8702569634196394,0.1744300684016029,0,-0.1744300684016029,0.006097781399795369,-0.0002210144491846905,-0.01433021574678772,0.4,0.03347921371459961,2.0481441020965576,STABILIZE
0.03,0.005,0.04,-0.25252950291850734,-0.0010557079480718763,-0.0012626475145925368,-0.0005054153771313939,-0.002823770839795807,0.03,0.005,0.04,0.014698119982164599,2.3543998357830903e-05,7.349059991082299e-05,-0.006464649637179693,-0.006367615038911039,0.002,8e-05,0,-1.6299067583820683,-0.0017412502418003534,-0.00013039254067056548,0.0,-0.0018716427824709188,0.1,0.02,0.005,-0.05001741009486298,0.02020175733497782,-0.0010003482018972596,0.00010688803464561869,0.01930829716772618,0.0007847999452610301,0.0,-0.0007847999452610301,-0.035190264935729215,0.0,0.035190264935729215,-0.8706251209001766,0.0,0.8706251209001766,0.20201757334977818,0,-0.20201757334977818,-0.002801301939784133,0.006377531691932923,-0.01930829716772618,0.4,0.03345179557800293,2.0815834999084473,STABILIZE
0.03,0.005,0.04,-0.2526471162400588,-0.00010550270366426854,-0.001263235581200294,0.004622918819557202,0.0032541805346926393,0.03,0.005,0.04,0.01434831075980884,-0.000313789443562976,7.174155379904421e-05,-0.011523808780983802,-0.011765856670747733,0.002,8e-05,0,-1.6585526945683937,-0.0017130846952734986,-0.0001326842155654715,0.0,-0.00184576891083897,0.1,0.02,0.005,-0.04460611163408011,0.016180327489435188,-0.0008921222326816023,-0.0007613507532974997,0.014526854503456086,-0.010459648118765867,0.0,0.010459648118765867,-0.0035167567888089515,0.0,0.0035167567888089515,-0.8565423476367493,0.0,0.8565423476367493,0.16180327489435187,0,-0.16180327489435187,0.0032873942924462373,0.011756619961321508,-0.014526854503456086,0.4,0.03344368934631348,2.115022897720337,STABILIZE
0.03,0.005,0.04,-0.2533001484926733,-0.0005858857303251029,-0.0012665007424633664,0.007144555565589894,0.005292169092801425,0.03,0.005,0.04,0.013993958650814205,-0.00031791667768227397,6.996979325407103e-05,-0.010683772861215605,-0.010931719745643808,0.002,8e-05,0,-1.6869837529449379,-0.001700513395693016,-0.00013495870023559503,0.0,-0.001835472095928611,0.1,0.02,0.005,-0.03877298708413397,0.017444490290436564,-0.0007754597416826795,-0.0012904516073857719,0.015378578941368112,-0.010597222589409133,0.0,0.010597222589409133,-0.019529524344170098,0.0,0.019529524344170098,-0.8502566978465079,0.0,0.8502566978465079,0.17444490290436562,0,-0.17444490290436562,0.005325427641128859,0.010915556364345434,-0.015378578941368112,0.4,0.03343820571899414,2.1484835147857666,STABILIZE
0.03,0.005,0.04,-0.2537315338359516,-0.0003843272120819662,-0.001268657669179758,0.0024800374628025194,0.0008270525815407953,0.03,0.005,0.04,0.013337719198602355,-0.0005846528702391692,6.668859599301177e-05,-0.01074297469743703,-0.011260938971683189,0.002,8e-05,0,-1.7155354878454776,-0.0016958092256970406,-0.00013724283902763823,0.0,-0.001833052064724679,0.1,0.02,0.005,-0.033230261858728814,0.01646030373546246,-0.0006646052371745763,-0.0007117098501584249,0.01508398864812946,-0.01948842900797231,0.0,0.01948842900797231,-0.012810907069398874,0.0,0.012810907069398874,-0.8479046128485203,0.0,0.8479046128485203,0.1646030373546246,0,-0.1646030373546246,0.0008594002810591993,0.011258516494348706,-0.01508398864812946,0.4,0.03367328643798828,2.182176351547241,STABILIZE
0.03,0.005,0.04,-0.2535247353706981,0.00018480883587618599,-0.0012676236768534904,0.0036095803717452785,0.002526765530767974,0.03,0.005,0.04,0.012505949174105063,-0.0007433249069599836,6.252974587052532e-05,-0.010159331803200779,-0.010840126964290236,0.002,8e-05,0,-1.743882258251808,-0.0016888370466453192,-0.00013951058066014467,0.0,-0.0018283476273054638,0.1,0.02,0.005,-0.027779105693492567,0.016238383327160356,-0.0005555821138698514,-0.0003580771112521403,0.015324724102038367,-0.024777496898666124,0.0,0.024777496898666124,0.0061602945292062,0.0,-0.0061602945292062,-0.8444185233226595,0.0,0.8444185233226595,0.16238383327160355,0,-0.16238383327160355,0.002557477698363045,0.01083292224987261,-0.015324724102038367,0.4,0.0335695743560791,2.2157936096191406,STABILIZE
0.03,0.005,0.04,-0.2538322682376761,-0.0002621205184815956,-0.0012691613411883805,0.006476713866269341,0.004945432006599365,0.03,0.005,0.04,0.011952631918369937,-0.00047161074971696377,5.976315959184969e-05,-0.0040368797275138965,-0.004448727317639011,0.002,8e-05,0,-1.7733947608339509,-0.0016769660111535213,-0.0001418715808667161,0.0,-0.0018188375920202373,0.1,0.02,0.005,-0.02169900296697321,0.017274247733339018,-0.00043398005933946416,-0.0008884708127219499,0.015951796861277602,-0.015720358323898793,0.0,0.015720358323898793,-0.008737350616053187,0.0,0.008737350616053187,-0.8384830055767606,0.0,0.8384830055767606,0.17274247733339015,0,-0.17274247733339015,0.004958822089023087,0.004433797014751772,-0.015951796861277602,0.4,0.03519749641418457,2.250910520553589,STABILIZE
0.03,0.005,0.04,-0.2531995101157596,0.0005670614545827946,-0.0012659975505787979,0.005505412603170095,0.004806476507174091,0.03,0.005,0.04,0.01142301881662611,-0.0004746255566524188,5.711509408313055e-05,-0.0013711330649388942,-0.0017886435275081825,0.002,8e-05,0,-1.8015356765370196,-0.0016812773621976713,-0.0001441228541229616,0.0,-0.0018254002163206329,0.1,0.02,0.005,-0.016492314444876147,0.015553665055863168,-0.00032984628889752294,-0.0002000033371653718,0.015023815429800275,-0.01582085188841396,0.0,0.01582085188841396,0.018902048486093153,0.0,-0.018902048486093153,-0.8406386810988357,0.0,0.8406386810988357,0.15553665055863167,0,-0.15553665055863167,0.004811314290687753,0.001775589163837506,-0.015023815429800275,0.4,0.033475637435913086,2.2843990325927734,STABILIZE
0.03,0.005,0.04,-0.25331128932900615,-0.0001002950721785848,-0.0012665564466450307,0.0040138224880336484,0.0026469709692100328,0.03,0.005,0.04,0.010916308306631902,-0.0004546513228842776,5.458154153315951e-05,-0.0011789112716544532,-0.0015789810530055714,0.002,8e-05,0,-1.829476611944795,-0.0016713531684872612,-0.0001463581289555836,0.0,-0.0018177112974428447,0.1,0.02,0.005,-0.010890878077739802,0.01675315855332433,-0.00021781756155479605,-0.0002193100280739906,0.016316030963695546,-0.015155044096142588,0.0,0.015155044096142588,-0.0033431690726194938,0.0,0.0033431690726194938,-0.8356765842436306,0.0,0.8356765842436306,0.1675315855332433,0,-0.1675315855332433,0.0026515765528030057,0.0015712346299062443,-0.016316030963695546,0.4,0.03343510627746582,2.31783390045166,STABILIZE
0.03,0.005,0.04,-0.25337968175609615,-6.134832449653213e-05,-0.0012668984087804808,0.002728170235074686,0.001399923501797673,0.03,0.005,0.04,0.009871190886003918,-0.0009374751765028406,4.9355954430019593e-05,-0.002916300138006323,-0.0038044193600791443,0.002,8e-05,0,-1.8574396861313756,-0.0016722004877930412,-0.00014859517489051007,0.0,-0.0018207956626835513,0.1,0.02,0.005,-0.005233571598674368,0.016915433887501205,-0.00010467143197348736,0.00012148571881398524,0.0169322481743417,-0.031249172550094687,0.0,0.031249172550094687,-0.0020449441498844043,0.0,0.0020449441498844043,-0.8361002438965206,0.0,0.8361002438965206,0.16915433887501205,0,-0.16915433887501205,0.001411149172441543,0.003800269791915834,-0.0169322481743417,0.4,0.03344464302062988,2.3513054847717285,STABILIZE
0.03,0.005,0.04,-0.25340043544275365,-1.8617347712009967e-05,-0.0012670021772137683,-0.0014521445025920655,-0.0027377640275178436,0.03,0.005,0.04,0.00827134567149918,-0.0014351606601458804,4.13567283574959e-05,-0.005624344296159052,-0.007018148227947437,0.002,8e-05,0,-1.8855502091734706,-0.0016811258339400523,-0.00015084401673387765,0.0,-0.0018319698506739299,0.1,0.02,0.005,0.0005070186376417984,0.017165554930947787,1.0140372752835969e-05,0.0002623846989101944,0.017438080002610816,-0.04783868867152935,0.0,0.04783868867152935,-0.0006205782570669989,0.0,0.0006205782570669989,-0.8405629169700262,0.0,0.8405629169700262,0.17165554930947788,0,-0.17165554930947788,-0.0027167257193784775,0.007026318935650442,-0.017438080002610816,0.4,0.03344249725341797,2.384733200073242,STABILIZE
0.03,0.005,0.04,-0.2532023855753528,0.0001775364793340689,-0.001266011927876764,0.0034969187717069938,0.002408443323164299,0.03,0.005,0.04,0.0070179354467609185,-0.0011235858997621802,3.5089677233804594e-05,-0.005200239584718174,-0.006288735807246549,0.002,8e-05,0,-1.9136883408987524,-0.0016815781153521584,-0.0001530950672719002,-0.0,-0.0018346731826240584,0.1,0.02,0.005,0.005512343657936368,0.014956296843954173,0.00011024687315872736,-0.0006920592336904536,0.014374484483422446,-0.03745286332540601,0.0,0.03745286332540601,0.005917882644468964,0.0,-0.005917882644468964,-0.8407890576760791,0.0,0.8407890576760791,0.14956296843954173,0,-0.14956296843954173,0.002424851002578198,0.006282427469500552,-0.014374484483422446,0.4,0.033466339111328125,2.4182209968566895,STABILIZE
0.03,0.005,0.04,-0.2523356444864402,0.000777576098944192,-0.001261678222432201,0.0016766504048556419,0.001192548281367633,0.03,0.005,0.04,0.0066964911940684355,-0.0002883760458965103,3.348245597034218e-05,0.001484119484609753,0.001229225894683585,0.002,8e-05,0,-1.9415884323838624,-0.0016686601165903266,-0.00015532707459070901,0.0,-0.0018239871911810356,0.1,0.02,0.005,0.007673174189383935,0.006461791941545335,0.0001534634837876787,-0.0027182928456073794,0.0038969625797256346,-0.00961253486321701,0.0,0.00961253486321701,0.025919203298139733,0.0,-0.025919203298139733,-0.8343300582951633,0.0,0.8343300582951633,0.06461791941545335,0,-0.06461791941545335,0.0011911612078765134,-0.001230570063183613,-0.0038969625797256346,0.4,0.03344011306762695,2.451625108718872,STABILIZE
0.03,0.005,0.04,-0.2512522493005104,0.0009720114572598647,-0.001256261246502552,0.008549878226144132,0.008265628436901444,0.03,0.005,0.04,0.006840320539147375,0.00012904226742241787,3.420160269573688e-05,0.004653732781441772,0.004816976651559927,0.002,8e-05,0,-1.9697553727851755,-0.001684740043251798,-0.00015758042982281405,-0.0,-0.0018423204730746122,0.1,0.02,0.005,0.008901308387178682,0.003672899562451724,0.00017802616774357364,-0.0039111011183497945,-6.017538815449681e-05,0.0043014089140805956,0.0,-0.0043014089140805956,0.03240038190866216,0.0,-0.03240038190866216,-0.842370021625899,0.0,0.842370021625899,0.03672899562451724,0,-0.03672899562451724,0.008262538854909,-0.004822274275661473,6.017538815449681e-05,0.4,0.03343772888183594,2.48507022857666,STABILIZE
0.03,0.005,0.04,-0.24969228152280573,0.0011803471641085952,-0.0012484614076140287,0.009640557971189382,0.009572443727683948,0.03,0.005,0.04,0.007568750515604705,0.0005511653953700378,3.7843752578023524e-05,0.011342568673600156,0.011931577821548217,0.002,8e-05,0,-2.003640302575631,-0.0017092652534585614,-0.0001602912242060505,-0.0,-0.001869556477664612,0.1,0.02,0.005,0.009222565693891842,0.0008102627852266616,0.00018445131387783683,-0.004681624898502197,-0.003686910799397698,0.018372179845667927,0.0,-0.018372179845667927,0.03934490547028651,0.0,-0.03934490547028651,-0.8546326267292806,0.0,0.8546326267292806,0.008102627852266616,0,-0.008102627852266616,0.009570756297657032,-0.01193293141362152,0.003686910799397698,0.4,0.03964853286743164,2.5247397422790527,STABILIZE
0.03,0.005,0.04,-0.2467341866395061,0.002420324709124278,-0.0012336709331975306,0.018318087694316938,0.019504741470243683,0.03,0.005,0.04,0.00906172205917932,0.0012215551087740547,4.5308610295896604e-05,0.020186749088715584,0.021453612807785537,0.002,8e-05,0,-2.0351442416564414,-0.0017184430114691024,-0.00016281153933251532,-0.0,-0.0018812545508016178,0.1,0.02,0.005,0.008488479771688068,-0.0020021064978463596,0.00016976959543376136,-0.005523446761835087,-0.007355783664247685,0.04071850362580182,0.0,-0.04071850362580182,0.0806774903041426,0.0,-0.0806774903041426,-0.8592215057345511,0.0,0.8592215057345511,-0.020021064978463596,0,0.020021064978463596,0.01951223689037881,-0.021446795887991373,0.007355783664247685,0.4,0.03666567802429199,2.5613903999328613,STABILIZE
