Mode,Time,Freq,time2delay,actualDelay,North-Desired,East-Desired,Down-Desired,Roll-UAV,Pitch-UAV,Yaw-UAV,Roll-Control,Pitch-Control,Yaw-Control,Thrust-Control,North-Pos,East-Pos,Down-Pos,Yaw-Ang,North-Vel,East-Vel,Down-Vel,Yaw-Vel,North-Acc,East-Acc,Down-Acc,North-Avg,East-Avg,Down-Avg,Yaw-Avg,North-Dif,East-Dif,Down-Dif,Yaw-Dif,North-One,East-One,Down-One,Yaw-One,North-Two,East-Two,Down-Two,Yaw-Two,Landing-State,Q-Size,Kalman-Time,Kalman-Dt
STABILIZE,0.03438591957092285,29.089940631415413,0.032798083623250325,0.03292036056518555,0.0,0.0,0.0,-1.1494279894291162,-1.0345512512220831,57.65932316184542,-0.16495628312934815,0.1596990463397463,0.011051805632589073,0.4,0.10346786101826247,0.10646499177375714,0.15436978617297833,0.10979160999283495,-0.10292166844010353,-0.4492073319852352,1.524936966598034,1.110882457178384,-3.6421582102775574,-27.086716890335083,16.270875930786133,0.0,0.0,0.0,0.0,0.0,0.0,0.0,0.0,0.0,0.0,0.0,0.0,0.0,0.0,0.0,0.0,False,0,0.17319297790527344,0.029936279296875
STABILIZE,0.06777119636535645,29.953965363327978,0.0322749932607015,0.032410621643066406,0.0,0.0,0.0,-1.1505441917498842,-1.0372676387993385,57.651734821677536,-0.09664229422383927,0.08956995387477434,0.011987855193769568,0.4,0.11358773956886188,0.12209704598083392,0.17903510890548377,0.11836091151183224,0.09007338085211813,0.9785857982933521,1.540232915431261,-0.35969974636426244,-7.781439274549484,32.40877985954285,29.814496636390686,0.0,0.0,0.0,0.0,0.0,0.0,0.0,0.0,0.0,0.0,0.0,0.0,0.0,0.0,0.0,0.0,False,0,0.20195937156677246,0.06978857421875
STABILIZE,0.10114598274230957,29.961454389599258,0.032377036412556966,0.032494544982910156,0.0,0.0,0.0,-1.16084774555626,-1.0516274711990556,57.66778576622707,-0.08953747647770614,0.07896760003266073,0.015304819844133717,0.4,0.14732129097947347,0.1662643129509265,0.24744487934873724,0.15052390100445234,0.09007338085211813,0.9785857982933521,1.540232915431261,-0.35969974636426244,-7.781439274549484,32.40877985954285,29.814496636390686,0.0,0.0,0.0,0.0,0.0,0.0,0.0,0.0,0.0,0.0,0.0,0.0,0.0,0.0,0.0,0.0,False,0,0.2306363582611084,0.06978857421875
STABILIZE,0.1345963478088379,29.895039949822166,0.03245213826497396,0.0325777530670166,0.0,0.0,0.0,-1.173900023616743,-1.0513715525485916,57.702612900804965,-0.08279206772060473,0.07012446641760768,0.018442436246884703,0.4,0.1709266052632032,0.20067599323407648,0.3155123715277561,0.18069167258409732,-0.26682745665311813,0.24291672743856907,1.7050443217158318,0.28815655637699367,5.60491681098938,-16.998879611492157,14.665761590003967,0.0,0.0,0.0,0.0,0.0,0.0,0.0,0.0,0.0,0.0,0.0,0.0,0.0,0.0,0.0,0.0,False,0,0.2670400142669678,0.029936279296875
STABILIZE,0.16921782493591309,28.883407361498467,0.03244784673055013,0.03379201889038086,0.0,0.0,0.0,-1.1813783337059665,-1.0578260813142537,57.69742878722492,-0.06146794947711632,0.0635969678783384,0.018226333622381456,0.4,0.1901859583257144,0.18138515926639026,0.3350038142998446,0.1773017392824055,1.7153458669781685,-1.6343435272574425,1.5862572938203812,-0.24647132490302404,50.247156620025635,-53.69117259979248,32.67354667186737,0.0,0.0,0.0,0.0,0.0,0.0,0.0,0.0,0.0,0.0,0.0,0.0,0.0,0.0,0.0,0.0,False,0,0.2932734489440918,0.034923828125
STABILIZE,0.20284199714660645,29.74430544918163,0.03249338467915853,0.03263378143310547,0.0,0.0,0.0,-1.1812298838132245,-1.0651020470493155,57.71989327940509,-0.022580650622804763,0.04037491093023318,0.01813989299564462,0.4,0.2138520172886455,0.16142577514941575,0.3602833498311961,0.17526366138429755,1.7153458669781685,-1.6343435272574425,1.5862572938203812,-0.24647132490302404,50.247156620025635,-53.69117259979248,32.67354667186737,0.0,0.0,0.0,0.0,0.0,0.0,0.0,0.0,0.0,0.0,0.0,0.0,0.0,0.0,0.0,0.0,False,0,0.3221292495727539,0.034923828125
STABILIZE,0.23652100563049316,29.690404054704533,0.03229811986287435,0.032654762268066406,0.0,0.0,0.0,-1.1850864860950487,-1.0674605967470856,57.763333282526375,-0.014722522585336495,0.03930709502316711,0.01930169493785646,0.4,0.2195784490619317,0.15175823195524069,0.38256625218221174,0.18563199095337812,0.27122083120048046,-0.597311882302165,1.3912986032664776,0.8086861801581645,-0.5183092784136534,-24.35450404882431,12.998871505260468,0.0,0.0,0.0,0.0,0.0,0.0,0.0,0.0,0.0,0.0,0.0,0.0,0.0,0.0,0.0,0.0,False,0,0.3508946895599365,0.069849853515625
STABILIZE,0.26985883712768555,29.99402165362777,0.03231933911641439,0.03244423866271973,0.0,0.0,0.0,-1.176657072163901,-1.0415148425243228,57.735015318227504,-0.0028696685983739894,0.03978938834712353,0.018648262929864302,0.4,0.25099147882164136,0.1557515367757934,0.4484725272779268,0.1779073811543628,-0.1577863935381174,0.6419673096388578,1.1113880202174187,-0.9712078634159734,-64.30830359458923,9.449511766433716,21.188342571258545,0.0,0.0,0.0,0.0,0.0,0.0,0.0,0.0,0.0,0.0,0.0,0.0,0.0,0.0,0.0,0.0,False,0,0.40801048278808594,0.0349248046875
STABILIZE,0.30338621139526367,29.827222301237377,0.03241780598958333,0.032544851303100586,0.0,0.0,0.0,-1.133375230610588,-1.071405457879591,57.67814716319798,0.005464514579497191,0.030778529193164667,0.016739376768181227,0.4,0.2449539871547024,0.161646922609856,0.46105894241518486,0.1577631029509087,-0.1577863935381174,0.6419673096388578,1.1113880202174187,-0.9712078634159734,-64.30830359458923,9.449511766433716,21.188342571258545,0.0,0.0,0.0,0.0,0.0,0.0,0.0,0.0,0.0,0.0,0.0,0.0,0.0,0.0,0.0,0.0,False,0,0.43674325942993164,0.0349248046875
STABILIZE,0.3367342948913574,29.985873201978894,0.03234461148579915,0.03245687484741211,0.0,0.0,0.0,-1.1326340483639357,-1.0666659469258368,57.66228063375604,-7.470649901675561e-05,0.014364267875694966,0.01698107321477441,0.4,0.212400779460641,0.16161889713889316,0.4654316700716204,0.1591162207859098,-1.720203086733818,0.26369879487901926,0.6590042263269424,0.39423339625125847,-17.14259386062622,2.3551180958747864,50.673919916152954,0.0,0.0,0.0,0.0,0.0,0.0,0.0,0.0,0.0,0.0,0.0,0.0,0.0,0.0,0.0,0.0,False,0,0.46573424339294434,0.034923828125
STABILIZE,0.3703179359436035,29.77915042563917,0.032444270451863606,0.03258061408996582,0.0,0.0,0.0,-1.136266428341913,-1.0370245267535683,57.75396909317429,-0.005991413574635514,-0.004075374948415433,0.017240742452508298,0.4,0.17829836789802567,0.16155876249942305,0.46880443688234397,0.16063783600163442,-1.720203086733818,0.26369879487901926,0.6590042263269424,0.39423339625125847,-17.14259386062622,2.3551180958747864,50.673919916152954,0.0,0.0,0.0,0.0,0.0,0.0,0.0,0.0,0.0,0.0,0.0,0.0,0.0,0.0,0.0,0.0,False,0,0.4943380355834961,0.034923828125
STABILIZE,0.4037306308746338,29.92703583991552,0.03228190739949544,0.032407522201538086,0.0,0.0,0.0,-1.1350013492415798,-1.0624203440264393,57.68755233368508,-0.006113319409568274,-0.010139057121238047,0.013193435011205127,0.4,0.16514340338442374,0.1532777067727564,0.4996130040819942,0.11936639658610643,-0.41306382045149803,-0.22278279066085815,2.340294048190117,-2.1553972468522233,278.1097412109375,-9.79270488023758,-5.306531488895416,0.0,0.0,0.0,0.0,0.0,0.0,0.0,0.0,0.0,0.0,0.0,0.0,0.0,0.0,0.0,0.0,False,0,0.5230700969696045,0.064861328125
STABILIZE,0.4464111328125,23.43186592178771,0.03233793576558431,0.04149174690246582,0.0,0.0,0.0,-1.1372563788847418,-1.0179504764443672,57.73490603520078,-0.013021966744639239,0.0039701790690433855,-0.005853803341998894,0.4,0.25172365503407534,0.18303065821774891,0.6235520879085746,-0.07050712328062192,4.785997048020363,1.5619393438100815,5.635613948106766,-9.96787989074729,-15.687409043312073,47.07501232624054,101.10881328582764,0.0,0.0,0.0,0.0,0.0,0.0,0.0,0.0,0.0,0.0,0.0,0.0,0.0,0.0,0.0,0.0,False,1,0.551671028137207,0.034924072265625
STABILIZE,0.47968339920043945,30.051830993988638,0.032103570302327473,0.032218217849731445,0.0,0.0,0.0,-1.1375215823236087,-1.0381870462946456,57.77433671727927,-0.0009047780633432362,-0.027943104404715976,-0.011448425330715852,0.4,0.1507812667204662,0.1517680777513995,0.7483260580467226,-0.12561352458136793,-0.7957811467349529,0.5282818339765072,3.1848885118961334,3.207473909710913,83.25758576393127,85.26475429534912,64.08772468566895,0.0,0.0,0.0,0.0,0.0,0.0,0.0,0.0,0.0,0.0,0.0,0.0,0.0,0.0,0.0,0.0,False,0,0.6172704696655273,0.034924072265625
STABILIZE,0.5130429267883301,29.975586747091278,0.03229668935139974,0.03243112564086914,0.0,0.0,0.0,-1.130671863081438,-1.028651461883073,57.67756659711853,-0.007586544540988431,-0.003861406152268165,-0.024253603901964578,0.4,0.19347999331580612,0.17176832963822447,0.7645205675497793,-0.2519822939035618,2.712368033826351,1.3983791694045067,1.6756067052483559,-6.642438795673325,138.7513518333435,-12.441302835941315,32.066139578819275,0.0,0.0,0.0,0.0,0.0,0.0,0.0,0.0,0.0,0.0,0.0,0.0,0.0,0.0,0.0,0.0,False,0,0.6458978652954102,0.034925048828125
STABILIZE,0.546560525894165,29.835496973275195,0.03239301045735677,0.03254365921020508,0.0,0.0,0.0,-1.1367306677620623,-1.0216814672784866,57.73668871457416,0.010804122426015758,0.0061404990814879256,-0.019618333199123417,0.4,0.19303102984079415,0.11664202650797777,0.7840958668972743,-0.2042613783304386,0.33037338871508837,-2.721003256738186,1.9297624006867409,2.842617797410114,-42.5353467464447,-83.40947031974792,61.69513463973999,0.0,0.0,0.0,0.0,0.0,0.0,0.0,0.0,0.0,0.0,0.0,0.0,0.0,0.0,0.0,0.0,False,0,0.6746783256530762,0.03489013671875
STABILIZE,0.5805149078369141,29.45210692994221,0.03234604199727376,0.03297233581542969,0.0,0.0,0.0,-1.1332880389769644,-1.0361973268120563,57.74127860169641,0.0021845587129755094,-0.00852480115249269,-0.020838415419597,0.4,0.13647703395646815,0.13503557231245542,0.7845470038043636,-0.2150036342490408,-2.7463141828775406,1.3166232965886593,0.9481814689934254,-0.45413767708856106,-75.32596588134766,86.74384951591492,11.310146003961563,0.0,0.0,0.0,0.0,0.0,0.0,0.0,0.0,0.0,0.0,0.0,0.0,0.0,0.0,0.0,0.0,False,0,0.7033145427703857,0.02993505859375
STABILIZE,0.6139426231384277,29.91465597786162,0.032340081532796223,0.0324704647064209,0.0,0.0,0.0,-1.1316471927505747,-1.0229534832896958,57.704327278286634,0.002274245546084515,-0.03172006204192989,-0.028839117972149067,0.4,0.1280123532938472,0.1552847376515398,0.7788451513680787,-0.2930494250663992,-0.09614700684323907,1.4554452151060104,1.0591917671263218,-4.485704966177895,44.35889720916748,-5.913824588060379,-15.209658443927765,0.0,0.0,0.0,0.0,0.0,0.0,0.0,0.0,0.0,0.0,0.0,0.0,0.0,0.0,0.0,0.0,False,0,0.7319290637969971,0.03492529296875
STABILIZE,0.6496195793151855,28.027798567304608,0.0323667844136556,0.03483390808105469,0.0,0.0,0.0,-1.136298231410236,-1.031905193248938,57.77971890634524,0.000469016818252581,-0.00638491819401913,-0.027033920874457287,0.4,0.11246884640942006,0.13164543835861994,0.7673816607907842,-0.2730448238361662,-1.485299225896597,1.5813801437616348,0.6073495838791132,-0.9944717011724484,-80.94812631607056,76.36190056800842,-17.130613327026367,0.0,0.0,0.0,0.0,0.0,0.0,0.0,0.0,0.0,0.0,0.0,0.0,0.0,0.0,0.0,0.0,False,0,0.7893354892730713,0.034924072265625
STABILIZE,0.6831669807434082,29.810686719072056,0.03249076207478841,0.03261446952819824,0.0,0.0,0.0,-1.1365730398026233,-1.0242200564939101,57.763606490093174,-0.001375804319011556,-0.029829532601785624,-0.028920318623661134,0.4,0.08046586190308724,0.15467801909778411,0.759711419961493,-0.2899676384228236,-1.485299225896597,1.5813801437616348,0.6073495838791132,-0.9944717011724484,-80.94812631607056,76.36190056800842,-17.130613327026367,0.0,0.0,0.0,0.0,0.0,0.0,0.0,0.0,0.0,0.0,0.0,0.0,0.0,0.0,0.0,0.0,False,0,0.8180358409881592,0.034924072265625
STABILIZE,0.7166750431060791,29.842714536774174,0.03234365781148275,0.03246593475341797,0.0,0.0,0.0,-1.1328886863539303,-1.0223808146164726,57.73816403543488,-0.017930163605571592,-0.037416500655645966,-0.031806607109747455,0.4,0.05704704989061876,0.1547158511475788,0.7732201123366922,-0.31671223895347095,-1.0054091922938824,0.2664347877725959,1.8569707870483398,-1.605019002707009,33.21652412414551,-61.198681592941284,61.54093146324158,0.0,0.0,0.0,0.0,0.0,0.0,0.0,0.0,0.0,0.0,0.0,0.0,0.0,0.0,0.0,0.0,False,0,0.8466880321502686,0.034925048828125
STABILIZE,0.7500228881835938,29.9867307252345,0.03231504758199056,0.0324406623840332,0.0,0.0,0.0,-1.1359192626330061,-1.0294748198431771,57.77680241556964,0.0028634695911863555,-0.02094988593688907,-0.029929361905936536,0.4,0.05674097159311546,0.1089372098354176,0.8187420548269257,-0.29596014474994203,0.29220664873719215,-2.3348288610577583,3.711286187171936,1.0463448534845796,26.592430472373962,-61.155909299850464,69.46799755096436,0.0,0.0,0.0,0.0,0.0,0.0,0.0,0.0,0.0,0.0,0.0,0.0,0.0,0.0,0.0,0.0,False,0,0.8753747940063477,0.02993505859375
STABILIZE,0.7835400104522705,29.8371949094065,0.032415183385213216,0.03255414962768555,0.0,0.0,0.0,-1.13668114889058,-1.0234599845053345,57.78287445374178,0.001964409485380714,-0.019367902332762026,-0.031801343843931365,0.4,0.05386365040678809,0.12969649801888294,0.8204192691581843,-0.31258826375579357,0.087111780885607,1.4898388646543026,1.6020704060792923,-1.341630473168627,-49.68094527721405,44.87528204917908,56.95351958274841,0.0,0.0,0.0,0.0,0.0,0.0,0.0,0.0,0.0,0.0,0.0,0.0,0.0,0.0,0.0,0.0,False,0,0.904015064239502,0.0349248046875
STABILIZE,0.8172543048858643,29.659541067072094,0.03234747250874837,0.032770633697509766,0.0,0.0,0.0,-1.1327123820959792,-1.0263336798769116,57.77132460385529,-0.011701267181880515,-0.015991120149148896,-0.033999927845881336,0.4,0.05067256628631644,0.15094729480792254,0.8282796424521636,-0.33233137031983156,0.087111780885607,1.4898388646543026,1.6020704060792923,-1.341630473168627,-49.68094527721405,44.87528204917908,56.95351958274841,0.0,0.0,0.0,0.0,0.0,0.0,0.0,0.0,0.0,0.0,0.0,0.0,0.0,0.0,0.0,0.0,False,0,0.9326930046081543,0.0349248046875
STABILIZE,0.850696325302124,29.90335229784261,0.032195361455281575,0.0323488712310791,0.0,0.0,0.0,-1.133342467046913,-1.025734864385772,57.76992441507544,0.005305086250704837,-0.019556549448097284,-0.033030370222405576,0.4,0.011722801336075384,0.1205736645407833,0.8487571057739478,-0.32049599270631074,-0.13417307054623961,-0.6466770078986883,1.7510659992694855,0.6290137851727479,64.08166885375977,3.2682787626981735,45.48581838607788,0.0,0.0,0.0,0.0,0.0,0.0,0.0,0.0,0.0,0.0,0.0,0.0,0.0,0.0,0.0,0.0,False,0,0.9900920391082764,0.02993603515625
STABILIZE,0.8841462135314941,29.89567919713752,0.03230336507161458,0.032469749450683594,0.0,0.0,0.0,-1.134851405244957,-1.021485419504966,57.77628332119272,-0.0001927676278872539,-0.0063505096004261696,-0.033656273051330246,0.4,0.030201623085825944,0.13723184452095816,0.8512523524658121,-0.3245820267645378,1.24875009059906,1.2642084620893002,1.7525188624858856,-0.7384749304199011,14.291177690029144,28.946450352668762,42.40698218345642,0.0,0.0,0.0,0.0,0.0,0.0,0.0,0.0,0.0,0.0,0.0,0.0,0.0,0.0,0.0,0.0,False,0,1.0188066959381104,0.034925048828125
STABILIZE,0.9176125526428223,29.880983422029395,0.032335551579793294,0.03249192237854004,0.0,0.0,0.0,-1.1369190315727666,-1.0252570713089884,57.80477204022084,-0.01965465832881971,-0.00012605659343411347,-0.034561885396138824,0.4,0.048214794622482154,0.1545582889790071,0.8596502607648036,-0.3314195543077887,1.24875009059906,1.2642084620893002,1.7525188624858856,-0.7384749304199011,14.291177690029144,28.946450352668762,42.40698218345642,0.0,0.0,0.0,0.0,0.0,0.0,0.0,0.0,0.0,0.0,0.0,0.0,0.0,0.0,0.0,0.0,False,0,1.0474097728729248,0.034925048828125
STABILIZE,0.9510810375213623,29.87842910976713,0.03234890302022298,0.03248739242553711,0.0,0.0,0.0,-1.1352271723710134,-1.0231121784661927,57.785674831301485,-0.011539148181153343,-0.004961715972037777,-0.034942667188295175,0.4,0.031276057588454496,0.1486753401799021,0.8643792624623804,-0.33299847660521287,-0.8124790154397488,-0.09521982283331454,1.5745669603347778,-0.4611800823705203,13.725210726261139,14.481909573078156,28.983238339424133,0.0,0.0,0.0,0.0,0.0,0.0,0.0,0.0,0.0,0.0,0.0,0.0,0.0,0.0,0.0,0.0,False,0,1.0761022567749023,0.06485986328125
STABILIZE,0.9850635528564453,29.426071826964225,0.03232839902242025,0.03297305107116699,0.0,0.0,0.0,-1.1337738361816816,-1.022709730913691,57.7742820757659,-0.008105748328770509,0.004198227157483577,-0.03747655236571695,0.4,0.056228668324049824,0.1574553025679036,0.8993965555073409,-0.3559199972139656,1.6345784068107605,0.45861690305173397,1.4377491548657417,-0.7759140787467971,47.01129496097565,14.099352061748505,22.449618577957153,0.0,0.0,0.0,0.0,0.0,0.0,0.0,0.0,0.0,0.0,0.0,0.0,0.0,0.0,0.0,0.0,False,0,1.104698657989502,0.034925048828125
STABILIZE,1.0184872150421143,29.918923738667086,0.03232577641805013,0.03247404098510742,0.0,0.0,0.0,-1.1400482187079846,-1.0222733458587505,57.82956562690799,-0.011288044317560414,0.011943767093063272,-0.03473656054996778,0.4,0.044416234601877505,0.13978942167083686,0.8903719694682464,-0.3263361505798811,-0.5061713978648186,-0.666394829750061,1.1008800938725471,1.0642291702177291,-36.413878202438354,-30.85291087627411,18.146133422851562,0.0,0.0,0.0,0.0,0.0,0.0,0.0,0.0,0.0,0.0,0.0,0.0,0.0,0.0,0.0,0.0,False,0,1.1353564262390137,0.034924072265625
STABILIZE,1.0522422790527344,29.62539377586913,0.03235772450764974,0.03281545639038086,0.0,0.0,0.0,-1.1379431330614456,-1.0203573710748564,57.81249698417213,-0.010346696945816719,-0.007387154464721186,-0.037370344005417666,0.4,0.0027357271124814307,0.15154953574457172,0.9085416832505593,-0.35030959182931326,-0.986194983124733,0.5880036856979132,1.9533604383468628,-1.1448584861526718,0.10724663734436035,28.410419821739197,27.183693647384644,0.0,0.0,0.0,0.0,0.0,0.0,0.0,0.0,0.0,0.0,0.0,0.0,0.0,0.0,0.0,0.0,False,0,1.1934242248535156,0.03989990234375
STABILIZE,1.0881009101867676,27.88673248894651,0.032366307576497395,0.03495192527770996,0.0,0.0,0.0,-1.1358345255986155,-1.0205712413732424,57.785695321869,-0.0062108202387238945,-0.011358960195675595,-0.03752426743298377,0.4,0.00731121212095638,0.15470460297870167,0.904309615793114,-0.3493393950997729,0.3894425695762038,0.4154241643846035,1.1462104506790638,-0.4087677720007812,33.70630741119385,8.269837498664856,14.2682746052742,0.0,0.0,0.0,0.0,0.0,0.0,0.0,0.0,0.0,0.0,0.0,0.0,0.0,0.0,0.0,0.0,False,0,1.2219758033752441,0.024947021484375
STABILIZE,1.1220383644104004,29.465762759492783,0.03245213826497396,0.03308892250061035,0.0,0.0,0.0,-1.1407752069677677,-1.0180424705547508,57.8413613636046,-0.00813663949024308,-0.004258859522486369,-0.03696237754294405,0.4,0.013458650621512677,0.15526746538920794,0.8845148656802736,-0.3414021900830169,0.3894425695762038,0.4154241643846035,1.1462104506790638,-0.4087677720007812,33.70630741119385,8.269837498664856,14.2682746052742,0.0,0.0,0.0,0.0,0.0,0.0,0.0,0.0,0.0,0.0,0.0,0.0,0.0,0.0,0.0,0.0,False,0,1.2509105205535889,0.024947021484375
STABILIZE,1.1555936336517334,29.803061093978712,0.03248122533162435,0.032617807388305664,0.0,0.0,0.0,-1.137947295207971,-1.0176274298409669,57.81035230477274,-0.00755676299278041,-0.016366657522809837,-0.03731140509055138,0.4,-0.0007936010679729013,0.1609793346891211,0.8844212248812653,-0.3425986909733247,-0.7462116423994303,0.7045610807836056,2.166525460779667,-0.887540607404256,-19.94279772043228,26.601380109786987,31.368809938430786,0.0,0.0,0.0,0.0,0.0,0.0,0.0,0.0,0.0,0.0,0.0,0.0,0.0,0.0,0.0,0.0,False,0,1.2795188426971436,0.034925048828125
STABILIZE,1.1890780925750732,29.864175555017585,0.03237417538960775,0.03250718116760254,0.0,0.0,0.0,-1.1377011949544389,-1.017972567837464,57.81412256919459,-0.013656139029469485,-0.014959059029790252,-0.03776753928249471,0.4,-0.007258418100275143,0.16337629969768813,0.8785842940576901,-0.34485230448719967,-0.2697771182283759,0.4077472724020481,1.236535795032978,-0.6891089911416935,-1.6625694930553436,8.342239260673523,17.710642516613007,0.0,0.0,0.0,0.0,0.0,0.0,0.0,0.0,0.0,0.0,0.0,0.0,0.0,0.0,0.0,0.0,False,0,1.308534860610962,0.029934814453125
STABILIZE,1.2226030826568604,29.828495028944488,0.03234246571858724,0.03263068199157715,0.0,0.0,0.0,-1.1407509811405554,-1.0167602092597867,57.843301137328886,-0.004478918864374876,0.00395943688047664,-0.03470865770983151,0.4,0.012648068485785934,0.1465288198697275,0.8669517472938769,-0.31216635032718065,1.204293966293335,-0.6400554440915585,1.1831394396722317,1.1921609612495951,22.485658526420593,-5.003391578793526,30.19137978553772,0.0,0.0,0.0,0.0,0.0,0.0,0.0,0.0,0.0,0.0,0.0,0.0,0.0,0.0,0.0,0.0,False,0,1.3369441032409668,0.034925048828125
STABILIZE,1.2560951709747314,29.85758522747496,0.03243282636006673,0.03257584571838379,0.0,0.0,0.0,-1.1405654988159073,-1.014882013959739,57.837789174668686,-0.003908969318560948,-0.002926816198822488,-0.03515208984818516,0.4,-0.004160342233736513,0.14726667279224886,0.8702233090817777,-0.3144947592851204,-0.3624882781878114,-0.196547107771039,1.618100330233574,-0.4540858103395513,-7.110721617937088,-16.962511837482452,28.05250585079193,0.0,0.0,0.0,0.0,0.0,0.0,0.0,0.0,0.0,0.0,0.0,0.0,0.0,0.0,0.0,0.0,False,0,1.3943400382995605,0.029934814453125
STABILIZE,1.2895855903625488,29.858860547728714,0.03240969975789388,0.03255152702331543,0.0,0.0,0.0,-1.1399530229464274,-1.0125078828929248,57.83182641952326,-0.0008325895077757347,-0.007083389283850365,-0.03498797473020222,0.4,-0.011130410267918178,0.1384128287226209,0.8664183961465549,-0.31077397404938245,-0.3624882781878114,-0.196547107771039,1.618100330233574,-0.4540858103395513,-7.110721617937088,-16.962511837482452,28.05250585079193,0.0,0.0,0.0,0.0,0.0,0.0,0.0,0.0,0.0,0.0,0.0,0.0,0.0,0.0,0.0,0.0,False,0,1.4230759143829346,0.029934814453125
STABILIZE,1.3230583667755127,29.87630084978168,0.03237489064534505,0.03251814842224121,0.0,0.0,0.0,-1.141422153948215,-1.0108308580082752,57.8470099300482,0.005363685031090192,0.0006610997743388811,-0.03274827896544799,0.4,-0.0005936628707298025,0.12502875712118902,0.857923521412138,-0.2864603435765052,0.6595545914024115,-0.4791173152625561,1.317915040999651,0.7744939330079633,33.93109440803528,-3.1131992116570473,25.24551749229431,0.0,0.0,0.0,0.0,0.0,0.0,0.0,0.0,0.0,0.0,0.0,0.0,0.0,0.0,0.0,0.0,False,0,1.4516289234161377,0.034925048828125
STABILIZE,1.356499433517456,29.90228635388224,0.0323522408803304,0.032483816146850586,0.0,0.0,0.0,-1.1428527584142152,-1.0086021886264411,57.85709811945231,0.0027415211803948725,0.004108853002849836,-0.03293614311384007,0.4,0.0039039970243493196,0.13501089682005538,0.8626093686052472,-0.286422551440186,0.317276269197464,0.8654402568936348,1.8114874139428139,-0.5693818047677466,3.103458881378174,12.907283008098602,24.816279113292694,0.0,0.0,0.0,0.0,0.0,0.0,0.0,0.0,0.0,0.0,0.0,0.0,0.0,0.0,0.0,0.0,False,0,1.4803199768066406,0.034925048828125
STABILIZE,1.3899340629577637,29.909109708703248,0.03237608273824056,0.03251290321350098,0.0,0.0,0.0,-1.142426085034501,-1.0077840600299206,57.855137855160514,0.0011268235077642778,-0.005703454627804879,-0.03209342482397057,0.4,-0.007755181763519027,0.12461877458825525,0.8685474049304811,-0.27614753947547227,-0.642051175236702,-0.3436625003814697,1.8917236477136612,0.03686219744522825,-24.232567846775055,-12.819086015224457,32.617318630218506,0.0,0.0,0.0,0.0,0.0,0.0,0.0,0.0,0.0,0.0,0.0,0.0,0.0,0.0,0.0,0.0,False,0,1.5090312957763672,0.029934814453125
STABILIZE,1.4262378215789795,27.547166341562733,0.03240183194478353,0.03531312942504883,0.0,0.0,0.0,-1.144021467814228,-1.007487053522731,57.861052798981746,0.0035679768447529066,0.0016801450462063893,-0.03062935396905387,0.4,-0.00012207158435152687,0.11752274352676037,0.8615205274662615,-0.2596255548639012,0.4805800970643759,-0.12666042894124985,1.3977955095469952,0.35056834373291074,17.70843118429184,2.7662834152579308,20.279431343078613,0.0,0.0,0.0,0.0,0.0,0.0,0.0,0.0,0.0,0.0,0.0,0.0,0.0,0.0,0.0,0.0,False,1,1.5388240814208984,0.034925048828125
STABILIZE,1.4597163200378418,29.87013061003575,0.03232243855794271,0.03246331214904785,0.0,0.0,0.0,-1.1455451336076696,-1.0066418176129417,57.868900686338094,-0.00039932133476472555,0.008560820297906505,-0.02959538371204326,0.4,0.014185986375374259,0.12150661549076625,0.8573455067724273,-0.24762880782977986,0.4562287125736475,0.38155901711434126,1.4137526974081993,-0.2047637352316932,16.466525197029114,8.758515119552612,23.066140711307526,0.0,0.0,0.0,0.0,0.0,0.0,0.0,0.0,0.0,0.0,0.0,0.0,0.0,0.0,0.0,0.0,False,0,1.5971708297729492,0.034925048828125
STABILIZE,1.4930822849273682,29.968090655120427,0.03230312665303548,0.03243374824523926,0.0,0.0,0.0,-1.1469111714416722,-1.0051003292946346,57.87452193202501,-0.0022547456583652398,0.0037241288396378737,-0.02866177699618321,0.4,0.009107163126570162,0.11496075066981404,0.8579871656088826,-0.2367092401561956,-0.27630357071757317,-0.13122656382620335,1.590556837618351,0.09442900612165267,-21.020056307315826,-12.94507086277008,17.22300499677658,0.0,0.0,0.0,0.0,0.0,0.0,0.0,0.0,0.0,0.0,0.0,0.0,0.0,0.0,0.0,0.0,False,0,1.6257591247558594,0.02993505859375
STABILIZE,1.526569128036499,29.863537654237483,0.0323973019917806,0.03252577781677246,0.0,0.0,0.0,-1.14650594912482,-1.0043217944509588,57.86916023352655,0.000920617582060879,0.005392441536647291,-0.02797498466375432,0.4,0.018157559374961815,0.11434821254577741,0.848867086141667,-0.22831403170589176,0.5660814698785543,0.23973819334059954,1.268188375979662,-0.08273963094506509,21.148087084293365,4.662727937102318,16.23305231332779,0.0,0.0,0.0,0.0,0.0,0.0,0.0,0.0,0.0,0.0,0.0,0.0,0.0,0.0,0.0,0.0,False,0,1.6559460163116455,0.02494677734375
STABILIZE,1.560401439666748,29.556084842505815,0.03236273129781087,0.03294110298156738,0.0,0.0,0.0,-1.1496734493524134,-1.0028382560188909,57.88976008406331,-0.00019807860598901553,0.008016973185572884,-0.02664342881801423,0.4,0.0155296739253141,0.10829639913487472,0.8402881671120869,-0.21355088242556836,-0.1226618536747992,-0.07526400731876493,1.5238655731081963,0.29672449508224574,-0.628439849242568,-12.685620784759521,25.059878826141357,0.0,0.0,0.0,0.0,0.0,0.0,0.0,0.0,0.0,0.0,0.0,0.0,0.0,0.0,0.0,0.0,True,0,1.6846201419830322,0.029935302734375
STABILIZE,1.5939316749572754,29.824677171625236,0.03243091901143392,0.03257584571838379,0.0,0.0,0.0,-1.1490039840920465,-1.0019429676290903,57.89065483884458,-0.00035497801216364367,0.005098722252265488,-0.025402127379061983,0.4,0.013090139472050441,0.10280967137836179,0.8366384481565757,-0.1998001235734926,-0.1226618536747992,-0.07526400731876493,1.5238655731081963,0.29672449508224574,-0.628439849242568,-12.685620784759521,25.059878826141357,0.0,0.0,0.0,0.0,0.0,0.0,0.0,0.0,0.0,0.0,0.0,0.0,0.0,0.0,0.0,0.0,True,0,1.7133843898773193,0.029935302734375
STABILIZE,1.6273753643035889,29.901220485913083,0.0323672612508138,0.032494306564331055,0.0,0.0,0.0,-1.1488208496449255,-1.0008792723875666,57.88312797037923,0.001988556576213519,-8.362644934865085e-05,-0.025296684416139262,0.4,0.010397597008532213,0.09925537571482998,0.836465862160952,-0.19742555215057667,-0.14010161394253373,0.03564791404642165,1.7215637490153313,-0.3873063838136755,-7.863648235797882,10.631312429904938,24.16858971118927,0.0,0.0,0.0,0.0,0.0,0.0,0.0,0.0,0.0,0.0,0.0,0.0,0.0,0.0,0.0,0.0,True,0,1.7420411109924316,0.034925048828125
STABILIZE,1.6607615947723389,29.951612442514783,0.03237274487813314,0.03249001502990723,0.0,0.0,0.0,-1.1509670231481903,-0.9998430046244288,57.89927453757714,0.0021550830192072316,0.005611516324940347,-0.023513389795513158,0.4,0.022889315022744883,0.09290489029122133,0.8274576748116003,-0.17839945782936312,0.406707264482975,0.038054754259064794,1.1905203573405743,0.0912312969812165,12.08876371383667,-6.952416896820068,23.48061203956604,0.0,0.0,0.0,0.0,0.0,0.0,0.0,0.0,0.0,0.0,0.0,0.0,0.0,0.0,0.0,0.0,True,0,1.7993571758270264,0.0349248046875
STABILIZE,1.6942322254180908,29.877577769388033,0.03242638905843099,0.03255319595336914,0.0,0.0,0.0,-1.1516150373456953,-0.9986888093764024,57.90570174558612,0.0015504859495823172,0.0006101497572728014,-0.02239316825302244,0.4,0.01600222146302141,0.09407259281989047,0.8287897195512174,-0.16608632658266256,-0.4027812276035547,0.29801703058183193,1.5700457617640495,0.27261542141598166,-6.7370980978012085,-0.9401824325323105,24.52925443649292,0.0,0.0,0.0,0.0,0.0,0.0,0.0,0.0,0.0,0.0,0.0,0.0,0.0,0.0,0.0,0.0,True,0,1.8280425071716309,0.02993505859375
STABILIZE,1.7277979850769043,29.792476417774747,0.0323973019917806,0.0326080322265625,0.0,0.0,0.0,-1.1506208179346353,-0.9978148653277581,57.898851065848596,0.0021440449402918677,0.0022138186580775133,-0.021879011016713017,0.4,0.018482390915265375,0.0869047306287527,0.824042394210484,-0.15987296638715232,0.18290379084646702,-0.2066299319267273,1.444302499294281,-0.09054088758608986,7.544640451669693,-7.093104720115662,24.005307257175446,0.0,0.0,0.0,0.0,0.0,0.0,0.0,0.0,0.0,0.0,0.0,0.0,0.0,0.0,0.0,0.0,True,0,1.8566453456878662,0.034924072265625
STABILIZE,1.761192798614502,29.94498347219545,0.03237322171529134,0.03248906135559082,0.0,0.0,0.0,-1.151667971311763,-0.9971967332078719,57.90720438720352,0.0027007723746982747,0.004482609220883084,-0.021050396285632492,0.4,0.023085506558343374,0.08030689516353304,0.8256800672848952,-0.1505795101412903,0.3040317911654711,-0.18513918621465564,1.5776721760630608,0.11414126557164003,12.141391634941101,-3.178630769252777,16.963551938533783,0.0,0.0,0.0,0.0,0.0,0.0,0.0,0.0,0.0,0.0,0.0,0.0,0.0,0.0,0.0,0.0,True,0,1.885775089263916,0.0349248046875
STABILIZE,1.7946739196777344,29.86672743067918,0.03239301045735677,0.03252840042114258,0.0,0.0,0.0,-1.1539330327952684,-0.9954927077316595,57.91583091612525,0.003832291164415003,0.006845497388531358,-0.02023232047532759,0.4,0.027743948340550193,0.07371190344019618,0.8272164318720591,-0.14145214358131342,0.3040317911654711,-0.18513918621465564,1.5776721760630608,0.11414126557164003,12.141391634941101,-3.178630769252777,16.963551938533783,0.0,0.0,0.0,0.0,0.0,0.0,0.0,0.0,0.0,0.0,0.0,0.0,0.0,0.0,0.0,0.0,True,0,1.9144954681396484,0.0349248046875
STABILIZE,1.8280961513519287,29.92020430437357,0.032388957341512044,0.032524824142456055,0.0,0.0,0.0,-1.1532366736650446,-0.993011321350535,57.912702689485386,0.00076996719453956,0.002469417731691092,-0.019752374264568648,0.4,0.025789933308326053,0.07712379683458269,0.8231669924970446,-0.13574446342862942,-0.09667028207331896,0.4167123232036829,1.2467576190829277,-0.08099860638747958,-7.448422163724899,6.719478964805603,17.675013840198517,0.0,0.0,0.0,0.0,0.0,0.0,0.0,0.0,0.0,0.0,0.0,0.0,0.0,0.0,0.0,0.0,True,0,1.9432213306427002,0.02993603515625
STABILIZE,1.861525297164917,29.913589227894505,0.03243091901143392,0.03255105018615723,0.0,0.0,0.0,-1.15427603635765,-0.9920645930985478,57.917504312471905,0.003935111522125225,0.0045864529547129185,-0.018818241070631684,0.4,0.025970112816479964,0.06867278109426489,0.8199187627663184,-0.12556345010550002,0.04997745272703469,-0.3081848844885826,1.5358015894889832,0.2146791688745683,-10.11134460568428,-5.1668524742126465,23.17882627248764,0.0,0.0,0.0,0.0,0.0,0.0,0.0,0.0,0.0,0.0,0.0,0.0,0.0,0.0,0.0,0.0,True,1,1.9727106094360352,0.034925048828125
STABILIZE,1.895024299621582,29.852909985124448,0.032446893056233723,0.032564401626586914,0.0,0.0,0.0,-1.1555772941162432,-0.9910711207394283,57.924122765777646,0.003077231411829104,0.007069192829878761,-0.017978996846063217,0.4,0.03559328874801684,0.06481959120709611,0.8145831330760577,-0.11639251106347615,0.2619483042508364,0.2679358934983611,1.4052310958504677,-0.26737933436522643,7.695041596889496,4.702778533101082,18.917641043663025,0.0,0.0,0.0,0.0,0.0,0.0,0.0,0.0,0.0,0.0,0.0,0.0,0.0,0.0,0.0,0.0,True,0,2.0324513912200928,0.02993603515625
STABILIZE,1.928473949432373,29.895466111661523,0.03237274487813314,0.03249835968017578,0.0,0.0,0.0,-1.1562300040688025,-0.988990581085219,57.92521559604485,0.0023527398129152546,0.003672393788328334,-0.017190297050046845,0.4,0.029523042347661378,0.061029698659603365,0.8098207701984864,-0.1077844988899519,-0.3203923813998699,-0.04617780796252191,1.433596946299076,0.16641214300079227,-16.395270824432373,-5.135544389486313,19.589290022850037,0.0,0.0,0.0,0.0,0.0,0.0,0.0,0.0,0.0,0.0,0.0,0.0,0.0,0.0,0.0,0.0,True,0,2.0610647201538086,0.034925048828125
STABILIZE,1.9619007110595703,29.915722803914296,0.03236559232076009,0.03249979019165039,0.0,0.0,0.0,-1.1571546409276932,-0.9883819471971473,57.92840529438725,0.0016450224531440072,0.002443160252294122,-0.016199946271019453,0.4,0.029991217181941827,0.05720991836401747,0.8091531808700577,-0.09723050266510472,0.06255778716877103,-0.05274932482279837,1.4374117366969585,0.28435366179360394,1.4991098083555698,2.6290683075785637,20.537711679935455,0.0,0.0,0.0,0.0,0.0,0.0,0.0,0.0,0.0,0.0,0.0,0.0,0.0,0.0,0.0,0.0,True,0,2.0911478996276855,0.034924072265625
STABILIZE,1.9953677654266357,29.88077054599339,0.03240040143330892,0.032524824142456055,0.0,0.0,0.0,-1.1565100418247731,-0.9880565527162197,57.933999219317485,0.0026229692543561158,0.005532981715820749,-0.016126782740040604,0.4,0.03747800133995369,0.057322117337814,0.8083838539801614,-0.09585780929676527,0.48586023040115833,0.17870207084342837,1.4371230266988277,-0.2573086740012922,10.994908958673477,2.7589963749051094,23.525238037109375,0.0,0.0,0.0,0.0,0.0,0.0,0.0,0.0,0.0,0.0,0.0,0.0,0.0,0.0,0.0,0.0,True,0,2.119636297225952,0.029935791015625
STABILIZE,2.028841733932495,29.873960113960113,0.03237489064534505,0.03249025344848633,0.0,0.0,0.0,-1.1574497264441788,-0.9872899707035916,57.93778997430684,9.777938729635704e-06,0.007873855946169663,-0.016104716577848472,0.4,0.044611297652100416,0.0575612478225735,0.803861707691181,-0.09500180516385591,0.48586023040115833,0.17870207084342837,1.4371230266988277,-0.2573086740012922,10.994908958673477,2.7589963749051094,23.525238037109375,0.0,0.0,0.0,0.0,0.0,0.0,0.0,0.0,0.0,0.0,0.0,0.0,0.0,0.0,0.0,0.0,True,0,2.148455858230591,0.029935791015625
STABILIZE,2.063532829284668,28.827029739036007,0.0323360284169515,0.03370165824890137,0.0,0.0,0.0,-1.1587372171027261,-0.9868255178400307,57.9415807292962,-0.00023016956977810088,0.0038072677404928103,-0.01570119738569213,0.4,0.040910390180348394,0.05468858818554093,0.8022897657334558,-0.09033993131708411,-0.16845249338075519,-0.01570986059959978,1.597248949110508,-0.0137055483019975,-6.093358248472214,0.7775885984301567,23.404720425605774,0.0,0.0,0.0,0.0,0.0,0.0,0.0,0.0,0.0,0.0,0.0,0.0,0.0,0.0,0.0,0.0,True,1,2.177156925201416,0.03985107421875
STABILIZE,2.097013235092163,29.869492454832255,0.03233483632405599,0.032466888427734375,0.0,0.0,0.0,-1.16097474438614,-0.9845023997485801,57.94380737096562,-0.001202228702478408,0.006450098822299707,-0.014404496048183356,0.4,0.04336484531772103,0.05418699615859923,0.8046292384244904,-0.07685857090017892,0.22120813373476267,-0.007722690497757867,1.4832472428679466,0.20922745061728165,14.872366189956665,-3.160664439201355,26.19743049144745,0.0,0.0,0.0,0.0,0.0,0.0,0.0,0.0,0.0,0.0,0.0,0.0,0.0,0.0,0.0,0.0,True,0,2.235180377960205,0.02993603515625
STABILIZE,2.1303515434265137,29.99187689491448,0.032288583119710286,0.0324101448059082,0.0,0.0,0.0,-1.1614160386395462,-0.9835651697284075,57.948991484545665,-0.0015114493042562396,0.00716850573940772,-0.013681087750899556,0.4,0.04591001527780089,0.05166923390066273,0.8012948620195509,-0.06916210499416739,0.22120813373476267,-0.007722690497757867,1.4832472428679466,0.20922745061728165,14.872366189956665,-3.160664439201355,26.19743049144745,0.0,0.0,0.0,0.0,0.0,0.0,0.0,0.0,0.0,0.0,0.0,0.0,0.0,0.0,0.0,0.0,True,0,2.266819953918457,0.02993603515625
STABILIZE,2.1638715267181396,29.83252605000178,0.03241613705952962,0.032555580139160156,0.0,0.0,0.0,-1.161300459032185,-0.9828533359508451,57.95337646599281,-0.00101583341087078,0.004183909151098015,-0.013157336969009795,0.4,0.04365646749618167,0.05024768992179282,0.7964002406622344,-0.06349954140333718,-0.07028704276308417,0.05405403207987547,1.3699894770979881,0.09962452558399774,-1.123158447444439,-1.2295053340494633,16.842059791088104,0.0,0.0,0.0,0.0,0.0,0.0,0.0,0.0,0.0,0.0,0.0,0.0,0.0,0.0,0.0,0.0,True,0,2.293210029602051,0.034924072265625
STABILIZE,2.197232246398926,29.97622944375755,0.03235915501912435,0.03247690200805664,0.0,0.0,0.0,-1.1612986447631868,-0.9810804749744038,57.95326718296609,0.001088032634879183,0.0030924291299478644,-0.012429827963959045,0.4,0.04675726738570226,0.044138736570117534,0.7915725617526744,-0.05585106199924244,0.23819375783205032,-0.2383387414738536,1.132884994149208,0.2115898422964598,6.860660016536713,-3.550982102751732,11.983639746904373,0.0,0.0,0.0,0.0,0.0,0.0,0.0,0.0,0.0,0.0,0.0,0.0,0.0,0.0,0.0,0.0,True,0,2.3219802379608154,0.06486083984375
STABILIZE,2.2307279109954834,29.854609903837257,0.0324435551961263,0.032575368881225586,0.0,0.0,0.0,-1.1614676919451445,-0.9803193357687704,57.95793903235838,0.0025119662667004296,0.005983642629702332,-0.011445854078363467,0.4,0.05219722385402978,0.037380305727164456,0.8074489475745347,-0.04570549988555709,0.23819375783205032,-0.2383387414738536,1.132884994149208,0.2115898422964598,6.860660016536713,-3.550982102751732,11.983639746904373,0.0,0.0,0.0,0.0,0.0,0.0,0.0,0.0,0.0,0.0,0.0,0.0,0.0,0.0,0.0,0.0,True,0,2.3507518768310547,0.06486083984375
STABILIZE,2.2641656398773193,29.90655058575228,0.03238848050435384,0.03251147270202637,0.0,0.0,0.0,-1.1624685281019629,-0.9773008190424479,57.96537710836452,0.0024245095408766118,0.005548883702482978,-0.011108012430127108,0.4,0.05306455892193469,0.03717261392104917,0.8231689780002387,-0.04204582782843856,-0.0055543758207932115,0.14608714263886213,1.3153218664228916,-0.13882729011957184,4.60922047495842,-1.0284677147865295,24.00803118944168,0.0,0.0,0.0,0.0,0.0,0.0,0.0,0.0,0.0,0.0,0.0,0.0,0.0,0.0,0.0,0.0,True,0,2.3827292919158936,0.034924072265625
STABILIZE,2.297755002975464,29.773020244754253,0.03239563306172689,0.032622337341308594,0.0,0.0,0.0,-1.1623558299806578,-0.9768555760859277,57.965670806498835,0.0018362736448061772,0.004589741527522031,-0.01132586227774815,0.4,0.052443538625649065,0.036657368683955534,0.8207520676936655,-0.043929666954184904,0.05666299257427454,0.08471658802591264,1.5659593045711517,-0.267886902797923,-0.6650710478425026,4.552164301276207,17.595329880714417,0.0,0.0,0.0,0.0,0.0,0.0,0.0,0.0,0.0,0.0,0.0,0.0,0.0,0.0,0.0,0.0,True,1,2.411379814147949,0.034925048828125
STABILIZE,2.336171865463257,26.029751450646973,0.03234413464864095,0.03743338584899902,0.0,0.0,0.0,-1.1621334219458093,-0.9764151356061677,57.975116958120964,0.002554059780457711,0.00400258714473943,-0.01008738337970377,0.4,0.04814338467899946,0.03276222593885616,0.8017198503171374,-0.0313043312526308,0.048601836897432804,0.05080989212729037,1.083820965141058,0.10040284698426186,6.537425518035889,-1.1384534649550915,18.11046302318573,0.0,0.0,0.0,0.0,0.0,0.0,0.0,0.0,0.0,0.0,0.0,0.0,0.0,0.0,0.0,0.0,True,0,2.471400260925293,0.034923828125
STABILIZE,2.3695766925811768,29.934511404835995,0.03234747250874837,0.032488107681274414,0.0,0.0,0.0,-1.1622353411748305,-0.9750910394025373,57.977726090383904,0.0002039786007308364,0.0017583832525693785,-0.009905609158828516,0.4,0.04417491107878756,0.03430594048331405,0.8010208259706573,-0.029290629798548136,-0.12161486083641648,0.1807118416763842,1.5873443335294724,-0.036758724081366524,-1.1733796447515488,2.705583907663822,18.239542841911316,0.0,0.0,0.0,0.0,0.0,0.0,0.0,0.0,0.0,0.0,0.0,0.0,0.0,0.0,0.0,0.0,True,0,2.4997127056121826,0.034925048828125
STABILIZE,2.4031693935394287,29.769005287625536,0.03240946133931478,0.03255963325500488,0.0,0.0,0.0,-1.1613711088014123,-0.9741118677519924,57.97997322262084,0.00041948677713601255,1.5964819009453655e-05,-0.009400109330388075,0.4,0.04380438391493462,0.02759114296370481,0.7953487137662939,-0.02407446824740288,0.0701966171618551,-0.2647831570357084,1.3087325729429722,0.14448987712726943,-4.812199622392654,-3.200158476829529,22.0048189163208,0.0,0.0,0.0,0.0,0.0,0.0,0.0,0.0,0.0,0.0,0.0,0.0,0.0,0.0,0.0,0.0,True,0,2.528481960296631,0.02993603515625
STABILIZE,2.436481475830078,30.01827876185364,0.03220108350118001,0.032317399978637695,0.0,0.0,0.0,-1.1627389609044132,-0.972996732648282,57.98698099670927,0.002512057884774587,-0.0004159627927231036,-0.008948683905351529,0.4,0.04326815503981235,0.021131279776001897,0.7864982918289706,-0.01943029616470559,0.0701966171618551,-0.2647831570357084,1.3087325729429722,0.14448987712726943,-4.812199622392654,-3.200158476829529,22.0048189163208,0.0,0.0,0.0,0.0,0.0,0.0,0.0,0.0,0.0,0.0,0.0,0.0,0.0,0.0,0.0,0.0,True,0,2.5571279525756836,0.02993603515625
STABILIZE,2.4699180126190186,29.908469886906545,0.03240969975789388,0.032529592514038086,0.0,0.0,0.0,-1.1632838819341333,-0.9718024100388819,57.98937156291878,0.0013818377017924305,0.0009099603731718474,-0.008930892928790988,0.4,0.04665808940366651,0.024043662369488683,0.7783719662414131,-0.019124504081515992,0.2857455750927329,0.24158554151654243,1.312672346830368,-0.0843654427511529,7.295055687427521,0.8866644464433193,21.842719614505768,0.0,0.0,0.0,0.0,0.0,0.0,0.0,0.0,0.0,0.0,0.0,0.0,0.0,0.0,0.0,0.0,True,0,2.5857298374176025,0.034924072265625
STABILIZE,2.5035011768341064,29.77682488747533,0.03241136868794759,0.03262138366699219,0.0,0.0,0.0,-1.1657136150096594,-0.9695744877089884,57.99502012936238,-0.0002849730855809211,0.0031764237406488906,-0.008096022878475634,0.4,0.05007466277079553,0.025991360481038516,0.7705949776743354,-0.010704007200566868,0.17744451761245728,0.14845146797597408,1.1071410961449146,0.040615026208393246,0.5376609042286873,-1.2615321204066277,12.132111936807632,0.0,0.0,0.0,0.0,0.0,0.0,0.0,0.0,0.0,0.0,0.0,0.0,0.0,0.0,0.0,0.0,True,0,2.6431829929351807,0.034925048828125
STABILIZE,2.5368242263793945,30.007326007326007,0.032343180974324544,0.03244519233703613,0.0,0.0,0.0,-1.165137211076734,-0.9692033096162804,57.99781367673291,0.00017239608091485414,0.004371062506149947,-0.008103174750123234,0.4,0.05007466277079553,0.025991360481038516,0.7705949776743354,-0.010704007200566868,0.17744451761245728,0.14845146797597408,1.1071410961449146,0.040615026208393246,0.5376609042286873,-1.2615321204066277,12.132111936807632,0.0,0.0,0.0,0.0,0.0,0.0,0.0,0.0,0.0,0.0,0.0,0.0,0.0,0.0,0.0,0.0,True,1,2.6431829929351807,0.034925048828125
STABILIZE,2.5704104900360107,29.77682488747533,0.03246668179829915,0.032613277435302734,0.0,0.0,0.0,-1.1663078414674506,-0.9679707806362104,58.002915828042916,-0.00038681935162230495,0.002729529497836651,-0.007957563660342896,0.4,0.04479834332155724,0.021641292697520777,0.7715536931006216,-0.009186353074238738,0.027078029233962297,-0.05063320277258754,1.6224619001150131,-0.21811859600849287,6.85347244143486,-3.1432047486305237,17.736074328422546,0.0,0.0,0.0,0.0,0.0,0.0,0.0,0.0,0.0,0.0,0.0,0.0,0.0,0.0,0.0,0.0,True,0,2.7010176181793213,0.034923828125
STABILIZE,2.6038663387298584,29.88907495955932,0.03234389623006185,0.032460689544677734,0.0,0.0,0.0,-1.1669344046020935,-0.9670607646510121,58.00620797922286,-0.00268035591907389,0.003662356176379008,-0.007455372788526911,0.4,0.04708541739098525,0.022710330771262742,0.7720445782653279,-0.004136795717745673,0.21640309132635593,0.13166693970561028,1.5246940776705742,0.2034115045183761,1.4019114896655083,-1.002506073564291,21.688464283943176,0.0,0.0,0.0,0.0,0.0,0.0,0.0,0.0,0.0,0.0,0.0,0.0,0.0,0.0,0.0,0.0,True,0,2.729753017425537,0.0349248046875
STABILIZE,2.6372196674346924,29.98051479260334,0.03232696851094564,0.03245186805725098,0.0,0.0,0.0,-1.16819788287684,-0.9673372805906918,58.009370356808574,-0.002191716697275792,0.0034236062322848676,-0.006961693320910664,0.4,0.04938188408355052,0.023842330158094824,0.7726011905192213,0.0007946842061558991,0.21640309132635593,0.13166693970561028,1.5246940776705742,0.2034115045183761,1.4019114896655083,-1.002506073564291,21.688464283943176,0.0,0.0,0.0,0.0,0.0,0.0,0.0,0.0,0.0,0.0,0.0,0.0,0.0,0.0,0.0,0.0,True,0,2.7582204341888428,0.0349248046875
STABILIZE,2.670992374420166,29.61138056408627,0.03242925008138021,0.0328371524810791,0.0,0.0,0.0,-1.1694986070269044,-0.9665654692144804,58.014540810010274,-0.0009567518532483232,0.0014715848808242347,-0.006476877554281838,0.4,0.04654261707649622,0.02185712500569532,0.7714814978206079,0.005605027118582737,-0.07579800439998507,-0.04865515511482954,1.4260767959058285,0.20358471384685942,-4.298881813883781,2.8317514806985855,23.75176250934601,0.0,0.0,0.0,0.0,0.0,0.0,0.0,0.0,0.0,0.0,0.0,0.0,0.0,0.0,0.0,0.0,True,0,2.787208318710327,0.029935302734375
STABILIZE,2.7044472694396973,29.891844123264633,0.03237632115681966,0.03249621391296387,0.0,0.0,0.0,-1.1701827998826693,-0.9649160852516281,58.018297414053784,-0.000521806219446702,0.0031207015972618862,-0.005858065544695844,0.4,0.05145384865118801,0.020543269260132307,0.7672651803688164,0.011714796713296198,0.2243771217763424,-0.048123684246093035,1.6777822747826576,0.1583757450913979,0.6445158738642931,0.8098434656858444,23.792454600334167,0.0,0.0,0.0,0.0,0.0,0.0,0.0,0.0,0.0,0.0,0.0,0.0,0.0,0.0,0.0,0.0,True,0,2.8443758487701416,0.034925048828125
STABILIZE,2.7383053302764893,29.532984558621614,0.032358439763387044,0.03287053108215332,0.0,0.0,0.0,-1.171430590066666,-0.9623802708005551,58.02283948985184,-0.0026884742005235263,0.003227695006913572,-0.005840838682557787,0.4,0.04699039977665281,0.02315686704661788,0.7642614142439462,0.011807182053311542,-0.17220755107700825,0.2095573814585805,1.2877870351076126,-0.04578634318889906,-0.034393882378935814,0.7712380029261112,19.947797060012817,0.0,0.0,0.0,0.0,0.0,0.0,0.0,0.0,0.0,0.0,0.0,0.0,0.0,0.0,0.0,0.0,True,0,2.873120069503784,0.029935791015625
STABILIZE,2.7717459201812744,29.90441831780232,0.03234294255574544,0.032482147216796875,0.0,0.0,0.0,-1.1706084060453257,-0.9622315007426957,58.02561254665486,-0.0017319986650380418,0.0030663225555365515,-0.005660915663234177,0.4,0.04853247276591922,0.021238994754655294,0.7612649917800118,0.013515944476822044,0.19150240113958716,-0.05341852665878832,1.4922019094228745,0.07835090089800133,2.1925855427980423,-1.2680604122579098,18.93164813518524,0.0,0.0,0.0,0.0,0.0,0.0,0.0,0.0,0.0,0.0,0.0,0.0,0.0,0.0,0.0,0.0,True,0,2.901784658432007,0.034924072265625
STABILIZE,2.8051369190216064,29.94797683734015,0.032358678181966145,0.03246927261352539,0.0,0.0,0.0,-1.1713702923028995,-0.9617723839644239,58.0286793015922,-0.0014771165909916782,0.0015079498253811672,-0.005526842813444026,0.4,0.045900972833006086,0.021479561038182805,0.7585831612312731,0.014758006979858834,-0.06754340720362961,0.06877710693515837,1.2809299863874912,0.03382960679395581,1.2178754433989525,-1.2531664222478867,15.335099399089813,0.0,0.0,0.0,0.0,0.0,0.0,0.0,0.0,0.0,0.0,0.0,0.0,0.0,0.0,0.0,0.0,True,0,2.930494785308838,0.034925048828125
STABILIZE,2.8385848999023438,29.896105377202485,0.032404216130574544,0.03252053260803223,0.0,0.0,0.0,-1.1724825459205537,-0.9594072175208954,58.03264764149998,-0.0021467609995068663,0.002661157448422298,-0.005204095069278,0.4,0.04681072597396439,0.021710206337582236,0.7603481065420797,0.017866033470087125,0.14088357565924525,0.06636661710217595,1.5416359528899193,0.14976159588754245,-0.5851102061569691,0.8588366210460663,24.985963106155396,0.0,0.0,0.0,0.0,0.0,0.0,0.0,0.0,0.0,0.0,0.0,0.0,0.0,0.0,0.0,0.0,True,0,2.9592387676239014,0.029935791015625
STABILIZE,2.8720788955688477,29.8582228739838,0.0323977788289388,0.03253316879272461,0.0,0.0,0.0,-1.1729725052717963,-0.9586229197051076,58.03582367946404,-0.0026097394724648344,0.0014280652680521396,-0.0049289506354387395,0.4,0.04749375772152058,0.021910270333387705,0.7585728221161413,0.02048029710746319,0.14088357565924525,0.06636661710217595,1.5416359528899193,0.14976159588754245,-0.5851102061569691,0.8588366210460663,24.985963106155396,0.0,0.0,0.0,0.0,0.0,0.0,0.0,0.0,0.0,0.0,0.0,0.0,0.0,0.0,0.0,0.0,True,0,2.987877130508423,0.029935791015625
STABILIZE,2.9063076972961426,29.213534483959492,0.03230789502461751,0.03333854675292969,0.0,0.0,0.0,-1.1746560401804986,-0.9589680577016048,58.040304283559564,-0.0013670226749312253,0.0017397725250609414,-0.004957295513688459,0.4,0.04438295502947987,0.02045955732997557,0.7633852328516741,0.020059239671240254,-0.2115751849487424,0.10104485554620624,1.5459371730685234,0.0789089353573193,0.5366048309952021,0.7164154667407274,15.80321192741394,0.0,0.0,0.0,0.0,0.0,0.0,0.0,0.0,0.0,0.0,0.0,0.0,0.0,0.0,0.0,0.0,True,0,3.0454494953155518,0.02993505859375
STABILIZE,2.9401614665985107,29.544009917727937,0.03248456319173177,0.03263044357299805,0.0,0.0,0.0,-1.1748295696740993,-0.9584496036549185,58.0426880195799,-0.002475036664319079,0.001233748997341968,-0.0051075972282090395,0.4,0.04422606509766199,0.022052708537682122,0.7577058644930399,0.018432760110603616,0.09023237507790327,0.14565791934728622,1.296578161418438,-0.08793030791001033,-0.293596601113677,0.8524895645678043,19.181211292743683,0.0,0.0,0.0,0.0,0.0,0.0,0.0,0.0,0.0,0.0,0.0,0.0,0.0,0.0,0.0,0.0,True,0,3.073979139328003,0.029935791015625
STABILIZE,2.973344326019287,30.13365902722897,0.032061131795247395,0.03221631050109863,0.0,0.0,0.0,-1.1752477053173511,-0.9588937793943809,58.04519469900529,-0.001797114098174425,0.003076519462632608,-0.0049791122853569585,0.4,0.04736406123649217,0.020225250592335247,0.7543333352310783,0.019586506203656505,0.28677808586508036,-0.05924943252466619,1.4122145250439644,0.07958616462178193,6.165790557861328,0.6958348676562309,18.85058283805847,0.0,0.0,0.0,0.0,0.0,0.0,0.0,0.0,0.0,0.0,0.0,0.0,0.0,0.0,0.0,0.0,True,0,3.1030235290527344,0.034924072265625
STABILIZE,3.0068583488464355,29.837619423636454,0.03236368497212728,0.032517433166503906,0.0,0.0,0.0,-1.1766366883180965,-0.9576637050135439,58.048425378482705,-0.0018250600349381876,0.001750998382701859,-0.0050221719353543744,0.4,0.04418629542519423,0.02050678168783463,0.750970528004045,0.019028549249343118,-0.10661153355613351,0.06241569644771516,1.1782503686845303,-0.03683203522313177,-3.2897934317588806,0.6666324567049742,15.044628083705902,0.0,0.0,0.0,0.0,0.0,0.0,0.0,0.0,0.0,0.0,0.0,0.0,0.0,0.0,0.0,0.0,True,0,3.131880760192871,0.034925048828125
STABILIZE,3.0404059886932373,29.81005110127149,0.03232887585957845,0.03246712684631348,0.0,0.0,0.0,-1.1768934607422068,-0.9574806772881287,58.05152628436589,-0.0024616029157690364,0.001846821045194872,-0.005269543423817812,0.4,0.045062109846830414,0.022581670861160145,0.7479771694875718,0.01644475424223629,0.13818282168358564,0.16822365578263998,1.2073688209056854,-0.15227141026304447,-1.4884406700730324,-3.2358337193727493,15.783768892288208,0.0,0.0,0.0,0.0,0.0,0.0,0.0,0.0,0.0,0.0,0.0,0.0,0.0,0.0,0.0,0.0,True,0,3.16046142578125,0.02993603515625
STABILIZE,3.07417893409729,29.606364130473146,0.0322294553120931,0.03289294242858887,0.0,0.0,0.0,-1.177366024455407,-0.9556090987338395,58.05837696410342,-0.0021188354515788437,0.0033093595501405477,-0.005246597931660405,0.4,0.04672420611954865,0.020245772297851895,0.7425821479066601,0.016561718468628202,0.19751833751797676,-0.09192230645567179,1.2746053747832775,0.02511895448764748,3.3623646944761276,0.6002185400575399,17.689767479896545,0.0,0.0,0.0,0.0,0.0,0.0,0.0,0.0,0.0,0.0,0.0,0.0,0.0,0.0,0.0,0.0,True,0,3.1890721321105957,0.034923828125
STABILIZE,3.10776948928833,29.77111828796536,0.03246763547261556,0.03259563446044922,0.0,0.0,0.0,-1.1784455145093864,-0.9546650385244968,58.0600435302609,-0.00046760429015385346,0.003228026438898018,-0.005195105520285759,0.4,0.04631548676709251,0.016715123085289208,0.7380245053631422,0.016963078272801423,-0.05630264640785754,-0.03242187376599759,1.1998450383543968,0.018937806711557835,-4.330962151288986,0.5122538190335035,13.976052403450012,0.0,0.0,0.0,0.0,0.0,0.0,0.0,0.0,0.0,0.0,0.0,0.0,0.0,0.0,0.0,0.0,True,0,3.2464959621429443,0.034925048828125
STABILIZE,3.1411731243133545,29.93579330526015,0.03232839902242025,0.0324552059173584,0.0,0.0,0.0,-1.178693322310211,-0.9547653569279313,58.062461417227084,-0.0015508604713286847,0.0006644953716459644,-0.0053696420145461984,0.4,0.04142672793536123,0.01831700160756278,0.7375006605413095,0.015116580142885494,-0.2061539562419057,0.13857284793630242,1.3476443476974964,-0.09608032441542226,4.105878993868828,-1.2210551649332047,19.554631412029266,0.0,0.0,0.0,0.0,0.0,0.0,0.0,0.0,0.0,0.0,0.0,0.0,0.0,0.0,0.0,0.0,True,0,3.2753477096557617,0.034925048828125
STABILIZE,3.1746041774749756,29.913802571801472,0.03237417538960775,0.0325160026550293,0.0,0.0,0.0,-1.1806463295260115,-0.9539174529754977,58.0679255685631,-0.0013018655999856178,0.002764291673318322,-0.005237219242603314,0.4,0.04484900124903148,0.01781247308786301,0.7389988903251206,0.01633153004394843,0.29033091850578785,0.011069991887779906,1.468763779848814,0.0889771077714875,-0.04609208554029465,0.5951997824013233,17.027071118354797,0.0,0.0,0.0,0.0,0.0,0.0,0.0,0.0,0.0,0.0,0.0,0.0,0.0,0.0,0.0,0.0,True,0,3.303988456726074,0.029935302734375
STABILIZE,3.2081639766693115,29.797979510933658,0.03240516980489095,0.03256344795227051,0.0,0.0,0.0,-1.181165637346344,-0.9533912082442894,58.06964677623394,-0.001580256628279117,-0.00045220125678009665,-0.005426554215875197,0.4,0.03597787644679937,0.020496426479315884,0.7357192789265651,0.014342168606174863,-0.4345719236880541,0.20414767786860466,1.386768463999033,-0.0934881342232702,-1.5298176556825638,0.6511490326374769,17.481493949890137,0.0,0.0,0.0,0.0,0.0,0.0,0.0,0.0,0.0,0.0,0.0,0.0,0.0,0.0,0.0,0.0,True,0,3.3408362865448,0.0349248046875
STABILIZE,3.241522789001465,29.97494407798352,0.03231361707051595,0.032434940338134766,0.0,0.0,0.0,-1.181421982883631,-0.9513083207125528,58.074523531301324,-0.001944118808468593,-0.00027389497360821993,-0.005721887639621945,0.4,0.03795726087206371,0.019516925326235158,0.7380733519592677,0.011313192520049354,0.20607274491339922,-0.02056577504845336,1.50039941072464,-0.1612246943674469,2.7618195861577988,0.7344237063080072,23.835664987564087,0.0,0.0,0.0,0.0,0.0,0.0,0.0,0.0,0.0,0.0,0.0,0.0,0.0,0.0,0.0,0.0,True,0,3.3712046146392822,0.02993603515625
STABILIZE,3.275279998779297,29.628114293787306,0.03240326245625814,0.032729387283325195,0.0,0.0,0.0,-1.1826261238899631,-0.9511029881506293,58.07697556921336,-0.0031006096584787817,-0.0006402242184363802,-0.005734727738668125,0.4,0.036469074376919944,0.01981339740114571,0.7313008045141608,0.011110022313562824,0.0016261852579191327,0.061122659826651216,1.1602692306041718,0.012593134601784564,4.804906249046326,0.6011493038386106,19.194912910461426,0.0,0.0,0.0,0.0,0.0,0.0,0.0,0.0,0.0,0.0,0.0,0.0,0.0,0.0,0.0,0.0,True,0,3.399885416030884,0.034924072265625
STABILIZE,3.3088250160217285,29.80623796360122,0.03226807912190755,0.03260922431945801,0.0,0.0,0.0,-1.18288652485207,-0.9509248696236801,58.079236361828634,-0.003074591264180902,8.030917227285584e-05,-0.00612365420898471,0.4,0.03422010083461789,0.02116583265775173,0.7332019683863266,0.007172476015211354,-0.05176349659450352,0.11862486135214567,1.4591763727366924,-0.21440282635766048,-1.2602446600794792,0.6411671172827482,21.28318101167679,0.0,0.0,0.0,0.0,0.0,0.0,0.0,0.0,0.0,0.0,0.0,0.0,0.0,0.0,0.0,0.0,True,0,3.42850923538208,0.0349248046875
STABILIZE,3.342318058013916,29.85737268469084,0.03241136868794759,0.0325777530670166,0.0,0.0,0.0,-1.1826537648117605,-0.951134897940658,58.08479613581303,-0.003313479126093343,-0.0005684509478375254,-0.006344130032889605,0.4,0.03532385592643396,0.02141934928431419,0.7321942886935485,0.004934658431600609,0.14838214265182614,0.051881716353818774,1.287498977035284,-0.10982349878881432,4.748865962028503,0.6057750899344683,20.518691837787628,0.0,0.0,0.0,0.0,0.0,0.0,0.0,0.0,0.0,0.0,0.0,0.0,0.0,0.0,0.0,0.0,True,0,3.457355499267578,0.034925048828125
STABILIZE,3.3758275508880615,29.842926870917708,0.032408746083577473,0.03253769874572754,0.0,0.0,0.0,-1.1841422124422945,-0.9500585028161462,58.08709790956332,-0.0019660662647092136,0.0030230379504783285,-0.006451665106309054,0.4,0.038122006579224016,0.01977538026217015,0.7329435343011946,0.0038336660413907367,0.17459903610870242,-0.07491745054721832,1.4639955945312977,0.09084128250743818,2.687832899391651,0.6725958548486233,24.61666911840439,0.0,0.0,0.0,0.0,0.0,0.0,0.0,0.0,0.0,0.0,0.0,0.0,0.0,0.0,0.0,0.0,True,0,3.5147383213043213,0.02993603515625
STABILIZE,3.409886598587036,29.363857209865653,0.03234151204427083,0.03309798240661621,0.0,0.0,0.0,-1.1845763563414133,-0.9474888575843405,58.091612664604696,-0.00324014413277585,0.0020455668743370545,-0.005836243515390626,0.4,0.03693142408499451,0.0227486152193665,0.7318637600405187,0.00992030905986928,0.013494945596903563,0.2214608248323202,1.4952154830098152,0.3819632548920215,-2.7310218662023544,-1.1428731493651867,26.983970403671265,0.0,0.0,0.0,0.0,0.0,0.0,0.0,0.0,0.0,0.0,0.0,0.0,0.0,0.0,0.0,0.0,True,0,3.5438413619995117,0.034924072265625
STABILIZE,3.4434654712677,29.77936185621175,0.03233364423116048,0.03247547149658203,0.0,0.0,0.0,-1.184724379347332,-0.9475151111239628,58.094754551622906,-0.002555991931182531,0.0024700785690489873,-0.0061343703587444925,0.4,0.036858953280082575,0.020951522032801054,0.7333166402999388,0.0068928715942351455,0.07036119350232184,-0.07074624882079661,1.4239522628486156,-0.16460587813044125,0.43030488304793835,-1.3116774149239063,24.827663600444794,0.0,0.0,0.0,0.0,0.0,0.0,0.0,0.0,0.0,0.0,0.0,0.0,0.0,0.0,0.0,0.0,True,0,3.572145462036133,0.0349248046875
STABILIZE,3.476745128631592,30.04515759312321,0.03223231633504232,0.032356977462768555,0.0,0.0,0.0,-1.1838405101800502,-0.9471017779574712,58.09717926877826,-0.0020579401879362936,0.0020741341165888914,-0.0057973939999971255,0.4,0.033658184922411225,0.020653041647358265,0.7332447264081314,0.010194490656007719,-0.11586208129301667,0.020355184096843004,1.3371807523071766,0.21362529202997652,2.8286058455705643,-1.315099559724331,21.368509531021118,0.0,0.0,0.0,0.0,0.0,0.0,0.0,0.0,0.0,0.0,0.0,0.0,0.0,0.0,0.0,0.0,True,0,3.601701259613037,0.02993603515625
STABILIZE,3.510307550430298,29.796921065905103,0.03241875966389974,0.03254508972167969,0.0,0.0,0.0,-1.1840463763505027,-0.9456226151153403,58.10251364652004,-0.001546712316612091,0.0017092772161723569,-0.005806637953115084,0.4,0.0335352544298688,0.019339361783536544,0.7312031342782943,0.010034917749406413,0.07363642216660082,-0.034700363175943494,1.4292538166046143,0.009601831910436323,3.699102997779846,-1.191797386854887,26.546621322631836,0.0,0.0,0.0,0.0,0.0,0.0,0.0,0.0,0.0,0.0,0.0,0.0,0.0,0.0,0.0,0.0,True,0,3.6304492950439453,0.034924072265625
STABILIZE,3.5438289642333984,29.83019216818628,0.03228596051534017,0.03242206573486328,0.0,0.0,0.0,-1.184023751348877,-0.9452781174490779,58.10511594859381,-0.0028468348399550585,0.0016961072589713074,-0.0057981384315588455,0.4,0.03598559648518676,0.021751264082414956,0.7338255698945452,0.01005260898687711,0.2194589003920555,0.18248738488182425,1.4847246930003166,0.016587574636732147,3.3188655972480774,0.8394645527005196,23.776225745677948,0.0,0.0,0.0,0.0,0.0,0.0,0.0,0.0,0.0,0.0,0.0,0.0,0.0,0.0,0.0,0.0,True,0,3.6591761112213135,0.034925048828125
STABILIZE,3.5771546363830566,30.008184758034513,0.03223160107930501,0.03235483169555664,0.0,0.0,0.0,-1.1853047319833716,-0.9447043815587968,58.107677269532566,-0.002977807029271189,0.0017738803531884802,-0.005883667706966668,0.4,0.03515459404345927,0.024743218616418865,0.739816214979364,0.00913624072978947,-0.1284763915464282,0.06839403067715466,1.5404914505779743,-0.03860482949850709,3.35579551756382,-1.1608585715293884,21.269109845161438,0.0,0.0,0.0,0.0,0.0,0.0,0.0,0.0,0.0,0.0,0.0,0.0,0.0,0.0,0.0,0.0,True,0,3.7172422409057617,0.02993603515625
STABILIZE,3.61063551902771,29.866514757717095,0.032351048787434895,0.032492876052856445,0.0,0.0,0.0,-1.1855902125463371,-0.9432600099927506,58.112014439655525,-0.003263170837838668,0.002122063090734177,-0.005970086892287481,0.4,0.03611472613427414,0.02397848437703996,0.7350084220548161,0.008217048792843951,0.1366051030345261,0.00047139164962572977,1.2653001584112644,-0.03542751420903509,0.19773768726736307,-1.2104121968150139,18.17210614681244,0.0,0.0,0.0,0.0,0.0,0.0,0.0,0.0,0.0,0.0,0.0,0.0,0.0,0.0,0.0,0.0,True,0,3.7457351684570312,0.034925048828125
STABILIZE,3.644113302230835,29.87140700225052,0.03232768376668294,0.03246259689331055,0.0,0.0,0.0,-1.1862121866476314,-0.9423316378741577,58.115286100267966,-0.002584276005065844,0.003710799107732646,-0.005851513636576575,0.4,0.037986716715410665,0.021664536573185105,0.7362759448212606,0.009340238798269304,0.18062515882775187,-0.10031145066022873,1.4018932357430458,0.08423926434438618,-0.5062186624854803,0.8199050091207027,20.642848312854767,0.0,0.0,0.0,0.0,0.0,0.0,0.0,0.0,0.0,0.0,0.0,0.0,0.0,0.0,0.0,0.0,True,0,3.7744009494781494,0.034924072265625
