Mode,Time,Freq,North-Vision,East-Vision,Down-Vision,Yaw-Vision,North-Desired,East-Desired,Down-Desired,Roll-UAV,Pitch-UAV,Yaw-UAV,Roll-Control,Pitch-Control,Yaw-Control,Thrust-Control,northVraw,eastVraw,downVraw,yawVraw,zGyro
GUIDED_NOGPS,0.0037064552307128906,271.44084908102514,205.30495791756022,-21.160130069819925,12.857963434493746,0.0007832757943263488,206.42111585257152,-22.995137229691107,11.553142901327073,-1.6295855923259581,1.8625836220391916,111.28149909021472,5.391539217416957,4.099192812572864,-1.9584057020736044e-05,0.4996737948667083,205.30495791756022,-21.160130069819925,12.857963434493746,1.9589727616101982,0.057295779513082325
GUIDED_NOGPS,0.006682157516479492,336.75664391810517,205.30495791756022,-21.160130069819925,12.857963434493746,0.0016324914209942638,206.4212462697826,-22.99506841283806,11.553157212195524,-1.6295855923259581,1.8625836220391916,111.28149909021472,0.07325074789403485,0.056245385255167216,-4.081959974339831e-05,0.49967379844442544,205.30495791756022,-21.160130069819925,12.857963434493746,1.9589727616101982,0.057295779513082325
GUIDED_NOGPS,0.03560829162597656,34.58021963526036,205.32875814501395,-21.305720489102,12.746791260534728,0.0019657216581336224,206.42214866578522,-22.99459224828448,11.553256813350155,-1.6972027575617918,1.887978265373299,111.290911090891,0.027358677788491225,0.04687839290971908,-4.920729513583426e-05,0.4997016163882039,205.3763585999215,-21.596901327666153,12.524446912616693,-0.6489914914411656,0.5156620156177409
GUIDED_NOGPS,0.045191287994384766,104.442441295849,205.43257170421236,-21.571659681846278,12.654794359269806,0.012514452374441983,206.42456626932477,-22.993316558779195,11.553525419247219,-1.7418423126560565,1.8717224151486687,111.28386233566755,-0.16872945165663017,-0.057302056288272056,-0.0003130440627971385,0.4997246827649944,205.7440123818076,-22.369477260079105,12.37880365547504,3.978997768505778,0.6302535746439055
GUIDED_NOGPS,0.0796818733215332,28.997428168468794,204.99340574046073,-21.801196802787945,12.391486547219404,0.02508918549476991,206.42921133386486,-22.99086551170377,11.554045035786187,-1.8881180708078726,1.6579585183033085,111.37206056841993,-0.005606341691533614,0.20015455849063868,-0.0006282818289820828,0.4997906396221417,203.23674188545417,-22.71934528655461,11.338255299017803,-1.1498318666279204,1.7188733853924698
GUIDED_NOGPS,0.12258386611938477,23.327867940688996,205.13983676158333,-22.26581006383775,11.981200573327733,0.06442741820815308,206.43676556483246,-22.986879393629305,11.554895971893172,-1.9507453559681889,1.2925477732975632,111.52261842829452,-0.05885149804931328,0.0327408177243342,-0.0016144797763782883,0.49989342384964136,205.87199186719639,-23.48319637506896,10.806533565035382,1.9600759692341683,2.119943841984046
GUIDED_NOGPS,0.16013360023498535,26.62475402135412,205.07381838669085,-22.78954588081812,11.30878618027507,0.12109465344442975,206.4478805468633,-22.981014384873227,11.556156851104372,-1.8700052629026451,0.9170331507969595,111.64606043716415,-0.10366567379454361,0.08990433512231431,-0.003035746416753247,0.5000618426677074,204.67770813733588,-23.778809154721785,9.495891469230434,-1.2720717678419362,2.0053522829578814
GUIDED_NOGPS,0.19668841361999512,27.364566954819768,204.70061638085073,-23.26839331529242,10.503554630399886,0.17475348313244582,206.46317817104705,-22.97294233405607,11.5579046231495,-1.6784325439489505,0.5725985570625581,111.73897833063302,-0.11850425715533239,0.19663326308147366,-0.004383542118235066,0.5002635874981874,202.08820233997,-23.99113850003767,8.49828916324078,-2.35594523489803,1.6615776058793874
GUIDED_NOGPS,0.23241090774536133,27.9995460583849,204.2749343622677,-23.592038834578908,9.590686804947602,0.244000075218625,206.4832510621725,-22.96235053265828,11.560214575535225,-1.4651242420655715,0.25356975908051843,111.82981984659418,-0.09821589465722767,0.2357670067836818,-0.006123485923378163,0.5004923819426469,201.89950176889585,-23.987704856511538,7.814464528213611,17.641057940755417,2.0626480624709638
GUIDED_NOGPS,0.269089937210083,27.27009349440204,204.0577397455496,-23.972201442487137,8.691070091553886,0.3284508173419016,206.5086630059731,-22.948941489576985,11.563160345128603,-1.2389473301773593,0.16025928981694793,111.93503891075822,-0.1255396761883597,0.1907616525018205,-0.008246793981098134,0.5007180225633937,203.5674009838155,-24.620158326095748,6.84017173204923,9.976618576596891,2.7501974166279517
GUIDED_NOGPS,0.30553436279296875,27.444783971418662,203.93360435538693,-24.31412706604636,7.769275341777886,0.4005358528540531,206.5399493763719,-22.9324327056828,11.566813929740519,-1.0125538799481166,0.1613714900737493,112.01965812438551,-0.13274237761711685,0.17553531219804436,-0.010063499978850534,0.5009493846469907,204.38327547862022,-25.192824492865068,6.197559816155379,-0.5969016057796068,2.119943841984046
GUIDED_NOGPS,0.3352360725402832,33.679179681540425,203.6860801891567,-24.618478852826364,7.014400390674969,0.4693031626113234,206.57761756272708,-22.91255644837661,11.571245699709118,-0.8392087480942177,0.1208172418767986,112.07064548653966,-0.1538726895591533,0.2439817167294081,-0.011796581436597522,0.5011392113272586,203.76381905196587,-25.300568088621826,5.721516713715848,6.687794235875131,1.8907607239317168
GUIDED_NOGPS,0.37130069732666016,27.73295247918857,203.55255018599166,-24.91980910309244,6.446285980304793,0.5005327273050248,206.62214739707704,-22.889059526146365,11.576524409483243,-0.7151829714939527,0.22911325290108286,112.12899579261908,-0.15145762106828103,0.20618163506120124,-0.012595435923864995,0.5012825596072946,202.1685018601338,-25.497789751368046,5.657717111389904,1.9237553509322254,0.9167324722093172
GUIDED_NOGPS,0.4087362289428711,26.725355388330648,203.2934261695605,-25.31613441248945,6.024611352272716,0.5363547415681136,206.6739915813858,-22.861703063123862,11.582717209205867,-0.6271499973029806,0.21632473753643894,112.16061273828707,-0.18809403478408643,0.2576365351091482,-0.013510772295022608,0.5013895264642333,203.79899973574703,-25.96933140349659,5.7060913880532205,7.21304442769339,0.5729577951308232
GUIDED_NOGPS,0.4454009532928467,27.277364809937243,202.90387197441854,-25.580551765878607,5.911997374811901,0.55416767761951,206.73357611478812,-22.83026227364154,11.589889656297538,-0.5628875755275339,0.21780080544910216,112.1561184738132,-0.1717450442704516,0.31778439783432927,-0.013976553095762642,0.5014194730703714,201.56127457620025,-25.942245093041535,6.2771018447451565,12.942293298387028,-0.057295779513082325
GUIDED_NOGPS,0.4858713150024414,24.71395406389573,202.87669618796338,-25.803803283978517,5.980105365289469,0.5411160639027986,206.80130072083494,-22.794526236789277,11.598105727039805,-0.5167591992767652,0.13246538245431488,112.1041202436619,-0.17093773405145235,0.2249781169686021,-0.013671943627165617,0.5014045000904376,201.87079604832869,-26.309082083364626,6.53809976854322,4.801239384578565,-1.088619810748564
GUIDED_NOGPS,0.5258395671844482,25.038079717282425,202.81197379555218,-26.01962146374956,6.3271717730969375,0.49875746982902047,206.87753927473847,-22.754297670971155,11.607427828158656,-0.48516973444801487,0.00733898490232581,112.0356954085567,-0.1802066954673546,0.24348510102961793,-0.012633243342272176,0.5013200640137654,201.38172262960612,-26.379658987477033,7.4568487527531895,3.146847241313253,-2.0053522829578814
GUIDED_NOGPS,0.5666260719299316,24.517197035235803,202.5145702370543,-26.18810855898654,6.724477546581634,0.421522546674613,206.96264023061764,-22.709392708462282,11.617916808407958,-0.3620760652260451,-0.04593849165575705,111.90950083345155,-0.18067724744779923,0.3229298949957556,-0.010719393655769498,0.5012233598154566,201.18817251583255,-26.34022522755293,7.644245978813394,4.190104739269984,-2.979380534680281
GUIDED_NOGPS,0.5926272869110107,38.47244108933141,202.28992661306066,-26.262392891258447,7.152540998566633,0.30980825156875985,207.05692704874315,-22.659640669965555,11.629631970152893,-0.24018312191582236,-0.017364128458744254,111.81077044899901,-0.18159482356929138,0.3650435002911984,-0.007934712510649687,0.5011192727428966,202.58612648667102,-26.340753064856138,7.846408647978213,5.452645295018087,-3.896113006889598
GUIDED_NOGPS,0.6307213306427002,26.255752810676817,201.95571091905904,-26.243388768148826,7.482089273185011,0.2107649765960654,207.16069862278295,-22.60488383916847,11.642631080953386,-0.18969077505373122,0.05169071155609783,111.66911915580212,-0.15382214881993322,0.38100980724540945,-0.005466676611665207,0.5010401354519421,201.09009349995284,-25.84722447749344,7.924843217837045,7.0582239027102105,-4.1252961249419275
GUIDED_NOGPS,0.6638286113739014,30.240551413863212,201.96155558631574,-26.112682681891705,7.792556253122115,0.07171466283124137,207.27422970704743,-22.544977237299893,11.65697038514755,-0.19432612562264268,-0.023709400878112543,111.48702631252958,-0.12741570193644652,0.30482269821143254,-0.0019927558395364674,0.5009661035330064,202.21525919818743,-25.655551652078987,8.090434668228742,3.2635872924767,-4.469070802020421
GUIDED_NOGPS,0.7011208534240723,26.810257983687453,201.65804577391845,-25.86393801865342,7.9706439209871505,-0.06768567399433137,207.39777134373455,-22.479788397686868,11.672704615435118,-0.22242410980547353,0.048227005234108,111.3768963423523,-0.09907784992766934,0.40848801004766483,0.0014947662099762896,0.500925515173612,201.37092123656853,-25.135935671285605,8.347287092078366,0.8634762740995683,-4.870141258611998
GUIDED_NOGPS,0.7284393310546875,36.61548668703623,201.51264772776773,-25.49285443950954,8.194545449732164,-0.22782838157991167,207.53155129017537,-22.40919714031139,11.689887004460875,-0.34350499431619197,0.17469398749327072,111.29709241208987,-0.04040095985048242,0.4095749614329157,0.005504589709132269,0.5008738353886821,200.39809020699457,-24.484807331833544,8.763753622538465,-0.5997647158440458,-5.156620156177409
GUIDED_NOGPS,0.7601814270019531,31.51290026897474,201.2165196044265,-25.002886200459557,8.470902250214454,-0.37223794643711355,207.67577444607906,-22.333095346367212,11.708569296398103,-0.39068393903867327,0.25591977104182595,111.11491760654728,-0.00904725230840251,0.4689099925167785,0.009126682871248843,0.5008094167615459,199.50177106159882,-23.8909118696062,9.228192650389662,-1.2562958820520294,-5.729577951308232
GUIDED_NOGPS,0.7876651287078857,36.39593547435375,201.19789220130932,-24.523098965786065,8.853558020137804,-0.5361593824188283,207.83062328077838,-22.251386732816616,11.72880175853201,-0.508949198125973,0.32188040196052004,110.97974816287274,0.016541902406792222,0.4024395290742335,0.01323963043772809,0.5007188109345986,201.2327034046687,-23.448288304125985,9.838122067453787,1.9412982418178473,-5.901465289847479
GUIDED_NOGPS,0.8222236633300781,28.942202594534916,201.05493242873797,-23.94185871995904,9.297783226802261,-0.7085659974670375,207.99625826047478,-22.163986626947217,11.750633192843164,-0.48443282106959396,0.4941275809053395,110.64131911968776,0.03405526000861803,0.44563417632605595,0.017574317786095646,0.5006132124915103,200.04449433526176,-22.749350422943852,10.311560701551032,-1.4494538824731222,-6.760901982543714
GUIDED_NOGPS,0.8597292900085449,26.666056329073687,200.6843523576298,-23.30075028116492,9.869947785240473,-0.9220032724652703,208.1728182754837,-22.07082174092875,11.774110947590938,-0.5768170526486873,0.7096910191535865,110.2468825253087,0.0553111887629911,0.5306758601440599,0.022944902952724642,0.5004760407905876,199.6214859178055,-21.930393477315015,11.208109884269426,-1.095818200023217,-6.990085100596044
GUIDED_NOGPS,0.8963348865509033,27.322498062028128,200.42604447005286,-22.615917524983132,10.522117195490054,-1.1627681753790877,208.36042106748002,-21.971829946369855,11.799280928896938,-0.7180450341995996,0.8226368415379156,109.98898141243819,0.08781598469548763,0.5308878801713374,0.029006605704576933,0.5003192909333517,199.02363039933746,-21.060643550924585,12.024600673786372,1.8295967101758492,-7.16197243913529
GUIDED_NOGPS,0.929912805557251,29.820012228589306,200.056061290327,-21.913745120369278,11.284757633679092,-1.3979565520087525,208.559163656743,-21.866960048874866,11.826187612328436,-0.8043704077372156,0.9707513079586404,109.83573928821978,0.12397095331691416,0.6114102210288463,0.03493258232859045,0.5001353574946623,199.25539376038046,-20.38004984653695,13.04139484133485,-2.7535256056165736,-6.818197762056797
GUIDED_NOGPS,0.9673151969909668,26.727739649646015,199.76376912237885,-21.095690769126303,12.119040539564283,-1.5976835685218753,208.7691227694019,-21.75617156260061,11.85487405448182,-0.781201125412063,0.939157520900806,109.53560711571109,0.1576079722595473,0.6014921324374763,0.039985426935705504,0.4999339583787294,199.03258389298338,-19.358016547911117,14.009536596879741,6.6427365944113035,-6.41712730546522
GUIDED_NOGPS,1.0020267963409424,28.815543051862843,199.53276421268757,-20.269294764694052,12.950559256003137,-1.8124459502226509,208.9903552646809,-21.639434484813187,11.885381904566017,-0.7061049030350653,1.0607733079411141,109.31330494879468,0.19347051066433676,0.6210783325042116,0.045418119289125564,0.4997337056621407,198.55005092946442,-18.61737040078259,14.469154283745299,1.3846867799630758,-5.901465289847479
GUIDED_NOGPS,1.0362756252288818,29.20417769112937,199.5874370698633,-19.301892567313633,13.832471488532628,-2.003977988000077,209.22289856214462,-21.51672907044477,11.91775141598593,-0.6880522861718985,1.183201353884125,109.19884463868361,0.26462460767257967,0.557548216999629,0.0502745792138965,0.49952131998186333,199.93915391900495,-17.09338249041292,15.61767104691688,6.043980302143581,-5.557690612768986
GUIDED_NOGPS,1.071509838104248,28.388036467251894,199.21870606283707,-18.319915262985017,14.597656428226454,-2.185543051949763,209.46677106894333,-21.38804560665038,11.952021457925877,-0.5757597607095105,1.2779092905240508,108.9499183943825,0.2848887100990686,0.7108348755519908,0.054891355749328616,0.49933859125742486,198.28285534845872,-16.15075702928151,15.850525372255506,8.765873108371892,-5.67228217179515
GUIDED_NOGPS,1.104274034500122,30.529785127816922,199.1635010331705,-17.37583702003716,15.300678492325144,-2.3725507398645598,209.7219726070582,-21.253384187364688,11.988229526933031,-0.5342197774771095,1.30071209051155,108.77876068397114,0.3239269077148164,0.6525468302350924,0.05964400832041315,0.49917188775865196,199.60285409792908,-15.65965863179766,16.556505161828298,4.43752907038774,-5.614986392282068
GUIDED_NOGPS,1.1371698379516602,30.406507129859868,199.16117205568594,-16.636165436814466,15.810072205314857,-2.54178723214756,209.9884848405465,-21.1127544878588,12.026411758500846,-0.5668519133713444,1.3282359385977032,108.60491187902682,0.29382217666741595,0.6533530776325819,0.06395842386099057,0.4990540848882965,199.60285409792908,-15.65965863179766,16.556505161828298,4.43752907038774,-5.557690612768986
GUIDED_NOGPS,1.1652653217315674,35.634034238137716,199.39170033464669,-15.922957831777065,16.33741255964467,-2.7017370108899574,210.26627170278695,-20.96617553929705,12.066602938652503,-0.7476507026004314,1.3957398721037027,108.43055080989473,0.3359024691687442,0.5946645076940508,0.06803187618537664,0.49893229759475194,200.86785663102336,-15.051332375595598,17.10585605539436,3.709874556391796,-5.099324376664327
GUIDED_NOGPS,1.2007598876953125,28.166515569702707,199.20640714568793,-15.326275524702897,16.642470765450383,-2.8261084171840025,210.55527982372496,-20.813675503293787,12.108836515524336,-0.8602312165858707,1.3472781858385812,108.27297151555337,0.28125759904110936,0.7327219640366927,0.07124239391452385,0.4988665914375185,197.77304824871035,-14.109970955042074,17.142962075945462,7.945945056481307,-4.8128454790989155
GUIDED_NOGPS,1.2356154918670654,28.697446563945373,199.1479908763158,-14.815437199993099,16.979486722013792,-2.982682946250207,210.85543895711794,-20.655291446470162,12.153144610949278,-0.9673871196272917,1.2705521095708894,108.11046082463125,0.2782649625995383,0.7258304909331902,0.07525777060240305,0.49879341447223385,198.56525373800628,-13.596565405732527,17.535605155072552,1.6220896361503492,-4.18259190445501
GUIDED_NOGPS,1.2655742168426514,33.38749452736318,199.04462340242293,-14.269542623239726,17.21624935101446,-3.1160898438724827,211.16666240778045,-20.491069115010927,12.199558032040287,-1.0380728540694595,1.268730903661729,107.99282447655612,0.30437598600986426,0.7768476338975585,0.07868998504454269,0.49874582717025645,197.72311113832149,-12.9301857480308,17.740318306831647,-1.6149061247670033,-3.8388172273765155
GUIDED_NOGPS,1.2943732738494873,34.7368752329289,198.6906867285424,-13.476113058656537,17.45653761336353,-3.234557304622323,211.4888474588296,-20.32106270922121,12.248106282773788,-1.0627191648026273,1.2536214580006029,107.87169107162595,0.3956834476748482,0.9192329417306824,0.08174468263782055,0.49869789216735255,197.1076605279606,-11.692510808881702,17.757946473573636,2.8222395870861163,-3.896113006889598
GUIDED_NOGPS,1.3293776512145996,28.57486221156401,198.54378737598014,-12.80434874531376,17.58695569699939,-3.324389681789291,211.8218757989303,-20.145334658083318,12.29881757557311,-0.9718702850437588,1.1850182909250544,107.75374053484899,0.35901569653675186,0.8452874773758446,0.08410672947954118,0.49867796546964344,197.1076605279606,-11.692510808881702,17.757946473573636,2.8222395870861163,-3.0939720937064457
GUIDED_NOGPS,1.357522964477539,35.539829007685334,198.2153653286917,-12.208239632064949,17.69059458906767,-3.436702123982644,212.1656139495404,-19.96395539381352,12.351718842891916,-0.9133190219923535,1.2179652024904917,107.66546717001575,0.3709245003671179,0.9833564532924196,0.08701100375393474,0.4986652810634561,196.97547771962144,-11.129425388798007,17.66115653628687,7.830264491033361,-3.151267873219528
GUIDED_NOGPS,1.4021191596984863,22.425715523095104,197.87522007849907,-11.615460092471416,17.71053498005939,-3.5091966900019638,212.51991369215608,-19.777003126418848,12.406835748797645,-0.7920966645204085,1.2898969128476578,107.55249584114374,0.3439712507647142,0.9342806023089585,0.08898072397251997,0.49867407519218454,196.8816920963882,-10.632667707764861,17.635307110031153,0.16236124823232956,-2.521014298575622
GUIDED_NOGPS,1.4415369033813477,25.379724316539797,197.48897239020548,-11.073325042996144,17.699489417970312,-3.6166787053461125,212.88461249555706,-19.584563618253867,12.46419270055494,-0.6706501914663224,1.2941717574944396,107.46825911810997,0.3525788273959418,1.0159332167700217,0.09180613979929962,0.49869117582064615,197.77787512467464,-10.21951050065445,17.685090496386263,-1.9716047723754428,-1.604281826366305
GUIDED_NOGPS,1.4687495231628418,36.74991019092096,197.3313236510534,-10.685770897492434,17.68447429640228,-3.6798692798628325,213.25953394305193,-19.386729958577476,12.523812860209098,-0.6263695414686009,1.3335005203439019,107.45429138125729,0.33877374450831443,1.0346868781915004,0.09349033503808693,0.4987098346409517,196.51185833549377,-9.754740081363144,17.682870865733474,-4.37592279866557,-1.2032113697747289
GUIDED_NOGPS,1.5104570388793945,23.982663289286346,197.2500704195148,-10.206690639020138,17.777252670589473,-3.6862526578596415,213.64448815972338,-19.183602338109704,12.585718156169486,-0.3602264713431468,1.459305667944661,107.43575424784987,0.3544841303676797,0.988277262261513,0.09379960969618932,0.498702116371395,197.91522788569762,-9.297109516520221,18.221838344509614,-1.5153677797680416,0.11459155902616465
GUIDED_NOGPS,1.5428242683410645,30.926427865685508,197.29458258630774,-9.68399352977119,18.00429924182283,-3.705130110154175,214.03927223967338,-18.975287823588484,12.649929294792996,-0.27803117445841996,1.5263277529490573,107.44013922929703,0.3880314919126038,1.0002142438541919,0.09439477461075574,0.49866140751324256,198.07920847266496,-8.51593984255326,18.796389392453666,0.5294216859177681,0.2291831180523293
GUIDED_NOGPS,1.5757746696472168,30.348863628141213,197.49092197268388,-9.252692662899133,18.31021818569264,-3.7033447679999667,214.44367067326866,-18.76190013232646,12.716465771967467,-0.17243398195057666,1.5481982321148497,107.45584183419888,0.3773056901338915,0.9701385352422679,0.09447087070521702,0.4986015618965687,198.67837561896965,-8.476163373404576,19.164901829380206,-2.759028212277201,0.4583662361046586
GUIDED_NOGPS,1.6114075183868408,28.069439053444516,197.65529817642508,-8.87293025599592,18.6785623815821,-3.7010765800797887,214.85745577438567,-18.543559406767763,12.785345884695131,-0.033709611576017796,1.5800975634163366,107.46739851427455,0.3657076369724909,0.9889706673433619,0.09454770747856898,0.49852669587577825,198.42267015789017,-8.32069846613839,19.526811475833554,-4.092648419721556,0.2864788975654116
GUIDED_NOGPS,1.6479721069335938,27.355643241480514,197.83619723120867,-8.586121932950968,19.047350503602114,-3.705987472091153,215.28038810765622,-18.32039198904481,12.85658674267604,0.1084207753684494,1.6354575272997594,107.48203560966589,0.3464915415055634,0.9989117715352586,0.09480578711411687,0.4984523090597685,198.42267015789017,-8.32069846613839,19.526811475833554,-4.092648419721556,0.0
GUIDED_NOGPS,1.6846411228179932,27.280558319837134,197.84177985494608,-8.33384756600012,19.407759066014204,-3.716020365313639,215.7122169157124,-18.092530195535083,12.930204279891509,0.17233938649861463,1.706628098451292,107.46664036327668,0.3348025683929867,1.0712097364086004,0.09519295376356463,0.49838061130346933,196.92635308628738,-8.035737681765989,20.02388115657006,0.41845560177820573,-0.34377467707849396
GUIDED_NOGPS,1.720963954925537,27.535772902141517,198.05849311311306,-8.231583399279598,19.71044215901448,-3.7488338662688943,216.15268054643204,-17.860112091417935,13.006213266187546,0.2925272637959936,1.766774957725836,107.41810503903456,0.2986027770550947,1.0277029526681711,0.09614938715344644,0.49832394277679326,199.51158119001047,-8.00461900895065,20.30980485745504,2.6766395304292274,-1.3178029288008934
GUIDED_NOGPS,1.751333475112915,32.93602519101353,198.70559528114634,-8.143618607743484,20.108864310029748,-3.7822146792601994,216.60150688018393,-17.623281265231363,13.084627318858292,0.247526108882115,1.7569330820186708,107.36256194070403,0.2910515462803482,0.892230135611192,0.09709842885818896,0.4982439407522071,201.6886756797601,-8.036339415724001,21.15701258445653,2.4861939583696113,-1.2032113697747289
GUIDED_NOGPS,1.7807068824768066,34.05379687741034,198.7687134058874,-8.03625252893902,20.405408210432764,-3.8443109856398836,217.05841375707317,-17.382186603428806,13.165458914229461,0.07675893321285945,1.7580133191245906,107.29203340733447,0.27366912196229587,1.11117197894951,0.09876418139533615,0.4981900126759492,198.42017288362604,-7.783868072116068,21.009530977848645,-4.565968423069037,-2.46371851906254
GUIDED_NOGPS,1.8125250339508057,31.43731730351227,198.67028337417185,-7.853548476111705,20.729981929849142,-3.918820322108098,217.5231094041862,-17.13698206493594,13.248719399241761,-0.12547309635343332,1.872087403382441,107.24231646036594,0.28561727112911983,1.1874332219890753,0.10075020761788817,0.49812968436734817,197.29176821894046,-7.407178202001807,21.14968007291544,8.021399247140607,-3.151267873219528
GUIDED_NOGPS,1.8447902202606201,30.99682220612797,198.56133655890443,-7.6974387273791915,20.976656255277224,-4.019829959290081,217.99529286283635,-16.887826455707447,13.334419003034345,-0.41300040821292633,1.9041914269156168,107.09797407263606,0.2716318852456227,1.2162001198571355,0.10340706974791083,0.4980894406869393,197.8068010968305,-7.255188938103422,21.25725278371045,0.6423949538027074,-3.9534087864026803
GUIDED_NOGPS,1.88572359085083,24.444752685289334,198.56425229289627,-7.504432195070677,21.22709663306204,-4.17775256866951,218.4746544158089,-16.634883203283835,13.422566848528241,-0.7456062348827762,2.0201279116610595,106.82371465670337,0.27993837164119717,1.184519168813528,0.10752328879018988,0.49804886755386657,198.44599602982493,-7.039586347408078,21.56200674637912,2.1263327366501983,-6.130648407899809
GUIDED_NOGPS,1.917656660079956,31.321111467893335,198.71357921762714,-7.236636619126186,21.33789003911275,-4.387031989864592,218.96087601460655,-16.378320131348207,13.513170964009788,-0.8827566468600438,2.0764526397647463,106.61710826449966,0.29104367468345776,1.1905721845268529,0.11289728189658786,0.49804382023122423,199.61728555573734,-6.697361536001545,21.71097961471008,2.125011259886236,-6.875493541569879
GUIDED_NOGPS,1.958590030670166,24.4421885653347,198.82323849231753,-6.905305313149318,21.54196008592364,-4.601389594371113,219.45363170669438,-16.118309234283053,13.60623829471407,-0.9868389647749591,2.2487351969550327,106.29813160007089,0.3005341205330436,1.203220632676864,0.1184446151799612,0.4980160695521976,197.80362728381047,-6.1272115422317315,22.029881211903092,7.746712197923841,-7.906817572805361
GUIDED_NOGPS,1.9897615909576416,32.08715076960739,198.7246650927174,-6.545242642391502,21.78167546341394,-4.873447050140201,219.95258806274546,-15.855026451727047,13.701774714408355,-1.0119483409895127,2.319729036961791,106.06240811143542,0.2991566915705072,1.3336822944700921,0.1253978785406159,0.4979800248127486,198.7229939932095,-5.6068648482127195,22.348256960366946,-4.337482957808632,-7.849521793292278
GUIDED_NOGPS,2.0229403972625732,30.167686808167844,198.36051115165597,-6.041477467917494,22.087829403701306,-5.088712881182846,220.45740460388586,-15.588651443131823,13.79978503697553,-1.103039052133682,2.497969226655621,105.80741665915133,0.3263542284236197,1.452387187753801,0.130948163976986,0.4979279889083186,198.77544415126852,-4.736363065733388,22.788022485147255,-4.442375603980352,-7.563042895726867
GUIDED_NOGPS,2.0504677295684814,36.321238677497014,198.50914867030724,-5.392319325326422,22.463259068046785,-5.317027889985905,220.96773422894006,-15.319367362318784,13.900273027997539,-1.1183352607799255,2.5495209331899384,105.64813664770664,0.39885030042211744,1.3486988903464676,0.13680329650382525,0.49785925348998766,199.60927303283623,-3.793795634452722,23.439155068106523,1.9882022005037925,-7.792226013779196
GUIDED_NOGPS,2.0780129432678223,36.31086216897092,199.0537365033925,-4.621040007306326,22.9837160210903,-5.515957166249954,221.48322364167615,-15.047360632035877,14.003241416338808,-1.1628140929852833,2.604132991359245,105.40788474365144,0.4632420997810596,1.2157330780232252,0.14192856131700748,0.49775488134881213,201.64847088362254,-2.840964945901065,24.313264379927666,1.6775186518082137,-7.906817572805361
GUIDED_NOGPS,2.1149251461029053,27.09883833619765,199.48073900814902,-3.7608905186840516,23.4809006040982,-5.719793141915132,222.00351377805117,-14.77282071851439,14.1086919057297,-1.260391349406849,2.705290227401249,105.09166064545818,0.46131005589290136,1.2596093195020936,0.1472349976616112,0.49765694782540787,201.2228211348825,-1.8264640991203565,24.515804126942587,-1.7422325708957658,-7.906817572805361
GUIDED_NOGPS,2.1487669944763184,29.5575428285519,199.7477024357266,-2.7815090155003284,23.981169026516085,-5.988621640179016,222.52824023345624,-14.495939906025736,14.216625186349933,-1.3348709337678415,2.880952447570222,104.81445058780405,0.5156332167365165,1.3323755952346616,0.15415874737137314,0.49755886403995847,200.58170345044576,-0.7099573322941024,24.849599072456364,-5.11853106676881,-7.7349302342661135
GUIDED_NOGPS,2.184033155441284,28.358669930088844,199.86413029915917,-1.7783862022744572,24.541871178695533,-6.230756246927607,223.05703368996197,-14.216913071438249,14.327040946412026,-1.3430420811709982,2.9280555665207455,104.6756816344369,0.5308519838808385,1.398842972460266,0.1604325619318181,0.4974462924419291,200.54870846319804,0.2792510003959682,25.5915332460445,3.3625855118332026,-7.62033867523995
GUIDED_NOGPS,2.21769118309021,29.740509111536554,200.52288621763176,-0.7496778983341705,25.114224253941074,-6.46037566243207,223.58952034356363,-13.935937458773967,14.43993788374473,-1.3928758884073518,2.946042869699974,104.36895149918996,0.5903391252411558,1.2494149025605674,0.16638728705303962,0.4973314284074509,203.0736746315913,1.3497458852487112,26.300920444334224,-0.198111807040533,-7.104676659622208
GUIDED_NOGPS,2.243135452270508,39.28391199692795,200.96084632534038,0.3092797025284562,25.592387188878412,-6.67658255744877,224.1253223314265,-13.65321245376543,14.555313717376466,-1.372846038501172,2.9293678166150343,104.24568024504957,0.6696344464475318,1.3427774731818514,0.17196319181666306,0.4972407316321245,202.22667485487838,2.4538230584120684,26.70407905461435,-0.11878598855075495,-6.818197762056797
GUIDED_NOGPS,2.2810287475585938,26.396868352486564,201.39225016329164,1.1653371340349412,26.030042174412763,-6.791641553966987,224.66405815913106,-13.368939358412467,14.673165199118763,-1.5091971049021364,2.813587999333679,103.9688868289348,0.5692350919932845,1.3298857117289005,0.17509847687892935,0.4971607807561765,202.22667485487838,2.4538230584120684,26.70407905461435,-0.11878598855075495,-4.640958140559668
GUIDED_NOGPS,2.312366247177124,31.91866429234586,201.6949356788009,2.1882068575698823,26.391568636620963,-6.951222699873673,225.20534312791833,-13.083321165538969,14.793488125149688,-1.550844716974818,2.767719863962458,103.8774374261375,0.6558825067810857,1.4031115092901185,0.17930603999867945,0.4971004798721322,202.03075715691034,4.404391285380603,26.65723138349735,-12.492453839963659,-2.807493196141034
GUIDED_NOGPS,2.3452889919281006,30.37875813916432,202.16101692334146,3.290351901921993,26.71546892954388,-7.02310270226353,225.748789761935,-12.796562333349716,14.916277347597287,-1.5437579688241068,2.726912898766217,103.82618368660573,0.7030600530671701,1.3634303021394931,0.18133469188109952,0.49705020210451334,205.37712083994717,5.789976222156522,27.211034710659078,2.088454217259681,-1.4896902673401404
GUIDED_NOGPS,2.3771302700042725,31.41494835708882,202.62655436895292,4.31259637160181,26.87345564397855,-7.063061601601465,226.2940082354789,-12.508868559987123,15.041526786123022,-1.4803923829031944,2.681915612514173,103.81729761049554,0.7194116536414656,1.3736925282484496,0.18255737070974004,0.49704201778553614,204.9471206997742,6.460968233647796,27.09085401650755,2.733354015892644,-0.17188733853924698
GUIDED_NOGPS,2.4080212116241455,32.39219986871066,203.14444511420604,5.228761494852267,26.870254411328965,-7.066854048920065,226.84060680024413,-12.220446558088067,15.169229439505196,-1.3842384738716358,2.6247238772727175,103.84588878236121,0.7277760274255027,1.3627759073167935,0.18286573570687598,0.4970747437570441,204.7248294124706,7.034648674664357,26.68807289136644,-9.119806308799824,0.9740282517223995
GUIDED_NOGPS,2.4317777156829834,42.10176364895656,203.74167982784112,6.226246183101209,26.866568489729968,-7.040763092469577,227.3881922125663,-11.931503829340656,15.299377397222408,-1.2529650127883412,2.594506693497758,103.86328527417724,0.825287299714121,1.344260919085363,0.18238650697883138,0.49710820222687313,205.3265861722786,7.441246499656779,26.685649446619337,-9.653913692691788,1.6615776058793874
GUIDED_NOGPS,2.4627904891967773,32.25172050534798,204.02329377042705,6.833617225956443,26.87225210235436,-6.9808005738511465,227.93637016066793,-11.642248439041015,15.431961851036965,-1.1632545334650433,2.493206023483183,103.98236279216724,0.6784351299051515,1.446503298603231,0.1811039829380314,0.49713992743717067,205.3265861722786,7.441246499656779,26.685649446619337,-9.653913692691788,2.9220847551671985
GUIDED_NOGPS,2.4973249435424805,28.96558772953599,204.56978595339868,7.244299749029855,26.776894933024913,-6.880138546629849,228.48474569190356,-11.352888790650105,15.566973106578342,-0.903013333751862,2.402189483924532,104.14849348334945,0.6437980016203981,1.3592357743981984,0.17882444028029565,0.49719751954338837,206.59861231865142,7.84338883752358,26.734248864011835,-4.033312849715486,4.698253920072751
GUIDED_NOGPS,2.535076379776001,26.493408710482267,205.1391997425719,7.569344115825167,26.678221575426825,-6.746987095689294,229.03292364000515,-11.063633400350472,15.7044005949266,-0.8118561883458438,2.220408268032874,104.33142643988991,0.6301743211899822,1.3520179200298366,0.17575062466284658,0.49725654475487496,206.781985168264,8.086190067624358,26.597487228517117,1.0635339567858892,5.443099053742821
GUIDED_NOGPS,2.5700583457946777,28.59044463985058,205.86270727156466,7.796055654488635,26.58053906567158,-6.537803723337684,229.58050905232736,-10.774690671603054,15.84423288419583,-0.7022579057067614,2.1482012156747916,104.60861600697653,0.6184042279346624,1.2983814606024646,0.17075014305888084,0.49731592345463105,207.81881738885244,8.168206367981693,26.19966034259023,4.244240853046733,7.792226013779196
GUIDED_NOGPS,2.6072466373443604,26.89742652481451,206.4216055739322,7.927236530162411,26.459203597702118,-6.2850175381871205,230.12710761709258,-10.486268669704,15.986457691117586,-0.6388653191942864,1.898152259028856,104.9198950482107,0.5945099437352366,1.3422570739622033,0.1646627774699037,0.49738181352335387,209.84830725888753,8.09715087802566,26.078972106772,6.021698546372889,9.052733163067007
GUIDED_NOGPS,2.6367359161376953,33.919679104598316,207.55349491875813,7.965974070189647,26.388783292787252,-5.9725199472323816,230.6723260906365,-10.198574896341409,16.131061892624327,-0.5760242170964369,1.7486058007599559,105.23430231608472,0.5833335081803953,1.1176712936185578,0.15702712371916777,0.4974355696499593,214.00223545838156,7.634934199792962,26.333547922045014,-1.5198265472955228,10.485127650894066
GUIDED_NOGPS,2.664395570755005,36.166834812151315,208.10749355607328,7.773647530916532,26.071443146641393,-5.665456668938251,231.21577272465316,-9.911816064152152,16.278031537432838,-0.49820141521928185,1.6169936049825107,105.58941751141202,0.4808833418234201,1.2998298635093242,0.14950686812649056,0.49755164709769784,209.15681851099174,6.881756141157997,25.14754813328255,12.033310365403551,11.516451682129548
GUIDED_NOGPS,2.6988883018493652,29.00003457073518,208.58627259841242,7.532760745623259,25.781455327594482,-5.336228563798628,231.7570576934404,-9.62619787127866,16.42735185762769,-0.3906964254782497,1.493230363778468,105.97982429418079,0.48049964668211265,1.3254047571968637,0.14145657013107332,0.4976614741325083,209.15681851099174,6.881756141157997,25.14754813328255,12.033310365403551,13.006141949469688
GUIDED_NOGPS,2.7343530654907227,28.21141558039738,209.3845764734804,7.077254220516298,25.576980477653443,-4.9288989938429655,232.295793521145,-9.341924775925694,16.579007280244646,-0.22167889881442812,1.371516392768841,106.52470263521856,0.4299310304933798,1.2172782847273969,0.13144964082603494,0.4977505067006478,211.71301717282248,5.890673742446892,25.17728609288503,9.610502684463114,13.980170201192088
GUIDED_NOGPS,2.7672677040100098,30.380958589568078,211.08337628103936,6.1710122793969315,25.38726289074479,-4.472415392832511,232.83159550900785,-9.059199770917154,16.732981438854125,0.07567613478600087,1.1575383054599773,107.04402240838213,0.29974460968020505,0.8730275466313822,0.12018656292805069,0.49783642963702734,220.18901077912318,3.565941172428829,25.130384172228744,-2.0406407208786135,14.667719555349075
GUIDED_NOGPS,2.796377182006836,34.36292284878624,212.75925448239678,5.357213673924106,25.14663014078154,-4.015523715904799,233.36408216260952,-8.778224158252875,16.889257185144615,0.12802832081474533,1.1266025644399913,107.31666306948154,0.245214017749837,0.7534798417424833,0.10887687176205679,0.49793565676109075,220.18901077912318,3.565941172428829,25.130384172228744,-2.0406407208786135,15.2406773504799
GUIDED_NOGPS,2.825042247772217,34.89495665485283,214.02982956247905,4.406266508814622,24.982479458549143,-3.61841087445307,233.89287561911524,-8.499197323665392,17.04781660050613,0.47211003922898026,0.9804798452142657,107.89145080889479,0.17580447567396906,0.8703414018253341,0.09905658928022791,0.49801633428548925,217.98341802951063,2.127020315610579,24.326794722120564,5.7482391590615975,15.641747807071475
GUIDED_NOGPS,2.861276626586914,27.605910422220028,215.45011185476363,3.131508507521869,24.756490694123706,-3.178552419740603,234.41760207452032,-8.222316511176729,17.20864100761363,0.7654875281745082,1.0184449181072528,108.46550088787768,0.10531798457593175,0.8199963530454634,0.08817291514878013,0.4981130375783725,221.21056559716413,0.5079661346942316,24.017604311155363,-0.046742855656830784,15.870930925123805
GUIDED_NOGPS,2.8885092735290527,36.728670630576985,216.05299414108373,1.6944356533086598,24.408413900641015,-2.667094618754595,234.93789221089534,-7.9477765976552455,17.371710982010455,0.9399375498483625,0.8898545474290094,108.74169324734548,-0.10395556050473781,1.0298236522454707,0.07546121648756728,0.4982408242703424,218.82529374894239,-1.2946905286191543,23.436902125471594,-4.579336897601507,16.329297161228464
GUIDED_NOGPS,2.915055990219116,37.69347736218703,217.62884206873238,0.3828119996453367,24.114287963172146,-2.237135161691287,235.45338162363146,-7.675769867372335,17.53700636369178,1.1469793666116666,0.8805616481763838,109.23562520736412,-0.13320294831826654,0.6068111156272342,0.0647713610343941,0.4983556796001299,221.76360193218107,-2.992177095887786,23.659754484884377,-2.662275440883022,16.50118449976771
GUIDED_NOGPS,2.9546613693237305,25.2551768155735,219.55003809475988,-1.317823279890923,23.85232877599107,-1.8310964832866659,235.96371124868563,-7.406485786559312,17.704506268688032,1.3871286043859032,0.8941927847690253,109.91504461467281,-0.12423285911502034,0.5852191950829551,0.05469305024400958,0.49846304437317424,224.52638671921193,-4.937235225252469,23.82058823632336,2.664802948382544,16.157409822689214
GUIDED_NOGPS,2.9856486320495605,32.28101069028946,221.12728664956998,-3.1352802113878484,23.838533843162942,-1.2467829571431794,236.46852778982603,-7.140110777964086,17.874189100648334,1.4409149567175785,0.8298672371046087,110.47175967354221,-0.342986286904907,0.537973801701867,0.040123712418921785,0.49850891381437135,224.3310056113033,-6.960264341874049,24.257820057979934,-1.7427557967878187,15.584452027558392
GUIDED_NOGPS,3.0141444206237793,35.09642869096629,221.87550816605165,-5.020271560353427,23.9057545426761,-0.7818685049228926,236.9674841458771,-6.8768279954080604,18.046032562423935,1.406480237851842,0.6421910343507008,110.9266366118867,-0.48619562815926953,0.7882184662107423,0.028523312079054366,0.498535069504937,226.17478291097643,-8.916990610133658,24.35370780872115,6.483088161551123,15.412564689019145
GUIDED_NOGPS,3.0465023517608643,30.91434678459554,222.6686867269588,-6.958262666950557,24.14280624033907,-0.3646359602596113,237.46023983796493,-6.616817098342924,18.220013667651656,1.2794978431146078,0.383361762805008,111.37916396515674,-0.5148229808889154,0.7717337997657784,0.018104267160976843,0.49851930185682813,226.53443926638053,-10.984646061604806,24.62216061378644,0.6917502420390917,15.126085791453734
GUIDED_NOGPS,3.0822856426239014,27.952709096967677,223.77728423219185,-9.003669294412074,24.296977031145538,0.0907907804967161,237.94646143676255,-6.360254026407286,18.396108752337323,1.046632788646778,0.11235741225950312,111.90451479535744,-0.5817578052397054,0.661829947378122,0.00671541645454719,0.49852478293029795,226.8521980713749,-13.219210233195364,24.43060843891671,-2.237116724035303,14.381240657783664
GUIDED_NOGPS,3.1223058700561523,24.99168196010201,224.79648646443096,-11.083743725232722,24.376752059874953,0.5460584420493613,238.42582298973514,-6.1073107739836665,18.574293486439192,0.8391401793982531,-0.23560201265387432,112.39893169880715,-0.6033994853377658,0.6861903615417523,-0.004688492870458586,0.49854938535664106,229.36418345507698,-15.337607379355715,24.219463379970442,1.53814937852961,13.750987083139758
GUIDED_NOGPS,3.1552248001098633,30.425034637341593,225.79447015665357,-13.205482949500055,24.091256285925077,0.9954667653613258,238.89800644838527,-5.858155164755178,18.754542885451393,0.724479392562869,-0.5865050356561157,112.89269290409655,-0.8279312420710894,0.6382127095482996,-0.015955578501393453,0.4986658216498816,226.80916328672328,-17.56896046321071,22.830341188230545,-6.754546008737961,13.006141949469688
GUIDED_NOGPS,3.1872801780700684,31.19230139961031,226.6739920717862,-15.378890264534945,23.598390923675364,1.3723737686804633,239.36270209549832,-5.612950626262315,18.936831321987373,0.6696490885052396,-0.7879704298489274,113.25234334503274,-0.9137968525386204,0.6648415407943825,-0.025423617491330274,0.498834610099578,228.7997772532419,-19.78402718530811,21.88938099747257,-0.1089190805151361,11.974817918234207
GUIDED_NOGPS,3.2275772094726562,24.82233256200695,227.37481500096146,-17.54804349564814,22.8539692058706,1.7303130441890846,239.81960897238758,-5.371855964459758,19.12113253736332,0.6570072621251922,-0.948380303992733,113.66972937502304,-0.9005969027735232,0.7240476239990725,-0.03444155358253072,0.4990667908328732,230.1329701526142,-21.83041221717079,20.900052024762623,7.861445403167508,10.141352973815572
GUIDED_NOGPS,3.262310743331909,28.797341554009982,228.1950775008944,-19.72704578933632,21.885156695799687,2.1213733110276585,240.26843530613945,-5.135025138273189,19.3074196531816,0.775382391208594,-1.1823836521744278,113.98902022815363,-1.0723176913882366,0.6728383841700616,-0.044291670213649034,0.4993555657393455,230.89310561076675,-24.114221701636254,19.58654588856215,-2.1953608633909028,8.193296470370772
GUIDED_NOGPS,3.291682720184326,34.05379687741034,229.03841094095327,-21.900703374978768,20.869533772721944,2.3802906857861714,240.7088989368591,-4.902607034156031,19.495665182914205,0.8198563142154857,-1.1960433901842185,114.19156265780119,-1.264775409521856,0.6368252864328916,-0.0508347488327792,0.4996565328525481,232.92145043144734,-26.20589530756797,19.141348764581732,-4.3699453958853525,6.359831525952138
GUIDED_NOGPS,3.3253984451293945,29.666673739752866,229.98351832354916,-23.924748562103794,19.97990982411015,2.5266876204636786,241.14072774491527,-4.674745240646313,19.68584104348617,0.8754077368390804,-1.2893138921689737,114.34011927224897,-1.2380832645979556,0.598684164265408,-0.05457980226844185,0.49992648280484403,234.09529832714782,-27.689186398835833,18.38222144517157,12.631555165201277,4.068000345428845
GUIDED_NOGPS,3.3609836101531982,28.111203452990537,230.9663098932972,-25.806981228760286,19.20470721705589,2.6468115270207355,241.56366007818582,-4.451577822923351,19.877918566859023,0.7352791489402756,-1.1641938979193316,114.4107639188344,-1.2657178598140517,0.5697648270136065,-0.05767654129992165,0.5001683028374507,234.71453062935933,-29.195190518590564,18.01336796220128,11.317410255076297,1.7188733853924698
GUIDED_NOGPS,3.3938822746276855,30.400997347172492,231.79637893984298,-27.615925317313128,18.60598470891366,2.6943327886669017,241.97744517930283,-4.233237097364647,20.071868511614227,0.5893497027237202,-1.1781886353635704,114.37332765199356,-1.361371923988757,0.5879580339601931,-0.05895375817123961,0.5003664709506751,236.00473582744348,-30.875132659934987,17.906439484051486,-2.4965987148201805,-0.8594366926962349
GUIDED_NOGPS,3.4320149421691895,26.229810013382863,233.11395762365729,-29.13308799764327,18.21796684547777,2.654992554837331,242.38184361289808,-4.01984940610264,20.26766107453659,0.2893082436649342,-0.9660450941770901,114.2762911544552,-1.3137789335194248,0.42669909058306627,-0.05807149617291779,0.5005124235572647,237.3497927572379,-31.70003510328699,17.6464565713827,9.786833865265848,-3.380450991271857
GUIDED_NOGPS,3.468254804611206,27.620817501135967,234.25470221628652,-30.382681141002557,17.998563199730864,2.54219485683671,242.7766276928481,-3.8115348915814202,20.465265902197718,-0.0028565798780123834,-0.7492802896868613,114.09796174541533,-1.3360389407146267,0.4211967272829263,-0.055343150353320485,0.5006166756756167,237.9257339942758,-32.453861024364414,18.04433053584721,7.753357743544683,-6.016056848873644
GUIDED_NOGPS,3.501189708709717,30.35896841998596,235.3365101642283,-31.40179261051808,18.09579977424069,2.3603177265278656,243.16158190951953,-3.608407271113638,20.664652102539463,-0.26192654889088196,-0.667651204812158,113.8265368579882,-1.3617370512429208,0.3805110483679878,-0.050874338222750046,0.5006422130820747,238.78743373614853,-32.78474374641342,18.86840431772069,5.9042974667685115,-7.62033867523995
GUIDED_NOGPS,3.538454294204712,26.860220424839742,236.32330117990102,-32.11970325608265,18.26680704534457,2.112674463583292,243.53650335701442,-3.4105736114372682,20.86578825645734,-0.4820000997863058,-0.43459733296637443,113.54516038494035,-1.307417206673108,0.3857258141367119,-0.044760338996650585,0.5006497453027782,238.78743373614853,-32.78474374641342,18.86840431772069,5.9042974667685115,-9.682986737710912
GUIDED_NOGPS,3.5692551136016846,32.48527657728829,237.4176368813159,-32.351508195994825,18.727092456903193,1.7993911509930853,243.9012021604154,-3.2181341032722877,21.068642429383956,-0.6805450011395553,-0.356612340776858,113.15867413075519,-1.2390088417214118,0.2763304992059637,-0.03698483551008851,0.5005853874931202,241.6761360427662,-32.034157359495836,20.20786654184461,7.8200596640285625,-11.172677005051053
GUIDED_NOGPS,3.603360414505005,29.31726615687864,238.36524159576823,-32.418332647236596,19.239374450995577,1.4520142142799553,244.2555019030311,-3.0311818358776144,21.273182182872475,-0.7917275141401104,-0.2066153301465749,112.65722213246035,-1.2036055189563106,0.29833876607215004,-0.028350322934515698,0.5005084519329692,241.6761360427662,-32.034157359495836,20.20786654184461,7.8200596640285625,-13.06343772898277
GUIDED_NOGPS,3.6478335857391357,22.496079293736525,239.35122105542249,-32.167334524736596,19.796307990768945,1.043442182856668,244.5992400536412,-2.849802571607807,21.47937458618002,-0.9197709894370768,-0.11109211971575825,112.11028790448242,-1.1344025533579898,0.2838761694904938,-0.01818196933518381,0.5004207666488528,242.60236630659367,-31.198870411864398,20.82899823471406,10.269336198807252,-14.152057539731334
GUIDED_NOGPS,3.680596113204956,30.525341329218946,240.44024026533768,-31.408540797936173,20.41143449969459,0.5073426905824265,244.93226839374188,-2.6740745204699117,21.68718622785114,-0.9854440053586898,0.022585888120498335,111.71596059313006,-0.9892694966066883,0.15293718222869862,-0.004796335495415886,0.5003189379320392,244.71688950676491,-28.990775112411317,21.944036862348906,3.47837763781925,-15.01149423242757
GUIDED_NOGPS,3.7253832817077637,22.331627790585618,241.39631941244392,-30.28727304784161,21.15510948432452,0.042763531040050484,245.25445344479104,-2.504068114680205,21.896583227301228,-1.2398823190417105,0.10280651328315099,110.86001494672242,-0.9252909282001449,0.19926180859062192,0.006816234658913845,0.5001853684357441,244.99842593408783,-27.1784049959406,22.586779240870342,12.411353874227657,-15.699043586584557
GUIDED_NOGPS,3.7594494819641113,29.366735515490987,242.65654409667283,-28.99707816866759,21.773924402538917,-0.5832727920690979,245.56567689545358,-2.339845783220948,22.107531246399958,-1.4412983010847455,0.20042571133508885,110.31627041708687,-0.7886703106331703,0.00673284773940277,0.022487006088416955,0.5000834017109652,248.007531468107,-25.583182963625724,23.3019411329166,8.27149624397363,-15.928226704636886
GUIDED_NOGPS,3.7945542335510254,28.49236454540514,243.70283448617897,-27.28226267956187,22.434761271094285,-1.0703968899158358,245.8658360288465,-2.181461726397327,22.31999550105472,-1.4861905731783005,0.2433396298077203,109.7720067930744,-0.6384646278290508,0.03159249814446731,0.03470263529742173,0.4999713085574901,247.1577568521977,-23.46007991396725,23.512050884621434,7.970201171820662,-15.355268909506062
GUIDED_NOGPS,3.8312087059020996,27.288367826262338,245.1377172928561,-25.392085378750647,23.013217925216757,-1.588469557213285,246.1548441497846,-2.028961690394052,22.53394077279407,-1.5943871729336494,0.4117815396111964,109.17116188197754,-0.5405879081984558,-0.1302107946433437,0.04771233905321995,0.49988018071189433,250.26649618956566,-21.747983907808287,23.721281505326413,2.3744065062650463,-15.813635145610721
GUIDED_NOGPS,3.858445405960083,36.72191773625873,246.16633091167898,-23.478841350320078,23.40002162898327,-2.1004054336825364,246.43263101202498,-1.882382741832341,22.749331420351144,-1.6165651173337983,0.5845670762008304,108.81762446034851,-0.3402580923954538,-0.12258437732477716,0.060568750326591855,0.499837327447842,249.90504499334952,-19.424554970258455,23.878055381181472,11.591171903226382,-15.469860468532227
GUIDED_NOGPS,3.8931074142456055,28.857771906649052,247.33981583437065,-21.517357185783617,23.776052423675154,-2.484718708749826,246.6991432455133,-1.7417530423264331,22.96613139124711,-1.6855020031833254,0.6682304902311397,108.25907891078155,-0.35642966928910186,-0.16177283962953784,0.07026236987397469,0.499797519741893,251.06401542429958,-17.370984173258282,24.466933214329764,12.098539704918068,-14.725015334862157
GUIDED_NOGPS,3.9341988563537598,24.342181932143976,248.64615075344184,-19.46751284661961,24.197998669734552,-2.9576902351782435,246.95434478362813,-1.6070916230407413,23.184304233374604,-1.8028013241115972,0.8993513918613831,107.6744283782068,-0.3267618096258117,-0.2090608570179527,0.08220813596795694,0.49974657639091,253.05304565916313,-15.333961267805691,25.411672363213572,7.212802664588352,-14.152057539731334
GUIDED_NOGPS,3.9828383922576904,20.56243044627143,249.725039129138,-17.408242468910835,24.666692120129415,-3.5161280564370765,247.19821729042687,-1.478408159246353,23.403813106581143,-1.842609801028547,1.134464112174676,107.07350833502908,-0.21072569046479456,-0.21328592235662627,0.09630123188974013,0.49968428024661293,253.34799651233402,-13.163728025423373,25.855518136595744,3.3043230054540516,-13.750987083139758
GUIDED_NOGPS,4.007828235626221,40.02847790194974,251.1211663826451,-15.314223839649008,25.287977502719954,-3.987004477600975,247.43076058789063,-1.3557027448779273,23.6246207942526,-1.8566921569932324,1.3360352675779172,106.68418755233836,-0.09419440162186196,-0.36543957357841833,0.10821694269567923,0.49958416082288315,256.16744396214483,-11.277890761499169,26.827708418279116,-4.847026806494213,-12.490479933851947
GUIDED_NOGPS,4.043912649154663,27.71829049887985,252.52507121941358,-12.886428138432706,26.32760698920121,-4.419101244664025,247.65199308316963,-1.2389656670905218,23.8466897148966,-1.7557569020992534,1.6127996553887114,106.17430710060773,0.07884709939293827,-0.4167496472233306,0.11917905328648089,0.49937977068142386,259.23877016225487,-7.285576464176947,29.07620281358775,-5.010488112176404,-11.860226359208042
GUIDED_NOGPS,4.07771372795105,29.5896549534741,253.71224377597335,-10.38537768477236,27.34832737683564,-4.797277779737186,247.86195219582845,-1.1281771808162624,24.06998193372599,-1.6423401168273106,1.8248762820656668,105.85516651163888,0.22938496259939004,-0.4138753299462724,0.12879606360648987,0.4991804136392226,256.65513730467575,-4.86573190495655,29.57053515250192,10.916872107680717,-10.026761414789407
GUIDED_NOGPS,4.1123552322387695,28.87386326869196,254.57539109946106,-7.957531708007326,28.356516367653455,-5.133251687197565,248.06069478509153,-1.0233072833212695,24.29445917424226,-1.4792720184359007,2.0468531612228498,105.47951293747735,0.29296278499305534,-0.34507075210324817,0.13737247238694808,0.4989844857016472,257.17167477746744,-3.1947313839805216,30.45261731730265,-4.3462676024448825,-9.568395178684748
GUIDED_NOGPS,4.1422340869903564,33.47783471417397,255.49053390489368,-5.584952644628582,29.503395915611186,-5.444600768741787,248.24829757708778,-0.924315488762371,24.520082829818946,-1.335669105405381,2.1386214484770254,105.21006197472035,0.463599691119691,-0.41482456718018235,0.14531873636885953,0.49875417172855196,257.2261874368106,-1.3008327085296567,31.5899158763844,8.215065106991972,-8.708958485988513
GUIDED_NOGPS,4.17543363571167,30.12846409125519,256.86998611653974,-3.2293762230813563,30.761295188132173,-5.675182337464209,248.42485759209677,-0.8311506027439002,24.746813975285143,-1.265729142243214,2.1628494101235303,105.04498996285949,0.5074629197822362,-0.5861464263746918,0.15127222624779196,0.4984963796967882,262.0996331174683,0.4999913462369598,33.11720478088408,3.9215425207080017,-7.792226013779196
GUIDED_NOGPS,4.204381465911865,34.55771147967801,258.0008095488279,-1.6722626609985745,31.56949558159144,-5.903781247750415,248.5904925717931,-0.7437504968744797,24.974613378508863,-1.0777099359269244,2.1567526125156475,104.86398311966498,0.44016926589472466,-0.61677830686908,0.15715561348384804,0.49835127944922936,262.0996331174683,0.4999913462369598,33.11720478088408,3.9215425207080017,-6.41712730546522
GUIDED_NOGPS,4.242691278457642,26.111910750305054,258.87863671278194,-0.3224483322905808,32.37421709949881,-6.054109246587735,248.74534140649246,-0.6620418833239192,25.203441511980525,-0.9323306401036724,2.024772440296668,104.62246080042415,0.3324638655700333,-0.5141750568053288,0.161146924512855,0.4982073061031204,260.3706138239665,1.8833397385834185,33.594142742038756,-0.1894744610454211,-4.984732817638163
GUIDED_NOGPS,4.283207178115845,24.687043478772683,259.3554956165664,1.0218492199965343,33.07933878395643,-6.210481863402891,248.88956456239612,-0.5859400893797151,25.433258564396347,-0.7135582402451359,1.8114852693110337,104.46409603432824,0.3647691887234565,-0.4232395080857818,0.16530517573315617,0.49808847994510996,259.9823151924201,3.5267563774550537,33.97822573959075,7.246566938444971,-2.635605857601787
GUIDED_NOGPS,4.318682909011841,28.47128301553792,259.28528136987927,2.4232681140095385,33.44358457188124,-6.3395636509856,249.0233445088369,-0.5153488320042605,25.664024452241826,-0.5639058073223947,1.6372346571444318,104.38584255700741,0.45050068844705676,-0.2638763485393309,0.16875603130710892,0.49805510997009017,258.67705618875794,5.706261761535364,33.411144816008445,6.773606241029981,-1.776169164905552
GUIDED_NOGPS,4.3577728271484375,25.479940709061307,260.0581180978166,3.6513709197775803,33.45978058650793,-6.384174165440235,249.1468861455241,-0.4501599923912316,25.895698831375135,-0.44620094391215337,1.331283056741175,104.37615734876432,0.4577828639461116,-0.515502065404408,0.17012585721972834,0.4981089795612168,262.83783112817446,6.640505375077171,33.198184854017526,4.516761135850771,0.057295779513082325
GUIDED_NOGPS,4.397796392440796,24.99063961628981,260.9856770484322,4.9849774211761595,33.333813193947705,-6.3900516659776185,249.2604172297886,-0.3902533905226271,26.128241108610595,-0.3342909090432861,1.0824371738845138,104.43273180565954,0.5421846611768947,-0.5902919983578511,0.17052591171606096,0.49819860697866575,264.5921463823923,7.168023853229855,32.48736781808296,1.907089800124794,1.7188733853924698
GUIDED_NOGPS,4.424712657928467,37.16279028556746,262.09391445104865,6.157558718953417,32.919618294300655,-6.350516018064469,249.36418880382834,-0.33549655972556636,26.36161045330207,-0.2661946167093466,0.9743942533854901,104.48223701676379,0.6802277987742873,-0.7878927954006076,0.16971086008215705,0.49836049803975035,266.09208665774224,7.74624622746971,31.523168243803482,4.38108133063983,2.46371851906254
GUIDED_NOGPS,4.466606855392456,23.876855815648057,262.7557891820236,7.003547818728727,32.23712805990611,-6.251826802825561,249.45847562195388,-0.28574452122883187,26.595765808926437,0.028220340618509285,0.7314675832182912,104.66869435091597,0.5159558714455722,-0.6068922163621334,0.1675035044025458,0.4985896594372551,267.39463096526794,7.756701876331599,30.565774567618032,1.5186680039772398,4.068000345428845
GUIDED_NOGPS,4.50178861618042,28.43171865891189,263.74945002407776,7.334297220589571,31.261118895030005,-6.120993553649033,249.54357657783305,-0.2408395587199088,26.830665904667015,0.2399560448063459,0.5884966761294091,104.8149628519918,0.4568861136674677,-0.7824438688365799,0.16444781035648537,0.49889238675240927,270.04891985390145,7.360008770839586,28.531098991627903,-9.3147324766706,4.984732817638163
GUIDED_NOGPS,4.535156011581421,29.97644368210406,264.9592382778197,7.478197899742054,30.32770172255208,-5.959921408243236,249.61981513173657,-0.20061099290184004,27.066269266996976,0.4982104332034204,0.45735330880546193,105.03144569773535,0.4332283352266209,-0.9213805338520465,0.16062209899261434,0.4991846418861112,270.04891985390145,7.360008770839586,28.531098991627903,-9.3147324766706,6.0733526283867265
GUIDED_NOGPS,4.565045356750488,33.46928613606984,266.5936881787984,7.430451848093364,29.420039125525495,-5.765675683966596,249.68753973778337,-0.16487495604952684,27.302534231262825,0.6561537552832051,0.3332709697011328,105.23427499532805,0.40763683425552155,-1.1943391991900876,0.15593766819181326,0.4994706237764343,273.0579144002501,6.929293594986405,27.949054832950033,-0.47231633571890086,6.932789321082962
GUIDED_NOGPS,4.59286642074585,35.94830127875484,268.29484815757263,7.111977685714447,28.519877954547884,-5.576470969622388,249.74712427118573,-0.13343416656725182,27.539418953267784,0.7351417981049349,0.18533963772752898,105.39988659213334,0.3268843018721208,-1.348633972828,0.15136328001354188,0.49975488524968,272.28633601895166,6.153875415575126,27.02236238891542,-9.322845888039183,7.219268218648373
GUIDED_NOGPS,4.631749391555786,25.724666658489017,269.742125470743,6.618969511020353,27.76111064934358,-5.367645232931196,249.7989684554944,-0.10607770354475221,27.77688142085529,0.7159961375311544,-0.05278076705894955,105.78398228010902,0.28016882856336733,-1.1994088528360367,0.14635082061342256,0.500003942692878,274.4160496335376,5.291661002861127,26.771938041596517,-10.393994567368921,8.36518380891002
GUIDED_NOGPS,4.667351245880127,28.091998981956518,271.79068015561995,5.999199005219083,27.380900225279685,-5.075963787575229,249.84349828984443,-0.08258078131448698,28.014879465492356,0.6502977218435654,-0.2621073354604757,106.05222429938293,0.23930796717433367,-1.5068867801449204,0.13924033929467558,0.5001584948100531,280.98058386140804,4.261156241833234,26.630046871308437,-2.9180368895169835,8.938141604040842
GUIDED_NOGPS,4.711627721786499,22.591317462027362,273.2341915422646,5.073345368921163,26.87560157387466,-4.769495657899825,249.88116647619955,-0.06270452400830706,28.253370773853078,0.5785319637388894,-0.5944277882890661,106.45610021519495,0.15118736201313596,-1.3514013785367656,0.13178714820183987,0.5003444422999946,277.64017775089957,2.730740589349987,26.00460573460278,-5.625989054739577,10.084057194302488
GUIDED_NOGPS,4.744958877563477,30.04601851055904,275.2772300694455,3.6553058796757534,25.961672505520273,-4.382276775936433,249.91245284659834,-0.04619574011412553,28.492312899402016,0.5591067990176674,-0.8100386643355328,106.8622915651356,-0.0520466636962674,-1.7442015713615235,0.12225483840393314,0.5006326600984704,283.738939182715,-0.16090385124064363,23.379409491178087,3.975101371066174,10.714310768946394
GUIDED_NOGPS,4.7779529094696045,30.317712963966894,277.0270853627436,1.954944992172616,25.041934223725086,-4.0124258135391,249.93786479039898,-0.03278669703287207,28.731663273977688,0.6164873249566503,-1.062142120539467,107.26885174529144,-0.2064372784550181,-1.7721107835619219,0.11314091792365942,0.5009224322625632,284.04776220028646,-2.3479290219405606,22.4236709799395,-5.701931539944098,12.261296815799618
GUIDED_NOGPS,4.812221050262451,29.206211266624887,278.5519129611622,0.06690512581896187,23.878784642509203,-3.6242655306654132,249.95793768152447,-0.022194895635021084,28.971379219375912,0.7411673056133555,-1.1599856476169577,107.70426264450141,-0.3228529022958436,-1.7740946884054258,0.10356090635980127,0.5012731486442167,282.2475406412501,-4.1485383289071445,20.956190135517087,7.879678418892752,12.891550390443523
GUIDED_NOGPS,4.845347881317139,30.1902698500673,279.6286865520066,-2.0806630977908385,22.56079326952246,-3.197983161977113,249.97323530570827,-0.01412284481788717,29.21141795893338,0.8322244527810565,-1.2644496557126002,108.11986599511836,-0.502641735806636,-1.7193892966544049,0.0930097320559556,0.5016626561723527,281.67210312700524,-6.476684876215768,20.04009000637473,-10.634505630067295,13.922874421679005
