Mode,Time,Freq,North-Vision,East-Vision,Down-Vision,Yaw-Vision,North-Desired,East-Desired,Down-Desired,Roll-UAV,Pitch-UAV,Yaw-UAV,Roll-Control,Pitch-Control,Yaw-Control,Thrust-Control,northVraw,eastVraw,downVraw,N-Velocity,E-Velocity,D-Velocity,N-Acceleration,E-Acceleration,D-Acceleration,yawVraw,yawRate,Landing-State,Q-Size
GUIDED_NOGPS,0.039278507232666016,25.468336905766698,2.047159604087947,3.285417881997156,7.023641399090392,-0.5311065682104916,2.063679223944631,3.34047218554061,6.856524800685045,0.08223494399842461,0.4742211012910431,11.981162672199527,0.05973017325032946,-0.027633034211625197,-0.2655532841052458,0.4,0.0,0.0,0.0,2.7767378836870193,1.1199782602488995,22.062042355537415,-28.604695200920105,-36.46390736103058,67.40719079971313,0.0,4.412233048162891,False,0
GUIDED_NOGPS,0.07397079467773438,28.82524672182973,1.9878768091741108,3.227975292350352,7.134324456080872,-0.4367991777221534,2.063679223944631,3.34047218554061,6.856524800685045,0.17968637552887404,0.4089688890553263,11.878470778028385,0.07069434617010346,-0.10858478156842903,-0.2183995888610767,0.4,0.0,0.0,0.0,-0.15525638591498137,0.6836685352027416,17.77368038892746,-9.717459976673126,-25.12856423854828,69.7039544582367,0.0,4.618085558236967,False,0
GUIDED_NOGPS,0.11282658576965332,25.73871634848457,1.9665637094920285,3.1538291398487766,7.213974929177715,-0.40780406704723404,2.063679223944631,3.34047218554061,6.856524800685045,0.1373627881717727,0.45541956485755497,11.79506477675242,0.08552170490384806,-0.04134682627125901,-0.20390203352361702,0.4,0.0,0.0,0.0,2.896115742623806,1.1299620382487774,18.904094398021698,131.30452632904053,-21.70155942440033,-69.01652812957764,0.0,0.5164356724256888,False,0
GUIDED_NOGPS,0.13600707054138184,43.14905611851242,1.9473914427034238,3.05938742262893,7.2631770329689225,-0.34673769664764836,2.063679223944631,3.34047218554061,6.856524800685045,0.0763141304833756,0.466565846613634,11.672201626414939,0.17724785450926878,-0.06017605903471237,-0.17336884832382418,0.4,0.0,0.0,0.0,3.160421922802925,0.09246867266483605,17.951467633247375,56.02707862854004,-35.55716574192047,14.284047484397888,0.0,2.7406866155577823,False,0
GUIDED_NOGPS,0.17047929763793945,29.013475000691734,1.860692323058015,2.9419083274190814,7.261600902688102,-0.2807038739789158,2.063679223944631,3.34047218554061,6.856524800685045,0.12271992980832316,0.44843735061765655,11.526608460293302,0.1554763277834334,-0.16784691683301,-0.1403519369894579,0.4,0.0,0.0,0.0,-0.8501854725182056,-0.3496707882732153,18.038706481456757,-77.72820591926575,-26.149296760559082,-3.9514780044555664,0.0,3.4022303505914797,False,0
GUIDED_NOGPS,0.20731115341186523,27.155859711368507,1.7475881512950266,2.869546552979261,7.4665226068695025,-0.23130633888656582,2.063679223944631,3.34047218554061,6.856524800685045,0.21867298858960105,0.544103488092941,11.43199753368393,0.11295536516659481,-0.2372104783067153,-0.11565316944328291,0.4,0.0,0.0,0.0,-4.218154028058052,-0.5263553932309151,23.968693614006042,-55.972856283187866,-28.167593479156494,168.91212463378906,0.0,1.986402145086829,False,0
GUIDED_NOGPS,0.23619651794433594,34.62132267969756,1.6424671783915556,2.7729404757978484,7.608736467425258,-0.14643838575196294,2.063679223944631,3.34047218554061,6.856524800685045,0.19532420035532402,0.503249031737627,11.27870162172581,0.14296124229947133,-0.22165312593327954,-0.07321919287598147,0.4,0.0,0.0,0.0,-3.417634963989258,-1.5272547490894794,21.46608978509903,-93.63523125648499,-28.33549678325653,86.27060055732727,0.0,4.549564673596575,False,0
GUIDED_NOGPS,0.2701253890991211,29.476945133564314,1.5497843983139834,2.667164673660794,7.82262968179359,-0.10410065809773181,2.063679223944631,3.34047218554061,6.856524800685045,0.25683400253440275,0.5310157250652858,11.186458209437497,0.15836210505259948,-0.20542311844083505,-0.052050329048865904,0.4,0.0,0.0,0.0,-2.689233236014843,-2.3859702050685883,25.45608878135681,-57.69088268280029,-25.152090191841125,150.62601566314697,0.0,1.6352941363682079,False,0
GUIDED_NOGPS,0.303600549697876,29.877790599934464,1.3115063347827434,2.5639502774491705,8.008282964918356,-0.020101821332851426,2.063679223944631,3.34047218554061,6.856524800685045,0.2429788570813261,0.5833724334263128,11.061774813686206,0.16264616326347664,-0.4881487255482551,-0.010050910666425713,0.4,0.0,0.0,0.0,-12.528277933597565,-2.077747695147991,23.869529366493225,-109.25813913345337,-21.81464433670044,72.82203435897827,0.0,4.537445356688034,False,0
GUIDED_NOGPS,0.3369717597961426,29.969803717015242,1.2007591424496362,2.4567459328726513,8.256849534451867,0.07205399512144747,2.063679223944631,3.34047218554061,6.856524800685045,0.27797365145900377,0.5834027423907547,10.966357924754774,0.1738085532908024,-0.2684707215422539,0.036026997560723736,0.4,0.0,0.0,0.0,-3.8588475435972214,-2.234441787004471,28.606027364730835,13.711899518966675,-27.957317233085632,104.36828136444092,0.0,5.164902392338548,False,0
GUIDED_NOGPS,0.3722071647644043,28.386691572592653,1.0966745394648285,2.3501262191010635,8.513594587977998,0.13170010049819933,2.063679223944631,3.34047218554061,6.856524800685045,0.3059336711566857,0.5809848554245702,10.857128685774283,0.17783879924298424,-0.26321109643131696,0.06585005024909966,0.4,0.0,0.0,0.0,-3.471701219677925,-2.202417142689228,29.12421226501465,-43.44564378261566,-38.736650347709656,124.31631088256836,0.0,3.0087297055721165,False,0
GUIDED_NOGPS,0.4080519676208496,27.898418273004218,1.0312153584984098,2.2243779044889918,8.780002976233497,0.2138225647139363,2.063679223944631,3.34047218554061,6.856524800685045,0.3009547834168637,0.3817597632795227,10.713669953768274,0.19107652154651844,-0.18664189946542536,0.10691128235696815,0.4,0.0,0.0,0.0,-0.9488701820373535,-3.4800782799720764,29.90500032901764,-15.405595302581787,-33.06368291378021,60.5509877204895,0.0,4.594206363124956,False,0
GUIDED_NOGPS,0.4468681812286377,25.76417110985528,0.9055809387465776,2.099720201115126,9.040384690711557,0.22808061107879818,2.063679223944631,3.34047218554061,6.856524800685045,0.3479265279475703,0.32865386854390993,10.643285708144939,0.19260745136448956,-0.28637519810432877,0.11404030553939909,0.4,0.0,0.0,0.0,-5.081258714199066,-3.407669812440872,29.567691683769226,145.6262707710266,-39.573392271995544,-26.788383722305298,0.0,0.10011477841993127,False,0
GUIDED_NOGPS,0.4802088737487793,29.995737681470356,0.7735339702076856,1.9678366452450125,9.273814262957915,0.27892610126814743,2.063679223944631,3.34047218554061,6.856524800685045,0.37075931673439405,0.19577520628395642,10.562412853277403,0.2297714187107598,-0.3402640815923667,0.13946305063407372,0.4,0.0,0.0,0.0,-5.815717577934265,-3.7198666483163834,31.376802921295166,-28.68489921092987,-8.608406782150269,-43.4427946805954,0.0,3.025122799910382,False,0
GUIDED_NOGPS,0.5135655403137207,29.983729608395407,0.6914639745496126,1.8261737474568465,9.349890892824208,0.286881255811594,2.063679223944631,3.34047218554061,6.856524800685045,0.3889337030638575,0.0718066325179903,10.487204786552747,0.24882935697858558,-0.2572130501604239,0.143440627905797,0.4,0.0,0.0,0.0,-3.01060751080513,-4.449929669499397,25.72433352470398,-21.055766940116882,-25.499778985977173,-113.04745674133301,0.0,0.7002738958354314,False,0
GUIDED_NOGPS,0.5391666889190674,39.065840823359565,0.6280637071931326,1.6870481611077444,9.536833754179748,0.2816693453953202,2.063679223944631,3.34047218554061,6.856524800685045,0.3525886656646329,-0.006813327140499282,10.463885666952677,0.3023140366741582,-0.262213988135305,0.1408346726976601,0.4,0.0,0.0,0.0,-1.3426195830106735,-4.749617353081703,26.23828947544098,76.7748475074768,-24.482828378677368,-66.87754392623901,0.0,-0.8869806386140207,False,0
GUIDED_NOGPS,0.5747497081756592,28.10837761947205,0.5309719214567915,1.554708148598515,9.664764071459771,0.2705529629079737,2.063679223944631,3.34047218554061,6.856524800685045,0.4242903907458401,-0.07292518271628567,10.467268318139126,0.24149463317235798,-0.28623130364706534,0.13527648145398685,0.4,0.0,0.0,0.0,-4.430065304040909,-4.475070163607597,29.213014245033264,10.449197888374329,-8.369708061218262,13.173355162143707,0.0,-0.6267791393753901,False,0
GUIDED_NOGPS,0.606252908706665,31.746650721324876,0.4632788227862933,1.4182712458827986,9.873685079495639,0.27186668793625096,2.063679223944631,3.34047218554061,6.856524800685045,0.3237560893004819,-0.21440177248081588,10.454479642691924,0.27267989868234954,-0.25657467026456193,0.13593334396812548,0.4,0.0,0.0,0.0,-1.8363852053880692,-4.870863258838654,27.128466963768005,62.36560940742493,-20.291678607463837,-44.18726563453674,0.0,-0.3697320135945418,False,0
GUIDED_NOGPS,0.645305871963501,25.608752991745224,0.41807300355960647,1.2718772483513208,10.024010929183849,0.24803528443061673,2.063679223944631,3.34047218554061,6.856524800685045,0.4482408759573129,-0.3943315802205774,10.481908828625048,0.25689210066658164,-0.20112795685820292,0.12401764221530837,0.4,0.0,0.0,0.0,-0.6130504421889782,-5.745574086904526,25.561124086380005,32.20587074756622,-42.48374104499817,-8.72201919555664,0.0,-1.8772121796940664,False,0
GUIDED_NOGPS,0.6801152229309082,28.73204548568297,0.30185498034821656,1.1224802572449346,10.30923587495447,0.22923284557032703,2.063679223944631,3.34047218554061,6.856524800685045,0.5337173850471433,-0.6089537330238319,10.489070281969807,0.2863979152526698,-0.34094097485882163,0.11461642278516351,0.4,0.0,0.0,0.0,-4.959626123309135,-5.563243851065636,27.746349573135376,-4.348497092723846,-20.48042118549347,74.45476055145264,0.0,-1.8758653517671044,False,0
GUIDED_NOGPS,0.7154209613800049,28.324772587605263,0.1652367498391718,0.9732675698699889,10.479092451704757,0.19571599767425207,2.063679223944631,3.34047218554061,6.856524800685045,0.7453797180622551,-0.632351399799357,10.536774884454115,0.29169107196284905,-0.3841807960504474,0.09785799883712604,0.4,0.0,0.0,0.0,-6.866893917322159,-5.87601438164711,25.125905871391296,-58.06683897972107,-12.333505600690842,5.115064978599548,0.0,-2.461923543641113,False,0
GUIDED_NOGPS,0.7488267421722412,29.938357435509428,0.001981094765145061,0.8255334237002475,10.59325377246863,0.14369410729398532,2.063679223944631,3.34047218554061,6.856524800685045,0.7283290045729646,-0.7802681108992687,10.571798386970647,0.3073070150102643,-0.45896474066120724,0.07184705364699266,0.4,0.0,0.0,0.0,-8.53620171546936,-5.711739882826805,20.371097326278687,-69.74667310714722,-9.093546867370605,-54.02631759643555,0.0,-3.653591984218527,False,0
GUIDED_NOGPS,0.7801949977874756,31.8822706680045,-0.17976399634172735,0.6858358569669217,10.610121567358044,0.09642307843213485,2.063679223944631,3.34047218554061,6.856524800685045,0.8685947298636985,-0.7851995074800179,10.65540075618525,0.3153773695773674,-0.5278775247254595,0.048211539216067426,0.4,0.0,0.0,0.0,-10.108539462089539,-5.486571416258812,16.345934569835663,-72.05864191055298,-6.981678307056427,-117.02237129211426,0.0,-3.1614303238553876,False,0
GUIDED_NOGPS,0.8136382102966309,29.90697707583158,-0.20485918878086817,0.5362011007618319,10.60901003752271,0.06550168478404902,2.063679223944631,3.34047218554061,6.856524800685045,0.9194066415335389,-0.8347023707067431,10.698957726296067,0.32376881595006063,-0.22791599805629983,0.03275084239202451,0.4,0.0,0.0,0.0,-0.12396099045872688,-6.665164977312088,18.01372468471527,50.06355047225952,-16.175028681755066,-23.1288880109787,0.0,-1.9850361072528264,False,0
GUIDED_NOGPS,0.8474147319793701,29.60991726202242,-0.2465219432088856,0.39197514932691846,10.625247877070073,0.06778673259174804,2.063679223944631,3.34047218554061,6.856524800685045,1.0714218930222814,-0.6480271108313593,10.837462009832878,0.32361741154723417,-0.2605690498876699,0.03389336629587402,0.4,0.0,0.0,0.0,-1.0836711153388023,-6.194649264216423,17.399007081985474,17.911776900291443,-4.177824035286903,-25.61318576335907,0.0,0.2488698952404621,False,0
GUIDED_NOGPS,0.8818240165710449,29.065548664287448,-0.2225443260201051,0.2519393439219812,10.572533442483504,0.006677088358821637,2.063679223944631,3.34047218554061,6.856524800685045,1.2975592111576486,-0.5527482130655028,10.951015612331632,0.3218346521957929,-0.14318940679007494,0.0033385441794108184,0.4,0.0,0.0,0.0,3.177548572421074,-6.035506725311279,12.81435340642929,-38.55246901512146,-10.810648649930954,-11.654271185398102,0.0,-4.005467962331951,False,0
GUIDED_NOGPS,0.9148249626159668,30.305883713032607,-0.21510271119310292,0.11849761545679569,10.479279886863576,-0.05013920340462471,2.063679223944631,3.34047218554061,6.856524800685045,1.2298694751618835,-0.5085455766347075,11.041383283919133,0.3279277825722348,-0.1712699658607575,-0.025069601702312354,0.4,0.0,0.0,0.0,1.8085207790136337,-5.824431777000427,10.710927844047546,98.9999532699585,2.731645852327347,69.31909322738647,0.0,-3.6779450237042073,False,0
GUIDED_NOGPS,0.9491076469421387,29.170664533852626,-0.23362503260484108,0.0017261448424722575,10.373514487590748,-0.12403079401664018,2.063679223944631,3.34047218554061,6.856524800685045,1.1818122641616737,-0.41853734375227947,11.202650880412303,0.3084110737361568,-0.21919036671373784,-0.06201539700832009,0.4,0.0,0.0,0.0,-0.19940389320254326,-5.057292431592941,10.83608791232109,-2.5756582617759705,-0.7589040789753199,-41.27381443977356,0.0,-4.823320789964802,False,0
GUIDED_NOGPS,0.9813055992126465,31.06178581214684,-0.26240516945968706,-0.11168707902905514,10.20338729866297,-0.21458563201765476,2.063679223944631,3.34047218554061,6.856524800685045,1.153112876486338,-0.13799586133046823,11.442422109904662,0.3190233931641583,-0.2434723605202767,-0.10729281600882738,0.4,0.0,0.0,0.0,-0.8126147091388702,-4.690174013376236,5.3175389766693115,-27.67113447189331,-10.135555267333984,-87.28013038635254,0.0,-5.849228863679057,False,0
GUIDED_NOGPS,1.0163815021514893,28.51560970303492,-0.26984650557208456,-0.20773033396696766,9.962497141001235,-0.25422789418719205,2.063679223944631,3.34047218554061,6.856524800685045,1.2298720364828222,0.025040113827501435,11.593804715121532,0.2938755334801575,-0.20350668784951095,-0.12711394709359602,0.4,0.0,0.0,0.0,0.2171090804040432,-4.199832305312157,2.6512745767831802,32.94095993041992,-8.607320487499237,-157.02388286590576,0.0,-2.565807946152657,False,0
GUIDED_NOGPS,1.050447940826416,29.354198451912712,-0.27995470434644876,-0.3050324739835836,9.708826029963644,-0.29808911202511384,2.063679223944631,3.34047218554061,6.856524800685045,1.0397298152734222,0.24624096610109478,11.815207858388435,0.30157640478238323,-0.20951515551137673,-0.14904455601255692,0.4,0.0,0.0,0.0,0.0493699568323791,-4.255655407905579,1.0636349208652973,-70.76141238212585,-7.400643825531006,-115.12665748596191,0.0,-2.813187579493587,False,0
GUIDED_NOGPS,1.083601713180542,30.16638497112321,-0.22754851668098602,-0.4092050161968577,9.477008208971357,-0.3481654693644891,2.063679223944631,3.34047218554061,6.856524800685045,1.0468810233344257,0.5131450153496235,12.008502211899795,0.3202956091223645,-0.09345471598909574,-0.17408273468224456,0.4,0.0,0.0,0.0,4.156153649091721,-4.726669937372208,2.1419450640678406,95.94031572341919,-11.240635812282562,-31.5813809633255,0.0,-3.1942250502683804,False,0
GUIDED_NOGPS,1.1161458492279053,30.733806202004807,-0.19715803218151667,-0.5003697023584892,9.22383739214457,-0.44841709982930544,2.063679223944631,3.34047218554061,6.856524800685045,1.0050866689162945,0.7163935691634846,12.196210324443733,0.311680964186276,-0.13024941256236183,-0.22420854991465272,0.4,0.0,0.0,0.0,2.4265164509415627,-4.389873519539833,1.7818944528698921,-53.48027944564819,-12.548784911632538,-20.39802074432373,0.0,-6.654902610248128,False,0
GUIDED_NOGPS,1.1491963863372803,30.257567450584332,-0.16588537343913595,-0.5982719769265387,8.93529097773458,-0.5490844011790497,2.063679223944631,3.34047218554061,6.856524800685045,0.9163065894239993,0.8445874687047499,12.472012509355201,0.32271800733166145,-0.12810863992709187,-0.27454220058952483,0.4,0.0,0.0,0.0,2.3404685780406,-5.252261087298393,-0.10727629996836185,-12.037603557109833,-14.980250597000122,-48.75786602497101,0.0,-6.81419542829752,False,0
GUIDED_NOGPS,1.1825966835021973,29.942631962192493,-0.2065796697090252,-0.6812919972370388,8.645508248252836,-0.6962481731760731,2.063679223944631,3.34047218554061,6.856524800685045,0.9752756679535391,0.9210554918878623,12.702332464583554,0.3067296620793691,-0.26192369052193626,-0.34812408658803656,0.4,0.0,0.0,0.0,-2.4301497265696526,-4.21563982963562,-0.8624056354165077,-85.66898107528687,-16.81787669658661,68.95331740379333,0.0,-9.826223474908518,False,0
GUIDED_NOGPS,1.2184796333312988,27.872092714175594,-0.2785179163084002,-0.7597097330459517,8.279026366917554,-0.8411585821167442,2.063679223944631,3.34047218554061,6.856524800685045,1.0261951551028072,1.0444706068876457,12.971657068840912,0.2977922857658813,-0.3157224719516765,-0.4205792910583721,0.4,0.0,0.0,0.0,-4.517566412687302,-4.052088037133217,-6.101004406809807,-110.55524349212646,-13.584886491298676,-52.52699851989746,0.0,-9.666961392710391,False,0
GUIDED_NOGPS,1.2497684955596924,31.962690036197372,-0.368630495499173,-0.8411201369929304,7.870936163946535,-0.9636279363466644,2.063679223944631,3.34047218554061,6.856524800685045,0.9312969336614733,0.9532853403121542,13.313149451868625,0.31744984740564186,-0.3767473123695213,-0.4818139681733322,0.4,0.0,0.0,0.0,-5.584844946861267,-4.038473963737488,-9.4131700694561,-12.791474163532257,-3.968978673219681,-96.01848125457764,0.0,-7.909462365485962,False,0
GUIDED_NOGPS,1.2837395668029785,29.43991015652418,-0.46177867686247026,-0.9086053628287728,7.406283094680511,-1.132804887099144,2.063679223944631,3.34047218554061,6.856524800685045,0.9082512350716155,0.821570211449483,13.568251894726723,0.29539850821454616,-0.37603389402098913,-0.566402443549572,0.4,0.0,0.0,0.0,-6.173740699887276,-4.245614632964134,-11.995099484920502,-49.701130390167236,-15.022958815097809,-90.81584811210632,0.0,-11.808177886185199,False,0
GUIDED_NOGPS,1.3169329166412354,30.129329789526615,-0.47246194081658344,-0.9836647006389445,6.970046737140602,-1.267358022832352,2.063679223944631,3.34047218554061,6.856524800685045,0.9416830900681239,0.6594505488573528,13.841921353069855,0.313324471400762,-0.23330722928704511,-0.633679011416176,0.4,0.0,0.0,0.0,-0.5606654565781355,-4.367189481854439,-10.966930538415909,43.38822364807129,-16.80876314640045,1.5310391783714294,0.0,-9.13013584470407,False,0
GUIDED_NOGPS,1.3504579067230225,29.831040810230295,-0.5537844905193064,-1.0467938104169865,6.521295917358661,-1.3961367063041363,2.063679223944631,3.34047218554061,6.856524800685045,0.9256315051883592,0.4899765867981171,14.065248048361763,0.29785889306938085,-0.366211969228721,-0.6980683531520682,0.5004471319584352,0.0,0.0,0.0,-5.359790846705437,-3.920990973711014,-11.890293657779694,-72.9884922504425,-8.40572863817215,-124.6807336807251,0.0,-9.014473421299074,False,0
GUIDED_NOGPS,1.3838655948638916,29.93664796653962,-0.6261829681354837,-1.1149952176564524,6.081906307183143,-1.4857300428452898,2.063679223944631,3.34047218554061,6.856524800685045,0.961039419289117,0.07782040063877496,14.425511498775963,0.30812404632967116,-0.3578938046660657,-0.7428650214226449,0.5013279794264751,0.0,0.0,0.0,-4.806533083319664,-4.389546811580658,-11.578898131847382,-10.455688089132309,-12.79258131980896,87.38253116607666,0.0,-6.525876921732003,False,0
GUIDED_NOGPS,1.4171597957611084,30.03827202933425,-0.6961446151458798,-1.1861808684271415,5.623669131061143,-1.6308570133272662,2.063679223944631,3.34047218554061,6.856524800685045,0.9779396551732557,-0.1920606505925273,14.716648312147756,0.3150826812970106,-0.3605597335668159,-0.8154285066636331,0.5022477386864943,0.0,0.0,0.0,-4.733892157673836,-4.796677455306053,-13.149015605449677,134.3586564064026,-22.118060290813446,26.537176966667175,0.0,-10.362141461528875,False,0
GUIDED_NOGPS,1.4532365798950195,27.721038439168826,-0.7946277012565021,-1.2503037040293719,5.1899484263570805,-1.7206992620824575,2.063679223944631,3.34047218554061,6.856524800685045,1.1098577153594704,-0.37943621830124896,15.001344257132228,0.30264260936433846,-0.4066214984783857,-0.8603496310412287,0.503119988165945,0.0,0.0,0.0,-6.68334886431694,-4.514198377728462,-11.935359984636307,-40.059107542037964,-12.509141862392426,22.85449653863907,0.0,-6.895022606274981,False,0
GUIDED_NOGPS,1.4848177433013916,31.668508954728036,-0.8551912153511299,-1.3167291085815054,4.706758400218448,-1.8544179138343548,2.063679223944631,3.34047218554061,6.856524800685045,1.1411895006296113,-0.6278447556076179,15.284339485013366,0.320182625764146,-0.3643768686749129,-0.9272089569171774,0.5040917884351778,0.0,0.0,0.0,-3.8978211581707,-4.252755641937256,-15.15413373708725,32.62030482292175,-6.444680690765381,-15.367591381072998,0.0,-9.209081732452015,False,0
GUIDED_NOGPS,1.5180363655090332,30.10575729082178,-0.8852190381525702,-1.3553390368071978,4.230330473795585,-1.9229621034747442,2.063679223944631,3.34047218554061,6.856524800685045,1.1007754847540574,-0.7501220037803595,15.5565395989113,0.2863914899515437,-0.3050478068592271,-0.9614810517373721,0.5050516355947249,0.0,0.0,0.0,-2.692640945315361,-3.663792833685875,-15.956448018550873,14.609679579734802,-2.1649545058608055,-30.662909150123596,0.0,-6.445676840497713,False,0
GUIDED_NOGPS,1.5514936447143555,29.892057157110788,-0.8137054153012916,-1.4105380819858344,3.728722554798473,-1.9835434204468823,2.063679223944631,3.34047218554061,6.856524800685045,1.0647451696651824,-0.8858886621204649,15.772086708738561,0.31586159385984514,-0.11775529256662286,-0.9917717102234411,0.5060631845945178,0.0,0.0,0.0,4.104688763618469,-4.484976083040237,-17.818596959114075,16.42286628484726,-14.50592428445816,-73.27763438224792,0.0,-5.572732133906363,False,0
GUIDED_NOGPS,1.5857069492340088,29.230228862933124,-0.7855867851783682,-1.4566225703091633,3.280729390368035,-2.1091361319144606,2.063679223944631,3.34047218554061,6.856524800685045,0.9835880081734446,-0.9391035197176805,16.037697397634727,0.3029758930917047,-0.19580122828351107,-1.0545680659572303,0.5069690157369983,0.0,0.0,0.0,1.172203104943037,-3.9879553020000458,-14.80012834072113,61.399900913238525,-17.471712827682495,2.2361069917678833,0.0,-9.924592713108687,False,0
GUIDED_NOGPS,1.6188068389892578,30.21506321362965,-0.801090506301784,-1.500287268831501,2.8370404198463346,-2.2025189138462036,2.063679223944631,3.34047218554061,6.856524800685045,0.8976162036470826,-0.9975637491540543,16.287765991074526,0.30173711724048147,-0.27491433072558324,-1.1012594569231018,0.5078670219041158,0.0,0.0,0.0,-1.7308061942458153,-3.9078664034605026,-14.977918565273285,-44.99494135379791,-17.999908328056335,-8.512267470359802,0.0,-7.878646259498157,False,0
GUIDED_NOGPS,1.653294563293457,28.998230088495575,-0.8707594316469932,-1.5371030450349739,2.3739554272293235,-2.3036877243282405,2.063679223944631,3.34047218554061,6.856524800685045,0.8673740469929702,-0.9346818260037435,16.547338792744398,0.28967268966121784,-0.3739569723926331,-1.1518438621641203,0.5088055534793104,0.0,0.0,0.0,-5.424049869179726,-3.810404986143112,-17.234426736831665,-16.950678825378418,-32.729536294937134,-3.20969820022583,0.0,-8.8459180129615,False,0
GUIDED_NOGPS,1.6864118576049805,30.198964640828287,-0.8272961236192973,-1.5741677302443595,1.950478566419116,-2.3749590466558663,2.063679223944631,3.34047218554061,6.856524800685045,0.7035043618694359,-0.945230199403182,16.86636839113923,0.30216148369014595,-0.1714148631199624,-1.1874795233279332,0.5096655100650156,0.0,0.0,0.0,2.04213485121727,-3.6637868732213974,-14.662398397922516,62.13740110397339,-22.438429296016693,56.9873571395874,0.0,-6.632059469455844,False,0
GUIDED_NOGPS,1.720177412033081,29.618490089046755,-0.770634451909156,-1.6210909805729168,1.5486057585752038,-2.466818645756285,2.063679223944631,3.34047218554061,6.856524800685045,0.5427366498461451,-1.0101579776533232,16.96147194514249,0.3168002675812752,-0.14630404217552467,-1.2334093228781424,0.5104836077394812,0.0,0.0,0.0,2.6742735877633095,-4.699519649147987,-14.489305019378662,24.299052357673645,-30.160006880760193,40.72927236557007,0.0,-8.53728993889895,False,0
GUIDED_NOGPS,1.7531661987304688,30.315959899676912,-0.7434578591243456,-1.6759036224341726,1.1947048981850366,-2.5124475201803516,2.063679223944631,3.34047218554061,6.856524800685045,0.48845116009653,-1.1017491068759016,17.257372815460364,0.32895621270214687,-0.19623096515636068,-1.2562237600901758,0.5112063275038744,0.0,0.0,0.0,0.7489396259188652,-5.1729317754507065,-11.682700365781784,-16.106316447257996,-30.008772015571594,81.5415620803833,0.0,-5.46959627743917,False,0
GUIDED_NOGPS,1.7869477272033691,29.604901324148056,-0.7632885755492349,-1.7361807626787695,0.8644480083748911,-2.5379156953688193,2.063679223944631,3.34047218554061,6.856524800685045,0.46430974975341416,-1.1931842089646276,17.46000403756713,0.3335411144451835,-0.28318088639498257,-1.2689578476844097,0.5118830331758797,0.0,0.0,0.0,-2.397026866674423,-5.782772973179817,-11.196417361497879,-40.09535312652588,-13.561320304870605,43.80819499492645,0.0,-4.554861912184744,False,0
GUIDED_NOGPS,1.8202927112579346,29.992305822118617,-0.7918210300609118,-1.8099423980376277,0.5237512213717619,-2.5583939131494584,2.063679223944631,3.34047218554061,6.856524800685045,0.32606213191900746,-1.2741234447331597,17.657389674391332,0.3539250191908022,-0.30273733957769144,-1.2791969565747292,0.512581347950652,0.0,0.0,0.0,-2.9475850984454155,-6.664658337831497,-12.325619906187057,-136.76962852478027,-38.128823041915894,34.52274799346924,0.0,-4.268208264229417,False,0
GUIDED_NOGPS,1.8538904190063477,29.76668133365506,-0.7808430042529253,-1.8767894420555034,0.1839567409821743,-2.5295928986033784,2.063679223944631,3.34047218554061,6.856524800685045,0.2718758933557691,-1.3680650128038687,17.836941687292626,0.3525950949212005,-0.2308603542593847,-1.2647964493016892,0.513278857169347,0.0,0.0,0.0,-0.4392904695123434,-6.396796554327011,-13.138654828071594,36.456021666526794,-23.342952132225037,22.491800785064697,0.0,-1.3484885167038487,False,0
GUIDED_NOGPS,1.8876774311065674,29.601349396229878,-0.7786103677607672,-1.9491086986559432,-0.11189016812310258,-2.545101287176125,2.063679223944631,3.34047218554061,6.856524800685045,0.25950556699522975,-1.421806008410587,17.9994387178364,0.3621904002341227,-0.24706675634463796,-1.2725506435880625,0.5138893721196467,0.0,0.0,0.0,-1.033050287514925,-6.8344175815582275,-10.91584637761116,-78.19330096244812,-44.27792429924011,-34.19159650802612,0.0,-4.348799800680513,False,0
GUIDED_NOGPS,1.921029806137085,29.98480136687613,-0.7089798647288325,-2.023443506970512,-0.37175916647200813,-2.594267460987707,2.063679223944631,3.34047218554061,6.856524800685045,0.15307040899380372,-1.643331241308903,18.124622424944395,0.3755295793104454,-0.1212809006313924,-1.2971337304938535,0.5144284119926409,0.0,0.0,0.0,3.2851647585630417,-7.088632881641388,-9.319783747196198,61.966508626937866,-14.263156056404114,-34.716641902923584,0.0,-6.671575528898953,False,0
GUIDED_NOGPS,1.9544792175292969,29.898875843829973,-0.6619638581822879,-2.105711903184291,-0.581964891218635,-2.5982948546809403,2.063679223944631,3.34047218554061,6.856524800685045,0.15747363985264054,-1.6962530411020427,18.241386216353053,0.3881133900075527,-0.1590381063785923,-1.2991474273404702,0.51486869841216,0.0,0.0,0.0,1.7666961997747421,-7.771927118301392,-6.945153325796127,16.22782051563263,-36.06236279010773,48.25469255447388,0.0,-3.9332916458251344,False,0
GUIDED_NOGPS,1.9884145259857178,29.47259542413851,-0.5176519416550959,-2.1951585639806415,-0.7759819159119639,-2.5829391470175653,2.063679223944631,3.34047218554061,6.856524800685045,0.08010520563785001,-1.7766665657478953,18.271731039288127,0.4084389934370785,0.022315864263401097,-1.2914695735087827,0.5152774599301576,0.0,0.0,0.0,8.030220121145248,-8.34025889635086,-6.563489139080048,119.37676668167114,-37.44650185108185,55.23075461387634,0.0,-2.792736285571276,False,0
GUIDED_NOGPS,2.02158522605896,30.149688030133127,-0.41824142821475746,-2.2904598010505604,-0.9801687657228393,-2.5712462844395887,2.063679223944631,3.34047218554061,6.856524800685045,0.10065447008606807,-1.889705022572843,18.35802364926207,0.42033880104916793,-0.04580384234040889,-1.2856231422197943,0.5157066447649808,0.0,0.0,0.0,5.093725770711899,-8.714690059423447,-7.629091292619705,-31.975048780441284,-44.57696974277496,-18.84770840406418,0.0,-3.0373597241386943,False,0
GUIDED_NOGPS,2.055239200592041,29.717751420595445,-0.32016390866392475,-2.3900064473531706,-1.121158324114721,-2.474417272636011,2.063679223944631,53.34047218554061,6.856524800685045,0.11147615777401279,-1.8735759577346809,18.384229377560114,3.9952707329803885,-0.1958262105211956,-1.2372086363180055,0.516009994001834,0.0,0.0,0.0,5.019287019968033,-9.311013668775558,-4.603627696633339,24.613137543201447,-25.409865379333496,59.63448882102966,0.0,2.169842670059977,False,0
GUIDED_NOGPS,2.0888986587524414,29.71164648961868,-0.13991998903039407,-2.501526335959381,-1.2565311905735193,-2.40853040200624,2.063679223944631,53.34047218554061,6.856524800685045,0.2929098877916465,-1.818395286316971,18.37769800916629,2.9678634949041967,0.010895291810362959,-1.20426520100312,0.5163026584858175,0.0,0.0,0.0,10.341992229223251,-10.132016241550446,-4.7064028680324554,49.576520919799805,-28.790900111198425,-12.291156500577927,0.0,0.13268699007637005,False,0
GUIDED_NOGPS,2.1222918033599854,29.94904604135725,0.018351454314268045,-2.6132599075034584,-1.3079241523852292,-2.3217723450571692,2.063679223944631,53.34047218554061,6.856524800685045,0.3680061101686442,-1.7577277318399194,18.28614786107873,2.9814550068853856,-0.00901386946556973,-1.1608861725285846,0.5164272936476316,0.0,0.0,0.0,8.944609016180038,-10.2688729763031,0.13029915280640125,41.87135398387909,-24.312402307987213,83.97626280784607,0.0,1.4087822250455477,False,0
GUIDED_NOGPS,2.1555886268615723,30.034830430797435,0.1376541077861463,-2.7540866595635243,-1.2729791928232863,-2.1773993986728297,2.063679223944631,53.34047218554061,6.856524800685045,0.6089139258275755,-1.6903449274699818,18.13445618980192,3.0291884056421874,-0.06292839531686695,-1.0886996993364149,0.516379067344525,0.0,0.0,0.0,6.507275998592377,-12.329239398241043,5.050279945135117,0.0660305842757225,-34.761208295822144,89.12103772163391,0.0,5.042198043899269,False,0
GUIDED_NOGPS,2.1891860961914062,29.768160171470345,0.29974068557944894,-2.9004147377734593,-1.2597680451884774,-1.9824097984454194,2.063679223944631,53.34047218554061,6.856524800685045,1.1045711489418806,-1.4288724794371999,17.995670160961847,3.052640066124008,0.03447927922311729,-0.9912048992227097,0.5163744273371862,0.0,0.0,0.0,9.373854100704193,-12.848205864429474,3.0804671347141266,-112.05723285675049,-42.05489456653595,137.97494173049927,0.0,8.257298286705323,False,0
GUIDED_NOGPS,2.222900629043579,29.662687411598302,0.44521104320947213,-3.050752556363716,-1.2583625559875902,-1.831116235781732,2.063679223944631,53.34047218554061,6.856524800685045,1.3261326672201623,-1.3481629087795095,17.80762480782764,3.070944317256752,0.022496463143756126,-0.915558117890866,0.5163935004341108,0.0,0.0,0.0,8.367659896612167,-13.17242830991745,1.9412189722061157,-88.26215863227844,-24.240118265151978,-3.6099664866924286,0.0,5.436428451942765,False,0
GUIDED_NOGPS,2.256528854370117,29.739454745275996,0.578109984498312,-3.1964315674810244,-1.2067593966468617,-1.6012304161609139,2.063679223944631,53.34047218554061,6.856524800685045,1.8796955937876008,-1.1207784407903802,17.35468593566012,3.0803136943010023,0.02330983470632382,-0.8006152080804569,0.5163119835083543,0.0,0.0,0.0,7.657953351736069,-12.991568446159363,4.780351370573044,-154.5311450958252,-4.5353807508945465,-14.630815386772156,0.0,10.521198638051901,False,0
GUIDED_NOGPS,2.2928524017333984,27.53306156744586,0.74066950320666,-3.3208557681450754,-1.137160106966838,-1.3869367155401802,2.063679223944631,53.34047218554061,6.856524800685045,1.9720504235367513,-1.0311787385976836,17.11014808790074,3.0595745876540104,0.0798673774695286,-0.6934683577700901,0.5161959921504732,0.0,0.0,0.0,9.72646251320839,-11.839234828948975,5.49430176615715,-13.429421186447144,13.202938437461853,-102.88732051849365,0.0,9.5305138498874,False,0
GUIDED_NOGPS,2.3264095783233643,29.80327286421806,0.9685181869618369,-3.4438799369341444,-1.0549836864767457,-1.1403506957152978,2.063679223944631,53.34047218554061,6.856524800685045,2.159147447593383,-0.8922872687122975,16.628348251395334,3.0854907264448546,0.24904248878854132,-0.5701753478576489,0.5160528928268895,0.0,0.0,0.0,13.497625291347504,-10.942762345075607,6.574828922748566,48.44610095024109,4.450231418013573,42.08735525608063,0.0,11.517499549261442,False,0
GUIDED_NOGPS,2.359877586364746,29.88162206833661,1.1577633237119989,-3.523519110199262,-0.8963748331781485,-0.9125064830739935,2.063679223944631,53.34047218554061,6.856524800685045,2.2286843228728137,-0.781992200056168,16.15567184007377,3.0437292046767794,0.2086617170705916,-0.45625324153699676,0.5157564652855874,0.0,0.0,0.0,11.734335124492645,-9.458677470684052,10.38203090429306,73.36455583572388,4.448872059583664,75.07799863815308,0.0,10.492037145390531,False,0
GUIDED_NOGPS,2.393435478210449,29.802214043115576,1.3561585043086042,-3.5900222709236562,-0.7438276565268442,-0.6457702694409266,2.063679223944631,53.34047218554061,6.856524800685045,2.2812018608444533,-0.765939334515934,15.656173275881567,3.0382822556193525,0.2546675618535533,-0.3228851347204633,0.5154717759465359,0.0,0.0,0.0,12.470479309558868,-8.76806303858757,9.758690744638443,30.370938777923584,-2.768050692975521,90.18882513046265,0.0,13.114516451747253,False,0
GUIDED_NOGPS,2.4269979000091553,29.797767815912305,1.5503133834691403,-3.6373954098910044,-0.6195051998822314,-0.3587982607825161,2.063679223944631,53.34047218554061,6.856524800685045,2.3446846271983137,-0.6405888213818038,15.21744461228226,3.024303518242937,0.27834984468146295,-0.17939913039125804,0.5152431750378604,0.0,0.0,0.0,12.430430203676224,-7.78806209564209,7.733186334371567,-52.57497429847717,5.185983330011368,-30.64180612564087,0.0,14.593221671203748,False,0
GUIDED_NOGPS,2.4606683254241943,29.704912924312495,1.7125107449787884,-3.6718290521102013,-0.4669715887402761,-0.04544443209873081,2.063679223944631,53.34047218554061,6.856524800685045,2.278280033983569,-0.5835947347394556,14.754712956392238,3.0165063050730003,0.24963461429517192,-0.022722216049365404,0.5149578103295712,0.0,0.0,0.0,10.638131946325302,-7.193538546562195,9.388095885515213,-95.1878547668457,2.93542817234993,-8.939382433891296,0.0,16.507853469152554,False,0
GUIDED_NOGPS,2.493913173675537,30.08243740451993,1.876947739803362,-3.7047827909040416,-0.3420578963884583,0.22529120851321288,2.063679223944631,53.34047218554061,6.856524800685045,2.318857974399203,-0.5954567456153579,14.135633147758744,3.0230584369578097,0.28367569466142895,0.11264560425660644,0.5147271779113676,0.0,0.0,0.0,10.951484739780426,-7.200668007135391,7.52263218164444,17.769604921340942,4.365098476409912,-43.29944849014282,0.0,13.957780144413489,False,0
GUIDED_NOGPS,2.5274317264556885,29.837831685281355,1.9306278857388641,-3.7214259458085883,-0.21987776298970865,0.5724637043621954,2.063679223944631,53.34047218554061,6.856524800685045,2.4251081836845096,-0.5296168169459026,13.534357080970535,3.012043145236472,0.10631462281237916,0.2862318521810977,0.5145017812988326,0.0,0.0,0.0,4.207997769117355,-6.447425484657288,7.2735995054244995,-54.14542555809021,7.037610560655594,-29.808443784713745,0.0,19.219303673411506,False,0
GUIDED_NOGPS,2.561091661453247,29.71164648961868,2.1373834337550863,-3.7433178785747856,-0.038716868753948974,0.8839626510292331,2.063679223944631,53.34047218554061,6.856524800685045,2.5486300203900747,-0.37836515926202635,13.028527785191377,3.0218774482479756,0.4116571811103745,0.44198132551461655,0.5141580356613475,0.0,0.0,0.0,14.238595962524414,-6.885320693254471,11.026196926832199,5.671261623501778,11.088525503873825,87.25482225418091,0.0,17.171894705544947,False,0
GUIDED_NOGPS,2.594562530517578,29.879280498664293,2.3164860124193405,-3.758780255335837,0.07033974828297762,1.2242672803225874,2.063679223944631,53.34047218554061,6.856524800685045,2.559525666220126,-0.4218491317260894,12.323603597748225,3.0209787921055096,0.39683615478723155,0.6121336401612937,0.513958083233284,0.0,0.0,0.0,12.68790066242218,-6.619653105735779,6.383025646209717,5.4749272763729095,12.297551333904266,-62.48334050178528,0.0,19.343386012515836,False,0
GUIDED_NOGPS,2.628190517425537,29.740087356061036,2.501112351561335,-3.7536893285364483,0.22310923042472858,1.5079348108792479,2.063679223944631,53.34047218554061,6.856524800685045,2.5822247327096055,-0.31851327878226243,11.674313862415765,3.0012692103741956,0.4341523029796351,0.7539674054396239,0.5136703978393877,0.0,0.0,0.0,13.349315524101257,-5.494081974029541,9.230586141347885,121.71874046325684,7.499190419912338,17.82466024160385,0.0,16.124980385038317,False,0
GUIDED_NOGPS,2.662031888961792,29.552336395919056,2.7670694414349617,-3.7364066231025985,0.4078783112471981,1.8359438730510715,2.063679223944631,53.34047218554061,6.856524800685045,2.667779895696597,-0.13862978826281006,11.132748163125454,2.985966008448547,0.6147951863636457,0.9179719365255358,0.5133183107811929,0.0,0.0,0.0,18.70541423559189,-4.743480682373047,11.297696083784103,50.339365005493164,6.123211234807968,67.684805393219,0.0,19.226799806025596,False,0
GUIDED_NOGPS,2.6952691078186035,30.089774952831203,2.8928034576105537,-3.6962109913346977,0.5957915897259519,2.177817214298009,2.063679223944631,53.34047218554061,6.856524800685045,2.6405650069486812,-0.019632845160672745,10.441644863467824,2.968847607306415,0.3971537866186059,1.0889086071490044,0.5129591403290811,0.0,0.0,0.0,10.131961107254028,-3.532784804701805,11.60999909043312,-18.281757831573486,12.426887452602386,129.45817708969116,0.0,20.717210262172202,False,0
GUIDED_NOGPS,2.731473445892334,27.623546147868122,3.0316815919110547,-3.63204465463149,0.766006740846105,2.446677790473656,2.063679223944631,53.34047218554061,6.856524800685045,2.597466726729312,0.10624108457946248,10.184966354458744,2.9487081551356393,0.42515521261924044,1.223338895236828,0.5126363229814893,0.0,0.0,0.0,11.308174580335617,-2.1115949377417564,10.584578663110733,116.83129072189331,2.1968673914670944,-0.06298422813415527,0.0,16.48961857161591,False,0
GUIDED_NOGPS,2.7649805545806885,29.848023796985526,3.19547692168975,-3.576670109593456,0.9091284055690151,2.764226272196766,2.063679223944631,53.34047218554061,6.856524800685045,2.5735798476544853,0.5551333898288653,9.12504991509335,2.9522710943472434,0.5182331254124096,1.382113136098383,0.5123660005034965,0.0,0.0,0.0,12.124307453632355,-2.1024759858846664,8.49909856915474,27.15117633342743,1.7908833920955658,63.8033390045166,0.0,18.7093737028094,False,0
GUIDED_NOGPS,2.7980782985687256,30.21571622049967,3.3065480406810153,-3.489215880970982,1.0753511158546896,3.0848058370842613,2.063679223944631,53.34047218554061,6.856524800685045,2.458159682521613,0.9706579264660816,8.42537728934829,2.917862732972692,0.448985932877522,1.5424029185421306,0.5120489052608329,0.0,0.0,0.0,10.221176594495773,-0.8883383125066757,10.618837177753448,-39.86267447471619,10.64661219716072,112.98514604568481,0.0,20.82949686457992,False,0
GUIDED_NOGPS,2.8319919109344482,29.489379952331067,3.364713150485069,-3.3797348969969203,1.3119371917176237,3.3684353052547436,2.063679223944631,53.34047218554061,6.856524800685045,2.397643352701654,1.1458280528496962,7.895089086151317,2.899356596588769,0.3693413786681214,1.6842176526273718,0.5115907500530634,0.0,0.0,0.0,7.107672840356827,0.4980455618351698,15.294519066810608,-98.47339391708374,21.496926248073578,121.28565311431885,0.0,18.927109888265655,False,0
GUIDED_NOGPS,2.8657889366149902,29.59132502240001,3.4048130355218653,-3.2597579548101185,1.4858828663103727,3.6485239734991035,2.063679223944631,53.34047218554061,6.856524800685045,2.0661623194498877,1.578608902342391,6.980291114760243,2.8879983804090137,0.354420197803436,1.8242619867495518,0.5112573449156507,0.0,0.0,0.0,6.078523397445679,1.2291946448385715,11.354272067546844,-150.98685026168823,16.56196266412735,54.17553782463074,0.0,18.96416878715485,False,0
GUIDED_NOGPS,2.8995440006256104,29.631253973860826,3.482860902033874,-3.1386244783202604,1.6405705738007674,3.97378189153039,2.063679223944631,53.34047218554061,6.856524800685045,1.6957302114654194,1.8853909043383335,6.191035862295413,2.8808573444886956,0.44463521068781137,1.986890945765195,0.5109620252421905,0.0,0.0,0.0,8.939142525196075,1.2317079119384289,10.417987406253815,2.9932543635368347,-5.56388832628727,57.811033725738525,0.0,22.585837320966384,False,0
GUIDED_NOGPS,2.9327290058135986,30.135607590116468,3.4995079260076363,-3.012531485618446,1.7764922628085185,4.296229990470144,2.063679223944631,53.34047218554061,6.856524800685045,1.4429229256118565,2.1677071687272904,5.542742907694953,2.8796850848810003,0.3530948925571896,2.148114995235072,0.5107036910098448,0.0,0.0,0.0,5.173375457525253,1.6030685976147652,9.387856721878052,-69.37047243118286,4.62903156876564,-5.879666283726692,0.0,22.79965297783905,False,0
GUIDED_NOGPS,2.9665346145629883,29.584437202872177,3.4874486908144853,-2.8778638496945845,1.9500188590531267,4.586879260918387,2.063679223944631,53.34047218554061,6.856524800685045,1.225612559761673,2.4383578969006883,4.886135051553647,2.875460825701896,0.3150364575753428,2.2934396304591935,0.5103699185346559,0.0,0.0,0.0,3.7166301161050797,2.150588668882847,12.158744037151337,-72.27667570114136,-7.556995004415512,53.100645542144775,0.0,21.53038697154453,False,0
GUIDED_NOGPS,2.999999761581421,29.888223012406204,3.4516300413082432,-2.7416777627172713,2.112596335335965,4.882901361165033,2.063679223944631,53.34047218554061,6.856524800685045,1.0009072334744813,2.6457331122728536,4.072325695909444,2.874673927579941,0.28413555102531146,2.4414506805825167,0.5100574533156659,0.0,0.0,0.0,2.306475304067135,2.352542243897915,11.609119921922684,-76.57318115234375,-15.841276943683624,63.76570463180542,0.0,22.22975223877694,False,0
GUIDED_NOGPS,3.0331177711486816,30.198529782347308,3.473056689035178,-2.6157927081582764,2.108345653772969,5.16103034268694,2.063679223944631,53.34047218554061,6.856524800685045,0.823959443637665,2.802173472570118,3.2781157815320046,2.8755993247380016,0.40366548573543437,2.58051517134347,0.5100785216569215,0.0,0.0,0.0,6.297684460878372,1.7517244443297386,1.1568604968488216,-13.461185991764069,-16.54077023267746,-72.49101996421814,0.0,21.80074122681927,False,0
GUIDED_NOGPS,3.0669782161712646,29.53464823642906,3.4395927950131293,-2.5024042209073087,2.158855263761229,5.385286588677891,2.063679223944631,53.34047218554061,6.856524800685045,0.7016480445190734,2.9961418803751947,2.576890141524414,2.9041164854366497,0.3168366780810303,2.6926432943389456,0.5099902848168291,0.0,0.0,0.0,2.889811247587204,1.0599428787827492,4.943464696407318,-46.64318263530731,0.33430159091949463,-82.89753794670105,0.0,18.81570608780816,False,0
GUIDED_NOGPS,3.1014676094055176,28.999032052877567,3.3286703916291116,-2.386087239227859,2.2380092278222086,5.638541347104991,2.063679223944631,53.34047218554061,6.856524800685045,0.6734063862398342,3.072756966068874,1.992711105445805,2.91668739104457,0.18709822940039922,2.8192706735524955,0.5098446848362097,0.0,0.0,0.0,-2.1412523463368416,1.4016068540513515,6.867063790559769,-68.72394680976868,-16.978050768375397,10.99996417760849,0.0,20.825451685043976,False,0
GUIDED_NOGPS,3.133964776992798,30.77552517848364,3.2116643356930057,-2.2804002030554673,2.290254323661129,5.839306169438576,2.063679223944631,53.34047218554061,6.856524800685045,0.661516947885546,3.084515136725051,1.3095679643790004,2.9265161189136637,0.16673218120901775,2.919653084719288,0.5097520834191214,0.0,0.0,0.0,-2.2028395906090736,0.8074304088950157,5.527190864086151,-45.24824321269989,-22.772929072380066,100.68744421005249,0.0,18.42269871051292,False,0
GUIDED_NOGPS,3.167391777038574,29.918283496918512,3.0670068155734964,-2.1766355686947616,2.3423801648192333,5.994507562201273,2.063679223944631,53.34047218554061,6.856524800685045,0.6691192685968876,3.124700981593644,0.7929407798522868,2.9397483009241876,0.12030721904185646,2.9972537811006363,0.5096599015598317,0.0,0.0,0.0,-3.8211748003959656,0.819925032556057,5.841726064682007,-63.42609524726868,-8.411242067813873,-12.199974060058594,0.0,16.278043216791012,False,0
GUIDED_NOGPS,3.2071173191070557,25.17559212974634,2.8706823353868742,-2.0628213067945698,2.343984552437596,6.1781321136412375,2.063679223944631,53.34047218554061,6.856524800685045,0.6884707953411204,3.0853834245232887,0.2343897341174764,2.9575155422841,0.07857363183118707,3.0890660568206187,0.5096710173938462,0.0,0.0,0.0,-7.314500212669373,1.649387739598751,2.4975422769784927,-127.42254734039307,19.419707357883453,-96.08527421951294,0.0,17.99058679267206,False,0
GUIDED_NOGPS,3.234952449798584,35.93228702624906,2.6343779896424184,-1.9413177136922757,2.306293430581588,6.276631756592949,2.063679223944631,53.34047218554061,6.856524800685045,0.6706635316795452,3.054666356278449,-0.26957289230585835,2.9230913203784117,-0.15349149627089415,3.1383158782964746,0.5097565201634963,0.0,0.0,0.0,-9.845998883247375,2.2941000759601593,0.14769237022846937,-132.27739334106445,0.324442982673645,-40.59811532497406,0.0,12.959998789701347,False,0
GUIDED_NOGPS,3.267810583114624,30.435631925345948,2.4042626639103,-1.8222036122363858,2.2835565476157793,6.309098831005536,2.063679223944631,53.34047218554061,6.856524800685045,0.676203028539837,2.9599256560748484,-0.6654319803012856,2.9464993597076985,-0.07642189486438733,3.154549415502768,0.5098140436233212,0.0,0.0,0.0,-8.921168744564056,2.36760750412941,2.6898428797721863,-17.321844398975372,-24.82548952102661,-1.2975215911865234,0.0,13.20579339226801,False,0
GUIDED_NOGPS,3.301443099975586,29.73903301970405,2.1364157093935283,-1.6964073547462393,2.28800721914159,6.388264412037649,2.063679223944631,53.34047218554061,6.856524800685045,0.6919637967713472,2.8424865297120028,-1.0127769283132,2.9515565276124613,-0.15300151754989283,3.1941322060188244,0.5098174181322511,0.0,0.0,0.0,-12.1763676404953,2.988121286034584,3.2061144709587097,-42.8242027759552,-2.1541986614465714,10.433441400527954,0.0,12.6253929449043,False,0
GUIDED_NOGPS,3.335031747817993,29.775556565197636,1.8232200914218757,-1.5606870650052962,2.2864700101467426,6.450279603365044,2.063679223944631,53.34047218554061,6.856524800685045,0.706307727636903,2.741977734754326,-1.4127436280424495,2.952438451611436,-0.25670534005234974,3.225139801682522,0.5098327676514403,0.0,0.0,0.0,-15.229961276054382,3.7852782756090164,2.800407074391842,-28.010112047195435,-15.06320983171463,-27.75888442993164,0.0,11.477662470927344,False,0
GUIDED_NOGPS,3.3738954067230225,25.733505123013682,1.5355314615366824,-1.4362799030442008,2.290453249459365,6.50056933378884,2.063679223944631,53.34047218554061,6.856524800685045,0.6890707847710238,2.558662927950589,-1.7593553445747923,2.9778584851371344,-0.1583897323747241,3.25028466689442,0.5098389900227815,0.0,0.0,0.0,-13.577127456665039,3.1970445066690445,3.3441394567489624,15.854400396347046,-32.656943798065186,51.92906856536865,0.0,11.259037507105344,False,0
GUIDED_NOGPS,3.403353691101074,33.951803912997725,1.1266860451423848,-1.2852340100585447,2.272474230382854,6.500518108881946,2.063679223944631,53.34047218554061,6.856524800685045,0.6825554246330663,2.5103920600954046,-2.012418549078819,2.947940016583721,-0.5855841565024373,3.250259054440973,0.5098857517341956,0.0,0.0,0.0,-21.66028320789337,5.112819746136665,1.9752126187086105,-108.59529972076416,7.048498094081879,35.281455516815186,0.0,8.216551939437966,False,0
GUIDED_NOGPS,3.4360177516937256,30.618933598084446,0.7083858520288409,-1.1304705916541615,2.210540824834286,6.416885695197842,2.063679223944631,53.34047218554061,6.856524800685045,0.6978267671218628,2.467732192643386,-2.254448650195748,2.9583167792858833,-0.5589238350223545,3.208442847598921,0.5100217394089059,0.0,0.0,0.0,-23.468153178691864,6.010932102799416,0.26710983365774155,-92.6115334033966,-3.427400439977646,-33.584487438201904,0.0,6.524083143301228,False,0
GUIDED_NOGPS,3.470076322555542,29.364679525326427,0.33682074092383674,-0.9965858670256496,2.233845607133857,6.396884900844694,2.063679223944631,53.34047218554061,6.856524800685045,0.7191308741950729,2.4420713853750597,-2.411147703907827,2.9818170532030424,-0.47085585940265284,3.198442450422347,0.5099877388585019,0.0,0.0,0.0,-20.007652044296265,4.51098270714283,5.116869509220123,-99.87739324569702,-9.775959700345993,80.13262748718262,0.0,8.148313226987662,False,0
GUIDED_NOGPS,3.5033466815948486,30.060661659308526,-0.03895142156595746,-0.8682401173987955,2.238773671409752,6.361622540093282,2.063679223944631,53.34047218554061,6.856524800685045,0.7994687331515266,2.4111731036738027,-2.667892593817902,2.9910689947074753,-0.5258111606038992,3.180811270046641,0.5099901762874437,0.0,0.0,0.0,-20.27481198310852,4.22939620912075,3.7335939705371857,-80.95639944076538,-4.2114004492759705,64.29463624954224,0.0,6.748448881120623,False,0
GUIDED_NOGPS,3.5363972187042236,30.25975037876055,-0.3819890468609155,-0.7608367226021329,2.210689133885763,6.292947009983596,2.063679223944631,53.34047218554061,6.856524800685045,0.9037356262565909,2.433357131211181,-2.811171606471375,3.0134346377166588,-0.49893119687165904,3.146473504991798,0.5100586410256664,0.0,0.0,0.0,-18.572409451007843,3.1029319390654564,1.7183329910039902,-87.92716264724731,7.919418066740036,14.794333279132843,0.0,5.169836350240236,False,0
GUIDED_NOGPS,3.5700483322143555,29.721120732415923,-0.7542138041963392,-0.650977673528242,2.18446906312653,6.194011317880327,2.063679223944631,53.34047218554061,6.856524800685045,0.9741136820209907,2.379996491763868,-2.9118287446000877,3.0212535710935784,-0.5758497624391886,3.0970056589401636,0.5101236447667754,0.0,0.0,0.0,-20.82987278699875,3.4656979143619537,1.8850132822990417,-3.4354940056800842,-4.8004500567913055,6.815610826015472,0.0,3.3009394989738365,False,0
GUIDED_NOGPS,3.603546142578125,29.857797773285117,-1.1513585665565782,-0.537173059560524,2.180867096068331,6.078682744603506,2.063679223944631,53.34047218554061,6.856524800685045,1.0756595985154511,2.3772738076059716,-3.003543030671138,3.0249127744359035,-0.6599141021688024,3.039341372301753,0.5101433938944681,0.0,0.0,0.0,-22.664906084537506,3.881707787513733,3.382335603237152,-66.12567901611328,-7.361504435539246,5.721833556890488,0.0,2.208019158652117,False,0
GUIDED_NOGPS,3.637216091156006,29.70449217781744,-1.6106047753844468,-0.40011777180951896,2.177805206233485,5.936076450775625,2.063679223944631,53.34047218554061,6.856524800685045,1.0644858359201335,2.341275509028831,-3.0695269269216925,3.011067936301259,-0.8203303905520954,2.9680382253878124,0.510162029586664,0.0,0.0,0.0,-27.213075757026672,5.651162564754486,3.482154756784439,-153.14382314682007,18.933475017547607,-74.30163621902466,0.0,0.6521808263420791,False,0
GUIDED_NOGPS,3.671013355255127,29.5915337942712,-2.072576755267772,-0.255799915089974,2.135690026027207,5.81139380973418,2.063679223944631,53.34047218554061,6.856524800685045,1.0555320982484815,2.2812003667405722,-3.067728666179275,3.0064378555734343,-0.8555721436117392,2.90569690486709,0.5102590993268104,0.0,0.0,0.0,-27.794110774993896,6.338141858577728,0.927627831697464,-82.16587901115417,20.36251425743103,-75.40498971939087,0.0,2.0489615552422684,False,0
GUIDED_NOGPS,3.705369710922241,29.110332239056653,-2.5517919855463096,-0.10477497483162132,2.1706657920063557,5.68582225894525,2.063679223944631,53.34047218554061,6.856524800685045,1.0279389877752763,2.246738647283273,-3.0090601159732158,3.0041005796711775,-0.9245564758210317,2.842911129472625,0.5102019990327404,0.0,0.0,0.0,-29.052352905273438,6.896107643842697,6.033584102988243,-131.33199214935303,28.902411460876465,109.45634841918945,0.0,1.9308974665703666,False,0
GUIDED_NOGPS,3.737882375717163,30.75927514868839,-3.0402304769241426,0.052561171037473514,2.1901383078586387,5.468449015769984,2.063679223944631,53.34047218554061,6.856524800685045,1.024832959250213,2.149221902068885,-2.936262465695339,2.9924143894485504,-1.036689859815576,2.734224507884992,0.5101752259564801,0.0,0.0,0.0,-30.474430322647095,7.615438103675842,5.104577913880348,-142.55034923553467,14.44191038608551,42.31846034526825,0.0,-3.8354598581352795,False,0
GUIDED_NOGPS,3.771329641342163,29.902499536594757,-3.446412057642326,0.1774860988741042,2.1444363541573113,5.278531230324375,2.063679223944631,53.34047218554061,6.856524800685045,1.056425999256107,1.9203887936454789,-2.8179123628519434,3.020634528360087,-0.9057011591788673,2.6392656151621874,0.5102792396400597,0.0,0.0,0.0,-26.227426528930664,5.8690812438726425,0.9445575997233391,21.67332172393799,-28.987696766853333,-84.11704301834106,0.0,-1.6474186826403325,False,0
GUIDED_NOGPS,3.805300235748291,29.44115004492363,-3.9358068478612944,0.31878130088899576,2.099405539094938,5.035763298966703,2.063679223944631,53.34047218554061,6.856524800685045,1.1488775188706954,1.7606701559900197,-2.5880545126096233,3.01544488146629,-1.0940911111404859,2.5178816494833516,0.5103822380635133,0.0,0.0,0.0,-31.62693679332733,6.992967426776886,0.8679685182869434,-27.66587734222412,-3.3353231847286224,-26.891010999679565,0.0,-5.469029371738059,False,0
GUIDED_NOGPS,3.84112286567688,27.919774740892116,-4.3986006522247925,0.4517358757368561,2.035953039306639,4.738663753556283,2.063679223944631,53.34047218554061,6.856524800685045,1.2325112642667975,1.5143457868758567,-2.3519803364489453,3.02385468923059,-1.0598953200556762,2.3693318767781415,0.5105229099124029,0.0,0.0,0.0,-30.031901597976685,6.55859187245369,-0.3810910042375326,-19.78452354669571,-6.55355304479599,-25.98416805267334,0.0,-9.151738025501528,False,0
GUIDED_NOGPS,3.876018762588501,28.65920970816735,-4.991314047764352,0.6177314151095403,1.9543045018626886,4.4260127792506365,2.063679223944631,53.34047218554061,6.856524800685045,1.3989021429677129,1.1726004734054423,-1.9857167782923004,2.998595211012962,-1.36476600250744,2.2130063896253183,0.5106999348273297,0.0,0.0,0.0,-37.41108179092407,8.495302498340607,-1.7577875405550003,-86.98305487632751,11.150133609771729,-21.11368626356125,0.0,-10.403295058825494,False,0
GUIDED_NOGPS,3.9082250595092773,31.051897478419235,-5.533690119607779,0.7747170197966293,1.836976711911878,4.072179033712767,2.063679223944631,53.34047218554061,6.856524800685045,1.5455112997283902,0.8544553845081257,-1.656112873123524,2.9865283726222978,-1.421625805471887,2.0360895168563835,0.5109475276957767,0.0,0.0,0.0,-35.47019958496094,8.332420140504837,-3.8800418376922607,-52.16342210769653,-2.81197726726532,-24.1119384765625,0.0,-12.788800098154978,False,0
GUIDED_NOGPS,3.9420723915100098,29.550046146584094,-5.995674075199759,0.927663190929084,1.7275465851762823,3.7280306259420666,2.063679223944631,53.34047218554061,6.856524800685045,1.764176177468352,0.4183721919125827,-1.2070498131448708,2.9815369102804237,-1.285259169365379,1.8640153129710333,0.5111802773014567,0.0,0.0,0.0,-33.349040150642395,8.952271938323975,-3.119310177862644,-37.61756718158722,14.32739645242691,-32.343921065330505,0.0,-12.055404267156627,False,0
GUIDED_NOGPS,3.984644651412964,23.490789746346984,-6.472195240077318,1.09020874116367,1.655606177990649,3.311808367398662,2.063679223944631,53.34047218554061,6.856524800685045,1.8915256948734742,0.23715729475265382,-0.9585648630971625,2.9945197908491763,-1.1973518811906714,1.655904183699331,0.51134186138461,0.0,0.0,0.0,-33.320578932762146,9.375854581594467,-0.8074261248111725,59.83802080154419,-14.254668354988098,-195.73105573654175,0.0,-17.01912386437927,False,0
GUIDED_NOGPS,4.013501167297363,34.657654456664545,-7.040955613775498,1.2899783576512824,1.528378557233279,2.8898855890181947,2.063679223944631,53.34047218554061,6.856524800685045,2.245201000946374,-0.5191107053419536,-0.15862914244156273,2.8857086873776456,-1.7820694518887792,1.4449427945090974,0.5116086137162718,0.0,0.0,0.0,-32.4128121137619,9.953806549310684,-4.676780849695206,26.39192044734955,-11.79892122745514,-149.5617151260376,0.0,-16.71573027654189,False,0
GUIDED_NOGPS,4.047042608261108,29.81640849926424,-7.305024415031527,1.4223745294821175,1.4619011114423286,2.423095243817993,2.063679223944631,53.34047218554061,6.856524800685045,2.4362006243400223,-1.006585575273995,0.3680689158924966,2.9616265574153653,-1.1112698587842313,1.2115476219089965,0.5117560760841346,0.0,0.0,0.0,-31.536677479743958,10.794862359762192,-0.21580425091087818,51.969414949417114,2.40279883146286,149.08359050750732,0.0,-21.942310557746122,False,0
GUIDED_NOGPS,4.0796003341674805,30.720075000183105,-7.626442500470184,1.5889633643083187,1.437351725402428,1.9562971309381083,2.063679223944631,53.34047218554061,6.856524800685045,2.5940366911054964,-1.518256603784218,1.0501008171978519,2.9083922920144927,-1.2856122782819026,0.9781485654690542,0.5118192585168623,0.0,0.0,0.0,-30.78545331954956,11.948595196008682,2.2641845047473907,59.41230058670044,5.897178500890732,93.44173669815063,0.0,-22.281571176462535,False,0
GUIDED_NOGPS,4.109806060791016,33.1115321460149,-7.957530318611723,1.7712471731650659,1.384321106444584,1.481613062672515,2.063679223944631,53.34047218554061,6.856524800685045,2.6401927616389154,-1.967144426721978,1.7676995945847265,2.860487927849954,-1.4028249044960188,0.7408065313362575,0.5119385218135868,0.0,0.0,0.0,-28.80861461162567,12.326797842979431,0.18609162652865052,41.68144166469574,-3.2808221876621246,-26.20897889137268,0.0,-22.74060599246429,False,0
GUIDED_NOGPS,4.143741130828857,29.471559968239916,-8.19215739950204,1.944551673957494,1.334115492698946,1.0704653415951522,2.063679223944631,53.34047218554061,6.856524800685045,2.726171609797859,-2.3257839996610077,2.6062358358499624,2.8821115452068784,-1.1979570030118942,0.5352326707975761,0.5120539363686274,0.0,0.0,0.0,-25.213128328323364,12.684257328510284,0.3049785504117608,95.2088713645935,-4.089856892824173,25.851833820343018,0.0,-19.723819011549082,False,0
GUIDED_NOGPS,4.1842451095581055,24.690240585835635,-8.45388842518336,2.1364977761568804,1.2660803338780082,0.589158291783613,2.063679223944631,53.34047218554061,6.856524800685045,2.8211663076612195,-2.428722634415916,3.2995252229288208,2.885329781676896,-1.2166208197404909,0.2945791458918065,0.512208137180273,0.0,0.0,0.0,-23.733092844486237,12.943238019943237,-1.0522529482841492,-5.840863287448883,11.023223400115967,-68.2931900024414,0.0,-23.696842721549828,False,0
GUIDED_NOGPS,4.21521782875061,32.289211535204544,-8.727501387695588,2.3497038472185783,1.2079192583676397,0.1361430362581831,2.063679223944631,53.34047218554061,6.856524800685045,2.9181609702909244,-2.5558952072328527,4.094509296559999,2.7859737861433325,-1.40434576877656,0.06807151812909155,0.5123384683660506,0.0,0.0,0.0,-21.91019505262375,13.420256972312927,-0.46757878735661507,76.4588713645935,0.576392188668251,-15.371790528297424,0.0,-20.761625274797503,False,0
GUIDED_NOGPS,4.246701717376709,31.766126161606216,-8.89804532164457,2.5340599073481345,1.1887855961050948,-0.34730370260429466,2.063679223944631,53.34047218554061,6.856524800685045,2.9721075119029776,-2.4591327710349282,4.814100034585285,2.813143873007392,-1.2379426526883306,-0.17365185130214733,0.5123910060072994,0.0,0.0,0.0,-24.56769496202469,14.906798303127289,2.0947853103280067,-81.91825747489929,41.11816883087158,78.43320965766907,0.0,-27.128206817159175,False,0
GUIDED_NOGPS,4.280149698257446,29.905271188495078,-9.174735901008656,2.7623435909312364,1.1929298491806346,-0.7802677381397146,2.063679223944631,53.34047218554061,6.856524800685045,3.0082887314838276,-2.171650962642738,5.716050847034387,2.757369436039532,-1.4532664083863105,-0.3901338690698573,0.5123978534621129,0.0,0.0,0.0,-29.24824357032776,17.08052009344101,3.54931578040123,-23.126201331615448,21.69361561536789,34.894612431526184,0.0,-23.09394021596551,False,0
