Mode,Time,Freq,time2delay,actualDelay,North-Desired,East-Desired,Down-Desired,Roll-UAV,Pitch-UAV,Yaw-UAV,Roll-Control,Pitch-Control,Yaw-Control,Thrust-Control,North-Pos,East-Pos,Down-Pos,Yaw-Ang,North-Vel,East-Vel,Down-Vel,Yaw-Vel,North-Acc,East-Acc,Down-Acc,North-Avg,East-Avg,Down-Avg,Yaw-Avg,North-Dif,East-Dif,Down-Dif,Yaw-Dif,North-One,East-One,Down-One,Yaw-One,North-Two,East-Two,Down-Two,Yaw-Two,Landing-State,Q-Size,Kalman-Time,Kalman-Dt
STABILIZE,0.03433632850646973,29.131359434361954,0.0333128293355306,0.03343939781188965,0.0,0.0,0.0,-0.6229569548436804,-1.4446224687764262,33.32641224364899,-0.0028637006073418676,0.0027178535359327063,0.018720387293771776,0.4,0.0904472139603348,0.09498962954034036,0.13381156365098212,0.09358622442710272,-0.09126318618655205,0.20376499742269516,1.9147161394357681,0.24169598213655374,2.5103334337472916,0.5949824582785368,22.928082942962646,0.0,0.0,0.0,0.0,0.0,0.0,0.0,0.0,0.0,0.0,0.0,0.0,0.0,0.0,0.0,0.0,False,0,0.14845728874206543,0.02993408203125
STABILIZE,0.07027125358581543,27.829742623396786,0.03234079678853353,0.035045623779296875,0.0,0.0,0.0,-0.6219615081330039,-1.4446094487283208,33.32859107399422,-0.0036944218647729974,0.003485082847722552,0.023399029887099656,0.4,0.11570055742372884,0.1221515268180769,0.19376030003872058,0.1169583956104704,-0.014256066060625017,0.21414307411760092,1.7799286171793938,-0.12647688069737398,-2.9614590108394623,0.6407338194549084,30.057162046432495,0.0,0.0,0.0,0.0,0.0,0.0,0.0,0.0,0.0,0.0,0.0,0.0,0.0,0.0,0.0,0.0,False,0,0.20577502250671387,0.0349228515625
STABILIZE,0.10367774963378906,29.933015993091782,0.0324588139851888,0.03257560729980469,0.0,0.0,0.0,-0.6218913919723055,-1.4444659080340447,33.330004923152416,-0.004099342838463422,0.0038151105501448767,0.025391012449994022,0.4,0.12633002118319708,0.1351521387743837,0.22616974171903642,0.1268970813284523,-0.014256066060625017,0.21414307411760092,1.7799286171793938,-0.12647688069737398,-2.9614590108394623,0.6407338194549084,30.057162046432495,0.0,0.0,0.0,0.0,0.0,0.0,0.0,0.0,0.0,0.0,0.0,0.0,0.0,0.0,0.0,0.0,False,0,0.23447918891906738,0.0349228515625
STABILIZE,0.1372079849243164,29.824677171625236,0.03249171574910482,0.03263115882873535,0.0,0.0,0.0,-0.6217996646661863,-1.4443395495343996,33.3315792817561,-0.004419567657903943,0.004105449532079298,0.027161689642363582,0.4,0.13560063995986252,0.14529763457881797,0.2588707687070989,0.13572776495586183,0.057793629821389914,0.06297812215052545,1.8521010875701904,0.004652679505887729,4.041050001978874,2.252102829515934,24.357889592647552,0.0,0.0,0.0,0.0,0.0,0.0,0.0,0.0,0.0,0.0,0.0,0.0,0.0,0.0,0.0,0.0,False,0,0.2632298469543457,0.034923095703125
STABILIZE,0.17056560516357422,29.978586234007576,0.03241995175679525,0.03254294395446777,0.0,0.0,0.0,-0.6221338103269881,-1.443320143800775,33.33408596118149,-0.004707520178688293,0.004297264300338154,0.028562145423323332,0.4,0.14156303180424518,0.15434742670545368,0.2899140083469051,0.14270619164057385,-0.1368603203445673,0.13640520628541708,1.6870668157935143,-0.013923180540512321,-5.183720588684082,2.1443726494908333,21.26503884792328,0.0,0.0,0.0,0.0,0.0,0.0,0.0,0.0,0.0,0.0,0.0,0.0,0.0,0.0,0.0,0.0,False,0,0.2918689250946045,0.029934814453125
STABILIZE,0.2040390968322754,29.874172892969323,0.03248027165730794,0.03260231018066406,0.0,0.0,0.0,-0.6213519137495803,-1.4438682664816687,33.33525733862415,-0.004845358259032091,0.004392283856484085,0.028939216712129283,0.4,0.1442643975356413,0.1583994486880103,0.3158713321355612,0.14456736634363315,-0.03186216636095196,0.0595227291341871,1.861712522804737,-0.12478486141306198,4.955187067389488,-1.6370559111237526,28.800731897354126,0.0,0.0,0.0,0.0,0.0,0.0,0.0,0.0,0.0,0.0,0.0,0.0,0.0,0.0,0.0,0.0,False,0,0.32088184356689453,0.034923095703125
STABILIZE,0.2376551628112793,29.7483137460725,0.03246668179829915,0.03277850151062012,0.0,0.0,0.0,-0.6207961071058705,-1.4437848101077475,33.33952279176083,-0.005024815818943568,0.004547987026654834,0.029710183065191544,0.4,0.1489798957224336,0.1638073877770109,0.34894778516248337,0.14839725332681003,0.022533546143677086,0.019029324175789952,1.9571518525481224,-0.0620645349356241,5.221516638994217,0.15664667589589953,28.447434306144714,0.0,0.0,0.0,0.0,0.0,0.0,0.0,0.0,0.0,0.0,0.0,0.0,0.0,0.0,0.0,0.0,False,0,0.34926271438598633,0.034924072265625
STABILIZE,0.2710864543914795,29.91038943442512,0.03248408635457357,0.03261113166809082,0.0,0.0,0.0,-0.62099749096468,-1.4436416963002947,33.34112788621578,-0.005410239697098329,0.00452848068605646,0.03036764659074851,0.4,0.14787850852775705,0.17605890105529043,0.40291139328018294,0.15165920368723923,-0.2051627729088068,0.35864696837961674,1.7499018460512161,-0.003326286284293008,-3.4345541149377823,2.4433212354779243,24.38247501850128,0.0,0.0,0.0,0.0,0.0,0.0,0.0,0.0,0.0,0.0,0.0,0.0,0.0,0.0,0.0,0.0,False,0,0.4067540168762207,0.02993408203125
STABILIZE,0.3047780990600586,29.68578101776488,0.032494338353474934,0.03263688087463379,0.0,0.0,0.0,-0.6206331964219951,-1.444089714021165,33.342558810846896,-0.005463535369050678,0.00448925994921186,0.029998284995608086,0.4,0.14608077351597115,0.1772502651168863,0.4278189271753547,0.14978731779652674,-0.11128503829240799,0.10153488256037235,1.9146641716361046,-0.1271105274852381,-1.5443080104887486,2.072463370859623,25.587767362594604,0.0,0.0,0.0,0.0,0.0,0.0,0.0,0.0,0.0,0.0,0.0,0.0,0.0,0.0,0.0,0.0,False,0,0.43527960777282715,0.0349228515625
STABILIZE,0.3381056785583496,30.000672355461457,0.03225901921590169,0.03245115280151367,0.0,0.0,0.0,-0.6203657518273068,-1.444934096157308,33.34653056584926,-0.005557577450379846,0.004498137837437716,0.03012924358401217,0.4,0.14589829512012534,0.1797804544334169,0.4576037169887338,0.15041692239223367,-0.06938487058505416,0.0732089567463845,1.8025625497102737,-0.014299641357656382,-1.836884394288063,-1.8250197172164917,26.246532797813416,0.0,0.0,0.0,0.0,0.0,0.0,0.0,0.0,0.0,0.0,0.0,0.0,0.0,0.0,0.0,0.0,False,0,0.46404337882995605,0.034924072265625
STABILIZE,0.3715353012084961,29.913589227894505,0.03246668179829915,0.03258705139160156,0.0,0.0,0.0,-0.6194170492237626,-1.4450955660981553,33.34733652817132,-0.0055532580419227215,0.004437489176331456,0.0301427222152414,0.4,0.14339657651627782,0.17904252549625876,0.4878756739638303,0.15045914075885738,-0.19032276468351483,-0.11476986110210419,1.906670443713665,-0.00045490002024843774,-1.6587484627962112,-0.10010935366153717,27.38574743270874,0.0,0.0,0.0,0.0,0.0,0.0,0.0,0.0,0.0,0.0,0.0,0.0,0.0,0.0,0.0,0.0,False,0,0.4928750991821289,0.029933837890625
STABILIZE,0.40497493743896484,29.90441831780232,0.03246191342671712,0.032599449157714844,0.0,0.0,0.0,-0.6203065212805982,-1.4448770000447149,33.350471585000356,-0.005515787857033337,0.004495582050635429,0.029526845129033533,0.4,0.14483546194039412,0.17720402739020824,0.5070869642136704,0.14735511817139826,0.2790584461763501,0.018379802349954844,1.6233107075095177,-0.08000921613360622,0.3325926139950752,-1.928362250328064,22.881199419498444,0.0,0.0,0.0,0.0,0.0,0.0,0.0,0.0,0.0,0.0,0.0,0.0,0.0,0.0,0.0,0.0,False,0,0.5212812423706055,0.034924072265625
STABILIZE,0.4384419918060303,29.880344803020588,0.0324895699818929,0.032605648040771484,0.0,0.0,0.0,-0.6203019322472495,-1.4447512818753043,33.352250849279145,-0.00551962829900441,0.004592449811686769,0.029112513657201078,0.4,0.14756460589129186,0.17673842770324158,0.5322167269375282,0.14525917703212676,0.2790584461763501,0.018379802349954844,1.6233107075095177,-0.08000921613360622,0.3325926139950752,-1.928362250328064,22.881199419498444,0.0,0.0,0.0,0.0,0.0,0.0,0.0,0.0,0.0,0.0,0.0,0.0,0.0,0.0,0.0,0.0,False,0,0.5504708290100098,0.034924072265625
STABILIZE,0.4718139171600342,29.9650932679874,0.03243687947591146,0.03255152702331543,0.0,0.0,0.0,-0.6193750542325376,-1.4444635601565174,33.353975472044574,-0.005813007508182341,0.004444936995178892,0.029215499234455666,0.4,0.14219861874955436,0.18590742386895381,0.6264265251049521,0.14574974347126618,-0.029861804796382785,0.1469193841330707,2.009962499141693,-0.2007042950078181,2.063250355422497,0.24671661667525768,24.491985142230988,0.0,0.0,0.0,0.0,0.0,0.0,0.0,0.0,0.0,0.0,0.0,0.0,0.0,0.0,0.0,0.0,False,0,0.6076397895812988,0.034923828125
STABILIZE,0.5053122043609619,29.852485035693697,0.03253653844197591,0.03266286849975586,0.0,0.0,0.0,-0.6186884601383926,-1.443035090124633,33.3564275099566,-0.0057075658654190875,0.0044634307676281034,0.027911745232185838,0.4,0.1423084206504042,0.1818000510226257,0.6421028887382776,0.13920769038770237,0.22331106010824442,-0.019991889712400734,1.4224272221326828,-0.18918196598120493,-1.1207042261958122,-0.04489250422921032,18.88372302055359,0.0,0.0,0.0,0.0,0.0,0.0,0.0,0.0,0.0,0.0,0.0,0.0,0.0,0.0,0.0,0.0,False,0,0.6375048160552979,0.034924072265625
STABILIZE,0.5388405323028564,29.82573758950984,0.03247812589009603,0.032631635665893555,0.0,0.0,0.0,-0.6178340461619064,-1.443787905037215,33.357796962885196,-0.0056734299653520785,0.004425752257688631,0.027713026244246954,0.4,0.14057575350589308,0.18006506348446394,0.658448834102973,0.1381909643064989,0.1146209891885519,0.15138485468924046,1.5355683863162994,0.17348424359738512,3.24377603828907,0.16839236486703157,22.09864854812622,0.0,0.0,0.0,0.0,0.0,0.0,0.0,0.0,0.0,0.0,0.0,0.0,0.0,0.0,0.0,0.0,False,0,0.6652021408081055,0.029919921875
STABILIZE,0.5722475051879883,29.933015993091782,0.03242352803548177,0.03254055976867676,0.0,0.0,0.0,-0.6181059197073846,-1.4444333579137814,33.36156722730704,-0.005597007227342924,0.004358761013777404,0.027347867461492578,0.4,0.13786966665207726,0.17693623463094643,0.6675257906424278,0.13634238069597202,0.1146209891885519,0.15138485468924046,1.5355683863162994,0.17348424359738512,3.24377603828907,0.16839236486703157,22.09864854812622,0.0,0.0,0.0,0.0,0.0,0.0,0.0,0.0,0.0,0.0,0.0,0.0,0.0,0.0,0.0,0.0,False,0,0.6937754154205322,0.029919921875
STABILIZE,0.6057143211364746,29.88162206833661,0.03245213826497396,0.03259110450744629,0.0,0.0,0.0,-0.6181664842754155,-1.444979986490794,33.362591755682544,-0.005504441098012226,0.004053051130979472,0.02645257879785949,0.4,0.12723184734460502,0.1733056095718799,0.6809530416858491,0.1318438758756777,-0.37990002892911434,0.11712139239534736,1.8258200958371162,0.004560351890173553,0.06355359219014645,0.11832352029159665,21.1360901594162,0.0,0.0,0.0,0.0,0.0,0.0,0.0,0.0,0.0,0.0,0.0,0.0,0.0,0.0,0.0,0.0,False,0,0.7224025726318359,0.034923095703125
STABILIZE,0.6392114162445068,29.852697508896796,0.03243878682454427,0.03258180618286133,0.0,0.0,0.0,-0.6178348465746998,-1.4445071026124763,33.36439492562343,-0.005445878306651232,0.003808830934497078,0.025661439755648573,0.4,0.11867672637408841,0.17080913012028925,0.6958995687072593,0.1278667721540785,-0.28650390449911356,0.12083328329026699,1.5614667907357216,-0.006991165522970844,-4.842741042375565,1.9713260233402252,17.69305169582367,0.0,0.0,0.0,0.0,0.0,0.0,0.0,0.0,0.0,0.0,0.0,0.0,0.0,0.0,0.0,0.0,False,0,0.7515499591827393,0.034924072265625
STABILIZE,0.6726422309875488,29.911882586184763,0.03239563306172689,0.03259158134460449,0.0,0.0,0.0,-0.6184417729154789,-1.4442605754721212,33.36729775602068,-0.0052448344164543895,0.003565054842660197,0.023042812858923983,0.4,0.11012722964256723,0.16360529867967077,0.7294877577852044,0.1147544260419178,-0.16722274012863636,0.14826285187155008,1.7547732219099998,0.004349088769709236,-2.5821244344115257,0.13399430317804217,24.66684579849243,0.0,0.0,0.0,0.0,0.0,0.0,0.0,0.0,0.0,0.0,0.0,0.0,0.0,0.0,0.0,0.0,False,0,0.8086419105529785,0.02993505859375
STABILIZE,0.7062180042266846,29.784225588149663,0.032506497701009114,0.03266429901123047,0.0,0.0,0.0,-0.6179687823154555,-1.4442464882069581,33.369210208988285,-0.005163168302969427,0.0033612457952930832,0.0221643622469759,0.4,0.102969975207705,0.1603681255856386,0.7388855650125362,0.11034369043823233,-0.16722274012863636,0.14826285187155008,1.7547732219099998,0.004349088769709236,-2.5821244344115257,0.13399430317804217,24.66684579849243,0.0,0.0,0.0,0.0,0.0,0.0,0.0,0.0,0.0,0.0,0.0,0.0,0.0,0.0,0.0,0.0,False,0,0.8373074531555176,0.02993505859375
STABILIZE,0.7397902011871338,29.785706169753436,0.03240063985188802,0.032792091369628906,0.0,0.0,0.0,-0.6184176538099723,-1.4439384893640728,33.37531298301169,-0.005013065688110756,0.0032205303084791035,0.021285477517546565,0.4,0.09792720504088025,0.15486053929403393,0.7514846290188207,0.10593143035757863,-0.049332057824358344,0.0043335516238585114,1.966816559433937,-0.004152624531407168,-2.6112526655197144,0.03251522430218756,23.979079723358154,0.0,0.0,0.0,0.0,0.0,0.0,0.0,0.0,0.0,0.0,0.0,0.0,0.0,0.0,0.0,0.0,False,0,0.8661549091339111,0.0349228515625
STABILIZE,0.7733409404754639,29.806026151222284,0.032553942998250325,0.0326848030090332,0.0,0.0,0.0,-0.6202658603106954,-1.444452567820822,33.37969796445884,-0.00494920787999863,0.0030382151255280094,0.02094306587269121,0.4,0.09153473430687296,0.15223666197460947,0.7665957480145296,0.10420193212076831,-0.14933333732187748,0.13156312052160501,1.7761040478944778,0.1331530170850912,-4.308559745550156,2.076971158385277,24.778154492378235,0.0,0.0,0.0,0.0,0.0,0.0,0.0,0.0,0.0,0.0,0.0,0.0,0.0,0.0,0.0,0.0,False,0,0.8949227333068848,0.029933837890625
STABILIZE,0.8070249557495117,29.69019388542426,0.03244975407918294,0.03258204460144043,0.0,0.0,0.0,-0.622365823315357,-1.4454079405309777,33.38486500256595,-0.004905958063956672,0.0029144980094798953,0.02064959092694966,0.4,0.08711257553145992,0.15030224068218034,0.7723030665204266,0.10271737698857389,-0.026186020113527775,0.21427709143608809,1.618393324315548,0.16185416566857236,2.3256011307239532,0.09358087554574013,22.702811658382416,0.0,0.0,0.0,0.0,0.0,0.0,0.0,0.0,0.0,0.0,0.0,0.0,0.0,0.0,0.0,0.0,False,0,0.9236054420471191,0.034924072265625
STABILIZE,0.8402788639068604,30.069066377993963,0.03221276601155599,0.032346248626708984,0.0,0.0,0.0,-0.620873000094886,-1.4443068926924303,33.40416028697124,-0.004950258665968896,0.002699959963960502,0.019216359216730493,0.4,0.07967673060421392,0.15129687543931034,0.7893418102885,0.09553523703364179,-0.22052978165447712,0.3459920873865485,1.96585301309824,-0.20534239366065343,-0.697462260723114,4.073638841509819,33.260586857795715,0.0,0.0,0.0,0.0,0.0,0.0,0.0,0.0,0.0,0.0,0.0,0.0,0.0,0.0,0.0,0.0,False,0,0.9524438381195068,0.034923095703125
STABILIZE,0.8736526966094971,29.96252455620245,0.032416375478108723,0.03255343437194824,0.0,0.0,0.0,-0.6245259773620793,-1.442473947395634,33.3960835882777,-0.0047791476636675125,0.0031940913723401453,0.01455659190154682,0.4,0.095753248605179,0.14512376696552842,0.7989447160479398,0.07222432278816004,1.1537197977304459,0.23520824033766985,1.2491884641349316,-1.2757621565254338,14.454381167888641,1.8620999529957771,19.728414714336395,0.0,0.0,0.0,0.0,0.0,0.0,0.0,0.0,0.0,0.0,0.0,0.0,0.0,0.0,0.0,0.0,False,0,1.0100555419921875,0.034923095703125
STABILIZE,0.9075376987457275,29.514696465389243,0.032503636678059895,0.033007144927978516,0.0,0.0,0.0,-0.6293859237608078,-1.441551978579388,33.384940134646826,-0.004916160488483387,0.0022755109551411915,0.016864635845376855,0.4,0.0649529280289156,0.14920945858472037,0.8068787996316358,0.08375037845745623,-1.6505256295204163,0.5268006585538387,1.5382998622953892,0.9198382241117191,-34.807831048965454,-15.967676043510437,11.939577758312225,0.0,0.0,0.0,0.0,0.0,0.0,0.0,0.0,0.0,0.0,0.0,0.0,0.0,0.0,0.0,0.0,False,0,1.0385994911193848,0.034924072265625
STABILIZE,0.9410178661346436,29.866302087783758,0.032433541615804036,0.032621145248413086,0.0,0.0,0.0,-0.6314342334598712,-1.4448308962678174,33.416143853870025,-0.004596508444475168,0.001993148711643774,0.020031003528534725,0.4,0.055381942640467474,0.13808696502196607,0.8184599143542189,0.09956553254690134,-0.35846640821546316,-0.38462099619209766,1.80289875715971,1.1520222873749573,49.555641412734985,-8.096177130937576,24.164937436580658,0.0,0.0,0.0,0.0,0.0,0.0,0.0,0.0,0.0,0.0,0.0,0.0,0.0,0.0,0.0,0.0,False,0,1.0671963691711426,0.0349228515625
STABILIZE,0.9744396209716797,29.92041774264884,0.032474788029988606,0.03260207176208496,0.0,0.0,0.0,-0.63242215629029,-1.4461762300908982,33.410423570440145,-0.0042705163612964695,0.0017115598981422425,0.023268432063292134,0.4,0.04586354899637914,0.12679670257313874,0.8293624108210401,0.11573332440545446,-0.35846640821546316,-0.38462099619209766,1.80289875715971,1.1520222873749573,49.555641412734985,-8.096177130937576,24.164937436580658,0.0,0.0,0.0,0.0,0.0,0.0,0.0,0.0,0.0,0.0,0.0,0.0,0.0,0.0,0.0,0.0,False,0,1.095890998840332,0.0349228515625
STABILIZE,1.0079066753387451,29.879493353470014,0.032476218541463216,0.03266453742980957,0.0,0.0,0.0,-0.6480613151380623,-1.4363877152366238,33.38297304016586,-0.004449029519382653,0.00279014968387205,0.015007787985406744,0.4,0.0814487762146609,0.13229849955371215,0.8364439912654478,0.07441763765863904,2.2977884858846664,0.612157816067338,1.6160544008016586,-2.2541353152675736,54.76866364479065,26.907959580421448,19.441796839237213,0.0,0.0,0.0,0.0,0.0,0.0,0.0,0.0,0.0,0.0,0.0,0.0,0.0,0.0,0.0,0.0,False,0,1.1245882511138916,0.034924072265625
STABILIZE,1.041447639465332,29.815348744633056,0.032533915837605794,0.03265118598937988,0.0,0.0,0.0,-0.6522242087154793,-1.442503722751547,33.43511470428974,-0.00436942568119982,0.002412755358167225,0.018890841846833574,0.4,0.06868502860191888,0.1292018513816547,0.8465831582702146,0.09381721441151038,-0.5849179811775684,0.0963378231972456,1.835162192583084,1.3497368404963743,-84.82357263565063,-20.640483498573303,19.628192484378815,0.0,0.0,0.0,0.0,0.0,0.0,0.0,0.0,0.0,0.0,0.0,0.0,0.0,0.0,0.0,0.0,False,0,1.153240442276001,0.029933837890625
STABILIZE,1.074887752532959,29.903565495754343,0.03244188626607259,0.03263139724731445,0.0,0.0,0.0,-0.6456226174392503,-1.4524089911519464,33.40216245663901,-0.0039770582412157925,0.0022733353309187638,0.014286681353359103,0.4,0.06374955807590478,0.11577341139559347,0.8563529922101478,0.07078456010246276,2.0437922328710556,0.6189085077494383,1.6020061448216438,-1.454463063823122,98.50045442581177,43.559542298316956,-4.2469944804906845,0.0,0.0,0.0,0.0,0.0,0.0,0.0,0.0,0.0,0.0,0.0,0.0,0.0,0.0,0.0,0.0,False,0,1.2106437683105469,0.029935302734375
STABILIZE,1.1083862781524658,29.853334946653664,0.03252747853597005,0.03265666961669922,0.0,0.0,0.0,-0.6381939863040681,-1.452680811336572,33.363274774599546,-0.0042449218488407854,0.00306219475901801,0.009938371083061368,0.4,0.08970198305357636,0.12429250921882944,0.859303247163298,0.04903480291435862,1.7114540562033653,0.7942779920995235,1.795663870871067,-1.0991850111727965,-24.396216869354248,-30.709311366081238,26.381009817123413,0.0,0.0,0.0,0.0,0.0,0.0,0.0,0.0,0.0,0.0,0.0,0.0,0.0,0.0,0.0,0.0,False,0,1.2395877838134766,0.0349228515625
STABILIZE,1.141841173171997,29.891205039944698,0.032473357518514,0.03259110450744629,0.0,0.0,0.0,-0.63813790404768,-1.4519897882916368,33.42601689231528,-0.0026657598732942847,0.0020263271789543323,0.02105033255288806,0.4,0.055030062663809526,0.07137906831435953,0.8620888983358059,0.10457712540766506,-1.9287792965769768,-2.8920378535985947,1.4747570268809795,3.5074223074422575,-58.765846490859985,-60.869306325912476,16.274647414684296,0.0,0.0,0.0,0.0,0.0,0.0,0.0,0.0,0.0,0.0,0.0,0.0,0.0,0.0,0.0,0.0,False,0,1.2683842182159424,0.034924072265625
STABILIZE,1.175311803817749,29.877790599934464,0.032453330357869466,0.03260946273803711,0.0,0.0,0.0,-0.6366711742842727,-1.4599167564319655,33.42678187350232,-0.003197328113452586,0.0020845151909070127,0.009730943857014517,0.4,0.05670696532485416,0.08886573607028544,0.8698172984657297,0.04797215226485438,0.25585032999515533,1.3169349171221256,1.8036535009741783,-3.1933740513864795,56.337279081344604,109.66943502426147,27.855122089385986,0.0,0.0,0.0,0.0,0.0,0.0,0.0,0.0,0.0,0.0,0.0,0.0,0.0,0.0,0.0,0.0,False,0,1.2972466945648193,0.029933837890625
STABILIZE,1.2087435722351074,29.909536271776258,0.032460959752400716,0.032592058181762695,0.0,0.0,0.0,-0.6369315218855265,-1.4632090143336176,33.41148224976149,-0.0037385977268001433,0.0021452165708686706,-0.0015391057582419643,0.4,0.0584274902892812,0.10662010871767309,0.8719350097717576,-0.008376694923727154,0.25585032999515533,1.3169349171221256,1.8036535009741783,-3.1933740513864795,56.337279081344604,109.66943502426147,27.855122089385986,0.0,0.0,0.0,0.0,0.0,0.0,0.0,0.0,0.0,0.0,0.0,0.0,0.0,0.0,0.0,0.0,False,0,1.3307197093963623,0.029933837890625
STABILIZE,1.2422192096710205,29.872257990997664,0.03248790105183919,0.03261113166809082,0.0,0.0,0.0,-0.6406968237480547,-1.4782204894688362,33.46349755538573,-0.003697111609773291,0.002882601939194716,-0.00513503915623474,0.4,0.08269194071005032,0.10492002374213551,0.8796156899188493,-0.026351954752469424,1.615702360868454,0.15102289617061615,2.1375486627221107,-0.9340381873961756,35.144153237342834,-54.707664251327515,21.026010811328888,0.0,0.0,0.0,0.0,0.0,0.0,0.0,0.0,0.0,0.0,0.0,0.0,0.0,0.0,0.0,0.0,False,0,1.3601789474487305,0.034924072265625
STABILIZE,1.275977611541748,29.62602154335158,0.03245595296223958,0.03287792205810547,0.0,0.0,0.0,-0.6278336565502166,-1.4676600565166444,33.463944932776364,-0.0032111018555288696,0.003603591731200946,-0.0034480833642876875,0.4,0.10638927283804635,0.08841482348719794,0.8802402476753559,-0.017914154333004723,1.5485451556742191,-0.7628394290804863,1.4002065174281597,0.713975201949624,27.498263120651245,-3.864988684654236,35.182565450668335,0.0,0.0,0.0,0.0,0.0,0.0,0.0,0.0,0.0,0.0,0.0,0.0,0.0,0.0,0.0,0.0,False,0,1.388566255569458,0.0349228515625
STABILIZE,1.3094594478607178,29.863962918396265,0.03242662747701009,0.032570838928222656,0.0,0.0,0.0,-0.6297910927168071,-1.4497358258655326,33.4256719677622,-0.002961665734408402,0.004014840584080568,-0.012933326352758404,0.4,0.11961793716138097,0.07994761793987862,0.8811673776886395,-0.06532943393010758,-0.5282757803797722,0.7245271001011133,1.484913658350706,-3.2266795478833425,-52.85491943359375,22.885799407958984,23.285813629627228,0.0,0.0,0.0,0.0,0.0,0.0,0.0,0.0,0.0,0.0,0.0,0.0,0.0,0.0,0.0,0.0,False,0,1.446035623550415,0.029935302734375
STABILIZE,1.342902421951294,29.90228635388224,0.03240469296773275,0.032526254653930664,0.0,0.0,0.0,-0.6170940912148707,-1.4593362970742203,33.38798639901665,-0.0026861354866993953,0.00401582742850463,-0.005394076251333743,0.4,0.11932138781932565,0.07043979892880714,0.879419822171235,-0.02762856516283059,0.17206454649567604,-0.3500311402603984,1.6400333493947983,2.328077876005074,-22.54805564880371,-2.190389484167099,43.30331087112427,0.0,0.0,0.0,0.0,0.0,0.0,0.0,0.0,0.0,0.0,0.0,0.0,0.0,0.0,0.0,0.0,False,0,1.4749395847320557,0.069845947265625
STABILIZE,1.3762552738189697,29.981157700610446,0.03242376645406087,0.032532691955566406,0.0,0.0,0.0,-0.6283219617150196,-1.4309132118951526,33.43456145896697,-0.0018503307198140318,0.00227261012149173,0.005294221354243473,0.4,0.0610809178827592,0.0423394321827914,0.9506237795955321,0.025808608973993605,-3.405103459954262,-1.3058205135166645,3.567822650074959,3.3578889759431685,-135.41643619537354,-30.829477310180664,87.52557635307312,0.0,0.0,0.0,0.0,0.0,0.0,0.0,0.0,0.0,0.0,0.0,0.0,0.0,0.0,0.0,0.0,False,0,1.5044851303100586,0.029934814453125
STABILIZE,1.4097044467926025,29.895892285651154,0.03250864346822103,0.03264307975769043,0.0,0.0,0.0,-0.6221337036052823,-1.4448862848331179,33.43600262888184,-0.0022240603758716545,0.0026247523528022294,-0.01694113378149105,0.4,0.07243832511452379,0.05477820087549051,0.9516110209922122,-0.08535388836380729,0.8379337377846241,0.8761635050177574,2.0255042240023613,-6.1584883033530105,90.37319421768188,20.17023414373398,-77.93688178062439,0.0,0.0,0.0,0.0,0.0,0.0,0.0,0.0,0.0,0.0,0.0,0.0,0.0,0.0,0.0,0.0,False,0,1.5328643321990967,0.0399130859375
STABILIZE,1.443244457244873,29.815348744633056,0.03251484235127767,0.03268933296203613,0.0,0.0,0.0,-0.6182878268548891,-1.4436148024304376,33.37605747363122,-0.002594048900484132,0.002987476253680694,-0.03998223817985673,0.4,0.08405461163793897,0.06710390743375272,0.9637584309846398,-0.20052579483876637,0.8379337377846241,0.8761635050177574,2.0255042240023613,-6.1584883033530105,90.37319421768188,20.17023414373398,-77.93688178062439,0.0,0.0,0.0,0.0,0.0,0.0,0.0,0.0,0.0,0.0,0.0,0.0,0.0,0.0,0.0,0.0,False,0,1.5619020462036133,0.0399130859375
STABILIZE,1.476708173751831,29.883538171066224,0.03247049649556478,0.03260493278503418,0.0,0.0,0.0,-0.6282325822864276,-1.4325892762844503,33.4340765155359,-0.0022027038326376033,0.0010422532752690943,-0.0250453667296378,0.4,0.019291287984528643,0.053608036264065996,0.9786248825799367,-0.12582041294262478,-3.3197205513715744,-0.5586642306298018,2.2122247144579887,4.263214542172491,-149.82048273086548,48.85264337062836,-63.930606842041016,0.0,0.0,0.0,0.0,0.0,0.0,0.0,0.0,0.0,0.0,0.0,0.0,0.0,0.0,0.0,0.0,False,0,1.5905914306640625,0.02993408203125
STABILIZE,1.5101649761199951,29.889713951797955,0.032457621892293294,0.032645225524902344,0.0,0.0,0.0,-0.6195241978163671,-1.4541080007079872,33.39742230535502,-0.0018144268166019424,-0.0008647846799229047,-0.009047464239451063,0.4,-0.04401624867886893,0.040430853579422284,0.9817653404999498,-0.045823226040014695,-3.3197205513715744,-0.5586642306298018,2.2122247144579887,4.263214542172491,-149.82048273086548,48.85264337062836,-63.930606842041016,0.0,0.0,0.0,0.0,0.0,0.0,0.0,0.0,0.0,0.0,0.0,0.0,0.0,0.0,0.0,0.0,False,1,1.619297742843628,0.02993408203125
STABILIZE,1.543623924255371,29.88651926379319,0.03251317342122396,0.03262901306152344,0.0,0.0,0.0,-0.6207908777422873,-1.4452966297918475,33.37639898308972,-0.0035479687669670895,-0.0023860554818041636,-0.006554603506406824,0.4,-0.09442992402513906,0.09786502851346279,0.9812986875772223,-0.033353344841714046,-1.1983065865933895,1.7358873039484024,1.6987519338726997,0.2800508827403339,40.17130732536316,17.786043882369995,-15.5673086643219,0.0,0.0,0.0,0.0,0.0,0.0,0.0,0.0,0.0,0.0,0.0,0.0,0.0,0.0,0.0,0.0,True,0,1.6765975952148438,0.039912841796875
STABILIZE,1.580533504486084,27.096737515343367,0.03249338467915853,0.035979509353637695,0.0,0.0,0.0,-0.6277865389171141,-1.4473445126040878,33.44428423325048,-0.0028322852548715105,-0.0006473304004482532,0.0004890488890962798,0.4,-0.036267014042759046,0.07378432478908623,0.9702292150171937,0.0018645739505861736,3.412073105573654,-1.2006456963717937,0.861010979861021,1.8546635908097386,98.54045510292053,-47.23583161830902,-32.72997736930847,0.0,0.0,0.0,0.0,0.0,0.0,0.0,0.0,0.0,0.0,0.0,0.0,0.0,0.0,0.0,0.0,True,0,1.7051844596862793,0.029939208984375
STABILIZE,1.6139681339263916,29.90505796626121,0.032367738087972005,0.03251838684082031,0.0,0.0,0.0,-0.6243098125470189,-1.4459077182791522,33.42244128828478,-0.003526073999350683,-0.0022581780010989204,-0.005721848472149952,0.4,-0.08972442052342924,0.09654826107214531,0.9626789302799048,-0.02918502649237613,-2.9302505776286125,1.4307592995464802,1.6552997753024101,-1.7659011203988975,-58.65417122840881,25.960448384284973,19.572114944458008,0.0,0.0,0.0,0.0,0.0,0.0,0.0,0.0,0.0,0.0,0.0,0.0,0.0,0.0,0.0,0.0,True,0,1.734044075012207,0.06485791015625
STABILIZE,1.6473419666290283,29.96252455620245,0.03242543538411458,0.03253936767578125,0.0,0.0,0.0,-0.6222337552044525,-1.4435112823758296,33.398699550729816,-0.0044033995964108796,-0.0043325279428987375,-0.01249065482437857,0.4,-0.15844122220011275,0.12525313655512973,0.9895455393953208,-0.06301852430021504,-2.9302505776286125,1.4307592995464802,1.6552997753024101,-1.7659011203988975,-58.65417122840881,25.960448384284973,19.572114944458008,0.0,0.0,0.0,0.0,0.0,0.0,0.0,0.0,0.0,0.0,0.0,0.0,0.0,0.0,0.0,0.0,True,0,1.7626912593841553,0.06485791015625
STABILIZE,1.6913244724273682,22.73705209519163,0.03249362309773763,0.043175458908081055,0.0,0.0,0.0,-0.6268053929150124,-1.4472577478572874,33.42875921326704,-0.0037198269159252266,-0.004159532901542858,-0.00377659292713637,0.4,-0.15188728790524159,0.1021299828061,1.0116600209313182,-0.01944393812984796,0.9857438504695892,-1.211465708911419,1.640286110341549,2.1979952157148888,85.54756045341492,-50.23506283760071,4.686077684164047,0.0,0.0,0.0,0.0,0.0,0.0,0.0,0.0,0.0,0.0,0.0,0.0,0.0,0.0,0.0,0.0,True,1,1.7912614345550537,0.034924072265625
STABILIZE,1.7258713245391846,28.944799078029355,0.03251150449117025,0.033754587173461914,0.0,0.0,0.0,-0.6271474893428948,-1.4445315418831004,33.4278815339587,-0.0031421687553454584,-0.0008293785177590937,-0.004863239038170678,0.4,-0.0407447407827839,0.08262424566894445,0.992698718971392,-0.024872871190927747,2.5549067184329033,-0.26373197324573994,1.6373490914702415,-0.21001049445302658,23.20116013288498,24.244773387908936,19.3201944231987,0.0,0.0,0.0,0.0,0.0,0.0,0.0,0.0,0.0,0.0,0.0,0.0,0.0,0.0,0.0,0.0,True,0,1.8487699031829834,0.0349228515625
STABILIZE,1.759371042251587,29.852485035693697,0.032534154256184895,0.03265023231506348,0.0,0.0,0.0,-0.6234399772840472,-1.448829331696625,33.41997558999441,-0.0037108217437810667,-0.0021163831459775555,-0.004018430003222047,0.4,-0.08336509212962549,0.10122726674597746,0.9886392682007986,-0.020645372498503105,-2.2400641813874245,1.1236128397285938,1.8624981865286827,0.13547440094882282,-91.59743785858154,12.69640177488327,31.555193662643433,0.0,0.0,0.0,0.0,0.0,0.0,0.0,0.0,0.0,0.0,0.0,0.0,0.0,0.0,0.0,0.0,True,0,1.877354383468628,0.02993408203125
STABILIZE,1.7927823066711426,29.92981204241533,0.03245046933492025,0.0325772762298584,0.0,0.0,0.0,-0.623632983488953,-1.4478070444769446,33.41486660849524,-0.0036217319754648166,-0.000965740239825617,-0.00466065417662378,0.4,-0.044866032425149034,0.09794220671899913,0.9673973712462328,-0.023852506464060005,1.7928916960954666,0.062413461273536086,1.2002135626971722,-0.2295244516334588,25.001686811447144,20.479750633239746,6.7396484315395355,0.0,0.0,0.0,0.0,0.0,0.0,0.0,0.0,0.0,0.0,0.0,0.0,0.0,0.0,0.0,0.0,True,0,1.9060256481170654,0.06984814453125
STABILIZE,1.826352596282959,29.790783567248138,0.03250864346822103,0.032677650451660156,0.0,0.0,0.0,-0.6277444905650362,-1.4439257894810849,33.445547818246936,-0.003921840339134147,-0.0007032203259079412,5.26936515799283e-05,0.4,-0.03594539113003063,0.10759878662157689,0.9755277763741492,-0.0002857194821210881,0.0957428477704525,0.3744552144780755,1.639615185558796,0.5033178672378561,-46.27663195133209,-2.6945622637867928,32.73702263832092,0.0,0.0,0.0,0.0,0.0,0.0,0.0,0.0,0.0,0.0,0.0,0.0,0.0,0.0,0.0,0.0,True,0,1.9634931087493896,0.029933837890625
STABILIZE,1.8597509860992432,29.939212243208132,0.03241732915242513,0.03253602981567383,0.0,0.0,0.0,-0.6243849979887419,-1.4473452596560283,33.44005293105966,-0.003668024016456513,-0.0016810650484721946,0.000992233198310333,0.4,-0.06830174949350742,0.09881224636210323,0.963534576925879,0.004411240694851522,-1.728685013949871,-0.1952382386662066,1.7196884378790855,0.20072449209063725,0.41063548997044563,8.757305145263672,7.68333300948143,0.0,0.0,0.0,0.0,0.0,0.0,0.0,0.0,0.0,0.0,0.0,0.0,0.0,0.0,0.0,0.0,True,0,1.992253065109253,0.034924072265625
STABILIZE,1.893183946609497,29.911882586184763,0.03246453603108724,0.03258514404296875,0.0,0.0,0.0,-0.6235844251128224,-1.4450630159778919,33.41926866541531,-0.003692428137168807,-0.0011542769768723442,-0.0002242891984775457,0.4,-0.05058602763650598,0.09928833303670426,0.9462482714662778,-0.001671091943325217,0.7781596388667822,0.23130918852984905,1.1714687570929527,-0.35612734398493423,66.67778491973877,3.289905935525894,16.171859204769135,0.0,0.0,0.0,0.0,0.0,0.0,0.0,0.0,0.0,0.0,0.0,0.0,0.0,0.0,0.0,0.0,True,0,2.02099871635437,0.0349228515625
STABILIZE,1.9266557693481445,29.87715211739146,0.03246334393819173,0.03259992599487305,0.0,0.0,0.0,-0.6266540615362143,-1.4452432689389567,33.448433573171265,-0.003325499081922289,-0.0005993648667201504,0.0038917232149257995,0.4,-0.03194190300260702,0.0867747009981691,0.933379105866975,0.018905806921025718,0.8407281711697578,-0.43600783683359623,1.3591081835329533,1.0098941615966315,-30.400747060775757,-16.787461936473846,4.533413425087929,0.0,0.0,0.0,0.0,0.0,0.0,0.0,0.0,0.0,0.0,0.0,0.0,0.0,0.0,0.0,0.0,True,0,2.0496745109558105,0.029935302734375
STABILIZE,1.9600868225097656,29.9110293383538,0.03245976765950521,0.032584428787231445,0.0,0.0,0.0,-0.6260564733446911,-1.446561068561946,33.455905800123254,-0.0032159259951367457,-0.001653265819784518,0.004267199295285363,0.4,-0.06684607827401519,0.08285855429524383,0.9212386079186516,0.020779712645865412,-1.9358647987246513,0.00953627604758367,1.5700014308094978,0.09179503438168717,-50.30739903450012,20.451535284519196,8.69266763329506,0.0,0.0,0.0,0.0,0.0,0.0,0.0,0.0,0.0,0.0,0.0,0.0,0.0,0.0,0.0,0.0,True,0,2.078441619873047,0.0349228515625
STABILIZE,1.9935569763183594,29.87715211739146,0.032401116689046223,0.03253364562988281,0.0,0.0,0.0,-0.6198961229610155,-1.4447155301038674,33.41647853313936,-0.0035302220089656823,-0.0015026657681882667,0.0014586915500567558,0.4,-0.06164492449544714,0.09300988392351506,0.9100652736288309,0.006736047335629939,0.1647904864512384,0.7319512777030468,1.3526085764169693,-0.7754000002900479,44.013020396232605,-0.5457457154989243,12.136954069137573,0.0,0.0,0.0,0.0,0.0,0.0,0.0,0.0,0.0,0.0,0.0,0.0,0.0,0.0,0.0,0.0,True,0,2.107006788253784,0.034923095703125
STABILIZE,2.0271356105804443,29.781476327075463,0.0324285348256429,0.032610177993774414,0.0,0.0,0.0,-0.622970828665432,-1.4442194876153953,33.44368317660352,-0.002674858288066231,-0.0003571343393897051,0.00813786992660824,0.4,-0.0233337780046889,0.06428486669249894,0.8903166042220653,0.040125219305280756,0.9219184517860413,-0.5793610587716103,1.4843248762190342,0.8911265634402185,15.833190083503723,-20.135730504989624,15.127058327198029,0.0,0.0,0.0,0.0,0.0,0.0,0.0,0.0,0.0,0.0,0.0,0.0,0.0,0.0,0.0,0.0,True,0,2.1645047664642334,0.029934814453125
STABILIZE,2.060548782348633,29.92660877755025,0.03237965901692708,0.032535552978515625,0.0,0.0,0.0,-0.6236111589001206,-1.4439094610601002,33.44541121446353,-0.0025325367545990752,-0.0008796441072248068,0.007741516401177525,0.4,-0.04062095862187699,0.05935319548116403,0.8825079153826089,0.03813706468287937,-1.0565487667918205,-0.0903342675883323,1.6400426626205444,-0.08819827277301433,-55.749934911727905,20.828452706336975,16.944141685962677,0.0,0.0,0.0,0.0,0.0,0.0,0.0,0.0,0.0,0.0,0.0,0.0,0.0,0.0,0.0,0.0,True,0,2.1934750080108643,0.034923095703125
STABILIZE,2.093980550765991,29.9110293383538,0.032446893056233723,0.032587289810180664,0.0,0.0,0.0,-0.6218776782331126,-1.444301129720318,33.42885483591542,-0.002791406062566276,-0.0014520217896613673,0.005000559724834979,0.4,-0.059517638861082314,0.06775664340807465,0.8770581701019798,0.024428195466161273,-1.156142633408308,0.6464886479079723,1.5115991234779358,-0.7783574722006634,-7.2872743010520935,-0.4745836369693279,14.415305852890015,0.0,0.0,0.0,0.0,0.0,0.0,0.0,0.0,0.0,0.0,0.0,0.0,0.0,0.0,0.0,0.0,True,0,2.2219228744506836,0.034923828125
STABILIZE,2.1274876594543457,29.84505037855069,0.03247860272725423,0.03261113166809082,0.0,0.0,0.0,-0.6219954989962954,-1.4442131910347542,33.436924704419795,-0.0024127826277332972,-0.0011307646170976137,0.007496691111831111,0.4,-0.04863423743794036,0.05495565168822428,0.8695789254261378,0.036902679876667246,0.5144947674125433,-0.5490601528435946,1.380329579114914,0.6978112924745244,39.55181539058685,-19.87849324941635,18.0446058511734,0.0,0.0,0.0,0.0,0.0,0.0,0.0,0.0,0.0,0.0,0.0,0.0,0.0,0.0,0.0,0.0,True,0,2.256667137145996,0.02993408203125
STABILIZE,2.160877227783203,29.9481906720361,0.032407553990681966,0.032556772232055664,0.0,0.0,0.0,-0.6240602971989019,-1.4424663701545235,33.45558478123227,-0.002306335615708017,-0.0006774014548088485,0.008188669466191914,0.4,-0.03340798513445603,0.05122760796787396,0.8650479593689524,0.04035581903327838,0.7577904034405947,-0.0481182272778824,1.7449000850319862,0.2292057272591425,-9.601649641990662,13.436290621757507,21.93751484155655,0.0,0.0,0.0,0.0,0.0,0.0,0.0,0.0,0.0,0.0,0.0,0.0,0.0,0.0,0.0,0.0,True,0,2.285187244415283,0.034924072265625
STABILIZE,2.194331645965576,29.892270193993472,0.03250768979390462,0.03263735771179199,0.0,0.0,0.0,-0.6239412491361027,-1.4423213353563664,33.44734757309323,-0.002395179717758441,-0.0013570916104313335,0.006575839118301002,0.4,-0.05588653693586583,0.05401797773929289,0.8651866692746553,0.03228626731819345,-1.3849249109625816,0.31997254118323326,1.7543476074934006,-0.4567727960868637,-32.87847638130188,-2.137445844709873,21.841488778591156,0.0,0.0,0.0,0.0,0.0,0.0,0.0,0.0,0.0,0.0,0.0,0.0,0.0,0.0,0.0,0.0,True,0,2.314019203186035,0.034923095703125
STABILIZE,2.227771759033203,29.903778696706116,0.032506736119588216,0.032636404037475586,0.0,0.0,0.0,-0.6235679899701321,-1.4434746768307467,33.441839025527614,-0.0021494068191313417,-0.001306289335013254,0.007122727956614652,0.4,-0.05401367283429585,0.04567390194830986,0.8636794116582004,0.03501485583732356,0.01630249753361568,-0.32536271028220654,1.6467554494738579,0.17059638091936555,20.736803114414215,-9.809933602809906,22.3627969622612,0.0,0.0,0.0,0.0,0.0,0.0,0.0,0.0,0.0,0.0,0.0,0.0,0.0,0.0,0.0,0.0,True,0,2.3426198959350586,0.029934814453125
STABILIZE,2.2612297534942627,29.888223012406204,0.032515557607014973,0.03264427185058594,0.0,0.0,0.0,-0.6242378287564694,-1.441758058193252,33.45731281909228,-0.0021329208791343052,-0.000870398409783004,0.006833924937869661,0.4,-0.03935448875576342,0.04496437118725832,0.8590163313333431,0.03356522765824958,0.7412634324282408,0.10357254650443792,1.6791412606835365,-0.04206065175448231,-6.677192449569702,3.956635296344757,24.59380477666855,0.0,0.0,0.0,0.0,0.0,0.0,0.0,0.0,0.0,0.0,0.0,0.0,0.0,0.0,0.0,0.0,True,0,2.374774217605591,0.039911865234375
STABILIZE,2.2947189807891846,29.86098632360584,0.0325048287709554,0.0326688289642334,0.0,0.0,0.0,-0.6247094853351705,-1.4424697852491084,33.46263353645572,-0.0020581706814255096,-0.0013445421608864997,0.005701036822918922,0.4,-0.05498350519727201,0.04233583368377504,0.8550364933227151,0.027896118846082268,-0.5494181998074055,0.06346842856146395,1.5801744535565376,-0.14013224311722774,-27.35215127468109,-5.800881236791611,21.005035936832428,0.0,0.0,0.0,0.0,0.0,0.0,0.0,0.0,0.0,0.0,0.0,0.0,0.0,0.0,0.0,0.0,True,0,2.4321393966674805,0.02993505859375
STABILIZE,2.328192949295044,29.87502403931764,0.03250578244527181,0.03263735771179199,0.0,0.0,0.0,-0.6235118009920382,-1.4433420217504602,33.44704021458058,-0.002040383636012562,-0.0014683729752730853,0.004986169458204358,0.4,-0.05891852947845553,0.04160263831945065,0.8522369386097107,0.024317712318695662,-0.3401899477466941,0.08577259723097086,1.7377473413944244,-0.16563310122901415,16.36069416999817,6.170967593789101,20.877738296985626,0.0,0.0,0.0,0.0,0.0,0.0,0.0,0.0,0.0,0.0,0.0,0.0,0.0,0.0,0.0,0.0,True,0,2.4615719318389893,0.02993408203125
STABILIZE,2.361628293991089,29.90697707583158,0.03248408635457357,0.03260183334350586,0.0,0.0,0.0,-0.6240559749698178,-1.4427536649864872,33.45257608290287,-0.0021053196556631744,-0.0011829365591166697,0.005203974299162822,0.4,-0.049237104810398336,0.0436180373106189,0.8479898814290073,0.02540248969736363,0.4690798930823803,0.2453493420034647,1.6223493963479996,0.10888091934313934,25.37207305431366,-1.522316224873066,21.953506767749786,0.0,0.0,0.0,0.0,0.0,0.0,0.0,0.0,0.0,0.0,0.0,0.0,0.0,0.0,0.0,0.0,True,0,2.490523338317871,0.034924072265625
STABILIZE,2.3950395584106445,29.930025617788306,0.03249100049336751,0.03259754180908203,0.0,0.0,0.0,-0.6246505749535791,-1.442891442708651,33.46781423494117,-0.0020079696036345834,-0.00121567725804063,0.005651948720825726,0.4,-0.05015968151547551,0.04024063694830941,0.8483964783290868,0.027637744284512277,-0.14476245269179344,-0.08175414404831827,1.6329368576407433,0.16666349929833402,-24.842169880867004,-3.6429014056921005,23.463980853557587,0.0,0.0,0.0,0.0,0.0,0.0,0.0,0.0,0.0,0.0,0.0,0.0,0.0,0.0,0.0,0.0,True,0,2.51908802986145,0.034923095703125
STABILIZE,2.428488254547119,29.896531569418507,0.032512696584065755,0.0326387882232666,0.0,0.0,0.0,-0.6225794268094785,-1.442300631345445,33.4542563094387,-0.0020589363561736296,-0.0014746252731896211,0.004648764963052243,0.4,-0.05860037339534379,0.04179950866612451,0.8468121054293607,0.022618040996197245,-0.5913529079407454,0.20910515449941158,1.5118539333343506,-0.2641925975501659,-8.094081282615662,10.04285141825676,19.74208652973175,0.0,0.0,0.0,0.0,0.0,0.0,0.0,0.0,0.0,0.0,0.0,0.0,0.0,0.0,0.0,0.0,True,0,2.547905683517456,0.034923828125
STABILIZE,2.4619805812835693,29.857797773285117,0.03250912030537923,0.03264665603637695,0.0,0.0,0.0,-0.62109274008709,-1.443469127302046,33.45124419601473,-0.0021312245172560693,-0.0013780193374502462,0.004046796824070851,0.4,-0.05519829085349186,0.04405802853201103,0.8438404903234178,0.019604920804969755,0.11527815368026495,0.2446409547701478,1.4283683151006699,-0.14007154514706455,24.667000770568848,-5.543450266122818,16.5479376912117,0.0,0.0,0.0,0.0,0.0,0.0,0.0,0.0,0.0,0.0,0.0,0.0,0.0,0.0,0.0,0.0,True,0,2.578920602798462,0.02993408203125
STABILIZE,2.4954936504364014,29.840379060601318,0.03246930440266927,0.03259706497192383,0.0,0.0,0.0,-0.6242617877794173,-1.4434592021834083,33.47411166935593,-0.001971937435093449,-0.001203676069662252,0.005864155348348438,0.4,-0.049213560583758066,0.03862358030112219,0.8436159411071931,0.028686913675216655,0.24883218575268984,-0.21353967022150755,1.8261998891830444,0.5894788893485686,1.3863779604434967,-3.5896077752113342,20.189830660820007,0.0,0.0,0.0,0.0,0.0,0.0,0.0,0.0,0.0,0.0,0.0,0.0,0.0,0.0,0.0,0.0,True,0,2.607609748840332,0.034924072265625
STABILIZE,2.5288376808166504,29.990375746308676,0.0323970635732015,0.032515764236450195,0.0,0.0,0.0,-0.6235678298875734,-1.4437443625812563,33.46675214052524,-0.0021760045057795632,-0.0016354644992923233,0.004241065554272957,0.4,-0.06340151484588397,0.04527400990091695,0.8450796302119525,0.020568028121771418,-0.18835579976439476,0.2657206729054451,1.4816046692430973,-0.095346265842631,11.539661884307861,-3.60715351998806,16.717252135276794,0.0,0.0,0.0,0.0,0.0,0.0,0.0,0.0,0.0,0.0,0.0,0.0,0.0,0.0,0.0,0.0,True,0,2.6649622917175293,0.02993505859375
STABILIZE,2.5624802112579346,29.7236482177025,0.032497437795003255,0.03268885612487793,0.0,0.0,0.0,-0.6228913209946249,-1.444120022985607,33.45838515879197,-0.0020205143923765338,-0.0012649359376390936,0.005650732332301141,0.4,-0.050873551084113414,0.03995776486281762,0.8398851186064994,0.027611732576220287,0.6387103348970413,-0.2144155791029334,1.5044081956148148,0.4703898987751949,19.306080043315887,-3.5050131380558014,21.22500091791153,0.0,0.0,0.0,0.0,0.0,0.0,0.0,0.0,0.0,0.0,0.0,0.0,0.0,0.0,0.0,0.0,True,0,2.6936254501342773,0.034923095703125
STABILIZE,2.5958237648010254,29.989732442906377,0.0323367436726888,0.03247809410095215,0.0,0.0,0.0,-0.6239728387610141,-1.4440686898451263,33.47433365050395,-0.0018686563247631673,-0.0009009181135010042,0.007098847304828813,0.4,-0.03860501966106478,0.034777400200084664,0.8390878690639284,0.034846477391057624,0.6387103348970413,-0.2144155791029334,1.5044081956148148,0.4703898987751949,19.306080043315887,-3.5050131380558014,21.22500091791153,0.0,0.0,0.0,0.0,0.0,0.0,0.0,0.0,0.0,0.0,0.0,0.0,0.0,0.0,0.0,0.0,True,0,2.7224626541137695,0.034923095703125
STABILIZE,2.6292665004730225,29.902925911138993,0.03249052365620931,0.03262162208557129,0.0,0.0,0.0,-0.623937673958959,-1.4436080789629735,33.47441902786858,-0.001940795601267625,-0.0009745391662179309,0.0064822451746028445,0.4,-0.04092427548870229,0.03705790622839088,0.8442176798934805,0.03175815857507634,-0.2412695437669754,0.2322552725672722,1.8612328916788101,-0.14949677931485902,-17.00027734041214,8.270181715488434,23.32204133272171,0.0,0.0,0.0,0.0,0.0,0.0,0.0,0.0,0.0,0.0,0.0,0.0,0.0,0.0,0.0,0.0,True,0,2.7512917518615723,0.034923828125
STABILIZE,2.6627447605133057,29.870343334496535,0.03250149091084798,0.032624244689941406,0.0,0.0,0.0,-0.620394940213838,-1.4449398591294202,33.46835040479102,-0.0020153720813944585,-0.0011679951832576977,0.0062976239883862665,0.4,-0.04721464419210422,0.03941493806833804,0.8436429975773769,0.03082989823510025,-0.4719121381640434,0.23126753512769938,1.5201189555227757,-0.014989870659904517,-6.709379702806473,-1.4710979536175728,23.535318672657013,0.0,0.0,0.0,0.0,0.0,0.0,0.0,0.0,0.0,0.0,0.0,0.0,0.0,0.0,0.0,0.0,True,0,2.7804441452026367,0.02993408203125
STABILIZE,2.696200132369995,29.890139961802685,0.03246334393819173,0.03262591361999512,0.0,0.0,0.0,-0.6201786686770719,-1.4451530890975715,33.471857706929825,-0.0019714270684823756,-0.0009895630457722264,0.007529552227439547,0.4,-0.04112292992096914,0.037823784419653214,0.8385718136010584,0.03698334724080831,0.2617570571601391,-0.0009269740985473618,1.494645606726408,0.4253094763143471,15.835104882717133,-1.43882492557168,21.600747108459473,0.0,0.0,0.0,0.0,0.0,0.0,0.0,0.0,0.0,0.0,0.0,0.0,0.0,0.0,0.0,0.0,True,0,2.8089370727539062,0.034924072265625
STABILIZE,2.7297005653381348,29.851422715044198,0.03249958356221517,0.03264284133911133,0.0,0.0,0.0,-0.6199263785646045,-1.444301129720318,33.47808000926371,-0.0019680187993236756,-0.0007791765836241295,0.007349886941418079,0.4,-0.033997370252905,0.03757946224813198,0.8363864022105515,0.036078983051160064,0.3326942212879658,0.07116024498827755,1.4054522849619389,-0.01418663641144705,-9.362748265266418,0.28861898463219404,15.785986185073853,0.0,0.0,0.0,0.0,0.0,0.0,0.0,0.0,0.0,0.0,0.0,0.0,0.0,0.0,0.0,0.0,True,0,2.8374507427215576,0.034923828125
STABILIZE,2.7631876468658447,29.859710821758846,0.03244951566060384,0.03264141082763672,0.0,0.0,0.0,-0.6195221701039574,-1.4438581279196194,33.477017914847764,-0.0019565880370126312,-0.0007868871373942727,0.006735065659654928,0.4,-0.03414360833343844,0.037072838971032765,0.8324164719207765,0.03299934221820863,-0.5302877631038427,0.06523641641251743,1.4461872167885303,-0.07727488596956648,-11.140414327383041,-1.6116093844175339,14.757190644741058,0.0,0.0,0.0,0.0,0.0,0.0,0.0,0.0,0.0,0.0,0.0,0.0,0.0,0.0,0.0,0.0,True,0,2.898827314376831,0.02993408203125
STABILIZE,2.7966272830963135,29.9054844137695,0.032486708958943684,0.032622575759887695,0.0,0.0,0.0,-0.6186641275894745,-1.443645431559997,33.47560406568957,-0.0019499509094227322,-0.0006209195838143911,0.0062534311327963514,0.4,-0.028518939738447296,0.0367248451662833,0.8281533734517755,0.030586060098592494,0.2478308044373989,0.06734980852343142,1.5259623527526855,-0.08188065461565665,16.203540563583374,2.4895180016756058,22.122685611248016,0.0,0.0,0.0,0.0,0.0,0.0,0.0,0.0,0.0,0.0,0.0,0.0,0.0,0.0,0.0,0.0,True,0,2.928555488586426,0.034923828125
STABILIZE,2.8302078247070312,29.7835910982347,0.03249934514363607,0.03261923789978027,0.0,0.0,0.0,-0.619716190165068,-1.4430620907161955,33.48673044384753,-0.0019477790046339637,-0.00045535952561133117,0.00580585041626999,0.4,-0.022926133902555924,0.03652667942181779,0.8281368072891149,0.028343414203647905,0.2478308044373989,0.06734980852343142,1.5259623527526855,-0.08188065461565665,16.203540563583374,2.4895180016756058,22.122685611248016,0.0,0.0,0.0,0.0,0.0,0.0,0.0,0.0,0.0,0.0,0.0,0.0,0.0,0.0,0.0,0.0,True,0,2.957033395767212,0.034923828125
STABILIZE,2.8634538650512695,30.073593942696533,0.03231957753499349,0.03243136405944824,0.0,0.0,0.0,-0.6181982339828855,-1.4431213212629042,33.486908028765946,-0.0019271783957079136,-0.0005825357137876696,0.005775409860665667,0.4,-0.027075440599926243,0.03572274534307761,0.8246007718493251,0.028186505178207436,-0.33186962828040123,0.03019134164787829,1.3199448585510254,0.04457402129680817,-13.190142810344696,0.562767218798399,25.2356618642807,0.0,0.0,0.0,0.0,0.0,0.0,0.0,0.0,0.0,0.0,0.0,0.0,0.0,0.0,0.0,0.0,True,0,2.985483407974243,0.064857177734375
STABILIZE,2.896968126296997,29.839529887167227,0.0325498898824056,0.032681941986083984,0.0,0.0,0.0,-0.6175751926645334,-1.4427458743019652,33.483117273776585,-0.0020245853835507786,-0.0007193472062940216,0.0045304699395267295,0.4,-0.03153602207124148,0.03883930187707462,0.8472119541082354,0.021958131228830707,-0.32216934487223625,0.21063138265162706,1.5393677167594433,-0.3288722211539388,1.7655575647950172,4.449156671762466,20.931926369667053,0.0,0.0,0.0,0.0,0.0,0.0,0.0,0.0,0.0,0.0,0.0,0.0,0.0,0.0,0.0,0.0,True,0,3.0142109394073486,0.034924072265625
STABILIZE,2.93048095703125,29.839742175994765,0.03248313268025716,0.0326235294342041,0.0,0.0,0.0,-0.6183139203119526,-1.4428370146387024,33.48965376481229,-0.0020661098363666526,-0.0004617450408067384,0.004469778394460717,0.4,-0.022872593786872352,0.0400859546233685,0.8432874758726477,0.021651051422277637,0.40449011139571667,0.14737022574990988,1.4604526571929455,0.04355551269252299,15.262293815612793,-1.3273755088448524,21.813684701919556,0.0,0.0,0.0,0.0,0.0,0.0,0.0,0.0,0.0,0.0,0.0,0.0,0.0,0.0,0.0,0.0,True,0,3.0429232120513916,0.0349228515625
STABILIZE,2.9638683795928955,29.9507569265924,0.032392295201619466,0.03252863883972168,0.0,0.0,0.0,-0.6188149253597437,-1.4422349974963893,33.49437684062335,-0.002103335132766869,-0.00019235604670264875,0.005039505518035944,0.4,-0.013842712064742217,0.041185967594880975,0.8323826472160906,0.024495590545937657,-0.05102763534523547,0.0678597716614604,1.2589787133038044,0.22689744348479554,-9.942836314439774,2.4522941559553146,18.656761944293976,0.0,0.0,0.0,0.0,0.0,0.0,0.0,0.0,0.0,0.0,0.0,0.0,0.0,0.0,0.0,0.0,True,0,3.100247383117676,0.02993505859375
STABILIZE,2.9980523586273193,29.254285993276326,0.03249934514363607,0.033324241638183594,0.0,0.0,0.0,-0.6165185410555913,-1.4420995676517527,33.49017968937838,-0.002075919314833445,-0.00024442026396101875,0.004337647471796559,0.4,-0.015529765690842832,0.04013523910945402,0.8264285099797448,0.02098271620228823,-0.15216241590678692,0.0300014071399346,1.5218018554151058,-0.1380994080655027,1.9838536158204079,-3.319825232028961,19.874770939350128,0.0,0.0,0.0,0.0,0.0,0.0,0.0,0.0,0.0,0.0,0.0,0.0,0.0,0.0,0.0,0.0,True,0,3.128974676132202,0.069846923828125
STABILIZE,3.03149151802063,29.906124107836774,0.0324437936147054,0.03255963325500488,0.0,0.0,0.0,-0.6174702852277503,-1.441560836480968,33.49472176517644,-0.002092766660818325,-0.0002806227222610253,0.0036378020083198863,0.4,-0.01668480675695262,0.04056112068982748,0.8502637242301541,0.0174805676036498,-0.15216241590678692,0.0300014071399346,1.5218018554151058,-0.1380994080655027,1.9838536158204079,-3.319825232028961,19.874770939350128,0.0,0.0,0.0,0.0,0.0,0.0,0.0,0.0,0.0,0.0,0.0,0.0,0.0,0.0,0.0,0.0,True,0,3.1578288078308105,0.069846923828125
STABILIZE,3.0649421215057373,29.892909322861357,0.032448561986287434,0.0325770378112793,0.0,0.0,0.0,-0.6178099270563998,-1.4412856012017576,33.499461916460426,-0.0021535509385848155,-8.038660800713335e-05,0.0036487116628960915,0.4,-0.00997621841893757,0.04244326406390453,0.8833328515088491,0.01753218377489233,0.25091522838920355,0.11458976659923792,2.097872458398342,0.06019986661178417,0.38587525486946106,4.586192965507507,27.29777991771698,0.0,0.0,0.0,0.0,0.0,0.0,0.0,0.0,0.0,0.0,0.0,0.0,0.0,0.0,0.0,0.0,True,0,3.1864054203033447,0.039912841796875
STABILIZE,3.098344087600708,29.93793004996431,0.03245404561360677,0.03259754180908203,0.0,0.0,0.0,-0.6161281530558428,-1.4415741766941905,33.49972829383806,-0.002250095829119353,-0.00031322929208889375,0.0036043115810280883,0.4,-0.01767781464517656,0.045511515712306584,0.8804652288328362,0.017307288545528248,-0.4096849821507931,0.2244604518637061,1.567102037370205,0.03706536889260968,-13.859039545059204,2.5052983313798904,20.48521339893341,0.0,0.0,0.0,0.0,0.0,0.0,0.0,0.0,0.0,0.0,0.0,0.0,0.0,0.0,0.0,0.0,True,0,3.216381311416626,0.0248896484375
STABILIZE,3.131857395172119,29.841015972395148,0.0325196107228597,0.03264331817626953,0.0,0.0,0.0,-0.6155082600278112,-1.4421264615216096,33.50038399199838,-0.002303353103949959,-0.00038370274352227015,0.003608696133882221,0.4,-0.01995960129772035,0.04712981874849937,0.8667568525465599,0.017326313410945496,-0.15935746487230062,0.19549638964235783,1.6057590022683144,0.04811641486649197,8.686050027608871,-1.2356765568256378,21.528305113315582,0.0,0.0,0.0,0.0,0.0,0.0,0.0,0.0,0.0,0.0,0.0,0.0,0.0,0.0,0.0,0.0,True,0,3.2437174320220947,0.034924072265625
STABILIZE,3.165193557739258,29.995094148019422,0.032444032033284505,0.032563209533691406,0.0,0.0,0.0,-0.6148689970101804,-1.44139861948818,33.50529489801162,-0.0024854575951517633,-0.000407999437035607,0.004129942704695726,0.4,-0.02069472656221176,0.05302361673444886,0.8544784977013596,0.019929215941923973,0.034925612271763384,0.2773449057713151,1.3938683085143566,0.1712358173597683,-6.054148450493813,2.693062461912632,20.637862384319305,0.0,0.0,0.0,0.0,0.0,0.0,0.0,0.0,0.0,0.0,0.0,0.0,0.0,0.0,0.0,0.0,True,0,3.3011531829833984,0.06485791015625
STABILIZE,3.1987693309783936,29.784225588149663,0.03256181081136068,0.03269815444946289,0.0,0.0,0.0,-0.6145089179748737,-1.4421417227255364,33.50618965279289,-0.002675849458930817,-0.0003760917084764808,0.004768467669144524,0.4,-0.019558506367172615,0.059172302611274416,0.8697496162355647,0.023117972256878533,0.034925612271763384,0.2773449057713151,1.3938683085143566,0.1712358173597683,-6.054148450493813,2.693062461912632,20.637862384319305,0.0,0.0,0.0,0.0,0.0,0.0,0.0,0.0,0.0,0.0,0.0,0.0,0.0,0.0,0.0,0.0,True,0,3.329906940460205,0.06485791015625
STABILIZE,3.232618570327759,29.544218022498185,0.032437833150227864,0.03289961814880371,0.0,0.0,0.0,-0.6142142593452112,-1.4419908182335615,33.50617599241455,-0.0028142433896598366,-0.0005051577409065059,0.005194750081901683,0.4,-0.02377507531261675,0.063573108914248,0.8837407106609573,0.025245121731397983,-0.2134955022484064,0.19192463951185346,1.4859948307275772,0.10749122264098637,0.08649444789625704,0.6686989217996597,20.64870446920395,0.0,0.0,0.0,0.0,0.0,0.0,0.0,0.0,0.0,0.0,0.0,0.0,0.0,0.0,0.0,0.0,True,0,3.3587772846221924,0.034923095703125
STABILIZE,3.2659218311309814,30.024725294391352,0.03232839902242025,0.03249335289001465,0.0,0.0,0.0,-0.6148001081490985,-1.4416303123114316,33.50998382287683,-0.0028118869666176106,-0.0004793836807421825,0.005499662231137365,0.4,-0.022837006788142777,0.0632826724490064,0.8719655855899335,0.026765200652415364,-0.007480260683223605,0.11146222241222858,1.4507224783301353,0.12070491728146363,4.432050883769989,0.5870738066732883,18.848030269145966,0.0,0.0,0.0,0.0,0.0,0.0,0.0,0.0,0.0,0.0,0.0,0.0,0.0,0.0,0.0,0.0,True,0,3.3873326778411865,0.034923828125
STABILIZE,3.299469470977783,29.80814441048966,0.03255608876546224,0.03268861770629883,0.0,0.0,0.0,-0.6150443407727793,-1.4420596537337904,33.514385879796905,-0.002810335219645507,-0.0004549489756724173,0.005794486411790429,0.4,-0.02194668027252731,0.0630200198525778,0.8612170955884847,0.02823459633963658,-0.007480260683223605,0.11146222241222858,1.4507224783301353,0.12070491728146363,4.432050883769989,0.5870738066732883,18.848030269145966,0.0,0.0,0.0,0.0,0.0,0.0,0.0,0.0,0.0,0.0,0.0,0.0,0.0,0.0,0.0,0.0,True,0,3.41605281829834,0.034923828125
STABILIZE,3.332852363586426,29.95653260768643,0.032462151845296223,0.03257274627685547,0.0,0.0,0.0,-0.6140018297898532,-1.4412091884604181,33.515253313821496,-0.0027699510840490365,-0.0006443269080840105,0.00567580855478642,0.4,-0.028166793570043716,0.0614713811775813,0.8502047319796708,0.027636590088684847,-0.34027500078082085,0.049817003309726715,1.394935604184866,0.025589410447158553,-2.0857928320765495,0.3943020012229681,14.900857210159302,0.0,0.0,0.0,0.0,0.0,0.0,0.0,0.0,0.0,0.0,0.0,0.0,0.0,0.0,0.0,0.0,True,0,3.445838689804077,0.064858154296875
STABILIZE,3.3754191398620605,23.491973877294978,0.0324895699818929,0.041749000549316406,0.0,0.0,0.0,-0.6130563288374824,-1.4409738670991699,33.51653397429087,-0.002889582877126043,-0.0004284926124404407,0.00518035295340373,0.4,-0.020885628983998546,0.06517746857546317,0.8575733427329254,0.025153956308636823,0.34163445234298706,0.16190961468964815,1.5218770131468773,-0.023217733979577406,5.263034254312515,2.2986605763435364,14.081427454948425,0.0,0.0,0.0,0.0,0.0,0.0,0.0,0.0,0.0,0.0,0.0,0.0,0.0,0.0,0.0,0.0,True,0,3.5021743774414062,0.039912841796875
STABILIZE,3.408888339996338,29.878854798150694,0.032532485326131184,0.03266477584838867,0.0,0.0,0.0,-0.6149377791495565,-1.4406068511529875,33.523292446474606,-0.0029070373587349882,-0.0004930767993563858,0.004778205258350704,0.4,-0.022964758661931164,0.0655403885390885,0.8534735981523784,0.02313934721121284,-0.14386401744559407,0.13221666449680924,1.5742920339107513,-0.04271160079889626,-10.508430749177933,2.4528078734874725,21.660736203193665,0.0,0.0,0.0,0.0,0.0,0.0,0.0,0.0,0.0,0.0,0.0,0.0,0.0,0.0,0.0,0.0,True,0,3.530740737915039,0.024945068359375
STABILIZE,3.442412853240967,29.830616483172598,0.032512935002644856,0.03265523910522461,0.0,0.0,0.0,-0.6136207799393606,-1.4404213688283394,33.52332318232587,-0.002888148673314928,-0.0005461522980765738,0.004343862287419193,0.4,-0.024655331861912152,0.06469426396926631,0.838531736049033,0.020964124094230537,-0.14386401744559407,0.13221666449680924,1.5742920339107513,-0.04271160079889626,-10.508430749177933,2.4528078734874725,21.660736203193665,0.0,0.0,0.0,0.0,0.0,0.0,0.0,0.0,0.0,0.0,0.0,0.0,0.0,0.0,0.0,0.0,True,0,3.5606069564819336,0.024945068359375
STABILIZE,3.475841522216797,29.912949214431915,0.032406123479207356,0.03251457214355469,0.0,0.0,0.0,-0.6128991811257193,-1.4407790999861187,33.52432380503927,-0.002861852155414883,-0.0006969731638648902,0.0028330395585413662,0.4,-0.029596681188168866,0.06360392179312045,0.8204858624823109,0.013407769941791794,-0.31603495590388775,0.11363429948687553,1.3308430090546608,-0.32609964459858964,-1.80576853454113,2.439286559820175,19.292542338371277,0.0,0.0,0.0,0.0,0.0,0.0,0.0,0.0,0.0,0.0,0.0,0.0,0.0,0.0,0.0,0.0,True,0,3.5893757343292236,0.034923828125
STABILIZE,3.5094664096832275,29.73966561254733,0.032454760869344075,0.03284406661987305,0.0,0.0,0.0,-0.6132348208904019,-1.4406737656625126,33.52672803162712,-0.0028062375340289648,-0.0004297656451163256,0.0017785503272247428,0.4,-0.02062930374692039,0.06153936068334054,0.8125218484819668,0.008133953534454653,0.1087043434381485,0.07137255743145943,1.6038939356803894,-0.27659851559958337,-1.9914200529456139,2.5938542559742928,25.697648525238037,0.0,0.0,0.0,0.0,0.0,0.0,0.0,0.0,0.0,0.0,0.0,0.0,0.0,0.0,0.0,0.0,True,0,3.646909475326538,0.02993505859375
STABILIZE,3.5489590167999268,25.321194851609476,0.032543452580769856,0.038645267486572266,0.0,0.0,0.0,-0.6131531254246262,-1.4414472845860165,33.528367277027925,-0.0028249171465806766,-0.00048489725426718324,0.0010881311554107906,0.4,-0.02238431963994415,0.06191708073406643,0.8037211416485415,0.004680934518927935,-0.14587771147489548,0.16023071948438883,1.4686452224850655,-0.14883953368980396,-5.86569719016552,0.5138203036040068,17.491857707500458,0.0,0.0,0.0,0.0,0.0,0.0,0.0,0.0,0.0,0.0,0.0,0.0,0.0,0.0,0.0,0.0,True,0,3.6753735542297363,0.034923095703125
STABILIZE,3.5874218940734863,25.998772679092774,0.032479317982991536,0.037683725357055664,0.0,0.0,0.0,-0.6139421723563214,-1.4419419396923134,33.52977088090236,-0.0028311031646074936,-0.00043718822475019537,0.0012952822714136355,0.4,-0.020712518744665325,0.06188505030267763,0.7953845758216003,0.005715589355401476,0.042752420995384455,0.11729142861440778,1.2420273385941982,0.0942211655996433,7.946081459522247,0.4345271270722151,14.385475218296051,0.0,0.0,0.0,0.0,0.0,0.0,0.0,0.0,0.0,0.0,0.0,0.0,0.0,0.0,0.0,0.0,True,0,3.7041022777557373,0.029887939453125
STABILIZE,3.6220057010650635,28.914269957259066,0.03254535992940267,0.03377652168273926,0.0,0.0,0.0,-0.6145921609053833,-1.4422069296877689,33.533841673647686,-0.002826116711513026,-0.00038817109148081845,0.0015280454815940479,0.4,-0.01901101955649849,0.061506376064409334,0.7838412024034327,0.006878216892620951,0.042752420995384455,0.11729142861440778,1.2420273385941982,0.0942211655996433,7.946081459522247,0.4345271270722151,14.385475218296051,0.0,0.0,0.0,0.0,0.0,0.0,0.0,0.0,0.0,0.0,0.0,0.0,0.0,0.0,0.0,0.0,True,0,3.732670545578003,0.029887939453125
STABILIZE,3.655670166015625,29.705544066404148,0.03249719937642415,0.03281283378601074,0.0,0.0,0.0,-0.613617151401364,-1.4431679586483308,33.53512574921165,-0.00279358078591253,-0.00040972926312964997,0.0018954439131206508,0.4,-0.019660620966510257,0.06021974973158822,0.7826847895558596,0.008713743111825429,-0.1675609266385436,0.017050285532604903,1.8053306266665459,0.21005935965406128,-4.552522301673889,0.5745283793658018,22.194385528564453,0.0,0.0,0.0,0.0,0.0,0.0,0.0,0.0,0.0,0.0,0.0,0.0,0.0,0.0,0.0,0.0,True,0,3.7902050018310547,0.039911865234375
