Mode,Time,Freq,North-Vision,East-Vision,Down-Vision,Yaw-Vision,North-Desired,East-Desired,Down-Desired,Roll-UAV,Pitch-UAV,Yaw-UAV,Roll-Control,Pitch-Control,Yaw-Control,Thrust-Control,northVraw,eastVraw,downVraw,N-Velocity,E-Velocity,D-Velocity,yawVraw,yawRate,Q-Size
GUIDED_NOGPS,0.011272907257080078,88.82661640441347,-18.183445714009306,38.69912334572522,69.50849594405867,5.394296155161368,-18.14101254689454,38.42463748750511,68.83508086776271,2.453044297720097,0.001986164315765495,-16.630436581734063,-3.168714845245789,-0.8403552443597502,10.0,0.4986531698474081,-20.192987364429435,38.216075383501135,68.5441577350282,-16.976095736026764,10.621808469295502,3.589063882827759,4.206323052564776,0.16211603405413358,0
GUIDED_NOGPS,0.03991532325744629,34.926629416516086,-17.91508742640362,38.98067586110661,69.74539372317068,4.057686956586961,-18.140899004013423,38.42465945912073,68.83487486709409,2.4509553270511306,-0.050784857717424886,-16.659203630970865,-0.6569472063240523,0.5639206345791146,-5.946027805743206,0.4981789622878468,-20.51701409742422,37.97817417448745,70.0795865014548,-16.09315723180771,10.627903789281845,-5.299476906657219,4.26588061572235,1.8458680147060547,0
GUIDED_NOGPS,0.06599116325378418,38.35563724817792,-18.630816103553865,39.151747738203774,69.75381136644287,4.01351413610343,-18.140119564303173,38.424810288037065,68.83344948636143,2.39260075210348,-0.014821166988437185,-16.648705630216554,-0.3225435210738601,-1.8679823711795944,2.091638411893409,0.49815927623983713,-21.253002103233584,38.29171958246345,70.16245544115083,-14.852699637413025,11.90367266535759,-1.7173465341329575,4.374881029249635,-3.729309753809996,0
GUIDED_NOGPS,0.09575510025024414,33.60282006088768,-19.35841810466277,39.33471411404284,69.74592362065127,4.061077897384305,-18.138050099832633,38.42521074888012,68.82963075767191,2.0730264461223387,-0.028480368054645787,-16.646202365885745,-0.3997075794182181,-2.253090816416958,2.829488583527208,0.49816741427404126,-22.495622834745554,38.62888689848569,68.67298637485467,-17.04203635454178,13.142512738704681,6.64682611823082,4.1490350235834565,2.2174136569686467,0
GUIDED_NOGPS,0.12137794494628906,39.03929708296878,-20.01605328155356,39.52645873175372,69.6794271429166,4.07700352381277,-18.13411109447793,38.425972983471524,68.82229364017779,1.6611295403471926,-0.16732303944006338,-16.58669434274201,-0.36258349054467204,-1.688589968962696,2.54862388548622,0.4982857329945224,-23.289743979374244,39.0139391469542,68.7734949404302,-16.500207781791687,13.415621221065521,2.055251970887184,4.185380808065277,0.2615731933230396,0
GUIDED_NOGPS,0.15513849258422852,29.625603028740542,-20.763425259273735,39.83643187042308,69.69630772260112,4.058357543546314,-18.127766594232874,38.42720070395334,68.81036134522066,1.0798960233481516,-0.4213744869396264,-16.591151041175443,-0.5708938457726822,-1.844727050593446,2.3245746277806814,0.4982281072452391,-23.602077945093562,39.13220696578068,68.84791766176744,-18.98219734430313,15.442164242267609,5.434900149703026,4.191732596784361,-1.1525158752641966,0
GUIDED_NOGPS,0.18939709663391113,29.195030104757596,-21.506040448689582,40.172770905192756,69.67615542511506,4.0386611157774555,-18.118523157519384,38.42898939591287,68.79280466147566,0.5696089619185024,-0.6840224212007381,-16.52584760252095,-0.6343057642061469,-1.8915018917289554,2.308135448869204,0.4982332984727212,-23.96461467135564,39.219761811524094,68.84684232879493,-20.023009181022644,16.511014103889465,2.3873908445239067,4.1703758631178225,-1.0507554481411154,0
GUIDED_NOGPS,0.2253725528717041,27.801519228984663,-22.31993259601394,40.56429441072133,69.71475737944978,4.0015501555864335,-18.105928805497896,38.43142652150745,68.76864128009561,0.17696078320449515,-1.162317623609988,-16.473658127072884,-0.7220324676502741,-2.0424058642568,2.1946652782120317,0.4981077678012917,-25.72696499232517,39.99716328268854,69.11390360941034,-19.181735813617706,16.429705917835236,4.016206786036491,4.111726117107433,-1.772230891490501,0
GUIDED_NOGPS,0.2589411735534668,29.794381104599537,-23.07819475821918,40.93928938862757,69.74748657015938,3.9591340145581997,-18.089571972377794,38.43459172258927,68.7369351198553,-0.013132932989627134,-1.4237462090216937,-16.430711605119136,-0.7620085384440297,-2.1189206220631305,2.1232403282317542,0.49797889709939186,-25.72696499232517,39.99716328268854,69.11390360941034,-18.161383271217346,15.292109549045563,3.2840080559253693,4.111726117107433,-2.0273358956695384,0
GUIDED_NOGPS,0.29262781143188477,29.690614226960296,-23.750004478825954,41.24354601007517,69.77023416671038,3.9180478624893844,-18.069080455727818,38.438557023830185,68.69679565229568,-0.2188217586474604,-1.8460566986818763,-16.365817977814846,-0.6582720432073635,-2.01019241219135,2.105091965647922,0.49785312297117057,-26.14513893769965,40.17400813864817,69.13952655860898,-16.89681112766266,13.212916254997253,2.718285098671913,4.090954526539278,-2.0723058611649026,0
GUIDED_NOGPS,0.33197021484375,25.421102713448448,-24.48230947309045,41.54483939218978,69.77982748554032,3.9099377778569755,-18.044120366786483,38.443387035846534,68.647377226868,-0.21062585180856241,-2.007208822289392,-16.33575831527762,-0.5871998006734862,-1.964120583770041,2.3049576032901395,0.4977350994826554,-27.57912454538978,40.80349516081125,69.42823707988035,-17.56458729505539,11.4040307700634,0.6854246836155653,3.987157609982681,0.10610848286002902,0
GUIDED_NOGPS,0.35950732231140137,36.32029511348187,-25.3658879353004,41.90962150448274,69.85357561861056,3.8806118012141995,-18.01439508077249,38.449139158323916,68.5878783960781,-0.29366489049919736,-2.2598859076619013,-16.282942169973204,-0.9027068477531583,-3.051827437479347,2.115332231692006,0.49746860555493505,-28.842191215959872,41.2256796121269,69.5832079138037,-18.917037546634674,10.473831743001938,3.232228010892868,3.8967185585193187,-0.4948758067845732,0
GUIDED_NOGPS,0.40248894691467285,23.268724862001054,-26.08246904831969,42.138244679559314,69.9668511345832,3.836430998270031,-17.979644187195163,38.45586378314203,68.51754124063055,-0.3660968054913612,-2.425859504493211,-16.21728356148187,-0.47951781745017374,-1.9884590921823206,2.096439304417722,0.4971013802120947,-29.441404406437016,41.369777743304695,69.83015065216205,-21.17268294095993,10.849201679229736,5.901847407221794,3.833383292258398,-1.888967575585893,0
GUIDED_NOGPS,0.4361765384674072,29.68935323805681,-26.968438972913727,42.4987107805855,70.11894482748514,3.7988233845095496,-17.93964244016484,38.463604497499475,68.43565069457291,-0.5997889531789972,-2.510969211080271,-16.186757738533792,-0.8006741467605929,-2.7991411084402773,2.055642932460279,0.4966334117341756,-29.441404406437016,41.369777743304695,69.83015065216205,-20.94406485557556,10.627662390470505,6.644304841756821,3.833383292258398,-0.8157294925746228,0
GUIDED_NOGPS,0.4688546657562256,30.607314866166554,-27.613300969655423,42.72654359036574,70.25079329949584,3.772892047784076,-17.8941987087033,38.47239828703855,68.34153387043987,-0.7468510368590111,-2.5257958442210757,-16.179261605919702,-0.5981004391485896,-2.3972993399540963,2.105100538638721,0.4961814811418881,-30.120345302858524,41.78075116101742,70.33840283772457,-15.365749597549438,8.007366210222244,4.942286014556885,3.807760003796038,-0.7095298693778564,0
GUIDED_NOGPS,0.5033009052276611,29.034764429799665,-28.25845953013412,42.932875807608625,70.33794229334721,3.7319149163994614,-17.843154927054194,38.48227573897009,68.23455938439754,-0.8865008711856802,-2.526507677998638,-16.16058957627618,-0.5493945119096673,-2.390355270124299,2.0016734115593353,0.49579323418210064,-30.791371565691044,41.82198874117476,70.5016114794106,-15.62691181898117,7.713386416435242,2.240748703479767,3.7371579985830157,-1.4613317795289218,0
GUIDED_NOGPS,0.546375036239624,23.21848930222259,-28.891609119622824,43.108309290102945,70.74495468407865,3.7232329871173167,-17.786385044993448,38.49326124519823,68.11413668138758,-0.9997151520209026,-2.3887194971076204,-16.11896469592683,-0.45552765870625034,-2.156116735767942,2.1935806397865667,0.49473836399461785,-31.176417095057268,41.95357034020143,70.54893869250168,-15.061303973197937,5.513591319322586,20.795515179634094,3.730179776894701,0.3736314112803844,0
GUIDED_NOGPS,0.5701193809509277,42.12248177235021,-29.531929135758542,43.26238836573299,70.98152161884481,3.7180361402288282,-17.723793978139675,38.505373205445245,67.97971536027144,-1.0834389705366843,-2.3064022706740386,-16.117168356175117,-0.5399535163111389,-3.171775137084627,2.187151386435747,0.49399638748285324,-32.007100193224936,42.27128694293878,70.73509175130275,-15.948307514190674,4.580150172114372,10.975442081689835,3.7030974729214834,0.9375983167793389,0
GUIDED_NOGPS,0.6045236587524414,29.072599986137103,-29.97636256159147,43.289999076145634,71.1799724865352,3.6858120977435047,-17.655316558264605,38.518624230376375,67.83078449897454,-1.1017282961432742,-2.245020427820192,-16.11988506391749,-0.24558286348812525,-2.178802267855908,2.02307908387822,0.49330162402487865,-32.711353201322765,42.29582853097376,70.88427927929214,-13.473078608512878,2.5571126490831375,11.209217458963394,3.6828767307394807,-1.535831534292307,0
GUIDED_NOGPS,0.6374866962432861,30.342057670327126,-30.581640743059534,43.41047335717924,71.4452049869532,3.6465374025163997,-17.580916483603502,38.533021344724595,67.66687197963053,-1.1211821690033514,-2.0018379457242346,-16.141772405112793,-0.407096921408185,-2.6384204416765704,1.9506567490494993,0.49244333398535467,-33.273677528836664,42.46194803340753,71.41601355413805,-13.473078608512878,2.5571126490831375,11.209217458963394,3.6773570112302583,-1.535831534292307,0
GUIDED_NOGPS,0.674574613571167,26.965559363005728,-31.169108665274216,43.48839156859314,71.70252558268237,3.6216613634132866,-17.500585269165565,38.54856619041544,67.48754381372545,-1.0938880927497459,-1.9940957128566137,-16.126016866244868,-0.32150756681989523,-2.515398104821813,2.0389047992145963,0.4915700364620862,-34.36697696942665,42.580323852633974,71.61178436033421,-11.642532050609589,0.5692132748663425,10.907495021820068,3.6592376138017206,-0.7903882100934062,0
GUIDED_NOGPS,0.704667329788208,33.23985005904123,-31.78675541793235,43.5674910575238,71.9279045500303,3.6308187764862567,-17.414341197044365,38.56525522969182,67.29240346724191,-1.0088368696574546,-1.9401384990739823,-16.145259216684085,-0.32342117464547415,-2.96128641029033,2.2395009859028905,0.4907289978344232,-34.36697696942665,42.580323852633974,71.61178436033421,-14.81345146894455,0.6941433995962143,9.053193032741547,3.6592376138017206,1.2066961374119112,0
GUIDED_NOGPS,0.7443201541900635,25.21964271755927,-32.36747723080469,43.58181305444141,72.13749464227806,3.6311756683575185,-17.322228266728253,38.58307994823883,67.08109118580339,-0.9248983270696407,-2.005920904744021,-16.198790824304062,-0.2075028765535426,-2.5591728970318077,2.1805040456482434,0.48988719308705064,-35.04706463289068,42.52861854505615,71.79860616172456,-16.417798399925232,-0.7733670994639397,9.527844190597534,3.657442282629505,0.43022422430899443,0
GUIDED_NOGPS,0.771240234375,37.160814749842736,-33.10278820196703,43.61345464164844,72.35201765029501,3.633978182551019,-17.22431514541077,38.60202705830854,66.85328331981833,-0.7752303661387082,-2.0426957104524277,-16.242340110452062,-0.1775122969537616,-3.6198141905480634,2.201261703513663,0.48900253133904664,-35.67404837811087,42.40928306987864,71.97706830111062,-16.619955003261566,-2.9353609308600426,6.1659399420022964,3.6440566735180484,0.9337705293580757,0
GUIDED_NOGPS,0.8075051307678223,27.576325789951216,-33.62071629928203,43.5587464922943,72.55761238980328,3.6352768018138226,-17.120694118301085,38.622078701844835,66.60869164962445,-0.6548858480576686,-2.090426993363181,-16.255713620846947,-0.06470696468624074,-2.699106207862259,2.1883567712298864,0.48810215851964234,-36.00508332722849,42.43960068759462,72.33754018062996,-16.54510796070099,-2.973165363073349,9.86631065607071,3.664359531916821,0.2660114289013727,0
GUIDED_NOGPS,0.8388757705688477,31.883240087569934,-34.220790702746754,43.521210457248266,72.78904012125074,3.6542008176976384,-17.01148003893438,38.643212653608195,66.34706271063281,-0.5683604246825653,-2.0668020093543413,-16.256878168100435,-0.04546945392217991,-3.1317696724227084,2.3124801008708284,0.48711604517876417,-36.26613260301879,42.52917651830212,72.46208139419076,-15.524891018867493,-4.557288438081741,8.098891377449036,3.696827682180616,1.4750301507962056,0
GUIDED_NOGPS,0.8723335266113281,29.893335423957122,-34.75230123344233,43.43602947618475,72.98445159360863,3.6719299922083724,-16.89680927948231,38.66540252430051,66.06817711847219,-0.3189761841810895,-2.3434771778191026,-16.312791804193452,0.04049241421804381,-2.9619054275305703,2.309097444079619,0.48616745104972714,-36.81647449618086,42.115734463733006,73.21793009712391,-13.850906491279602,-5.225138366222382,5.772095173597336,3.761347772305218,1.0456633286714594,0
GUIDED_NOGPS,0.9089963436126709,27.27860664160564,-35.286063239377704,43.309113599201616,73.25437262556922,3.6659753251762877,-16.776838681063367,38.68861796368991,65.77184889413317,-0.25778622695423775,-2.4156951157911744,-16.319275361263085,0.1057917099536756,-2.9120147752584957,2.1671323835785623,0.4850349525371279,-37.461177923991315,41.73033677583719,73.6008662198567,-11.524050682783127,-6.995099782943726,9.262901544570923,3.7853352246009857,-0.44592725609767686,0
GUIDED_NOGPS,0.9467940330505371,26.4599817052014,-35.87058655130206,43.17402108607434,73.4602743787529,3.6636082609707015,-16.651744504053358,38.71282486373555,65.45792478911235,-0.21829055135693323,-2.494578251176121,-16.30902495486619,0.134106476977884,-3.04200267507866,2.1856355368954645,0.4839953008207189,-38.25167723635964,41.436977007307284,73.60325336054268,-13.939589262008667,-6.464057415723801,5.065809562802315,3.782801197901389,-0.17960878884877093,0
GUIDED_NOGPS,0.975428581237793,34.93011983976948,-36.47925455182152,43.026696205189005,73.63091060466284,3.625244028570037,-16.52172137839576,38.73798556171243,65.12628361055663,-0.12373733450996416,-2.4449246969008325,-16.259804904159786,0.29749652287788514,-3.590340467608461,1.907190989858712,0.48299074601178754,-38.742165059676125,41.25528465244811,73.76129983818214,-11.946874856948853,-7.076597213745117,2.2720476612448692,3.827680571937533,-2.4609101143230125,0
GUIDED_NOGPS,1.0069782733917236,31.70177997808095,-36.992027174624994,42.86406977699225,73.79193810699546,3.6315433634788783,-16.386981253912193,38.7640590433362,64.77683554640731,-0.015540761435041748,-2.4544289051309054,-16.23469200612894,0.2899858159039571,-3.280596062688024,2.2188941383872893,0.4819697948788237,-38.88194546690345,41.263188918111,73.89312811684161,-17.15848594903946,-6.610889732837677,5.43004646897316,3.870405993719297,-0.11094617778310212,0
GUIDED_NOGPS,1.0409984588623047,29.511581435929187,-37.485458957407474,42.675994257325726,73.9779469950538,3.629384879130596,-16.247752350612796,38.79100114588796,64.40952149054438,0.13968354504548286,-2.4211838131195145,-16.179012304014996,0.3313042825366421,-3.2216432290242336,2.164717324648485,0.48086314899098115,-39.141009066363964,40.795423410988164,74.18685792229135,-13.468661904335022,-7.407774776220322,5.6382715702056885,3.8533725966765497,-0.5053799973978181,0
GUIDED_NOGPS,1.0740008354187012,30.187010594196224,-38.005306728375075,42.480325658087736,74.18209425473256,3.626343084242328,-16.10427810900666,38.81876476133911,64.02431236793069,0.2426651219467551,-2.461691744096156,-16.139658461564675,0.36883999638169607,-3.334927940590084,2.1577187160891986,0.4796844362263963,-39.61896680994285,40.54377946326625,74.54510675055633,-13.468661904335022,-7.407774776220322,5.6382715702056885,3.849563743318698,-0.5053799973978181,0
GUIDED_NOGPS,1.107621431350708,29.748735734905065,-38.491701351124135,42.263490208635076,74.34373291843667,3.6127064479064583,-15.956816140412252,38.847300039476096,63.621208459756154,0.3432407513726771,-2.381701691178844,-16.057593738686972,0.4309152649505134,-3.332606369603144,2.0861791276470263,0.47855495108263896,-39.90543989821771,40.343001685678686,74.55516808374833,-11.90493032336235,-8.298961818218231,3.5073578357696533,3.817351547646406,-1.0642713252915128,0
GUIDED_NOGPS,1.1413698196411133,29.634394319426292,-38.91816667277326,42.00876523453287,74.5076131575759,3.557811994543649,-15.805637177267823,38.87655459102527,63.20023872858196,0.4426109858122241,-2.478744592019562,-15.998638960866007,0.5121231421235912,-3.2474400870908195,1.8108103851951083,0.47738525114201213,-40.44946403092658,39.989309407483745,74.53827779346878,-7.909649610519409,-9.853345155715942,4.371752589941025,3.790582050258939,-3.5327053198721177,0
GUIDED_NOGPS,1.1743628978729248,30.317493819843,-39.36230917954298,41.762814520582936,74.60528043477942,3.5211836588594907,-15.651024023441824,38.906473690777666,62.76146014348476,0.6006795991745962,-2.4302184458441487,-15.94004447552376,0.5400617412931761,-3.3823497962699554,1.889841068956175,0.4763123594174107,-40.51681705322972,39.80112596872578,74.65608551464052,-10.442902892827988,-8.913412690162659,0.2825135365128517,3.763670641200351,-2.3239153025927743,0
GUIDED_NOGPS,1.2079176902770996,29.804755340164576,-39.77709038013214,41.51336647645992,74.69767146158381,3.484033957841339,-15.493270504543327,38.93700048071385,62.30495700520093,0.7276620472726834,-2.534839868455819,-15.807178513146795,0.5524472967148235,-3.3497730507721126,1.8695081279295285,0.47521457108723425,-40.54309081166381,39.626243671618184,74.80541348867986,-10.442902892827988,-8.913412690162659,0.2825135365128517,3.7341296078135002,-2.3239153025927743,0
GUIDED_NOGPS,1.2430579662322998,28.46181615840832,-40.203318469163165,41.25986941060917,74.7922710157279,3.4410357938246845,-15.332680418232442,38.968076173128665,61.8308402712707,0.7081279196898584,-2.5385992472636763,-15.738886866730422,0.5589242208711825,-3.3809444753890774,1.8196708184732402,0.47407713851108557,-41.0119001820846,39.34941031707069,74.80569456407522,-10.584155470132828,-8.587786555290222,0.7958009839057922,3.6962973332746745,-2.578789787887324,0
GUIDED_NOGPS,1.2771575450897217,29.33059209376158,-40.64115189318367,40.99081649164039,74.89325143087993,3.3945225286116547,-15.169566484530737,38.99964025375611,61.339246881182426,0.8800433008514034,-2.6194099900984478,-15.559770278388715,0.6307855101630969,-3.4930446993601394,1.7643050466417378,0.472891990900605,-41.229459250311415,38.99198448267077,74.94178035198809,-10.584155470132828,-8.587786555290222,0.7958009839057922,3.6401337380019343,-2.578789787887324,0
GUIDED_NOGPS,1.3089449405670166,31.463494040072913,-40.96373741468268,40.71794373661289,74.9151208068821,3.373850023257493,-15.004249296131643,39.03163068489411,60.830339081516726,0.9553789000144689,-2.6328850995572366,-15.451030251707527,0.6979307585398334,-3.3773513689137635,1.894025767204612,0.47183043654926926,-41.43429028442078,38.60012816451896,75.13308344166792,-6.839613616466522,-8.553438633680344,-3.34821380674839,3.555703552928499,-0.9513943384074127,0
GUIDED_NOGPS,1.3427917957305908,29.5487970692874,-41.24335061040647,40.43824022585245,75.06895519067643,3.2748301791642245,-14.837056268710889,39.06398410852931,60.30430375109075,1.054791022723535,-2.6740096685498833,-15.335113403755948,0.682836297424727,-3.2653698326919964,1.38079278475103,0.4704706971208286,-41.7398084182875,38.13473390527579,75.11148509099988,-4.0732719004154205,-8.082599192857742,5.495183169841766,3.4311128028016533,-5.499444204112126,0
GUIDED_NOGPS,1.3765313625335693,29.643190829228303,-41.56830193805633,40.14991795600116,75.17367210951913,3.1913867536560128,-14.668320591236904,39.096636049461935,59.76135172610236,1.1576286987447741,-2.7322724628305615,-15.217173112262753,0.7346984166200456,-3.416283927516036,1.4169982873180784,0.46917535923316644,-41.863926858082294,37.67011918764743,75.21927455502963,-7.16630294919014,-7.533992826938629,2.0976919680833817,3.2876825321853627,-4.050738883037619,0
GUIDED_NOGPS,1.4105334281921387,29.414309157468058,-41.84951137320446,39.84178262456258,75.24432925571472,3.0997934506957017,-14.498380176281241,39.129521118430546,59.20171712527434,1.3659970663109418,-2.801661421825779,-15.044995996117779,0.7815469867434992,-3.3538167551190003,1.3206671816506734,0.46791477573911927,-42.11245220645509,37.3786078166591,75.24064389742207,-4.733822122216225,-8.570491522550583,0.3886567894369364,3.2213515500367045,-4.51858336240822,0
GUIDED_NOGPS,1.4441261291503906,29.773654284355413,-42.1584617246254,39.521715457644454,75.29481989959574,3.041944760758524,-14.327576610328993,39.16257321523689,58.62565667499856,1.5582184397923757,-2.7615300050271343,-14.888483918834229,0.8381409309985685,-3.460481628966011,1.482270761037101,0.4666616735508056,-42.48605715930245,36.65729766660237,75.25766218177104,-6.854138523340225,-7.583751529455185,-0.7927720434963703,2.9859064761689877,-1.7684910427548017,0
GUIDED_NOGPS,1.4760198593139648,31.36115805057499,-42.37411411500375,39.22276531601894,75.40235069794637,2.9187281866441475,-14.156254104089212,39.19572573187069,58.03344903448027,1.6961385287117392,-2.7775536288199842,-14.755211560201648,0.846807753485951,-3.35053780688446,0.9782264048940938,0.4652621966730678,-42.48605715930245,36.65729766660237,75.25766218177104,-2.259436249732971,-7.224654406309128,3.472713381052017,2.9859064761689877,-5.975184809050085,0
GUIDED_NOGPS,1.5105807781219482,28.938208914033392,-42.54485292494928,38.93922107133709,75.45848753691462,2.8110643052533746,-13.984758442805324,39.22891175563443,57.42539412088221,1.7244366427733369,-2.6121433091517887,-14.576528688872237,0.775054107654294,-3.2276055685252776,1.0652549120620742,0.4639338131679352,-42.64175878464745,36.49602388390009,75.22125454062973,-0.025797123089432716,-6.5287381410598755,0.8810104802250862,2.9124237372125648,-5.113664447619228,0
GUIDED_NOGPS,1.5441994667053223,29.749790759366178,-42.681211606942405,38.61483358671089,75.52653438880456,2.6810372206735775,-13.813435936565545,39.26206427226822,56.80181243446887,1.8802742388763476,-2.6524495361045033,-14.417149639684574,0.8927268933201566,-3.202462037325972,0.8327046785376963,0.4625505560913286,-42.29679310484664,35.69869172993474,75.48592339226803,1.6443846747279167,-6.869281828403473,0.6872216705232859,2.544225059581693,-5.265113647180505,0
GUIDED_NOGPS,1.5772459506988525,30.265427466374184,-42.79320985892227,38.28536407917202,75.49666133494212,2.5341024857555965,-13.642632370613297,39.29511636907456,56.1630443837507,1.8818961953608142,-2.5943286816925144,-14.322900713101214,0.9280795910985312,-3.1827091038131647,0.6341101569328885,0.4613327660976172,-42.44426347227555,35.22575915688611,75.30772482932755,2.110312692821026,-6.778582185506821,-4.438996315002441,2.2960832889100047,-5.895798374100673,0
GUIDED_NOGPS,1.6132993698120117,27.741940604537337,-42.92177661589908,38.00126178897438,75.48549390568348,2.4087223174013945,-13.472691955657634,39.328001438043174,55.50944961062829,1.7773550274718914,-2.6050183546304075,-14.130539534185207,0.8080557148061605,-3.2007087159323797,0.7474849389674723,0.4600479114098896,-42.44426347227555,35.22575915688611,75.30772482932755,-0.328116025775671,-4.743358865380287,-2.8268923982977867,2.2960832889100047,-4.862607184297069,0
GUIDED_NOGPS,1.644434928894043,32.12278377281326,-42.9758722041412,37.70140865129588,75.56820874581067,2.2836548980167164,-13.30395627818365,39.3606533789758,54.84140631553656,1.8210283242420109,-2.41621207573398,-13.945788893551885,0.9445637455350891,-3.1364749764236275,0.5665424874096405,0.4585463951394518,-41.10558033366199,34.641754899498416,77.30016641023005,1.44079914316535,-3.901539370417595,-2.8078097850084305,2.148956162576839,-4.236754816214685,0
GUIDED_NOGPS,1.6789333820343018,28.989611771942798,-42.94552919070722,37.435072990173694,75.64475891922324,2.2134170248192415,-13.136763250762893,39.393006802611005,54.15931058258902,1.8266508505894008,-2.374750906481298,-13.841789018154687,0.8226320364881061,-2.930497797920262,0.9214207341483164,0.4570291033267316,-40.94595870767127,34.475474927606115,77.27137174984055,3.204042464494705,-3.6447741091251373,-1.9725417718291283,2.0176735441055067,-1.4816725097640429,0
GUIDED_NOGPS,1.7128684520721436,29.473216732603,-42.967363246205274,37.16949910078005,75.61422955079037,2.040178064727181,-12.971446062363801,39.424997233749,53.46357570472193,1.8656800456107345,-2.3557456916723263,-13.677073029904305,0.8481746533112218,-3.0572042644617614,0.2036850247437343,0.45569869230786314,-42.253894771334416,34.40593334713135,75.0385292475959,4.3198756873607635,-3.248317539691925,-2.290552482008934,1.7531716098741499,-6.793867504667093,0
GUIDED_NOGPS,1.7498981952667236,27.010187653748567,-42.942863444727806,36.91006587474709,75.57730747231537,1.9496801054701995,-12.8083321286621,39.456561314376444,52.75463150883854,1.8784471632733692,-2.322475840225194,-13.631516521913968,0.8642239293525412,-2.977565438029791,0.6230025941558331,0.4543546480730464,-42.56079396020684,34.214616799679234,74.64734573824734,7.108032703399658,-3.4135855734348297,-1.292250119149685,1.5955050791273457,-1.6545296566182564,0
GUIDED_NOGPS,1.7841253280639648,29.221675700530884,-42.88807066146198,36.6646926824642,75.50063372286962,1.8025417655837024,-12.647742042351211,39.48763700679127,52.03292368095323,1.8936059143625663,-2.255745105477581,-13.457320231095608,0.775729021879979,-2.8934423931480153,0.3075422566772825,0.4530645799161672,-42.60528127329087,34.10291348652708,74.53678826946225,8.490093797445297,-3.0877701938152313,-3.332173079252243,1.503997935635009,-5.33006917307415,0
GUIDED_NOGPS,1.814389944076538,33.04787418449998,-42.82098131759385,36.35587464182706,75.51671793976523,1.634594827241383,-12.489988523452716,39.51816379672744,51.298913091335805,2.0058609271453722,-2.3017496311887906,-13.310604352629149,1.0785686194569444,-2.918224840687418,-0.17310396178051757,0.45156439030314116,-41.81883584528856,33.11885374935037,76.4406481915222,8.490093797445297,-3.0877701938152313,-3.332173079252243,1.3001166554272512,-5.33006917307415,0
GUIDED_NOGPS,1.8458619117736816,31.778159970300106,-42.722748879532205,36.18017215635613,75.46272829630513,1.5378194986382303,-12.335375369626716,39.54808289647985,50.55307511965563,2.0265617364158,-2.4151271428730055,-13.226605832442687,0.7364739063036614,-2.8364489743039054,0.33258033999370507,0.450180693646701,-41.08755456777146,33.799666607273025,76.00030449634272,4.840430244803429,-0.4691401496529579,-5.540747568011284,1.3387705065349,-3.057061404799596,0
GUIDED_NOGPS,1.8829450607299805,26.9737099346607,-42.59424246629756,36.002716342237704,75.42585224574738,1.4474706322664,-12.184196406482283,39.57733744802902,49.7958989801259,2.080635917187968,-2.5715222531670188,-13.097854205267007,0.7073639991567209,-2.7635314672131512,0.3719147618599925,0.44874009346875704,-41.08755456777146,33.799666607273025,76.00030449634272,7.9030439257621765,0.05140367429703474,-4.591083154082298,1.3387705065349,-2.2535376737151975,0
GUIDED_NOGPS,1.9160547256469727,30.203748910828345,-42.48890546603398,35.832516578442416,75.36683274455046,1.3877700547159677,-12.036734437887876,39.605872726166005,49.02788704664774,2.177870917099092,-2.529251706497691,-13.02259832721816,0.7348041625495939,-2.8112659973823755,0.4781852898764547,0.4473221086041945,-40.92636359860764,33.56187716920559,75.82507791717768,5.7884737849235535,0.7952285930514336,-5.372554808855057,1.148644065624123,0.058908380559376576,0
GUIDED_NOGPS,1.9489483833312988,30.410475410192642,-42.35430687216215,35.6782456832213,75.31412391358315,1.2525130538044909,-11.893260196281744,39.63363634161715,48.249554177954536,2.263458950371464,-2.622289768607254,-12.91803837630902,0.7157667444807593,-2.7453514096869807,-0.06909734896361486,0.4458708605287428,-40.789475701974226,33.39388442742461,75.8254923557257,7.045097649097443,1.552431471645832,-4.846673831343651,1.166030273552099,-4.948120298931983,0
GUIDED_NOGPS,1.9836463928222656,28.82267164189361,-42.17048824144853,35.56643910801051,75.16090883658526,1.1794705450013503,-11.754031292982347,39.66057844416891,47.46142704275606,2.2270726116721025,-2.7031878097973547,-12.889220100653443,0.6215780615214275,-2.6352118358665955,0.28630196286509957,0.4446010364123416,-40.656297392964944,33.87637950376201,73.91354775772771,9.676115214824677,2.008560672402382,-5.613794177770615,0.7576967140381528,-0.4119581106734118,0
GUIDED_NOGPS,2.0155913829803467,31.31082362250573,-41.961260300967915,35.46681538263818,75.01627111503767,1.0644327929356403,-11.619291168498773,39.68665192579268,46.66404344488268,2.2742749818090027,-2.771920857188839,-12.784151300651137,0.6196482826603709,-2.5566136651892197,-0.08099504691648218,0.44329554465969,-40.656297392964944,33.87637950376201,73.91354775772771,11.32703498005867,2.507404051721096,-5.139249563217163,0.7576967140381528,-3.0151599017888606,0
GUIDED_NOGPS,2.0500259399414062,29.04361073026161,-41.654611851274616,35.3934952989181,74.90978145439479,0.9542588089377191,-11.489268042841179,39.71181262376956,45.857951648429605,2.2472080093452997,-2.851836845242339,-12.755654043886551,0.5487955095030858,-2.3472911740441145,-0.06685689365828595,0.44189634038806963,-39.30223074883581,34.06399596393558,74.87997173181134,13.79939466714859,2.705560252070427,-5.719826370477676,0.7052058647111519,-3.322644559495668,0
GUIDED_NOGPS,2.0830695629119873,30.267829952443837,-41.32369499868091,35.34029061217452,74.73393188097842,0.8568118743140044,-11.364173865831173,39.7360195238152,45.043709702901054,2.1699929342217175,-2.819138595251372,-12.705932828049798,0.5158821754160315,-2.252338621490647,-0.07644929637903786,0.44061955564384525,-38.89365591758556,34.10549995307791,74.68784213110462,14.35551643371582,3.851386532187462,-9.448158740997314,0.5874031110493522,-2.085643939953468,0
GUIDED_NOGPS,2.116495370864868,29.923192717362614,-40.98768393372034,35.318918756202805,74.49567559749269,0.7381609201525158,-11.244203267412228,39.7592349632046,44.2218847683545,2.0557358222384514,-2.9121433601887317,-12.69309719505205,0.44867411889673087,-2.2170825094391238,-0.26987143387729395,0.4394524183417236,-39.44407987193411,34.37414649243432,73.09069263165225,16.410595178604126,4.4082749634981155,-8.96618589758873,0.4316927855702195,-3.4670620793064173,0
GUIDED_NOGPS,2.1501553058624268,29.710594168815344,-40.602452475621575,35.31807636597513,74.28525705725892,0.7144902958551725,-11.129532507960157,39.781424833896914,43.39305244054479,1.9790389877181436,-2.838941234645943,-12.609770594725187,0.40506136302187173,-2.0879868493736478,0.28879268429056026,0.43821559076657174,-39.27493580405897,34.55618530380117,72.98532606822658,19.27187442779541,4.886110872030258,-7.125227898359299,0.43249725818906193,2.093341136261249,0
GUIDED_NOGPS,2.1850106716156006,28.69685753186598,-40.11486402489123,35.314430418773384,74.10555199477812,0.6445828961799841,-11.020318428593455,39.802558785660274,42.55779607606849,1.8864275989882946,-2.8188790480629113,-12.606206943525734,0.4037905860904356,-1.8524756736295858,-0.015286249358374915,0.43690448816258076,-38.708119815086896,34.631724373966875,72.7633505109008,24.531570076942444,4.16296049952507,-4.78384792804718,0.3558430596438037,-0.7514478075312825,0
GUIDED_NOGPS,2.2173807621002197,30.89544630887314,-39.545541997113574,35.34590730222729,73.98293129615958,0.584847322355042,-10.91669740148377,39.822610429196565,41.71670611750794,1.8058674387186981,-2.848733804925037,-12.61887609066246,0.32889811891226595,-1.5687697972635204,-0.017245769345679007,0.43546754964269674,-36.80536139773275,35.33406114952426,73.93119853231616,24.531570076942444,4.16296049952507,-4.78384792804718,0.48693561459182594,-0.7514478075312825,0
GUIDED_NOGPS,2.254704236984253,26.79638396422297,-39.086495396391655,35.41673881305599,73.87175222638766,0.5290754241600184,-10.818784280166287,39.841557539266276,40.87037941857557,1.7431699306759776,-2.694337805623722,-12.590148315013387,0.25858359481324855,-1.863450278551909,0.018133260628799774,0.4339972543843758,-36.80536139773275,35.33406114952426,73.93119853231616,18.38042438030243,6.222784519195557,-4.573218524456024,0.48693561459182594,-1.0206044318237404,0
GUIDED_NOGPS,2.28507661819458,32.928526567014195,-38.488512862203045,35.465472202499924,73.66029423319627,0.4632623320234099,-10.726671349850175,39.85938225781329,40.01941856925808,1.6069744645220425,-2.4892041729597905,-12.578357700958653,0.2739383800290692,-1.327052307810944,-0.15670010675130563,0.4327182486721236,-37.51301403626652,35.31516653328242,72.18046881315263,28.53158712387085,4.984625056385994,-5.3826939314603806,0.28794030080207367,-0.6845424760730111,0
GUIDED_NOGPS,2.3185081481933594,29.91721648822728,-38.002399195384655,35.55349873633169,73.48664379231319,0.4728108299850325,-10.640427277728971,39.876071297089666,39.16443122096054,1.5327729969263164,-2.2741377376953675,-12.568856907823166,0.1992132000431284,-1.6255345433753674,0.340686039986288,0.4313555748572947,-36.72528060532019,35.49715126160102,72.05794500479342,22.445496916770935,6.334661692380905,-4.321269690990448,0.24087428762046084,2.7981803732265993,0
GUIDED_NOGPS,2.3519809246063232,29.881196301098555,-37.409311162482396,35.619139711131496,73.3234700067783,0.4366995899242619,-10.560096063291038,39.891616142780514,38.3060294116508,1.3500199731818125,-2.1560715145893505,-12.615584793256161,0.23299605129695194,-1.3383485641922461,0.04544195398336945,0.429965118809745,-35.72638316992378,35.22002858457773,73.42729801409007,25.842925906181335,5.819033831357956,-7.300096750259399,0.18960057761953264,0.4303913505002482,0
GUIDED_NOGPS,2.3872015476226807,28.39649300971531,-36.80265324016385,35.805466698037186,73.0564818930739,0.4078398843702752,-10.485695988629924,39.906013257128734,37.44482889100352,1.2847039413660384,-2.099951051830529,-12.602283853621207,0.0007686494930461314,-1.3146018880922477,0.0814278185525786,0.42877669399585927,-34.36467437216773,37.36692851752939,70.53595857896177,23.65328222513199,7.369592785835266,-5.885505303740501,0.27978263441281453,0.3577705914497041,0
GUIDED_NOGPS,2.422152042388916,28.618926424531068,-36.15896545019372,35.98842957069535,72.8442907698631,0.41463021810784567,-10.417218568754858,39.91926428205986,36.581448445544424,1.0568694279436288,-1.939938929484171,-12.614657595076332,-0.012275663288602525,-1.1652112774868266,0.28762201454990927,0.42747431535136265,-34.36467437216773,37.36692851752939,70.53595857896177,25.86248517036438,7.188592851161957,-2.4990813806653023,0.27978263441281453,2.5711888545581574,0
GUIDED_NOGPS,2.46061372756958,26.005542982918435,-35.5173753169396,36.16278181225552,72.51393083597313,0.3662095695226548,-10.354627501901088,39.93137624230689,35.716509223794574,0.949642074720187,-1.9552616051134484,-12.65023605046293,0.004835141920699879,-1.1682387151492972,-0.04224593163073964,0.4264051567756429,-34.07584133721143,37.382543668320224,70.3002756323356,25.889626145362854,6.6360145807266235,-9.791002422571182,0.2621685279973297,-1.0151953488879133,0
GUIDED_NOGPS,2.4906201362609863,33.35855059093006,-34.91029625491705,36.380999159047306,72.16848656734969,0.33342660601403357,-10.297857619840347,39.94236174853503,34.850634061414446,0.8944505710493403,-1.870091707484328,-12.64637272471364,-0.15693345214689697,-0.9869764322662046,-0.009138935106095813,0.4253642949881295,-33.25647553489364,38.038875622779486,69.91054763506963,23.191775381565094,7.658243179321289,-10.062340646982193,0.3154513732382681,-0.3322238163240052,0
GUIDED_NOGPS,2.525731086730957,28.48210999517863,-34.26644807131635,36.607681447542156,71.84662624039105,0.3584433330326212,-10.24681383819124,39.95223920046656,33.98444680634831,0.830338840322457,-1.8327271576297732,-12.655152932891692,-0.14254995769949022,-0.9861367079402955,0.35692544632333156,0.4242756411319145,-32.534044462123475,38.490873979472056,69.59420838400771,27.153819799423218,7.5089432299137115,-9.392879158258438,0.3515640707078402,2.5604537181736013,0
GUIDED_NOGPS,2.557032823562622,31.95441074516795,-33.56884044958651,36.860325382143095,71.51461451974355,0.36364063061226537,-10.201370106729701,39.961032990005634,33.1185716439682,0.7210446078231459,-1.8983989996126227,-12.677974302455997,-0.27016422761117376,-0.6451110567796555,0.25142071127504323,0.4232079142484493,-31.214558446902085,39.07237232165557,69.39764488901329,26.373979449272156,7.672996819019318,-9.453720599412918,0.35652672544281144,1.3977766558585416,0
GUIDED_NOGPS,2.5903797149658203,29.98930358930359,-32.905515027084334,37.11220090569081,71.2287280060628,0.3607673696515667,-10.161368359699377,39.96877370436308,32.253632422218324,0.7435356203472046,-1.8083675013983345,-12.678083585482717,-0.2560141820244591,-0.7427386053644417,0.19926192604299175,0.422049808832311,-30.798099542815713,39.19050803253798,69.25992016047613,26.023367047309875,7.986166328191757,-7.521320134401321,0.33092128829796524,0.7374107015698486,0
GUIDED_NOGPS,2.6243982315063477,29.399052345305183,-32.19585652172796,37.36639624361217,70.97031197389677,0.372746883855539,-10.126617466122038,39.9754983291812,31.390251976759245,0.6993827162313033,-1.7326102447757263,-12.686159430402611,-0.274037273570651,-0.5970644106039613,0.2941892362445844,0.4208398800057249,-30.428131413469544,39.47116562093524,69.10418574287505,26.956990361213684,7.325436174869537,-5.210656300187111,0.36582767005312766,1.5883141742661562,0
GUIDED_NOGPS,2.660031795501709,28.068124176052144,-31.43401213501878,37.64304287754875,70.57032622855694,0.37872744199525205,-10.096892180108068,39.98125045165858,30.529051456111958,0.800854888027069,-1.4721974365596486,-12.652845182725873,-0.31620285452310354,-0.4824742260628456,0.26084460979957086,0.41991745045511003,-29.25210176236746,40.2237316338549,68.60177043720716,28.474631905555725,7.05471932888031,-13.384129106998444,0.38380024521633727,1.066482812478716,0
GUIDED_NOGPS,2.6925556659698486,30.75431328410849,-30.65207630567229,37.91259624577161,70.23939372070879,0.40957559236483637,-10.071932091166719,39.986080463674924,29.670649646802218,0.7728116787597303,-1.3579386170290901,-12.682077538599883,-0.3832778835846477,-0.1915912301488048,0.43941745637800644,0.41886251185218687,-28.710343644029386,40.456719492166904,68.53466162904517,29.29748296737671,6.246206909418106,-9.145574271678925,0.38775009996356413,2.5723179702053254,0
GUIDED_NOGPS,2.7264726161956787,29.486684851382133,-29.883958185293906,38.17077000197433,69.92328823739885,0.36660734850283494,-10.051440574516736,39.99004576491584,28.815662298504705,0.7656292545997859,-1.1386127050435182,-12.704443846810735,-0.3391486631869545,-0.27523047085626295,-0.02829731833032542,0.4177847481222117,-27.917177909965986,40.84292252879385,68.18674721711031,30.406412482261658,5.479642748832703,-8.927901834249496,0.37950635105276276,-2.1198960579806125,0
GUIDED_NOGPS,2.763519525527954,26.99749612188544,-29.122955302739626,38.45559841073969,69.60385013751905,0.37545513647922507,-10.035083741396651,39.99321096599766,27.96470144918719,0.685520580506498,-0.9241550103888729,-12.756476227907893,-0.3767106959349098,-0.3136855223100511,0.2730279557783149,0.4167217026233363,-27.65950964763438,41.09649332258327,67.90592013546677,28.893408179283142,6.685301661491394,-8.368027955293655,0.38930823898221045,1.0613919736695292,0
GUIDED_NOGPS,2.7931463718414307,33.75833232725663,-28.285776334269293,38.781954405250744,69.27477515579221,0.3920476755686392,-10.022489389375163,39.99564809159224,27.1183747502548,0.5636274237528638,-0.6789744845172755,-12.818312491784956,-0.6239679994149551,0.3063925430226082,0.3475886932879144,0.41568719918892516,-24.828221338050916,42.38501652490337,66.92731925748276,28.913307189941406,6.621202081441879,-7.325953245162964,0.44093757696805647,1.2634513808767205,0
GUIDED_NOGPS,2.8257148265838623,30.709728435557444,-27.49527355564138,39.08735506688803,68.96684216630985,0.40419312821393544,-10.013245952661673,39.99743678355176,26.277284791694285,0.4238063544492683,-0.4518568741534528,-12.887160798618686,-0.5362612516236741,0.09613274162631913,0.31683886698099645,0.4146208852507689,-24.522109092102987,42.524481443987455,66.70227619293594,29.62528169155121,6.305259466171265,-7.4882760643959045,0.4412460180582682,0.8926416914971976,0
GUIDED_NOGPS,2.8593132495880127,29.76647008310446,-26.69037700967697,39.40130835028663,68.59333037519146,0.4387964447491084,-10.006901452416603,39.99866450403359,25.442028427217977,0.3783049682199656,-0.2284923460168464,-12.929521631851104,-0.56229236014292,0.16024288080491694,0.46954800926444756,0.41369739610405304,-24.522109092102987,42.524481443987455,66.70227619293594,28.446340560913086,6.607286632061005,-11.068535596132278,0.4412460180582682,2.3295196862501815,0
GUIDED_NOGPS,2.8964154720306396,26.956720696170805,-25.834769178255563,39.726030358722646,68.23604230142224,0.4684252572657425,-10.0029624470619,39.999426738625,24.613196099408256,0.2202858203682232,0.0799819820883121,-13.013626873743348,-0.5485823097095074,0.17767035005810122,0.44078811946711727,0.41275430759597204,-23.342471679858875,42.98013100084707,66.41208668566831,29.353034496307373,6.492780894041061,-9.68141108751297,0.5086347715465167,1.8018715646108292,0
GUIDED_NOGPS,2.9281961917877197,31.47081244935322,-24.860626706210958,40.11659384693515,67.80393966065375,0.4656648759255674,-10.000892982591349,39.99982719946805,23.791371164861715,0.15502704474760082,0.3090154738545366,-13.048979079113687,-0.8147878882245493,0.8011491436102002,0.2619947323054032,0.4119748630084159,-21.320051219776833,44.177307722326255,65.29618976958264,28.603214025497437,6.841829419136047,-10.375449061393738,0.6547947979880614,-0.6197178977123605,0
GUIDED_NOGPS,2.9617764949798584,29.788456211870486,-24.000977916342116,40.46161926116721,67.39914381709603,0.5249704755906047,-10.000113542881106,39.999978028384376,22.97712921933315,0.05840138575584858,0.41593400114187323,-13.122394221181217,-0.7058579207984431,0.520817214568355,0.6676030132858999,0.41115597080447425,-20.858931224248487,44.37239705433264,65.09453680326811,28.771120309829712,5.910725146532059,-11.445791274309158,0.6656348909167735,3.146536882926763,0
GUIDED_NOGPS,2.995102882385254,30.01204974455114,-23.12348946405123,40.80993758272616,66.9874227486005,0.5855650533884128,-9.999999999999996,40.0,22.17103742288009,-0.07340289575178989,0.5097209561413315,-13.199273122931586,-0.7471989524260483,0.6552369436074552,0.7151957239716551,0.4103672293485592,-20.426603648924612,44.5459257272729,64.87235526588654,28.771120309829712,5.910725146532059,-11.445791274309158,0.694325560583409,3.146536882926763,0
GUIDED_NOGPS,3.029034376144409,29.476945133564314,-22.353285490669364,41.17122222009327,66.50101813821385,0.6580738145085638,-10.0,40.0,21.373653825006713,-0.06771292128634614,0.5585658800519141,-13.294544870343156,-0.7852360246852562,0.4678641422689718,0.8221554832159944,0.40974527137358574,-20.108093395677585,45.065137173769266,64.78212620308265,22.969527542591095,6.175494194030762,-16.844196617603302,0.7605427786453848,3.7005760017453984,0
GUIDED_NOGPS,3.067492723464966,26.00457558078256,-21.56389673321806,41.51221892427936,66.05840677319074,0.720607305417664,-10.0,40.0,20.58552668980822,-0.14105642640886865,0.5412903572893949,-13.423184653171177,-0.7903175740009846,0.6173726430510993,0.8098960623138421,0.40905423983323497,-19.5440414818342,45.31476444961443,64.61223803162113,24.061524868011475,4.846103861927986,-14.17958289384842,0.8101609121188402,2.9535748608072057,0
GUIDED_NOGPS,3.096029758453369,35.05184689954872,-20.735459011513328,41.85756849140768,65.54271228369731,0.8325570541901407,-10.0,40.0,19.80719382111502,-0.21930072566300754,0.5833338535296728,-13.529949047634938,-0.8145415222446883,0.7384584697488774,1.1622321261911182,0.40852896307483544,-17.084344761987662,46.13287531486737,63.42994684133369,22.772395610809326,3.9440181106328964,-16.85953140258789,0.9663456625063074,5.6129666438727925,0
GUIDED_NOGPS,3.128990650177002,30.341618681096097,-19.92598767952863,42.18813230799229,65.0152003203774,0.8685984820783837,-10.0,40.0,19.03918188763687,-0.3203265339243421,0.49792895470442183,-13.68918466285003,-0.8257018934154379,0.8064482975775941,0.7389751538523289,0.40804796313451897,-17.084344761987662,46.13287531486737,63.42994684133369,23.086313903331757,3.6646168678998947,-18.196606636047363,0.9663456625063074,0.978635373973245,0
GUIDED_NOGPS,3.162867546081543,29.522798620398394,-19.28721331433486,42.54621760749438,64.54002307140006,0.9422647450423772,-10.0,40.0,18.28200574810714,-0.369979501230249,0.46960117200861706,-13.820427601525472,-0.8874598658232908,0.4724837902248029,1.0012399821084184,0.40748396535341413,-16.7258217356199,46.287104382077516,63.19221547389378,13.26630711555481,6.121233105659485,-15.743646025657654,1.0060162155601466,3.307876409849631,0
GUIDED_NOGPS,3.1980419158935547,28.434031591078572,-18.521414916533814,42.86551478565446,64.05119451883112,1.0340296621430012,-10.0,40.0,17.536167776426936,-0.47708396440948336,0.47272577011048633,-13.971714584093961,-0.8182515298319375,0.7418530550802901,1.1419913111958957,0.40696994651519164,-15.142882638372466,47.00862147433646,62.27348156957213,18.696768581867218,2.2110166028141975,-14.608311653137207,1.224910844016097,3.859208425879414,0
GUIDED_NOGPS,3.2379791736602783,25.043162589635962,-17.768066049155994,43.185839927168125,63.560638971423536,1.1298551767228895,-10.0,40.0,16.802157186809524,-0.4865780874383598,0.3399384616306817,-14.068112458944936,-0.7728845167409856,0.6073830446684003,1.1582292435176558,0.406483036430772,-14.58307063178021,47.392677771814284,61.78176869688912,18.696768581867218,2.2110166028141975,-14.608311653137207,1.356537066030496,3.859208425879414,0
GUIDED_NOGPS,3.27101993560791,30.27416560803788,-16.914916154239407,43.57690877877583,62.94601061658097,1.2086000781621595,-10.0,40.0,16.080449358924255,-0.5413977726862639,0.30494785607995595,-14.252205693870645,-1.0643337061779659,1.1673400386947639,1.2029715800030212,0.40626887748468654,-13.398388156650551,47.9258910745592,61.108197856110394,15.475036203861237,3.522196039557457,-16.959454119205475,1.5491610358574806,1.8230154824036615,0
GUIDED_NOGPS,3.3052523136138916,29.214144917845527,-16.189174048101275,43.90174258025778,62.34632039460172,1.3352129758743818,-10.0,40.0,15.371505163040837,-0.49832916110110226,0.22493661890404654,-14.37054896652487,-0.9276154868361517,0.8984353076223955,1.537264883723234,0.40605036953687823,-12.704270098225422,48.31341863719962,60.30171294182761,16.6987806558609,1.8412023782730103,-19.598062336444855,1.7647368344729215,4.839187319406742,0
GUIDED_NOGPS,3.338653802871704,29.943059481995487,-15.509762730586637,44.228141219829084,61.773408165174224,1.4288848978799606,-10.0,40.0,14.67577028517374,-0.2861301246276155,0.25908961914694656,-14.474437851348057,-0.9773708648920882,0.9086364220945443,1.420087534238522,0.405804724239999,-12.220339880994668,48.72831704515907,59.875113456896216,13.747161626815796,1.5092947520315647,-17.23589152097702,1.9101233669181055,2.4847954992939587,0
GUIDED_NOGPS,3.371460437774658,30.484962132775138,-14.85219146412301,44.53571355362389,61.23343383055151,1.5553753680597084,-10.0,40.0,13.993674552226224,-0.13568683050418082,0.2689424871898073,-14.593515369338059,-0.9737136196004115,0.936514934375486,1.70227906514742,0.4055204814433494,-11.469977655790895,48.965050722122555,59.43058439628473,13.297799229621887,0.9361444972455502,-16.146349906921387,2.0416200351623472,4.4022494460304475,0
GUIDED_NOGPS,3.4054372310638428,29.434951647086894,-14.236850686084301,44.83234503371269,60.680865548020364,1.6803416405592253,-10.0,40.0,13.32563125713446,-0.04864636817697621,0.42073661130417067,-14.65657338330291,-0.9547038144583193,0.8571389892091803,1.7428388025362045,0.4052895314182282,-11.24139665012262,49.11511418428505,59.16290073670122,11.853566020727158,0.7153648417443037,-17.47892051935196,2.111533718796576,4.3594186104057675,0
GUIDED_NOGPS,3.439561367034912,29.309276405436567,-13.616690226920639,45.15589343734415,60.20627122005398,1.796863444837913,-10.0,40.0,12.672036484012068,-0.12184438493409215,0.4556930392286199,-14.751123691983397,-1.0334246443804216,0.9171142659344433,1.7623425583813237,0.4049315305279162,-10.907460310998442,49.54446877442959,58.771516917931095,12.144210934638977,1.79740060120821,-12.069988995790482,2.2159483104056426,3.6153109083547212,0
GUIDED_NOGPS,3.473505973815918,29.463485908567254,-12.972061061273783,45.455606752309116,59.69290376255342,1.8876177754689285,-10.0,40.0,12.033268433293898,-0.17812196872425023,0.5556732415775608,-14.795712874432532,-1.0185552410334668,1.0310742916969962,1.66817866874699,0.40468072934148097,-10.149240175135521,49.47333533276791,57.78906705351451,12.988926470279694,1.2887082062661648,-12.721778452396393,2.399258044540579,1.7830171475721264,0
GUIDED_NOGPS,3.5076332092285156,29.310505314502546,-12.364475945070554,45.73748619969506,59.17607049050342,1.9601634657437463,-10.0,40.0,11.409686746880595,-0.23498316016247414,0.6138082366155656,-14.840414755002973,-1.0021623902136485,1.000159956748503,1.6013860794216896,0.40446723251275435,-9.761067277784447,49.659792567532314,57.57340728186718,12.080848217010498,0.6219711154699326,-13.891200721263885,2.469082675558917,0.7514147238024903,0
GUIDED_NOGPS,3.5426180362701416,28.586547439733376,-11.825892542959274,46.03535731171485,58.673480919974786,2.049515672550236,-10.0,40.0,10.801631833282471,-0.49011852666680644,0.7478713497271346,-14.900511881962622,-1.0372424313698494,0.8752064423402693,1.7397744847377448,0.40425630182661537,-9.161817925497509,49.932529188071534,56.74913549825239,8.347995579242706,1.926114410161972,-12.400107085704803,2.557060048847007,1.8258606830797948,0
GUIDED_NOGPS,3.575164794921875,30.73290541926786,-11.313851697712623,46.31035746496511,58.18810458431008,2.0878250918997905,-10.0,40.0,10.209424192764232,-0.6158906972604791,0.9179210753890611,-14.907915807022915,-1.0573494759442215,0.9446245203431003,1.4879980422611627,0.4040426392169083,-8.939311306722372,50.03125863908402,56.4663901905102,8.56427252292633,1.238358486443758,-12.330062687397003,2.5715334564263714,-1.198740034245904,0
GUIDED_NOGPS,3.61006236076355,28.658230615758836,-10.85276360095409,46.57096734163707,57.70555779528313,2.1759498971732762,-10.0,40.0,9.633363742488456,-0.6947802359477726,0.9232978216480363,-14.927663591460716,-1.0093073135580617,0.8096450502554178,1.8102081023531191,0.40385561189441066,-8.519590499566341,50.312197926911516,56.06309289901162,7.091207802295685,0.5432707723230124,-12.658189237117767,2.669098637237127,2.0409809060839317,0
GUIDED_NOGPS,3.6423001289367676,31.024105921076963,-10.315926310764773,46.78817617852423,57.1936391808,2.2362446642312372,-10.0,40.0,9.073729141660408,-0.6922053613523835,0.981222414843093,-15.000388030648425,-0.9908969280094534,1.099841058921265,1.7159480823774196,0.4037601799217208,-7.640044944505426,50.38565949523502,54.97550250609176,10.085605829954147,-1.765676960349083,-12.308252602815628,2.747946466158409,0.2996553399272688,0
GUIDED_NOGPS,3.6752114295959473,30.389543392890783,-9.8615674485512,46.97744127658307,56.80452561634438,2.3019000545526693,-10.0,40.0,8.53077711667197,-0.6758644539282455,1.0014680560383629,-15.047528288752561,-0.9385291289785362,0.9485503970111756,1.7828623884697818,0.40345250300065516,-7.536009157316348,50.42260554288406,54.67805416805973,7.650052756071091,-2.4429038166999817,-6.300459802150726,2.7687472817973213,0.9360257724446494,0
GUIDED_NOGPS,3.7100300788879395,28.728699904792563,-9.450325355492582,47.177065897040876,56.372291021311156,2.346779237735467,-10.0,40.0,8.00474178624603,-0.6087444517587945,1.1212589019098085,-15.061455044470218,-0.9463253468279349,0.838736322191062,1.6660253038926385,0.4032649015298697,-7.14281562279877,50.83500941113138,54.377249995992464,3.8952142000198364,-2.5686534121632576,-8.68215411901474,2.7864285304541845,-0.2502300633806467,0
GUIDED_NOGPS,3.7428455352783203,30.478759428546514,-9.04897815579792,47.37908945072525,55.959208267744074,2.3961600401026946,-10.0,40.0,7.495833986580294,-0.5616441609334742,1.0943316281589737,-15.083890508346418,-0.9896971635081128,0.8963404925824303,1.7369736833571574,0.4030732514376724,-7.313217841493875,51.022948889247665,54.72419566208346,3.8952142000198364,-2.5686534121632576,-8.68215411901474,2.897231502807375,-0.2502300633806467,0
GUIDED_NOGPS,3.7767372131347656,29.508882275551052,-8.73752974105545,47.551161241009886,55.468298705469316,2.45058021716899,-10.0,40.0,7.004240596492053,-0.5795111887502871,1.0672554776285736,-15.067219724129709,-0.9279878508900478,0.7180391464565753,1.7915758296833981,0.4030718837820455,-7.537872810754031,50.66414308140103,53.78429362002574,2.2152578458189964,-2.2103531286120415,-13.432641327381134,3.0008602549534027,0.13325805792400658,0
GUIDED_NOGPS,3.810438632965088,29.676749237616125,-8.430847630908861,47.70124063625191,54.97859931661942,2.4732986386050784,-10.0,40.0,6.530123862561879,-0.547292172579132,1.024831038259509,-15.074801234108422,-0.9018562285948263,0.7440784129238813,1.619664839538902,0.4031030490918849,-7.484981219144723,50.603378488463434,53.529198589213195,2.509451285004616,-2.932587079703808,-13.561443984508514,3.036669001525092,-1.739894641525545,0
GUIDED_NOGPS,3.8442256450653076,29.604901324148056,-8.109424374077332,47.832012466839174,54.52126743780755,2.5468004589513784,-10.0,40.0,6.0736207242779585,-0.5633448780368074,0.7557963968767593,-15.10755028363134,-0.8739807565591621,0.7948883587227731,1.9611190705806365,0.40310470657294084,-6.615621102796734,50.76083260504146,52.9473876054562,2.7416571974754333,-3.872058168053627,-11.328686028718948,2.9206793123416803,1.9082987184843216,0
GUIDED_NOGPS,3.8861539363861084,23.852007711248984,-7.8740858730209835,47.95941774457801,54.03535262055639,2.6109240497355004,-10.0,40.0,5.634842139180876,-0.7854104429314949,0.6537737011617201,-15.087435376525654,-0.8197922910524066,0.5466076106300801,1.8717658543341322,0.403198979037249,-6.221330512042405,50.66211418060311,52.04197654429018,-2.9753299430012703,-3.2796211540699005,-11.284790188074112,2.9456175627432315,1.383041589941297,0
GUIDED_NOGPS,3.9109973907470703,40.258619365737545,-7.697559824061133,48.09371513048374,53.577424284838976,2.5937550921712473,-10.0,40.0,5.21387240800658,-0.9618287330250765,0.4493401628877147,-15.068662601591873,-0.989088032179778,0.6602322108386858,1.4181167690477812,0.4032728962463352,-6.221330512042405,50.66211418060311,52.04197654429018,-5.020855367183685,-2.1430397406220436,-11.570586264133453,2.9456175627432315,-3.9624399049949868,0
GUIDED_NOGPS,3.946500062942505,28.17048827993821,-7.608271143984159,48.16672784148832,53.18170099219358,2.631804334716638,-10.0,40.0,4.810768499832079,-1.0798840705171042,0.3073289774184988,-15.040489778812864,-0.7633110165999242,0.35656983900661204,1.7933535713593205,0.40325813501527696,-6.038812648501883,50.553687832568635,51.36159099485229,-3.494945541024208,-3.557196632027626,-13.63162100315094,2.987288237406383,0.72827649749372,0
GUIDED_NOGPS,3.9775986671447754,32.161701670845694,-7.407959887697897,48.22281274089143,52.63641554527988,2.6692496933129455,-10.0,40.0,4.425559377218349,-1.0053031005356192,0.16305942725281514,-15.001839445847054,-0.7651143339310454,0.6496085431468454,1.8425644977063675,0.40357828766387693,-5.89363774385206,50.47394946374277,50.932944152662685,-2.694611996412277,-5.857923626899719,-15.957407653331757,3.0064633257751785,0.006044503972049722,0
GUIDED_NOGPS,4.011976957321167,29.093370882379464,-7.298010652340689,48.24801645487698,52.2018214997233,2.6816678942824907,-10.0,40.0,4.058245321355514,-0.9273446020095631,-0.021298250719605484,-14.996662162456184,-0.6874600701605517,0.4356875663458558,1.6813485318556907,0.4037128476432644,-6.124901507399539,50.31244260755572,50.41244863088872,-5.628934130072594,-6.56617134809494,-10.559986531734467,2.9801326477260623,-1.0072082964272298,0
GUIDED_NOGPS,4.047016382217407,28.542194336887807,-7.279486718979542,48.26720692668713,51.79605339240345,2.7208085502558004,-10.0,40.0,3.708797257206129,-0.7689079588448037,-0.1344990979601126,-15.007563144371524,-0.668271954828403,0.25040425199886723,1.855845733578665,0.40382548772960536,-6.301027542349102,50.1884354432505,49.74812576963341,-12.049965560436249,-6.579048931598663,-5.884283781051636,2.9085502350251415,0.7655754134992192,0
GUIDED_NOGPS,4.0784125328063965,31.85611860493377,-7.255997329515639,48.25384544914707,51.304824791510825,2.7646406964727186,-10.0,40.0,3.377156078650387,-0.6771818266644116,-0.2334857212282282,-15.000994209937264,-0.6051447984202514,0.2704175805862214,1.9377881833630866,0.4041446625742791,-6.388645123570409,49.95512875960685,49.296768213191875,-9.736303240060806,-7.52248540520668,-12.055782228708267,2.891473387789737,1.1754247566272424,0
GUIDED_NOGPS,4.116075754165649,26.55479933396223,-7.185454716113566,48.19654443369006,50.81012482547032,2.7991196008300685,-10.0,40.0,3.06323197362957,-0.6717838427859859,-0.3701544181060248,-15.09978777363962,-0.5338105649272259,0.3590566502643068,1.862951430702373,0.4045062142963185,-6.310478274287213,49.838342109092636,49.1132811709371,-5.01827709376812,-9.557979553937912,-14.535386860370636,2.89234412900079,0.9212051157193679,0
GUIDED_NOGPS,4.156250715255737,24.89452348308138,-7.139645708176232,48.119942761414386,50.36154446537795,2.863293132344099,-10.0,40.0,2.7669037492905204,-0.6981800693288522,-0.5229619181776359,-15.139670955750619,-0.49840174093173173,0.3146764885614183,2.0451783543322133,0.40481071856782513,-6.408325456431438,49.54614421303043,48.69770200925359,-6.648796051740646,-9.828338772058487,-10.118418186903,2.871427759697589,2.708691448164504,0
GUIDED_NOGPS,4.179560422897339,42.908480818414326,-7.117353995030388,48.01330197938544,49.932344040791016,2.9891204969168634,-10.0,40.0,2.488018157129943,-0.7640612992984449,-0.7296294085579115,-15.198774290186032,-0.33240040023107387,0.30668927689991443,2.8283227712758077,0.40511134823267786,-6.096722643264769,48.50582115955191,48.18640080150407,-10.12696847319603,-8.57766568660736,-4.911459609866142,3.126479013230817,5.502820451996228,0
GUIDED_NOGPS,4.22288966178894,23.081897927512465,-7.134780765425379,47.87253119088807,49.540705185023874,2.9931974596710487,-10.0,40.0,2.2263892181382516,-0.7936248126254931,-0.882623724975493,-15.265658917633381,-0.3909329276582168,0.20961398710159904,1.8147200384059607,0.40537136806622875,-6.150517656195999,48.35445693711288,47.98475126711145,-6.182046979665756,-10.314099490642548,-14.805151522159576,3.169548861981845,-0.7843564593651974,0
GUIDED_NOGPS,4.2466721534729,42.06460671340173,-7.13757551035009,47.73807606232877,49.02135539076453,3.0003505082316018,-10.0,40.0,1.9817975479444954,-0.7162454927967128,-0.9379190155052122,-15.327577997554132,-0.22544257209914548,0.23791394092026708,1.860396186681267,0.4059208843143599,-6.930158483698099,48.53724964075049,47.233671912139336,-6.182046979665756,-10.314099490642548,-14.805151522159576,3.0101865639842957,-0.7843564593651974,0
GUIDED_NOGPS,4.282278537750244,28.088424577264355,-7.196048580900392,47.60851803380828,48.63552993148173,2.9971273885806164,-10.0,40.0,1.7539896819594105,-0.5700363289893042,-1.0018792547707387,-15.447705657129024,-0.3404659458376814,0.11957807125070283,1.7801431253301943,0.40623691950095536,-7.021702880025015,48.38866594432458,47.02979003016364,-6.182046979665756,-10.314099490642548,-14.805151522159576,3.044701334755674,-0.7843564593651974,0
GUIDED_NOGPS,4.314525604248047,31.01492956704995,-7.2321141199537475,47.42766163135948,48.204063685839884,3.0398976829856594,-10.0,40.0,1.5426774005208586,-0.5253554725949022,-0.9347029569014882,-15.553305504339297,-0.19895655223297484,0.15999404378245743,2.0909023386844257,0.40667722742936196,-7.138480107544849,48.11870767027726,46.78288844990897,-7.199440151453018,-12.258119136095047,-9.8989836871624,3.0743674793152658,1.463806442442582,0
