Mode,Time,Freq,North-Vision,East-Vision,Down-Vision,Yaw-Vision,North-Desired,East-Desired,Down-Desired,Roll-UAV,Pitch-UAV,Yaw-UAV,Roll-Control,Pitch-Control,Yaw-Control,Thrust-Control,northVraw,eastVraw,downVraw,yawVraw,zGyro
GUIDED_NOGPS,0.009367942810058594,107.05216947422154,357.94283925600115,31.53185272053356,-31.539215263920713,0.0007330851553266051,354.04382583684,20.657570486933473,-36.67427996619241,-2.1055727244042726,1.5729361100715782,103.26800696725395,3.6104040650253486,-1.6182098487101644,-2.9323406213064203e-05,0.4974324676488642,357.94283925600115,31.53185272053356,-31.539215263920713,1.8334459734718394,-5.557690612768986
GUIDED_NOGPS,0.01170039176940918,429.4802375588777,360.12188720439417,32.64011300708986,-30.04463243077316,-0.038163690252139545,354.04351446802315,20.657508665645853,-36.67430353758725,-2.1055727244042726,1.5729361100715782,103.26800696725395,1.4277506212416937,-2.6298839359433908,0.001526547610085582,0.49668516444659294,362.30093515278725,33.748373293646154,-28.550049597625605,-4.9321855738639755,-5.557690612768986
GUIDED_NOGPS,0.018413543701171875,149.13080888888888,358.9951893090352,33.477707984592904,-28.611890513984306,-0.05184775088282334,354.04136001330573,20.657080905518544,-36.6744675903944,-2.1055727244042726,1.5729361100715782,103.26800696725395,0.8152821420021775,0.26075759286609934,0.0020739100353129336,0.49596871146179494,356.74179351831725,35.15289793959898,-25.746406680406597,-9.140164522027106,-5.557690612768986
GUIDED_NOGPS,0.055501699447631836,26.971281589608385,358.54267505266154,34.394493839048664,-27.400736832403066,-0.07322372988912809,354.0355880270208,20.655934896011765,-36.67491001048074,-2.027227252973053,1.7972853060265772,103.02662808198569,0.6093481215099557,-0.18836899068507032,0.0029289491955651237,0.49536291341096117,357.18513228354044,37.144851402415966,-23.76727578765934,2.1762701780453853,-3.20856365273261
GUIDED_NOGPS,0.09647965431213379,24.406347285179777,358.98196163739914,35.327091650686626,-26.415863506887597,-0.21143755727845515,354.02449801644656,20.653733009707643,-36.675765869553615,-1.3351618571378017,1.6567581125566786,102.95191264265493,0.6425581515643151,-0.27836829536960045,0.008457502291138206,0.494870048818667,360.73910797634954,39.057482897238486,-22.476370204825717,-2.9957789922236913,-0.5729577951308232
GUIDED_NOGPS,0.13983464241027832,23.070725294551217,358.3268266245964,37.107897954418036,-24.26252208285944,-0.2751694054322493,354.0064624217657,20.650152099784385,-36.67716744423992,-0.31883344389960677,1.3184483842387806,103.07907710462223,0.7585111736562071,-0.16808580428148948,0.011006776217289974,0.49379267731930976,355.0511515605827,40.43588423919057,-20.77250814377992,4.675063175773502,2.291831180523293
GUIDED_NOGPS,0.18599867820739746,21.66647209236253,358.21585730778577,38.616119417786116,-22.784440880102252,-0.24744025648286153,353.979925596025,20.64488329749045,-36.67924423516512,0.26819506172336693,1.0442789347040624,103.25729723063537,0.7985503518880048,-0.20289953874242966,0.009897610259314462,0.49305259832246856,357.55004140692216,41.28948061048656,-21.159643583839642,2.4608455315356963,4.010704565915763
GUIDED_NOGPS,0.21678709983825684,32.48779278721031,358.1137409627264,39.87821340345417,-21.997538179002582,-0.1391810852965546,353.94340278509424,20.637631809618735,-36.68212298603229,0.4095850468236555,0.9686740766773102,103.36467463457714,0.8693451616871803,-0.20005171772999594,0.005567243411862184,0.49265770759648514,357.398926547311,41.46336786793925,-21.81189317490824,2.3203997000119045,5.042028597151244
GUIDED_NOGPS,0.2577245235443115,24.4309412861137,358.04575187414014,40.741916696558825,-21.60646165645236,0.018895228993353788,353.89547910762616,20.628116715980767,-36.68592770270118,0.8230651157432165,0.6466909550749755,103.6980698283438,0.8557617528642549,-0.20638453450197117,-0.0007558091597341516,0.4924602669768756,357.398926547311,41.46336786793925,-21.81189317490824,2.3203997000119045,6.589014644004467
GUIDED_NOGPS,0.29846739768981934,24.551640169519306,357.32413481580227,41.088054338239814,-21.619483365052854,0.2483250245694297,353.8348085350154,20.616070766880863,-36.69077967226726,1.109276295506373,0.4753325011350511,103.99917188771464,0.8396564353947567,-0.12943927472815223,-0.009933000982777189,0.4924643518463928,356.5279986860841,40.78817110564344,-22.541478747828204,3.890532580627621,7.563042895726867
GUIDED_NOGPS,0.34134459495544434,23.32644083444099,357.31787353256317,40.988901302402496,-22.017161213117642,0.5339256695287435,353.760112871358,20.601240180590324,-36.69679748214078,1.384982110717521,0.3259583984209879,104.42280754079552,0.8093021085924271,-0.1902669120569701,-0.021357026781149743,0.49266018186548843,356.6917032524042,39.94011906000398,-22.760897384103842,5.190540988542338,8.88084582452776
GUIDED_NOGPS,0.3743622303009033,30.294063689483075,357.31987560432106,40.55068902328904,-22.381296509325725,0.8761658402487863,353.67018073341086,20.583384440821618,-36.70409703912578,1.5091706379191028,0.23292545895330202,104.66960959626475,0.7652513801394442,-0.2026334772510127,-0.03504663360995145,0.49283859973509997,357.20114885760347,39.098419214919254,-22.980320064880047,2.3031291008431083,9.682986737710912
GUIDED_NOGPS,0.4208700656890869,21.50715571303309,357.24191743844295,39.88534974908634,-22.619687657202505,1.2048822913069428,353.5638665305511,20.562276094202556,-36.71279158849916,1.7555102682371924,0.09910401714447517,105.2819360553564,0.7360124681526051,-0.20124743318708138,-0.04819529165227771,0.49295344803435165,360.1154426493251,38.13667149692576,-23.00384891429213,1.916862614315292,11.3445643435903
GUIDED_NOGPS,0.4673905372619629,21.49932851504434,358.12968471337376,38.6756550721597,-22.723412947318728,1.7117713327128599,353.44008944473535,20.53770054775046,-36.722991733089756,1.9461074440783388,-0.13120398525283103,105.82291435837809,0.6553528722652032,-0.31936295215122945,-0.06847085330851439,0.49300021060711446,362.153289760029,35.41489448330603,-22.33051962548936,5.370177064989008,13.2926208470351
GUIDED_NOGPS,0.5032153129577637,27.91884551893072,359.52257740879577,37.34180829027316,-22.689078070196565,2.2817077580353855,353.2978324104591,20.509455866346375,-36.734805452357335,2.1239149839769302,-0.28113464166254454,106.31065133681953,0.5684090893906789,-0.4619040979164329,-0.09126831032141543,0.4929771363089196,368.69318297029827,34.118937196210744,-22.369804362217423,2.458351970413034,14.32394487827058
GUIDED_NOGPS,0.5431108474731445,25.07205451610975,360.53317645672206,35.68952679200744,-22.503198724771252,2.804089674452907,353.1361410947162,20.47735257020922,-36.748338121471676,2.320490603054248,-0.6159343997989966,106.9805289698577,0.4881900653832716,-0.48162629914375027,-0.11216358697811629,0.49287743030164977,365.4837189307212,31.678711568675393,-21.831500656977273,9.649035107501476,16.04281826366305
GUIDED_NOGPS,0.5824117660522461,25.44902070237604,362.58630311953357,33.77966093790937,-22.298570037707783,3.423019984728308,352.95412287695837,20.441213432369977,-36.76369253039161,2.536851786053211,-0.9514062912384602,107.67193535915975,0.38020488209448355,-0.6733783416272775,-0.13692079938913232,0.4927674387536581,373.82393984980314,29.549089944428907,-21.957176629562706,-3.8342807144955486,17.53250853100319
GUIDED_NOGPS,0.6240742206573486,24.00984595657475,364.52346233178,31.44737835987695,-22.17511007916911,4.084918959069468,352.75094582905405,20.400873276145887,-36.78096890294406,2.553688842687527,-1.1875284921667397,108.36590306940056,0.25520045656511614,-0.7606518819987329,-0.16339675836277873,0.4926970705881125,372.025272384056,26.475258606763674,-22.386549121598755,-15.725096860477166,18.96490301883025
GUIDED_NOGPS,0.6548812389373779,32.461643241904525,365.78564401965843,28.295838920899445,-22.400892689188602,4.809350463951137,352.52583769524836,20.356178772614605,-36.8002649159031,2.620034312077269,-1.532271191465732,109.0637571572791,0.010926218918909242,-0.8043976788136555,-0.1923740185580455,0.49280031388664275,366.7891567554318,19.657197288418516,-23.45943267558681,11.379952117472897,20.22541016811806
GUIDED_NOGPS,0.7035081386566162,20.569590207348412,366.98414500688693,25.403490939341005,-22.61881835186248,5.419759198585199,352.2780848721222,20.3069882380884,-36.821675718069,2.8099938257263712,-1.97542624453403,109.97530054353066,-0.014762032059752045,-0.8200021663543193,-0.21679036794340797,0.49289857131689674,366.7891567554318,19.657197288418516,-23.45943267558681,11.379952117472897,20.855663742761966
GUIDED_NOGPS,0.7532937526702881,20.087374223550427,368.6628115076405,22.26052880776902,-23.230483114416725,6.355439623587594,352.00703138855164,20.253171431588335,-36.84529394934728,2.984627675538434,-2.4311191770409444,111.08318454766341,-0.17230263014703462,-0.9251349786028655,-0.25421758494350377,0.4931925945825347,373.54477465535376,15.963900910815482,-24.889824469748504,3.345639189481105,21.19943841984046
GUIDED_NOGPS,0.794938325881958,24.01768269638215,369.86802393619917,16.866071941745872,-24.40051179342638,7.333558297601368,351.71207788566727,20.19460935231843,-36.87120975982772,3.092088322410714,-2.831074137382558,111.90028007807203,-0.5674160763740345,-0.9357964956360267,-0.29334233190405473,0.49376465101679934,371.79498918849816,2.5768056143131752,-27.80732002461096,9.255297556558673,20.626480624709636
GUIDED_NOGPS,0.8296895027160645,28.795166826857063,370.6081991969111,11.123911798986299,-25.630789722805037,8.12211257131933,351.3926805968138,20.131194037139867,-36.89951082886347,2.979497349698108,-3.0409001100062882,112.41035177509941,-0.8955552502817641,-0.9160237225752658,-0.32488450285277315,0.49436563944697076,374.61458505599364,-2.235542107034196,-28.537938768492044,-7.564266499784367,19.824339711526484
GUIDED_NOGPS,0.872119665145874,23.5763534060696,370.6836053104054,5.823754794122678,-26.791518588406593,8.746786074784236,351.04835032750907,20.062828358045152,-36.93028238415005,2.6969016878834156,-3.552701979327799,113.43526264119485,-1.0101980523624627,-0.8465592830324993,-0.34987144299136946,0.4949306181021283,366.0869678386764,-6.843587735899592,-29.263077003594578,18.579229687478346,18.563832562238673
GUIDED_NOGPS,0.9057238101959229,29.75633358163953,370.87101526764724,-0.4961098758313895,-28.256008849796153,9.463917833615715,350.67865143540365,19.98942581963231,-36.96360722080439,2.458700334683102,-3.8119793753160685,114.03113517457592,-1.4161008705684592,-0.8118286489711378,-0.37855671334462865,0.4956462008144959,375.3232195077378,-11.94212606135182,-30.781883982534634,-10.09446122021123,17.1887338539247
GUIDED_NOGPS,0.9480493068695068,23.655336164548896,370.9689068715826,-6.9929983644206315,-29.72886402923537,9.977641616024503,350.2832008102404,19.910910356579045,-36.99956572044395,2.2963966838702046,-3.974100745455491,114.4209477308869,-1.6093973316329055,-0.775250485329827,-0.39910566464098013,0.4963646491543957,372.8084052155387,-16.52054153213073,-32.25410036694458,13.885032531465626,14.78231111437524
GUIDED_NOGPS,0.9904863834381104,23.553052297014247,371.4725672121889,-11.642113301393184,-30.84567443954765,10.553567045313267,349.86166685381335,19.82721613111695,-37.038235870265666,1.9349516107295923,-4.094560096091952,115.20409039093138,-1.6967311061490489,-0.815257188806563,-0.4221426818125307,0.496903719284641,370.8184394802822,-20.66876907054959,-33.39137207617237,19.915147958558222,12.433184154338864
GUIDED_NOGPS,1.029003620147705,25.96851066464415,372.0709975576525,-16.897984090588743,-32.13768649379845,11.051696563110475,349.41376845992755,19.73828733050566,-37.079693282125085,1.647840873708404,-4.053828689863404,115.55592709545708,-1.9879536878195454,-0.811537956702302,-0.44206786252441904,0.49752899660583666,371.5765995191408,-28.51489605301199,-34.99799903974602,11.92119890278505,9.568395178684748
GUIDED_NOGPS,1.0671906471252441,26.194426749603426,371.4032569327779,-21.829901486097413,-33.240841298199015,11.3992043789228,348.9392739943582,19.64407796450705,-37.124011211615354,1.3448311638467185,-3.9114196725554606,115.8256922469159,-2.1435985650541496,-0.6630486553705917,-0.455968175156912,0.49805841504329185,368.20284965635665,-31.503174713442935,-34.77885102559742,9.798009612278264,7.563042895726867
GUIDED_NOGPS,1.1112380027770996,22.7044360841205,370.74823715790643,-26.30223843745524,-33.97598329185763,11.638028949506097,348.4380002748101,19.544551662859412,-37.1712605771463,0.7440188028701301,-3.6130108421517195,116.10149528560102,-2.2516446871393825,-0.628763650131243,-0.4655211579802439,0.49840236135735566,366.55483098952675,-34.30381081814097,-34.45759395082772,6.708278921375282,4.297183463481175
GUIDED_NOGPS,1.1464464664459229,28.41053430150645,370.37371850969134,-30.328910638972587,-34.331837692152945,11.863348773788685,347.90981155087707,19.439681472751627,-37.221509979023466,0.34942020494168746,-3.402160341152487,116.19362087712615,-2.444225173205479,-0.6102320207321063,-0.4745339509515474,0.49855516385656473,371.618435870273,-36.65390253971745,-34.03337236842116,15.467243185007035,2.635605857601787
GUIDED_NOGPS,1.1770093441009521,32.7301557574055,370.7764232898463,-33.933268203907296,-34.18187019393189,11.935375636059744,347.35461848400115,19.32944965629736,-37.27482571852716,0.10986759486362191,-3.2474518606966436,116.24042133331909,-2.6151160640880526,-0.6977540810362794,-0.4774150254423898,0.49845352223770234,369.3086060799162,-38.69055689522312,-32.641534585067085,10.664676626236243,0.6875493541569879
GUIDED_NOGPS,1.2249596118927002,20.85960820199629,370.19191915251497,-36.32791249535509,-33.47187842509429,11.91876537951548,346.77237712743215,19.21384748800923,-37.331271816991496,-0.41301630974708775,-2.9046071002132687,116.1958884999306,-2.5275692125101012,-0.6243393276323104,-0.47675061518061923,0.4980703033040514,370.6471864090866,-40.488117510250994,-31.44804019555802,6.959668304875393,-1.432394487827058
GUIDED_NOGPS,1.2600023746490479,28.541417440713143,369.5632298739259,-38.36476223385628,-32.299271157607485,11.898023039963851,346.16308790618706,19.092875052272994,-37.390910034883454,-0.8385055587748237,-2.5999990193640943,116.0996101533901,-2.6187245438353326,-0.6041315566974179,-0.47592092159855404,0.49745418056136204,367.7788909868259,-41.6874234059489,-28.915814688163383,7.62516092483898,-3.495042550298022
GUIDED_NOGPS,1.2945663928985596,28.94020561650452,368.79779832877466,-39.82844177253856,-30.81945861236746,11.784076251072818,345.5267945970093,18.966541040821735,-37.45379989088193,-1.1422725124998816,-2.3141082181616937,115.93175142434787,-2.6288409253532627,-0.5920286791058286,-0.47136305004291273,0.49668282936074276,364.6949871190727,-41.62220851155234,-27.058531224627576,9.980574810966857,-4.8128454790989155
GUIDED_NOGPS,1.3360157012939453,24.13348983866142,368.33243833544014,-40.87921404600656,-29.102796225926305,11.613699673835761,344.86358330832803,18.834862550210023,-37.51999868095677,-1.5362347288967493,-2.000797195649454,115.66597510336433,-2.631480311254913,-0.634571196741463,-0.46454798695343047,0.4957913987724848,367.8537195724647,-41.907763907057436,-25.4500604362154,6.907595431681841,-6.474423084978302
GUIDED_NOGPS,1.3768110275268555,24.517053724346347,368.2711304901249,-41.43759345942784,-27.429327943618567,11.378918348228028,344.1735814602178,18.697864879288115,-37.589561497447804,-1.7720125388804722,-1.7376481496188454,115.37809629022664,-2.6299843449492415,-0.7085658072773224,-0.45515673392912115,0.4949198832230854,367.71238689383455,-41.48245396232952,-24.274193173528403,7.972076029738247,-7.792226013779196
GUIDED_NOGPS,1.415557622909546,25.81443755808443,368.3538557412734,-41.47095410583974,-25.6095221868051,11.085771722628001,343.45695676435764,18.555581326676133,-37.66254124814394,-1.930713691793011,-1.538704269168532,115.01811800021028,-2.6017569121868904,-0.7838436343145063,-0.44343086890512007,0.4939734904693306,367.21663299871454,-40.65492074231051,-22.349011411490654,3.6544047105798114,-9.167324722093172
GUIDED_NOGPS,1.457270860671997,23.977590523993,367.84578157793703,-41.065239453456755,-23.89836500131857,10.747902452316453,342.7139162039907,18.40805298823824,-37.738988675362165,-2.238686708025474,-1.2632417794465658,114.59289774324196,-2.5447088454320657,-0.7773900151490281,-0.4299160980926581,0.4930796881629782,367.5538425635821,-39.658850144033934,-20.36002876073074,7.642817267024952,-10.943493886998723
GUIDED_NOGPS,1.4991121292114258,23.90339034245365,367.9599288334722,-40.140710716624405,-22.141087506993408,10.32503103310725,341.9447050138834,18.255328554556808,-37.818952375026626,-2.3566334028210165,-1.167339947084063,114.08693098990577,-2.482536693822484,-0.8983654137204873,-0.41300124132429,0.4921610675659834,370.22178412419726,-36.9995648273906,-18.27214375300175,7.049985646182208,-12.08940947726037
GUIDED_NOGPS,1.544421672821045,22.076794728060342,367.93340517463236,-38.78754343352397,-20.45367617996761,9.84254927531784,341.1496056602848,18.097464108406633,-37.902478815747656,-2.588329000836893,-0.9951053079396729,113.46001524674698,-2.4018379209149123,-0.9601432760187396,-0.3937019710127136,0.49127559868210996,370.4349971383682,-35.14192749155528,-17.013003801086402,0.4852990727897435,-13.464508185574346
GUIDED_NOGPS,1.5754404067993164,32.2470092566965,368.9246907319389,-37.13419490461884,-18.900570078222138,9.289506549396808,340.32893682088627,17.934522922229085,-37.98961235790084,-2.5719149890442945,-0.9860997035190111,113.05101668905743,-2.2952579126912767,-1.214931957969181,-0.37158026197587235,0.49045547886016067,375.70917544527833,-33.21571131780385,-16.508662664801065,7.576481505476806,-14.03746598070517
GUIDED_NOGPS,1.6162002086639404,24.538569096748905,369.2992995732655,-35.06267710742869,-17.51957516714392,8.852481621060852,339.4830523647805,17.76657525560629,-38.08039527270602,-2.673764208626586,-0.8649761169857668,112.42600656867708,-2.201967778277899,-1.2243836799530303,-0.3540992648424341,0.4897195899472189,367.6918578496857,-30.297331756359775,-15.444036856099562,-8.664152184184076,-14.954198452914486
GUIDED_NOGPS,1.6585617065429688,23.61179040284627,369.5768504414479,-32.68940627799657,-16.441948814686818,8.281485197908996,338.61234033242124,17.593698152735342,-38.17486776130641,-2.7454743647225497,-0.8150653633995449,111.76447542680467,-2.083980908290412,-1.3134998940006004,-0.3312594079163598,0.4891335405266902,370.07412651792384,-27.792495996873335,-14.971896998445224,-0.8787038268745562,-15.469860468532227
GUIDED_NOGPS,1.6995232105255127,24.417998381566154,369.6016644852502,-29.606588335501602,-15.5828605980887,7.669889329435145,337.71722191558234,17.415975239902437,-38.27306797384759,-2.7692077779844633,-0.8649552528922866,111.20131266935877,-1.8963214958710783,-1.3956146558313567,-0.3067955731774058,0.48865489631212056,367.9108992442531,-21.585475114915763,-13.976702670011154,-3.8845379400871707,-15.52715624804531
GUIDED_NOGPS,1.735435962677002,27.85062416998672,369.63327055102724,-26.19843952786473,-14.89854193320133,7.096466065914758,336.79815043731725,17.233496522957097,-38.37503202855657,-2.7785506229953945,-0.8697325966907402,110.65453553573174,-1.7018064963930575,-1.4985499701653193,-0.28385864263659033,0.4882617549523224,367.4694815249311,-18.101183453370904,-13.59141047664954,14.380694920532179,-15.52715624804531
GUIDED_NOGPS,1.773317813873291,26.410664248698136,370.0158083609028,-22.502383976840786,-14.291008794334354,6.5695546333325066,335.8556103319185,17.046358184786317,-38.48079403082085,-2.8438066772125192,-0.9199291510050449,110.005244092852,-1.5336557316244996,-1.6281844137668386,-0.2627821853333003,0.48790510738175674,370.6141450425865,-14.735433562684133,-13.47099697046619,8.423084614023693,-15.469860468532227
GUIDED_NOGPS,1.8107562065124512,26.710378337759266,370.01915083633105,-18.71225080599791,-13.917646787500521,6.0297872787129885,334.89011612487695,16.85466238278877,-38.59038609226745,-2.8759787891939834,-0.8955569016123237,109.53595545535876,-1.3590264209769296,-1.6815532816894654,-0.24119149114851954,0.48766363034761656,370.24852392762347,-11.34666590214539,-13.577226821930392,10.568218044659844,-15.584452027558392
GUIDED_NOGPS,1.8528599739074707,23.75420652315499,369.9918060281618,-14.760100506558222,-13.65190138223374,5.5024766559540215,333.9022114128413,16.65851704634898,-38.703838349841966,-2.8835310574253135,-1.0104228609270727,108.76876128702625,-1.1966627646109198,-1.7512387198424304,-0.22009906623816086,0.4874740315161959,370.2162386730142,-8.03174449967488,-13.64316997211133,4.731849950203596,-14.610423775835994
GUIDED_NOGPS,1.8946130275726318,23.956910388000708,369.1442031867334,-11.358416146215898,-13.574975034447528,4.895698081374909,332.8924678435773,16.45803567431149,-38.82117898488761,-2.959513283403709,-1.1148926319948276,108.22985253132308,-1.0572074196383445,-1.729226423662692,-0.19582792325499637,0.48737689802477996,368.9283527138512,-4.577053313204145,-13.592070931080094,-13.435473952790133,-14.55312799632291
GUIDED_NOGPS,1.9323086738586426,26.53329706408902,370.21141805652854,-7.243492753447131,-13.74879702896545,4.326970977691318,331.86148409592715,16.253337132455062,-38.94243424222426,-2.9469423202363,-1.2870349568637167,107.74053777918336,-0.8228030396553746,-2.01769397850308,-0.17307883910765273,0.4874031813933706,376.22957680804655,2.4734335104729386,-14.460520449239151,-11.91278586143774,-14.32394487827058
GUIDED_NOGPS,1.972759485244751,24.727795824760197,369.96679612012,-3.0607005813954777,-14.056424604884512,3.824633153429495,330.8098848597691,16.044545450966847,-39.06762844922753,-2.932968820411512,-1.3747237001926909,107.17229336099497,-0.6400585092858528,-1.9721026978285712,-0.1529853261371798,0.4874943980778285,368.1171510266558,6.178527297574136,-15.0091348500615,6.217217798326743,-13.636395524113594
GUIDED_NOGPS,2.018049478530884,22.083769027047232,370.27053098371175,1.1571261210405825,-14.472364268166302,3.294637254219415,329.7383198159765,15.831789621916572,-39.19678403490778,-2.8007414807219426,-1.5238454060725808,106.55893554333866,-0.4751437376721468,-2.0888403012872505,-0.1317854901687766,0.4876377901166293,370.34077815298673,9.742467610034913,-15.656925138339345,-12.820896541452655,-12.83425461093044
GUIDED_NOGPS,2.061497926712036,23.0194449170449,370.485905541007,5.460588489508934,-14.947030436707985,2.7274278623501096,328.6474626163774,15.61520339673071,-39.32992154898919,-2.5915340671049214,-1.571673378848772,106.04372071386626,-0.26237087313040974,-2.1690479232764277,-0.10909711449400439,0.4878085544438594,369.192477983293,13.485567342666881,-16.01650081481975,5.987932237012885,-12.261296815799618
GUIDED_NOGPS,2.103675127029419,23.7164634835908,369.85651043601985,10.340639195034163,-15.634753074723113,2.1956855752362325,327.53800986371397,15.394925083666667,-39.467059680988804,-2.3608647050118394,-1.6151904350416273,105.52760429942342,0.004963433236118836,-2.150968523320991,-0.0878274230094493,0.48808384669686716,365.57898420268936,19.823200214421995,-17.030684121155726,-14.297992519638981,-11.860226359208042
GUIDED_NOGPS,2.1416378021240234,26.347289139597848,369.04377872760017,14.567869414677796,-16.280053363378066,1.7250702369355888,326.4106800916016,15.171097345286977,-39.60821527929556,-2.129577210798871,-1.5868410945612548,105.12847536508455,0.1902656864499912,-2.1634848045788266,-0.06900280947742356,0.48833591904204127,363.7466702602659,23.609584608691115,-17.687021892513922,14.991583894356253,-11.401860123103383
GUIDED_NOGPS,2.1784257888793945,27.190011603861038,367.7872512018597,18.592421666293934,-16.866042806883492,1.3012552309982692,325.2662127444885,14.943866995933453,-39.75340337024935,-1.9584651772775958,-1.5543973758385767,104.74047280890363,0.3764707873828761,-2.127138357163586,-0.05205020923993077,0.4885563197183171,360.1640184670907,26.301288555654814,-17.939082067588625,9.616440406584275,-11.287268564077218
GUIDED_NOGPS,2.2247815132141113,21.577080771862317,366.6189045019185,22.525265856286353,-17.311663019210226,0.9166715173916724,324.1053671576151,14.713384799201389,-39.9026371772201,-1.6650353413353822,-1.5593762635783988,104.29599141847588,0.4924540498570575,-2.1352165353055743,-0.036666860695666895,0.48870451292099504,359.58157911432164,29.40668855999701,-17.885026199973016,9.902084258608781,-10.714310768946394
GUIDED_NOGPS,2.2566654682159424,31.377815681785876,366.3127008757559,26.549018166164178,-17.941017642984715,0.4362189960190933,322.9289215369733,14.479805265413741,-40.05592813968674,-1.4216603332821953,-1.584042958157371,103.9226054671188,0.7801169838593938,-2.2583232566486777,-0.017448759840763734,0.488942544751649,373.7799477987462,33.60432889205601,-19.1632739336922,-8.467534346164328,-10.026761414789407
GUIDED_NOGPS,2.3017373085021973,22.1905583213853,366.65536908343427,29.917637144957496,-18.31433144848931,0.12598147894504053,321.7376719392659,14.243286449095299,-40.21328593231634,-1.229454221004688,-1.4351416325999196,103.4731926801103,0.8121797696658006,-2.352339278851952,-0.0050392591578016215,0.48905052275808647,370.85849668808237,36.66629510838858,-18.8972531486787,3.216528452490323,-9.740282517223996
GUIDED_NOGPS,2.3394782543182373,26.502615948439278,366.56353469088305,33.704501330921374,-18.55062226144559,-0.29918688439283603,320.532431251866,14.003989746446864,-40.37471848404308,-1.100337712316942,-1.3613008843697347,103.16161994074183,1.0557396978965237,-2.387447662317857,0.011967475375713441,0.48908795188870124,369.6061030125769,42.543905538510494,-18.868475957295324,-3.469802926930612,-8.995437383553925
GUIDED_NOGPS,2.372671604156494,30.13236012529096,365.9317108199114,37.42345632493399,-18.62772756568736,-0.6026164931488293,319.3140281727763,13.762079692819446,-40.54023199714735,-0.9548552166041993,-1.3698635937114036,102.84586029541214,1.2549270405028619,-2.3730565998916715,0.02410465972595317,0.48904374778427,364.13788701551977,44.896063525717906,-18.324608588797474,-2.6806015938772987,-7.964113352318443
GUIDED_NOGPS,2.412736415863037,24.965203623680107,365.7097422161451,41.11063740592523,-18.685659509321095,-0.8540511492698235,318.08330619058864,13.517723760188428,-40.70983096633479,-0.7568449909969148,-1.3050745536787782,102.53632295241633,1.3747060903758106,-2.4390774076027597,0.03416204597079294,0.48898791427149313,363.8032353725587,47.842593964953224,-18.174685918141705,-1.2737699452854656,-7.448451336700702
GUIDED_NOGPS,2.4557743072509766,23.241519178127735,365.0448295397841,44.39352706397442,-18.391646071577675,-1.1371247403665814,316.84112256444314,13.271092154627754,-40.88351819781531,-0.4821212289223678,-1.2355545404288613,102.21698428796155,1.4888730274577402,-2.4233795264458173,0.045484989614663254,0.4887540639368812,358.4273688493775,50.01877718230194,-17.693206744975083,5.948499262720418,-6.64631042351755
GUIDED_NOGPS,2.504974842071533,20.328134541753503,365.60534386172026,48.291520366501935,-18.207288538716192,-1.4093672289724426,315.5883473039878,13.022357613784111,-41.06129482838216,-0.1911984592717322,-1.2484607164741293,101.98190966729723,1.6755443440685842,-2.572500231147481,0.056374689158897706,0.48857299685516703,364.6481330425802,56.1562616210262,-17.975465484371277,-6.234883080695866,-5.443099053742821
GUIDED_NOGPS,2.539889335632324,28.648247693074783,365.09735606137673,51.23322030911561,-17.919092024643028,-1.688778367731835,314.3258621493378,12.771695204351108,-41.24316034449098,0.07556123552951391,-1.2918301765478888,101.79198259704668,1.8326858998775812,-2.551431131123898,0.0675511347092734,0.48833796584007605,355.5176767115737,57.25240525157886,-17.42749338692951,6.136608384823589,-4.8128454790989155
GUIDED_NOGPS,2.575643539428711,27.97489511842114,362.50004923764834,54.04204427532024,-17.774194157340624,-1.8391812376987493,313.05455955103474,12.519282119543451,-41.42911260133883,0.34352660546161273,-1.2871779639494638,101.65557688913236,1.9403383965361338,-2.300640825602411,0.07356724950794997,0.4881725407780009,353.001493208919,58.940183356741066,-17.600119252285467,3.9844034396224686,-4.010704565915763
GUIDED_NOGPS,2.615629196166992,25.014038812485836,360.21439934898683,56.66210310469895,-17.77275581730324,-1.9487196595223057,311.7753416500062,12.265297476571133,-41.61914784194327,0.6379815567487102,-1.3698484392291825,101.54018084310499,2.0259075313576145,-2.279586918981325,0.07794878638089223,0.48807680398768,352.5732975787904,60.94288811184677,-18.167494217954772,0.08401645953225056,-2.4064227395494577
GUIDED_NOGPS,2.6681833267211914,21.075421829620026,357.48712271341367,59.069026917712634,-17.89039619147565,-2.0452312783787585,310.48911925752515,12.009922114113621,-41.81326071622135,0.9315649118646905,-1.4550712708243705,101.48987649986785,2.1151392798062782,-2.1716242846603575,0.08180925113515035,0.48803856773762716,347.7878899279916,62.05339624737035,-18.28140861583713,7.03714384881377,-1.7188733853924698
GUIDED_NOGPS,2.690143585205078,45.51012347822313,356.33645161861324,61.11869117545575,-18.28093868133171,-2.116262044986963,309.1968108351691,11.753338389794006,-42.011444300068725,1.16181464421064,-1.4645715303513294,101.46682461141906,2.2253589000248715,-2.2894242208713824,0.08465048179947852,0.4881347471906315,354.9325182571163,66.40458290974182,-19.92817793365159,-5.239177761219466,-0.7448451336700702
GUIDED_NOGPS,2.73127818107605,24.315651558894803,355.13338384354097,63.192832715053875,-18.926637007277833,-2.098703857956087,307.8993414747797,11.49572997765322,-42.213690114438656,1.4447330324636156,-1.3946669987954818,101.51858378494941,2.2889896174733253,-2.2868233152577795,0.08394815431824348,0.4883564734464196,354.1786931719808,67.62311294956947,-20.655985016660143,-2.740850409832362,1.432394487827058
GUIDED_NOGPS,2.768123149871826,27.146895873246,354.12435035426984,64.99972838536819,-19.59989528755403,-2.048282083914432,306.5976418784219,11.237281665624185,-42.41998814442108,1.6686417879388546,-1.4000614608576167,101.6079636404282,2.3684438581618545,-2.317652464760474,0.08193128335657728,0.4885899535715665,350.3551009352088,67.97466170831262,-20.966410653666465,2.5507805376581985,2.7501974166279517
GUIDED_NOGPS,2.8100483417510986,23.863678517987495,351.3903172105321,66.22918711070952,-20.16482217335893,-1.9447698040704529,305.2926473383436,10.978179153006034,-42.63032685832166,1.9049918397089776,-1.331065237739675,101.77571308644372,2.3695460264698194,-2.1228848203464565,0.07779079216281812,0.4887672476575186,342.7758678926783,67.09018173855338,-20.992128646979264,6.719667661739905,4.010704565915763
GUIDED_NOGPS,2.8447394371032715,28.8274259950377,350.7014810299044,67.62077541350291,-20.85298566980935,-1.796985591148777,303.98529671693484,10.718608847938247,-42.844693226740795,2.095990822772391,-1.2438766990456986,101.95290185389219,2.460713416252464,-2.313552035299647,0.07187942364595108,0.48900414622153426,350.00698726655213,69.01133776133729,-21.72222609808923,-1.2520461508445777,5.156620156177409
GUIDED_NOGPS,2.8893978595733643,22.3963775390333,350.84990411240767,68.32412439251087,-21.30601684176285,-1.6053629199756978,302.67653142668706,10.458757664874854,-43.06307274165271,2.2488382901228174,-1.1714890735614343,102.24091727081328,2.435353526696585,-2.4415912171692287,0.06421451679902791,0.4891214720500551,354.188877868945,69.92132780478165,-22.193333793419082,-2.5383788552070996,6.703606203030632
GUIDED_NOGPS,2.9242546558380127,28.699213805278248,350.15073189358276,68.37394855924168,-21.42104069109455,-1.3425904234295032,301.367294410153,10.198812822058633,-43.2854494354845,2.4165134578311065,-1.10304972430426,102.55219631204744,2.4058086230509654,-2.4390083133527756,0.05370361693718013,0.489067795627805,346.9799198281912,67.87223378322355,-21.23110426331863,1.286741313429303,7.849521793292278
GUIDED_NOGPS,2.9656593799591064,24.157258459323256,350.0497356311077,68.35346297422386,-21.473979413024985,-1.0825780043639952,300.0585291199053,9.938961638995249,-43.51180590019515,2.6714039513815235,-1.0865149035407171,102.90309728065685,2.3985364638720337,-2.5451071118129525,0.04330312017455981,0.48898108675641494,346.9799198281912,67.87223378322355,-21.23110426331863,1.286741313429303,8.651662706475431
GUIDED_NOGPS,3.0123250484466553,21.442723856752128,348.5498271561081,68.01511634052136,-21.462830973487296,-0.7385013817724859,298.7511784984965,9.679391333927455,-43.74212330635461,2.9499621176230924,-1.1357417844362916,103.3624275023402,2.36088697317997,-2.4512092327314177,0.029540055270899437,0.48886035383356635,342.93325045711987,65.39844857004086,-20.936386449290847,0.1772188665452603,9.912169855763242
GUIDED_NOGPS,3.0529048442840576,24.64048877922688,346.9314825089726,66.99128864300073,-21.30344387517487,-0.3424228127839074,297.44618395841815,9.420288821309303,-43.976381422222815,3.0453002459356573,-1.3062765602509947,103.77698583401413,2.272051707733653,-2.441874964060659,0.013696912511356296,0.48866353122647604,341.23193599489656,63.892199273734164,-20.92529060652712,2.770271414563098,9.682986737710912
GUIDED_NOGPS,3.0938034057617188,24.452733388912534,345.70821694108207,65.44943822816293,-21.11962550020042,0.012012538283524866,296.1444843620604,9.161840509280271,-44.21455863282878,3.032264403017865,-1.5207242230652966,104.18845008999403,2.1758533166430705,-2.488877534510581,-0.0004805015313409947,0.48845253343368583,340.56897639208444,62.21207573059268,-21.274241918546828,4.756252249891659,9.396507840145501
GUIDED_NOGPS,3.1368839740753174,23.21784666482148,345.4992322753121,63.61146145773589,-21.35942582107773,0.3705420056598622,294.84701500167097,8.90423209713948,-44.456631959049595,2.9236466794115024,-1.7697995575893881,104.49635501777821,2.0830207395817144,-2.626678899080758,-0.014821680226394487,0.4884513969310141,341.1039905665189,58.68234993108834,-22.430105867705173,2.6962383586196665,9.11002894258009
GUIDED_NOGPS,3.1774988174438477,24.62703375549723,343.6977119762549,61.265091733684265,-21.712384293662165,0.7186016458233045,293.55470657931494,8.647648372819866,-44.702577076689494,2.8453031289709867,-2.044182130370552,104.84406628804521,1.950060659303196,-2.4984998092816424,-0.02874406583293218,0.4885049036084863,335.594824874094,56.14038516296538,-22.9958966262408,9.13878433518866,8.13600069085769
GUIDED_NOGPS,3.215994119644165,25.983310928430274,342.0613294734766,59.237361800941564,-22.484077540034914,1.02952821412318,292.26848418683386,8.392273010362356,-44.952368335558916,2.7195249819617904,-2.3079550714931587,105.09899626862678,1.8788401110077362,-2.5005263316671735,-0.04118112856492721,0.488765854602238,341.0978178467184,55.25979890632731,-24.794852681154584,4.695622084538201,7.563042895726867
GUIDED_NOGPS,3.254624366760254,25.890765432098764,341.39124519285986,57.17062241432452,-23.60281083188811,1.2881040335641973,290.98926628580534,8.13828836739004,-45.20597877855353,2.6755387771503196,-2.6448848881553024,105.38665651571102,1.7905995090549363,-2.6119196889899277,-0.0515241613425679,0.4891984160266673,341.61924558325745,53.55850234064894,-26.518957065793085,2.53706232456652,6.41712730546522
GUIDED_NOGPS,3.2889740467071533,29.116596784494487,340.8323872199174,55.15742660926695,-24.96452388266136,1.4994554323284905,289.71796368750233,7.885875282582386,-45.46338016073328,2.626249570778569,-2.909015987322512,105.56342181143096,1.6994439348847525,-2.6662381834069437,-0.059978217293139624,0.48975057186096405,342.50905604465174,52.14609670530482,-28.082807172413077,7.238068012292345,4.755549699585833
GUIDED_NOGPS,3.3293302059173584,24.786393882447495,340.54947347799816,53.4561202028764,-26.381227624956686,1.6279278720327899,288.4554785328522,7.635212873149378,-45.72454296840148,2.5042730643727196,-3.0290540006645474,105.70073593450489,1.66967027608137,-2.729262999009306,-0.0651171148813116,0.4903283423282776,340.6699405217658,50.175817899135566,-29.513624579181815,4.885829398222043,3.20856365273261
GUIDED_NOGPS,3.3700833320617676,24.542445874780572,339.8473209458396,51.8418205372602,-27.91458403748623,1.7238961550797616,287.2027032723969,7.386478332305728,-45.9894364381838,2.3918165610093984,-3.129695557424216,105.78248646868079,1.6165163527734003,-2.725584699196274,-0.06895584620319047,0.4909625737996512,335.614715737628,48.06888683488436,-30.662678688888505,6.73156837016262,0.9167324722093172
GUIDED_NOGPS,3.4044973850250244,29.062930472983272,339.1513458264404,49.88993815063834,-29.51123112251267,1.7691732474693311,285.96051964625144,7.139846726745063,-46.25802857610735,2.2579109157747097,-3.155736934295359,105.78814869550273,1.5079663844587747,-2.757369902838511,-0.07076692989877324,0.4916266012732027,335.0011754368908,45.50038697321804,-32.77808810628679,4.933365202880012,-0.40107045659157625
GUIDED_NOGPS,3.445681571960449,24.29649539477495,338.077712910152,48.083897099367434,-30.95012594540814,1.7443919973446458,284.72979766406377,6.895490794114043,-46.53028617667971,2.131069180245696,-3.1163843725055074,105.74069937133864,1.471827579188936,-2.72815923616095,-0.06977567989378583,0.4922099198843642,332.5149272362118,44.52829708429445,-33.713431180270426,5.388591949584523,-1.8907607239317168
GUIDED_NOGPS,3.4873132705688477,24.02304762450242,337.34690994625896,46.397116042119464,-32.07380698313989,1.6650030616457878,283.51139458497414,6.653580740486625,-46.80617484196798,1.8947427139725503,-2.9360507298310687,105.59331754942811,1.4295310461673822,-2.771785152426421,-0.06660012246583151,0.49263381607058593,329.7484011629493,43.71219141906492,-33.701212361071825,5.859982286743687,-3.896113006889598
GUIDED_NOGPS,3.528867483139038,24.06812495696284,335.76013826851363,45.04945466346207,-32.92383222043286,1.5307423320719573,282.3061538975742,6.414284037838186,-47.085659000677865,1.6724139733514058,-2.735582543257079,105.40403251695955,1.4108442978660953,-2.6875663224756816,-0.06122969328287829,0.4929190866098775,328.40364442475595,43.4375110058486,-33.76375076564668,5.146045782215694,-5.099324376664327
GUIDED_NOGPS,3.566162347793579,26.822087929656274,334.4490862268331,44.2797431314723,-33.4703366573523,1.3414393005972267,281.1149042998668,6.177765221519735,-47.36870192723265,1.540646284048637,-2.544236501206464,105.20556771024648,1.4276323397479187,-2.6954517285205277,-0.05365757202388907,0.49305081736505985,331.13082924981353,44.22032917493553,-33.39520087348571,1.2149317191059765,-6.245239966925974
GUIDED_NOGPS,3.6023221015930176,27.65997968846859,332.9842546166931,44.071242939455125,-33.42190909522465,1.110154136759295,279.93845867922494,5.944185687732094,-47.655265760852316,1.3045621827693215,-2.2881300205403736,104.9279136902963,1.476237819542608,-2.662334449390851,-0.0444061654703718,0.4928833216671862,330.7904031635314,44.45788601313213,-32.535950295648526,2.345790904315237,-7.677634454753031
GUIDED_NOGPS,3.64350962638855,24.28453811191848,331.9138858400057,44.1918903694069,-32.99883246191925,0.8335299270811758,278.77761309235154,5.7137034910000395,-47.94531152463255,1.1069848737615395,-2.076700234122159,104.58940951503047,1.5215127471851861,-2.6912044203273573,-0.03334119708324703,0.49252676046864335,332.106990308267,45.131534234053355,-31.598048013743448,-15.610034841039052,-8.823550045014677
GUIDED_NOGPS,3.6837387084960938,24.874887317929495,331.073075829176,44.64663134175513,-32.35775147704267,0.4981311716982513,277.63314574523844,5.486473141646513,-48.23879914462381,0.847320024620431,-1.8113712905292592,104.23761379163979,1.5850586010171872,-2.7146770064341266,-0.01992524686793005,0.49205947616620943,328.8882356509901,45.9858962808061,-30.495807436688924,0.8436080637425079,-9.797578296737077
GUIDED_NOGPS,3.724655866622925,24.438770575382375,330.3149452798905,45.33808010316072,-31.376294570939642,0.12060440918257237,276.50581597312606,5.262645403266809,-48.53568746891034,0.614273436531067,-1.5328290258218518,103.76049092716855,1.6512617180733509,-2.7267887049426283,-0.004824176367302895,0.4914203035510146,328.9361310426064,46.894754812876585,-28.856466235131563,0.7039647379208844,-11.172677005051053
GUIDED_NOGPS,3.7632999420166016,25.882138052747848,328.8878953861979,45.93910183258691,-30.202413345979885,-0.2952985663291899,275.3963632204626,5.042367090202781,-48.83593428668927,0.4039066249828626,-1.2547135412158643,103.28431062880277,1.7016872189577108,-2.6473376853747914,0.011811942653167595,0.4906832395296453,321.09852808667114,47.225437822066446,-27.52579474868693,6.8689246710014515,-11.573747461642629
GUIDED_NOGPS,3.7966222763061523,30.018493601671867,328.135160706532,47.201759189351215,-28.799008933347096,-0.7079452383398933,274.30550602086356,4.825780865016917,-49.139496347349635,0.2750610827060958,-1.1243797647519753,102.9678611343669,1.835876325491622,-2.705263585570743,0.028317809533595733,0.48982975629299874,323.7265237256225,50.77117279695369,-25.518928232484583,4.803143394878759,-11.802930579694959
GUIDED_NOGPS,3.834353446960449,26.51065658736379,327.6320486995121,48.68823139480885,-27.328705263459586,-1.0889950924464722,273.233940977071,4.613025035966643,-49.44632937955141,0.13735790565373318,-0.8437136313778113,102.45820607887889,1.9247988450466906,-2.7345423607112687,0.04355980369785889,0.48894118794195407,324.37874836859635,52.56389526134155,-24.24652966430589,-4.481808512290854,-12.3185925953127
GUIDED_NOGPS,3.8757574558258057,24.156701933432778,326.0255553032381,50.15500504822396,-25.83066390388472,-1.5120593371294038,272.1823417409129,4.404233354478421,-49.75638811030457,0.020443263113950626,-0.6284181179719287,101.9955358946914,1.9983742092063623,-2.6046616142257273,0.060482373485176155,0.4880371378967901,318.2788820796214,53.319764547881654,-23.00560063881459,-2.6060640958478274,-11.974817918234207
GUIDED_NOGPS,3.915285110473633,25.30576487978521,323.9968953771238,51.670010561863954,-24.43163474402497,-1.958871047308079,271.1513579932627,4.199534812621998,-50.06962628404815,-0.04708715071529601,-0.46339791949921744,101.53959344683636,2.0914867057855506,-2.500137193679091,0.07835484189232317,0.4871810042299884,314.561123754617,54.46978238107655,-21.86132043583279,4.824553051516062,-11.516451682129548
GUIDED_NOGPS,3.952982187271118,26.532122162900738,321.741633505735,53.49238739435397,-23.08665123324863,-2.3788282404202983,270.1416144239987,3.999053440584504,-50.385996681729274,-0.1004791663441088,-0.26588000112070287,101.09796707548169,2.2106322903303015,-2.394334255645594,0.09515312961681194,0.48635032727575966,314.06489533715677,56.33732198451648,-20.800877194805246,3.6550327763864203,-11.058085446024888
GUIDED_NOGPS,3.9855635166168213,30.698714758321866,320.05403877724694,55.30826233615774,-21.833916222194723,-2.7564804531517164,269.1537097119631,3.802908104144727,-50.705451139882214,-0.09249486196734902,-0.10234144676978188,100.77209875018038,2.3266975841336777,-2.3727892595672175,0.11025921812606866,0.48556423254115627,315.3874778230856,59.85054750597257,-19.25525317721506,-3.820024927005548,-9.969465635276325
GUIDED_NOGPS,4.02777361869812,23.696498889836782,318.3604571248068,56.765592785083946,-20.835660924776562,-3.0548531473313996,268.1882155049216,3.611212302147173,-51.027940569707454,-0.10224060809803164,0.10087826550309176,100.36008124887769,2.349960554875926,-2.334908752552622,0.12219412589325598,0.48490386017753456,315.3874778230856,59.85054750597257,-19.25525317721506,-3.820024927005548,-9.224620501606255
GUIDED_NOGPS,4.065638065338135,26.417318024072408,316.92759591487703,58.4824251603197,-19.788898822449426,-3.423229136843405,267.24567539952284,3.4240739639764044,-51.35341497615066,-0.03638995389714534,0.24158469807785016,100.06156100101312,2.4667690624909735,-2.3006858306304885,0.1369291654737362,0.48421774192314937,309.63563840723276,61.90392642406046,-17.771790127178907,0.8130430422637289,-8.307888029396937
GUIDED_NOGPS,4.104955434799194,25.43945073207419,314.49781001780684,60.006526141562084,-18.82050573596726,-3.6982397684757338,266.32660392125774,3.241595247031036,-51.681823476981855,0.05262932895844567,0.42012034681413574,99.77921464110314,2.520247962005582,-2.1327265373164535,0.14792959073902937,0.4835693411294927,304.2882365490607,62.090287287288454,-17.019355003421968,3.0653594326313396,-6.64631042351755
GUIDED_NOGPS,4.1376776695251465,30.574294378353162,312.0736569721601,61.42425445517058,-17.960565411820244,-3.9583391087412907,265.43148550441884,3.0638723341981517,-52.01311432187434,0.15126630523799478,0.5043762797549436,99.60369927000131,2.5990454098269202,-2.0147042153602537,0.15833356434965162,0.482973725544973,304.9855240034226,63.42596355255893,-16.501175574070178,-2.210525830387141,-6.016056848873644
GUIDED_NOGPS,4.175147533416748,26.695418064245118,310.4183137852249,62.3068913692111,-17.309681505293888,-4.117273864184042,264.5607734720595,2.890995231327196,-52.34723491148383,0.2750350692903116,0.5845919423582775,99.40108853846206,2.600374221086496,-2.0449912000132024,0.16469095456736166,0.482481223296905,305.0361365841396,64.26373207617516,-16.00083364458329,-2.1810799791919777,-4.583662361046586
GUIDED_NOGPS,4.217376947402954,23.68432227316875,308.77723344070796,63.17377530747374,-16.586138550972304,-4.26635566675891,263.7148890159538,2.7230475647044017,-52.68413181652747,0.40025941068778154,0.646516891972846,99.30009053120507,2.6358938182675273,-2.0018863902758826,0.1706542266703564,0.4819510033672224,301.4324809984816,64.1849671972858,-15.637538405607147,1.0463727893586707,-2.9220847551671985
GUIDED_NOGPS,4.260074138641357,23.42545336751392,307.08084248179995,63.669490190618646,-16.15342186119736,-4.40652683211643,262.8942201765553,2.5601063785268465,-53.023750796862856,0.5963003806995603,0.6201761607169861,99.19814995784265,2.641756969835325,-1.9459854343214331,0.1762610732846572,0.4815648355321672,300.493767665893,64.38250083978498,-15.608206678304173,0.14569733360697512,-2.0053522829578814
GUIDED_NOGPS,4.301887273788452,23.922477171489028,305.0629451862264,64.10120921549057,-15.93829248170454,-4.497403930017019,262.09912082295665,2.4022419323766755,-53.36603682056713,0.6891830560055058,0.6273933227921623,99.16789905000866,2.6589946443683323,-1.8514803258147032,0.17989615720068078,0.4812861278305687,299.2442994584972,64.24888241164811,-15.943708105957867,-2.7114318147503553,-0.9167324722093172
GUIDED_NOGPS,4.335919141769409,29.411627760208123,302.7978132181054,64.13912869899485,-15.8862041518664,-4.532767093755208,261.32990963284936,2.2495174986952478,-53.710934083016014,0.8192693448336877,0.5846232118180714,99.17514588071803,2.637534439447874,-1.7370240764821225,0.1813106837502083,0.4810876350344252,297.26642207811733,63.61556097008031,-16.24073392487947,1.0978681052473291,0.2291831180523293
GUIDED_NOGPS,4.371095180511475,28.4243968555164,301.2153833817668,63.92708862997472,-15.995536722086161,-4.529875333354714,260.5868690724824,2.1019891602573537,-54.05838602596283,0.8677425036821806,0.5337558048612245,99.20129867505001,2.6186946915186007,-1.7547234967679972,0.18119501333418858,0.48096857534806164,296.97619971652404,63.20353173107451,-16.547496495682097,-1.8988208646519809,0.6875493541569879
GUIDED_NOGPS,4.410788059234619,25.197673859758734,300.01438882270816,63.50753464620343,-16.30135879791613,-4.498169566808297,259.8702443766223,1.9597056076453683,-54.40833535661757,0.9512472758968459,0.5198877460817484,99.27365769911712,2.595276479878481,-1.7687899385583916,0.1799267826723319,0.4809465117206493,294.6802800765916,62.08719727842933,-17.166648784757008,-0.3605600409082257,1.6615776058793874
GUIDED_NOGPS,4.455632925033569,22.30194237221445,298.572168245961,62.831977627731305,-16.73072202089182,-4.438233734884079,259.180242528512,1.8227079367234538,-54.76072406672596,0.9918947988646495,0.4646733506050115,99.3797373671166,2.5560695704881193,-1.7236242980992773,0.17752934939536316,0.4809849989770829,293.4477593894452,61.00471574742436,-17.755022793182615,-3.1174049844911025,2.5783100780887045
GUIDED_NOGPS,4.497797250747681,23.723036373817187,297.2704266067863,61.8452689275294,-17.318747026485212,-4.361343115391948,258.5170312398308,1.6910294461117488,-55.11549345164847,1.063950413122228,0.37284167065760165,99.49249012993516,2.4978512222189937,-1.7047345836735182,0.17445372461567793,0.48110162678741836,294.62220347074214,59.31533891063861,-18.88383313392482,-4.904994626225957,2.6929016371148693
GUIDED_NOGPS,4.533044338226318,28.44270843929068,296.26358370750125,60.69169246308006,-17.919471025313687,-4.239917213772879,257.8807379306529,1.5646954346604716,-55.47258412943938,1.1387379963261057,0.2576586945158289,99.64020663111503,2.431563947900387,-1.710586948996808,0.16959668855091514,0.48122344344793716,293.37773780420116,57.847678647833604,-19.244353919021833,0.9331301806924444,3.896113006889598
GUIDED_NOGPS,4.568516254425049,28.137039049554897,295.5737800956254,59.41305573268486,-18.68944344987299,-4.118587822719817,257.2714487094079,1.4437229989242653,-55.83193605992585,1.1542482887141468,0.19536379410816893,99.7937766044136,2.3743271573534037,-1.7408669480450285,0.1647435129087927,0.48142875369497357,294.9753387708861,56.81034807909848,-20.397358618478627,-6.420528261524623,4.18259190445501
GUIDED_NOGPS,4.603976726531982,28.207810724109407,294.8973140474575,57.99797418826849,-19.41279696353994,-3.9727650466389175,256.68920735283893,1.3281208306361023,-56.19348856378693,1.2093090049345583,0.09932370377582628,99.97367695696256,2.310087164634,-1.7460757107828624,0.1589106018655567,0.4816096541998765,293.83257107315376,55.01178955634751,-20.783416353091745,-4.7929665595112425,4.92743703812508
GUIDED_NOGPS,4.6462743282318115,23.647200766758754,294.2351686702451,56.41707522571611,-20.148443469166978,-3.7966649018615266,256.13401428596296,1.217889014181857,-56.5571803416326,1.2293791956455236,0.021342420165585782,100.20538429436608,2.249038735149564,-1.7526202219006417,0.15186659607446107,0.4817956315637672,291.9692590604179,53.10022093466247,-21.43325532131782,-2.314348688989355,5.729577951308232
GUIDED_NOGPS,4.679617643356323,30.00110153427989,293.2281519520646,54.742779677604766,-20.73817398465045,-3.584948278317034,255.60582556202996,1.113018824074068,-56.922949493082896,1.2368339202377694,-0.05497835374397471,100.38732004328772,2.1462075446341617,-1.7083184305558767,0.14339793113268137,0.48190761224578377,288.92006597107996,50.9438611700819,-21.832485711342194,2.6597306391642377,5.844169510334397
GUIDED_NOGPS,4.716099500656128,27.416081104930484,292.83350644786793,53.10005966636904,-21.438370204297964,-3.398768106524121,255.10455184248184,1.0134925224264393,-57.29073353584684,1.2830461263884294,-0.1456435387667669,100.54031628069599,2.0941877291363835,-1.7761287663594514,0.13595072426096486,0.4820738183342256,291.52311604301866,49.634078591655005,-22.745335017259393,-0.23421673939289178,6.187944187412891
GUIDED_NOGPS,4.754065275192261,26.346461638965312,292.42045846014184,51.173001414201664,-22.005506255649017,-3.1705842283512284,254.63005737691242,0.9192831564278166,-57.6604694248016,1.239893418099112,-0.31247293695673817,100.92010894949455,2.0007143561138254,-1.7892310751882088,0.12682336913404915,0.4821725184154237,290.14337548763655,47.17505681826157,-23.233038875233877,-20.476117961982695,7.333859777674538
GUIDED_NOGPS,4.791824579238892,26.490564131066368,291.73863462505795,49.18218336548677,-22.68865335639527,-2.907756646134103,254.18215898302662,0.8303543558165458,-58.032093571071464,1.2553421320629172,-0.4228089067066084,101.25222006769725,1.908689884747836,-1.7685020073804796,0.11631026584536412,0.4823282798926619,289.16761279007073,45.05769931277306,-24.199151856823033,-0.8515019093926952,7.7349302342661135
GUIDED_NOGPS,4.828371047973633,27.367423772829003,290.3809165977534,46.55433919151014,-23.38730148686545,-2.6186554582091435,253.76062502659954,0.7466601303544351,-58.40554186110692,1.275758634709143,-0.49019798097676076,101.51293521850582,1.7478041803680222,-1.681234218362179,0.10474621832836574,0.48249087981287925,282.5159935857651,39.96100006477932,-24.92649597366873,8.959604898469934,8.479775367936185
GUIDED_NOGPS,4.866981506347656,25.90595719712177,288.97384339216825,43.92652421537846,-24.14012891864628,-2.312051838848882,253.36517440143632,0.6681446673011564,-58.78074967576367,1.3011078145965875,-0.5900578012415801,101.9154314361055,1.6430373317798435,-1.6428060434256484,0.0924820735539553,0.4826796896214413,283.71875312620466,37.8047862894235,-25.596622870246343,8.06815505306335,9.224620501606255
GUIDED_NOGPS,4.909098386764526,23.750440262968645,288.01460371873947,41.07594910448242,-24.923362814310284,-1.9731423554412555,252.99547550933096,0.5947421288883348,-59.15765190938176,1.340399865179261,-0.7374385559350575,102.32195063512631,1.5188012183332396,-1.6633356376361257,0.07892569421765022,0.4828828554524643,286.15865368572344,35.38120303717481,-26.661504495579408,-2.2306756662409697,9.740282517223996
GUIDED_NOGPS,4.951159954071045,23.77629005651703,287.0674397647566,38.177655892006435,-25.711007351446664,-1.6002671714753698,252.65114524002627,0.5263764497936236,-59.536182988864496,1.4104925471024012,-0.859233955606196,102.70644247407384,1.3979222221216898,-1.6477698527237303,0.06401068685901479,0.4830874121812911,284.3919474285548,32.68359075588166,-27.1712615609158,6.296962355573697,9.912169855763242
GUIDED_NOGPS,4.994412899017334,23.125931807154515,286.2849268761621,35.110588929858025,-26.38289647656786,-1.1858228711877659,252.33174795117282,0.46296113461507815,-59.91627689275763,1.4977540834431322,-1.0691188386115178,103.17857930045096,1.254751183680764,-1.6476080444776202,0.04743291484751064,0.4832333097919051,282.65996286232394,29.722364502031017,-27.55859748242901,7.725183233406867,10.427831871380983
GUIDED_NOGPS,5.031615734100342,26.882945244550413,285.54746224791,32.57038905857524,-27.144550704255387,-0.760191654699344,252.03679444828833,0.4043990553451451,-60.297867170328296,1.5671064368932666,-1.3237384724726613,103.66062673131378,1.1555410231474257,-1.6341007877151341,0.03040766618797376,0.48342334176696355,285.62339901700153,27.260000708365382,-28.734767112106326,3.150044781618803,10.943493886998723
GUIDED_NOGPS,5.066255569458008,28.87724274678821,284.07558346972183,29.15047907247496,-27.957167800409024,-0.3679793041482393,251.7657409647179,0.35058224884507894,-60.68088696064413,1.6201021948285128,-1.4675398878759345,103.99877573674279,0.9320144485020665,-1.5143637504848952,0.014719172165929573,0.48363814041988246,278.3683452621314,20.705236358922104,-29.659708351014544,10.519454622661243,11.000789666511807
GUIDED_NOGPS,5.101521015167236,28.36154631576812,283.07509150139197,25.637913385252993,-28.802955552728246,0.005243584054742095,251.51798814159167,0.3013917143188749,-61.06526901165229,1.702338206043995,-1.7083891133183917,104.42254799360705,0.7817559395582825,-1.5230457361610459,-0.00020974336218968382,0.483868843270538,281.16367704343156,17.818374601064992,-30.89044325717553,8.596300442271456,11.516451682129548
GUIDED_NOGPS,5.138741493225098,26.872783188108663,282.894816509982,21.97786313151862,-29.77101564632404,0.39105401259923034,251.29288000778604,0.25669721078759977,-61.4509456992585,1.7005887171211198,-1.882653706028451,104.84544598625756,0.6285101014743751,-1.5970841814114503,-0.015642160503969212,0.48416003497353277,281.0737936544852,14.38333948720978,-32.01156202889477,3.9247777652874873,11.459155902616464
GUIDED_NOGPS,5.175113677978516,27.49732192611532,282.3667023809882,18.27661830557484,-30.81741206486376,0.7967306612743014,251.0897029598815,0.216357054563467,-61.837849046406106,1.7301526573349912,-2.0944997070992124,105.24555163764774,0.46360502047483965,-1.552572461636694,-0.03186922645097205,0.48448978150922883,279.4938400942547,11.216140372312108,-32.79057957512758,9.124994582498402,11.401860123103383
GUIDED_NOGPS,5.214887619018555,25.148270507185984,280.9345844549252,14.388633579222546,-31.730055672456547,1.1864523746190812,250.9076847421237,0.1802179167242386,-62.225910742155115,1.6413722576775787,-2.3207992422273676,105.71471050154675,0.30991594519516835,-1.4222115835628488,-0.04745809498476325,0.48475207246515073,274.7017102772195,7.8200770766039085,-33.29798515007025,12.420791686463673,10.886198107485642
GUIDED_NOGPS,5.250810384750366,27.844153085272346,279.6063372079492,11.16602155227819,-32.64022092010614,1.6047097418243021,250.7459934263809,0.14811462058710134,-62.61506216076127,1.606902854257463,-2.4903266718611996,106.11524645485463,0.19330538547956788,-1.3597145541702742,-0.0641883896729721,0.48501257937967246,273.7659694527468,4.592176224200334,-34.21053458926251,14.820110745913254,10.657014989433312
GUIDED_NOGPS,5.2876269817352295,27.167292794776795,278.47809845976735,7.831878454397701,-33.49153661716885,1.9683864059537766,250.60373639210457,0.11986993918298339,-63.00523438075505,1.5445769511942737,-2.5827502303888736,106.50813942648128,0.05120916197930167,-1.3236262527153229,-0.07873545623815106,0.4852431511182069,273.6340528768692,1.1476591116625523,-35.14702174248907,15.380149310933263,10.198648753328653
GUIDED_NOGPS,5.322709798812866,28.512701984323908,277.3605529794833,3.8561766652483556,-34.569545813808006,2.324969911628453,250.47995930628895,0.0952943927309704,-63.39635820402075,1.5353429623232395,-2.700884755386591,106.84884292265986,-0.16711804005325753,-1.2606760519697386,-0.09299879646513812,0.4855865938048936,276.6830351747294,-5.495169458536948,-37.401608012090584,9.296829481245013,9.682986737710912
GUIDED_NOGPS,5.35966944694519,27.05985122676628,277.1498892185581,0.5139146990785445,-35.49175150120061,2.648756086271903,250.3736451034291,0.07418604611182644,-63.78836417487553,1.555805675468069,-2.797363311847137,107.17854298408554,-0.2557410482148206,-1.3265327083228122,-0.10595024345087613,0.48585169366316255,276.6830351747294,-5.495169458536948,-37.401608012090584,9.296829481245013,9.167324722093172
GUIDED_NOGPS,5.40550971031189,21.819990323738576,276.21858180456616,-3.4570894142508863,-36.46023398418235,2.9657986299003496,250.2837129654821,0.05633030634313485,-64.18118259914849,1.5705394607248442,-2.8454687610583598,107.50032685626317,-0.40799541345087015,-1.2283590593800378,-0.11863194519601399,0.48613952569251695,273.71321773149623,-12.034943490043247,-38.14039756497897,9.480161297248486,8.250592249883855
GUIDED_NOGPS,5.432029724121094,37.721274911864164,275.0229574244741,-7.358672446587694,-37.288698712240134,3.3419623946995265,250.2090173018246,0.04149972005262015,-64.57474356325957,1.608539751780739,-2.967884960892029,107.789134575128,-0.708145878471172,-1.0802705367274135,-0.13367849578798105,0.48635697757449026,271.50879861374864,-14.9157389374837,-38.35285822955141,9.19176323083633,7.563042895726867
GUIDED_NOGPS,5.469961404800415,26.367330516998592,273.7855182341148,-11.193715482367963,-37.935033491777816,3.5177858271925513,250.1483467292138,0.029453770952692082,-64.96897695329885,1.634212938766936,-3.042807013445191,108.02983044147925,-0.7528167674975711,-1.0501878001972438,-0.14071143308770206,0.4864830282692395,269.59432657138046,-18.02755606723879,-38.378695640177455,12.264306305190928,6.760901982543714
GUIDED_NOGPS,5.51385760307312,22.783862328956875,273.21486499535445,-14.298617528584478,-38.2514079922866,3.7504143013816926,250.10042305174568,0.019938677314733866,-65.36381247410534,1.5257926503162693,-3.117498974000689,108.32740812323836,-0.8102782781542025,-1.0742354493359123,-0.15001657205526772,0.48644379775909063,270.1364843671365,-21.019679689619522,-38.98348051463452,12.955707154472975,5.213915935690491
GUIDED_NOGPS,5.550469398498535,27.32143019991271,272.32359889670204,-17.995957216426525,-38.4939253832253,3.9729033974102856,250.06390024081486,0.01268718944299252,-65.75917966834629,1.4040782524198188,-3.0889116441164233,108.48584119122597,-1.0316359380944249,-0.9778385832888361,-0.15891613589641143,0.48636737285743953,266.63584066352763,-23.981867897747197,-38.61419496678409,-5.1518709831103,4.068000345428845
