E-kp,E-ki,E-kd,E-I-Tot,E-P,E-I,E-D,E-PID,N-kp,N-ki,N-kd,N-I-Tot,N-P,N-I,N-D,N-PID,Y-kp,Y-ki,Y-kd,Y-I-Tot,Y-P,Y-I,Y-D,Y-PID,D-kp,D-ki,D-kd,D-I-Tot,D-P,D-I,D-D,D-PID,errorN,desiredN,actualN,errorE,desiredE,actualE,errorD,desiredD,actualD,errorY,desiredY,actualY,roll,pitch,yaw-rate,thrust,dt,Time,Mode
0.04,0.0,0.0,-0.0029332691959047196,-0.0034927458789933,-0.0,-0.0,-0.0034927458789933,0.04,0.0,0.0,-0.002901743411229443,-0.0034552070282596764,-0.0,-0.0,-0.0034552070282596764,0.5,0,0,-0.0029796572807131052,-0.04434977235703878,-0.0,-0.0,-0.04434977235703878,0.002,8e-05,0.0,-0.004155409989995502,-0.0002473995761852985,-3.3243279919964017e-07,-0.0,-0.00024773200898449817,-0.08638017570649191,0.0,0.08638017570649191,-0.08731864697483249,0.0,0.08731864697483249,-0.12369978809264925,0.0,0.12369978809264925,-0.08869954471407757,0,0.08869954471407757,-0.003498090694372998,0.0034497957732742353,0.04434977235703878,0.4,0.03359270095825195,0.03381657600402832,STABILIZE
0.04,0.0,0.0,-0.006372315146265475,-0.00411646559670724,-0.0,-0.0,-0.00411646559670724,0.04,0.0,0.0,-0.006309278147016513,-0.0040787473363014925,-0.0,-0.0,-0.0040787473363014925,0.5,0,0,-0.006452341754171033,-0.051959127507839015,-0.0,-0.0,-0.051959127507839015,0.002,8e-05,0.0,-0.009412523626797162,-0.0003146327169836797,-7.53001890143773e-07,-0.0,-0.0003153857188738235,-0.10196868340753731,0.0,0.10196868340753731,-0.10291163991768099,0.0,0.10291163991768099,-0.15731635849183984,0.0,0.15731635849183984,-0.10391825501567803,0,0.10391825501567803,-0.004123856510055595,0.004071274533451766,0.051959127507839015,0.4,0.033417463302612305,0.0671994686126709,STABILIZE
0.04,0.0,0.0,-0.01025241143652568,-0.004638535952864054,-0.0,-0.0,-0.004638535952864054,0.04,0.0,0.0,-0.010161359613618923,-0.004605045091548056,-0.0,-0.0,-0.004605045091548056,0.5,0,0,-0.010342695076530635,-0.058134973996672966,-0.0,-0.0,-0.058134973996672966,0.002,8e-05,0.0,-0.015811902400269126,-0.0003825130395765791,-1.2649521920215303e-06,-0.0,-0.00038377799176860064,-0.11512612728870139,0.0,0.11512612728870139,-0.11596339882160135,0.0,0.11596339882160135,-0.19125651978828956,0.0,0.19125651978828956,-0.11626994799334593,0,0.11626994799334593,-0.004647871383307962,0.004595622665692888,0.058134973996672966,0.4,0.03345966339111328,0.10064435005187988,STABILIZE
0.04,0.0,0.0,-0.014880406011877644,-0.0050733355965571015,-0.0,-0.0,-0.0050733355965571015,0.04,0.0,0.0,-0.014789536329627657,-0.005073535264180418,-0.0,-0.0,-0.005073535264180418,0.5,0,0,-0.015003758768440359,-0.06386983595423479,-0.0,-0.0,-0.06386983595423479,0.002,8e-05,0.0,-0.024020206515884483,-0.00044990849469557254,-1.921616521270759e-06,-0.0,-0.0004518301112168433,-0.12683838160451044,0.0,0.12683838160451044,-0.12683338991392754,0.0,0.12683338991392754,-0.22495424734778627,0.0,0.22495424734778627,-0.12773967190846958,0,0.12773967190846958,-0.0050846343130474935,0.005062211774980944,0.06386983595423479,0.4,0.03648877143859863,0.13717889785766602,STABILIZE
0.04,0.0,0.0,-0.019579530027103206,-0.00561485781740806,-0.0,-0.0,-0.00561485781740806,0.04,0.0,0.0,-0.019454881265878264,-0.005574496097855045,-0.0,-0.0,-0.005574496097855045,0.5,0,0,-0.019766380357561675,-0.07113411716308629,-0.0,-0.0,-0.07113411716308629,0.002,8e-05,0.0,-0.03357411642503567,-0.0005707855928721949,-2.6859293140028535e-06,-0.0,-0.0005734715221861977,-0.13936240244637613,0.0,0.13936240244637613,-0.1403714454352015,0.0,0.1403714454352015,-0.28539279643609744,0.0,0.28539279643609744,-0.14226823432617258,0,0.14226823432617258,-0.0056286822414725055,0.005560536959614744,0.07113411716308629,0.4,0.03347635269165039,0.17061519622802734,STABILIZE
0.04,0.0,0.0,-0.02449658961196083,-0.0058807917663515775,-0.0,-0.0,-0.0058807917663515775,0.04,0.0,0.0,-0.024371838962595656,-0.0058806699083741,-0.0,-0.0,-0.0058806699083741,0.5,0,0,-0.024711426944994588,-0.07392830194990027,-0.0,-0.0,-0.07392830194990027,0.002,8e-05,0.0,-0.044207883300807244,-0.0006358980159699484,-3.53663066406458e-06,-0.0,-0.000639434646634013,-0.1470167477093525,0.0,0.1470167477093525,-0.14701979415878944,0.0,0.14701979415878944,-0.3179490079849742,0.0,0.3179490079849742,-0.14785660389980054,0,0.14785660389980054,-0.005895947734159053,0.005865474463886948,0.07392830194990027,0.4,0.033444881439208984,0.20406413078308105,STABILIZE
0.04,0.0,0.0,-0.029599497509681265,-0.006100978295409382,-0.0,-0.0,-0.006100978295409382,0.04,0.0,0.0,-0.029500846703261446,-0.0061321829690023175,-0.0,-0.0,-0.0061321829690023175,0.5,0,0,-0.02985388089399604,-0.0768532387729736,-0.0,-0.0,-0.0768532387729736,0.002,8e-05,0.0,-0.05592269739829893,-0.0007003048847450333,-4.473815791863915e-06,-0.0,-0.0007047787005368972,-0.15330457422505794,0.0,0.15330457422505794,-0.15252445738523454,0.0,0.15252445738523454,-0.35015244237251664,0.0,0.35015244237251664,-0.1537064775459472,0,0.1537064775459472,-0.006117407031788424,0.00611579392506026,0.0768532387729736,0.4,0.03345632553100586,0.23754048347473145,STABILIZE
0.04,0.0,0.0,-0.0347566100799061,-0.006171722259415885,-0.0,-0.0,-0.006171722259415885,0.04,0.0,0.0,-0.034605114308920853,-0.006108480583058165,-0.0,0.0,-0.006108480583058165,0.5,0,0,-0.0350725570840123,-0.0780674737268796,-0.0,-0.0,-0.0780674737268796,0.002,8e-05,0.0,-0.06846482506672945,-0.0007504832157300943,-5.477186005338356e-06,-0.0,-0.0007559604017354326,-0.1527120145764541,0.0,0.1527120145764541,-0.15429305648539712,0.0,0.15429305648539712,-0.3752416078650471,0.0,0.3752416078650471,-0.1561349474537592,0,0.1561349474537592,-0.006188345353748599,0.006091639554644239,0.0780674737268796,0.4,0.03342413902282715,0.27094507217407227,STABILIZE
0.04,0.0,0.0,-0.04000367772861345,-0.006276241243750953,-0.0,-0.0,-0.006276241243750953,0.04,0.0,0.0,-0.0397562832389293,-0.006161532699128098,-0.0,-0.0,-0.006161532699128098,0.5,0,0,-0.0403660622262145,-0.0791473388609779,-0.0,-0.0,-0.0791473388609779,0.002,8e-05,0.0,-0.08208631315998312,-0.0008146621226924979,-6.56690505279865e-06,-0.0,-0.0008212290277452965,-0.15403831747820246,0.0,0.15403831747820246,-0.15690603109377382,0.0,0.15690603109377382,-0.40733106134624897,0.0,0.40733106134624897,-0.1582946777219558,0,0.1582946777219558,-0.006293240125774808,0.006144169437077981,0.0791473388609779,0.4,0.03344082832336426,0.30439305305480957,STABILIZE
0.04,0.0,0.0,-0.04531411566403077,-0.006338889827045537,-0.0,-0.0,-0.006338889827045537,0.04,0.0,0.0,-0.04492341055140159,-0.00616782479230797,-0.0,-0.0,-0.00616782479230797,0.5,0,0,-0.045705253735666286,-0.07966514992621833,-0.0,-0.0,-0.07966514992621833,0.002,8e-05,0.0,-0.09679107409540891,-0.0008776287439595332,-7.743285927632713e-06,-0.0,-0.0008853720298871659,-0.15419561980769925,0.0,0.15419561980769925,-0.15847224567613843,0.0,0.15847224567613843,-0.4388143719797666,0.0,0.4388143719797666,-0.15933029985243666,0,0.15933029985243666,-0.006356017019040962,0.006150173539152525,0.07966514992621833,0.4,0.03351020812988281,0.3379077911376953,STABILIZE
0.04,0.0,0.0,-0.05054549413789874,-0.006257385528174444,-0.0,0.0,-0.006257385528174444,0.04,0.0,0.0,-0.05007608297193494,-0.006163243205730015,-0.0,0.0,-0.006163243205730015,0.5,0,0,-0.05097660541932342,-0.07881498132853934,-0.0,0.0,-0.07881498132853934,0.002,8e-05,0.0,-0.11336569876632376,-0.0009912666142277986,-9.0692559013059e-06,-0.0,-0.0010003358701291044,-0.15408108014325037,0.0,0.15408108014325037,-0.1564346382043611,0.0,0.1564346382043611,-0.49563330711389925,0.0,0.49563330711389925,-0.15762996265707868,0,0.15762996265707868,-0.0062743179056320335,0.006146004822667277,0.07881498132853934,0.4,0.03344130516052246,0.3713572025299072,STABILIZE
0.04,0.0,0.0,-0.05580995329707659,-0.006291078567225461,-0.0,-0.0,-0.006291078567225461,0.04,0.0,0.0,-0.05517351656385308,-0.006091481432060234,-0.0,0.0,-0.006091481432060234,0.5,0,0,-0.0563142541055806,-0.07973175931793114,-0.0,-0.0,-0.07973175931793114,0.002,8e-05,0.0,-0.13085731381438387,-0.001045132284321819,-1.046858510515071e-05,-0.0,-0.0010556008694269697,-0.15228703580150585,0.0,0.15228703580150585,-0.15727696418063652,0.0,0.15727696418063652,-0.5225661421609095,0.0,0.5225661421609095,-0.15946351863586228,0,0.15946351863586228,-0.0063080077684098046,0.006073948762528353,0.07973175931793114,0.4,0.033472537994384766,0.40483808517456055,STABILIZE
0.04,0.0,0.0,-0.06111177576370139,-0.006339521111554204,-0.0,-0.0,-0.006339521111554204,0.04,0.0,0.0,-0.06015737704685217,-0.0059593260521089075,-0.0,0.0,-0.0059593260521089075,0.5,0,0,-0.06166741506257533,-0.08001134778193583,-0.0,-0.0,-0.08001134778193583,0.002,8e-05,0.0,-0.1492386090259312,-0.0010989486142252696,-1.1939088722074496e-05,-0.0,-0.001110887702947344,-0.1489831513027227,0.0,0.1489831513027227,-0.1584880277888551,0.0,0.1584880277888551,-0.5494743071126348,0.0,0.5494743071126348,-0.16002269556387166,0,0.16002269556387166,-0.006356140302765311,0.005941597038738649,0.08001134778193583,0.4,0.033452510833740234,0.4383101463317871,STABILIZE
0.04,0.0,0.0,-0.06636183089814689,-0.006277621623726122,-0.0,0.0,-0.006277621623726122,0.04,0.0,0.0,-0.06498060611119094,-0.005767255065917569,-0.0,0.0,-0.005767255065917569,0.5,0,0,-0.06694827097167008,-0.07893063595944602,-0.0,0.0,-0.07893063595944602,0.002,8e-05,0.0,-0.1683344164174389,-0.0011416666142887947,-1.3466753313395114e-05,-0.0,-0.0011551333676021898,-0.14418137664793923,0.0,0.14418137664793923,-0.15694054059315304,0.0,0.15694054059315304,-0.5708333071443973,0.0,0.5708333071443973,-0.15786127191889204,0,0.15786127191889204,-0.006293487711682628,0.005749937101301666,0.07893063595944602,0.4,0.033452510833740234,0.4717442989349365,STABILIZE
0.04,0.0,0.0,-0.07159905247299411,-0.006261919183645163,-0.0,0.0,-0.006261919183645163,0.04,0.0,0.0,-0.06967178669937579,-0.0056090416071341,-0.0,0.0,-0.0056090416071341,0.5,0,0,-0.0721948562569624,-0.07841393708733972,-0.0,0.0,-0.07841393708733972,0.002,8e-05,0.0,-0.18835432425831874,-0.001196846869776275,-1.5068345940665502e-05,-0.0,-0.0012119152157169404,-0.1402260401783525,0.0,0.1402260401783525,-0.15654797959112907,0.0,0.15654797959112907,-0.5984234348881374,0.0,0.5984234348881374,-0.15682787417467944,0,0.15682787417467944,-0.006277248566976538,0.005591880724895319,0.07841393708733972,0.4,0.03345441818237305,0.5052638053894043,STABILIZE
0.04,0.0,0.0,-0.07670316324464221,-0.0061040258968177675,-0.0,0.0,-0.0061040258968177675,0.04,0.0,0.0,-0.07427561557836908,-0.00550573683823452,-0.0,0.0,-0.00550573683823452,0.5,0,0,-0.07734140167007947,-0.07693467061714959,-0.0,0.0,-0.07693467061714959,0.002,8e-05,0.0,-0.20923670933731459,-0.0012486662712881634,-1.6738936746985168e-05,-0.0,-0.0012654052080351486,-0.137643420955863,0.0,0.137643420955863,-0.15260064742044419,0.0,0.15260064742044419,-0.6243331356440817,0.0,0.6243331356440817,-0.15386934123429918,0,0.15386934123429918,-0.006118789670633544,0.005489324480067,0.07693467061714959,0.4,0.0334475040435791,0.5386848449707031,STABILIZE
0.04,0.0,0.0,-0.08172538787536632,-0.006001093075094977,-0.0,0.0,-0.006001093075094977,0.04,0.0,0.0,-0.07866988176541356,-0.005250740921437945,-0.0,0.0,-0.005250740921437945,0.5,0,0,-0.08214049488133746,-0.07168089630198214,-0.0,0.0,-0.07168089630198214,0.002,8e-05,0.0,-0.23146641575121837,-0.0013281219681589439,-1.851731326009747e-05,-0.0,-0.0013466392814190415,-0.13126852303594863,0.0,0.13126852303594863,-0.1500273268773744,0.0,0.1500273268773744,-0.6640609840794719,0.0,0.6640609840794719,-0.14336179260396428,0,0.14336179260396428,-0.00601421234015481,0.005235708953670504,0.07168089630198214,0.4,0.033475399017333984,0.572136640548706,STABILIZE
0.04,0.0,0.0,-0.0866366239317838,-0.005880030553450679,-0.0,0.0,-0.005880030553450679,0.04,0.0,0.0,-0.08282200496164718,-0.004971174460987779,-0.0,0.0,-0.004971174460987779,0.5,0,0,-0.08678504871018757,-0.0695092796066557,-0.0,0.0,-0.0695092796066557,0.002,8e-05,0.0,-0.25437843759837275,-0.0013715833138029973,-2.0350275007869823e-05,-0.0,-0.0013919335888108672,-0.12427936152469449,0.0,0.12427936152469449,-0.14700076383626698,0.0,0.14700076383626698,-0.6857916569014986,0.0,0.6857916569014986,-0.1390185592133114,0,0.1390185592133114,-0.005892074951087454,0.004956892938309079,0.0695092796066557,0.4,0.03340959548950195,0.605546236038208,STABILIZE
0.04,0.0,0.0,-0.09144138134567639,-0.005747830793288697,-0.0,0.0,-0.005747830793288697,0.04,0.0,0.0,-0.08673248066217201,-0.004678020285247706,-0.0,0.0,-0.004678020285247706,0.5,0,0,-0.09127914465912425,-0.06720241226071856,-0.0,0.0,-0.06720241226071856,0.002,8e-05,0.0,-0.27799796810301086,-0.0014127775146882317,-2.2239837448240872e-05,-0.0,-0.0014350173521364726,-0.11695050713119265,0.0,0.11695050713119265,-0.1436957698322174,0.0,0.1436957698322174,-0.7063887573441159,0.0,0.7063887573441159,-0.13440482452143712,0,0.13440482452143712,-0.005758788700037835,0.004664524126401678,0.06720241226071856,0.4,0.03343701362609863,0.6389856338500977,STABILIZE
0.04,0.0,0.0,-0.09616168597002937,-0.0056415722364073885,-0.0,0.0,-0.0056415722364073885,0.04,0.0,0.0,-0.09056925381642894,-0.004585600851431505,-0.0,0.0,-0.004585600851431505,0.5,0,0,-0.09565072943948943,-0.0653099039381115,-0.0,0.0,-0.0653099039381115,0.002,8e-05,0.0,-0.3022855381938562,-0.0014513902387506734,-2.4182843055508498e-05,-0.0,-0.0014755730818061818,-0.11464002128578762,0.0,0.11464002128578762,-0.1410393059101847,0.0,0.1410393059101847,-0.7256951193753367,0.0,0.7256951193753367,-0.130619807876223,0,0.130619807876223,-0.0056520115709497235,0.00457272759620584,0.0653099039381115,0.4,0.033468008041381836,0.6724541187286377,STABILIZE
0.04,0.0,0.0,-0.10075206251902802,-0.005490588449284202,-0.0,0.0,-0.005490588449284202,0.04,0.0,0.0,-0.09420475846397551,-0.004348458043053693,-0.0,0.0,-0.004348458043053693,0.5,0,0,-0.0999346476703827,-0.06405038809221308,-0.0,0.0,-0.06405038809221308,0.002,8e-05,0.0,-0.3270363276773341,-0.0014802314951514535,-2.616290621418673e-05,-0.0,-0.0015063944013656403,-0.10871145107634232,0.0,0.10871145107634232,-0.13726471123210504,0.0,0.13726471123210504,-0.7401157475757267,0.0,0.7401157475757267,-0.12810077618442617,0,0.12810077618442617,-0.0055002969151601985,0.004336171435343701,0.06405038809221308,0.4,0.033441781997680664,0.7059037685394287,STABILIZE
0.04,0.0,0.0,-0.10539231792457708,-0.005549892869246202,-0.0,-0.0,-0.005549892869246202,0.04,0.0,0.0,-0.09772586482897451,-0.004211355065412191,-0.0,0.0,-0.004211355065412191,0.5,0,0,-0.10428431051328803,-0.06502918666555883,-0.0,-0.0,-0.06502918666555883,0.002,8e-05,0.0,-0.35397068329439624,-0.0016107172462760918,-2.8317654663551702e-05,-0.0,-0.0016390349009396434,-0.10528387663530478,0.0,0.10528387663530478,-0.13874732173115503,0.0,0.13874732173115503,-0.8053586231380458,0.0,0.8053586231380458,-0.13005837333111767,0,0.13005837333111767,-0.005559438114790462,0.0041987462646482735,0.06502918666555883,0.4,0.03344392776489258,0.7393543720245361,STABILIZE
0.04,0.0,0.0,-0.10983513837678147,-0.005277261928000527,-0.0,0.0,-0.005277261928000527,0.04,0.0,0.0,-0.10098125768163099,-0.003866814098572255,-0.0,0.0,-0.003866814098572255,0.5,0,0,-0.10854249774203026,-0.06322439086354971,-0.0,0.0,-0.06322439086354971,0.002,8e-05,0.0,-0.3829740417444963,-0.0017225355039603581,-3.06379233395597e-05,-0.0,-0.001753173427299918,-0.09667035246430637,0.0,0.09667035246430637,-0.13193154820001318,0.0,0.13193154820001318,-0.861267751980179,0.0,0.861267751980179,-0.12644878172709942,0,0.12644878172709942,-0.00528578292531854,0.0038551580507226917,0.06322439086354971,0.4,0.033675193786621094,0.773024320602417,STABILIZE
0.04,0.0,0.0,-0.11416328531546527,-0.005100354431031386,-0.0,0.0,-0.005100354431031386,0.04,0.0,0.0,-0.10400526688683451,-0.0035635386154264366,-0.0,0.0,-0.0035635386154264366,0.5,0,0,-0.11274394805566879,-0.06188816492226404,-0.0,0.0,-0.06188816492226404,0.002,8e-05,0.0,-0.4123918430319326,-0.001733319308161063,-3.299134744255461e-05,-0.0,-0.0017663106556036175,-0.08908846538566091,0.0,0.08908846538566091,-0.12750886077578463,0.0,0.12750886077578463,-0.8666596540805315,0.0,0.8666596540805315,-0.12377632984452808,0,0.12377632984452808,-0.005108040852064224,0.003552511990045895,0.06188816492226404,0.4,0.033943891525268555,0.8069815635681152,STABILIZE
0.04,0.0,0.0,-0.11824022258117713,-0.004873506029590114,-0.0,0.0,-0.004873506029590114,0.04,0.0,0.0,-0.10668764312055433,-0.003206469929916912,-0.0,0.0,-0.003206469929916912,0.5,0,0,-0.11676162501570225,-0.06003334002200292,-0.0,0.0,-0.06003334002200292,0.002,8e-05,0.0,-0.44171396653380424,-0.0017525600269667852,-3.5337117322704344e-05,-0.0,-0.0017878971442894895,-0.0801617482479228,0.0,0.0801617482479228,-0.12183765073975283,0.0,0.12183765073975283,-0.8762800134833926,0.0,0.8762800134833926,-0.12006668004400584,0,0.12006668004400584,-0.004880214670562272,0.0031962501781214393,0.06003334002200292,0.4,0.0334620475769043,0.8404433727264404,STABILIZE
0.04,0.0,0.0,-0.12210628152258436,-0.004628284591965337,-0.0,0.0,-0.004628284591965337,0.04,0.0,0.0,-0.10920956320709063,-0.003019137590911943,-0.0,0.0,-0.003019137590911943,0.5,0,0,-0.12052794910054192,-0.05636107724429268,-0.0,0.0,-0.05636107724429268,0.002,8e-05,0.0,-0.47118860032107207,-0.00176429013989343,-3.769508802568577e-05,-0.0,-0.0018019852279191157,-0.07547843977279857,0.0,0.07547843977279857,-0.11570711479913341,0.0,0.11570711479913341,-0.8821450699467149,0.0,0.8821450699467149,-0.11272215448858536,0,0.11272215448858536,-0.004634215400102268,0.0030100261929983754,0.05636107724429268,0.4,0.03341245651245117,0.873863697052002,STABILIZE
0.04,0.0,0.0,-0.12583433493398385,-0.004459537930923848,-0.0,0.0,-0.004459537930923848,0.04,0.0,0.0,-0.11166641297841234,-0.0029389103472307167,-0.0,0.0,-0.0029389103472307167,0.5,0,0,-0.12410379947329281,-0.053468387563298275,-0.0,0.0,-0.053468387563298275,0.002,8e-05,0.0,-0.5021110557006421,-0.0018494888278803565,-4.016888445605137e-05,-0.0,-0.0018896577123364078,-0.07347275868076791,0.0,0.07347275868076791,-0.11148844827309619,0.0,0.11148844827309619,-0.9247444139401783,0.0,0.9247444139401783,-0.10693677512659655,0,0.10693677512659655,-0.0044650153392615955,0.002930581956978337,0.053468387563298275,0.4,0.033438920974731445,0.9073047637939453,STABILIZE
0.04,0.0,0.0,-0.12953168120164313,-0.004104165417905896,-0.0,0.0,-0.004104165417905896,0.04,0.0,0.0,-0.11417511988205073,-0.0027847400195202083,-0.0,0.0,-0.0027847400195202083,0.5,0,0,-0.1272761588483844,-0.044017677470141105,-0.0,0.0,-0.044017677470141105,0.002,8e-05,0.0,-0.5355887469051541,-0.0018580621419572302,-4.2847099752412336e-05,-0.0,-0.0019009092417096426,-0.0696185004880052,0.0,0.0696185004880052,-0.10260413544764742,0.0,0.10260413544764742,-0.929031070978615,0.0,0.929031070978615,-0.08803535494028221,0,0.08803535494028221,-0.0041084393435387575,0.0027784306567404044,0.044017677470141105,0.4,0.03603506088256836,0.9433634281158447,STABILIZE
0.04,0.0,0.0,-0.13280429750583747,-0.003909415184741974,-0.0,0.0,-0.003909415184741974,0.04,0.0,0.0,-0.11620901372066023,-0.002429657105424268,-0.0,0.0,-0.002429657105424268,0.5,0,0,-0.13001830737353792,-0.04094658557021155,-0.0,0.0,-0.04094658557021155,0.002,8e-05,0.0,-0.5667499152029808,-0.0018612317056798094,-4.533999321623847e-05,-0.0,-0.001906571698896048,-0.06074142763560669,0.0,0.06074142763560669,-0.09773537961854935,0.0,0.09773537961854935,-0.9306158528399047,0.0,0.9306158528399047,-0.0818931711404231,0,0.0818931711404231,-0.0039128839124546455,0.002424066877023689,0.04094658557021155,0.4,0.033484458923339844,0.9768271446228027,STABILIZE
0.04,0.0,0.0,-0.13599851433261964,-0.0038225103179661984,-0.0,0.0,-0.0038225103179661984,0.04,0.0,0.0,-0.11827676991321409,-0.002474478036307298,-0.0,-0.0,-0.002474478036307298,0.5,0,0,-0.13262991499852397,-0.03906629400235916,-0.0,0.0,-0.03906629400235916,0.002,8e-05,0.0,-0.598245795046444,-0.001884551553695642,-4.785966360371553e-05,-0.0,-0.0019324112172993575,-0.06186195090768244,0.0,0.06186195090768244,-0.09556275794915496,0.0,0.09556275794915496,-0.9422757768478209,0.0,0.9422757768478209,-0.07813258800471833,0,0.07813258800471833,-0.003825881136478874,0.002469263091017316,0.03906629400235916,0.4,0.033425331115722656,1.010254144668579,STABILIZE
0.04,0.0,0.0,-0.13902785818136898,-0.003624974579275997,-0.0,0.0,-0.003624974579275997,0.04,0.0,0.0,-0.12017247484204548,-0.0022684391471965173,-0.0,0.0,-0.0022684391471965173,0.5,0,0,-0.13514068088433295,-0.037555420270005184,-0.0,0.0,-0.037555420270005184,0.002,8e-05,0.0,-0.6294458435178709,-0.001866730688690125,-5.0355667481429674e-05,0.0,-0.0019170863561715546,-0.05671097867991293,0.0,0.05671097867991293,-0.09062436448189992,0.0,0.09062436448189992,-0.9333653443450625,0.0,0.9333653443450625,-0.07511084054001037,0,0.07511084054001037,-0.003627945231859315,0.0022636851060958353,0.037555420270005184,0.4,0.03342747688293457,1.043708324432373,STABILIZE
0.04,0.0,0.0,-0.14190368856206934,-0.00343818739098077,-0.0,0.0,-0.00343818739098077,0.04,0.0,0.0,-0.12193489917591467,-0.002107059290746846,-0.0,0.0,-0.002107059290746846,0.5,0,0,-0.1374777959225757,-0.034926605501855085,-0.0,0.0,-0.034926605501855085,0.002,8e-05,0.0,-0.6607413590992921,-0.0018707613597169163,-5.285930872794337e-05,-0.0,-0.0019236206684448596,-0.05267648226867115,0.0,0.05267648226867115,-0.08595468477451924,0.0,0.08595468477451924,-0.9353806798584581,0.0,0.9353806798584581,-0.06985321100371017,0,0.06985321100371017,-0.0034407536954999653,0.0021028659959981015,0.034926605501855085,0.4,0.03345751762390137,1.0771925449371338,STABILIZE
0.04,0.0,0.0,-0.14468453540264645,-0.003327404403788486,-0.0,0.0,-0.003327404403788486,0.04,0.0,0.0,-0.12340462762411558,-0.0017585941230413204,-0.0,0.0,-0.0017585941230413204,0.5,0,0,-0.1396164442770441,-0.031987324189240156,-0.0,0.0,-0.031987324189240156,0.002,8e-05,0.0,-0.6919748681863029,-0.0018686127219491027,-5.535798945490424e-05,0.0,-0.001923970711404007,-0.04396485307603301,0.0,0.04396485307603301,-0.08318511009471215,0.0,0.08318511009471215,-0.9343063609745513,0.0,0.9343063609745513,-0.06397464837848031,0,0.06397464837848031,-0.003329365919568088,0.0017548777534532214,0.031987324189240156,0.4,0.033429622650146484,1.1105945110321045,STABILIZE
0.04,0.0,0.0,-0.14732732276195387,-0.0029827323307054965,-0.0,0.0,-0.0029827323307054965,0.04,0.0,0.0,-0.12478663519788716,-0.0015597768988302593,-0.0,0.0,-0.0015597768988302593,0.5,0,0,-0.14170717519768308,-0.029495802461335166,-0.0,0.0,-0.029495802461335166,0.002,8e-05,0.0,-0.7251125768017062,-0.0018700126308793105,-5.8009006144136496e-05,-0.0,-0.001928021637023447,-0.03899442247075648,0.0,0.03899442247075648,-0.07456830826763741,0.0,0.07456830826763741,-0.9350063154396552,0.0,0.9350063154396552,-0.05899160492267033,0,0.05899160492267033,-0.002984336692232294,0.0015567050581778155,0.029495802461335166,0.4,0.03544116020202637,1.1460609436035156,STABILIZE
0.04,0.0,0.0,-0.14972094670931954,-0.002860423666972456,-0.0,0.0,-0.002860423666972456,0.04,0.0,0.0,-0.12594936662048772,-0.0013894849619964797,-0.0,0.0,-0.0013894849619964797,0.5,0,0,-0.14342680586683754,-0.025687369719847787,-0.0,0.0,-0.025687369719847787,0.002,8e-05,0.0,-0.7564196166261264,-0.001870623782720295,-6.051356933009012e-05,-0.0,-0.001931137352050385,-0.03473712404991199,0.0,0.03473712404991199,-0.0715105916743114,0.0,0.0715105916743114,-0.9353118913601475,0.0,0.9353118913601475,-0.051374739439695574,0,0.051374739439695574,-0.002861668410221818,0.0013869195809884018,0.025687369719847787,0.4,0.033472299575805664,1.1795070171356201,STABILIZE
0.04,0.0,0.0,-0.15192666104914068,-0.002637653132152761,-0.0,0.0,-0.002637653132152761,0.04,0.0,0.0,-0.12692087037673014,-0.0011617505854175014,-0.0,0.0,-0.0011617505854175014,0.5,0,0,-0.14511349214431682,-0.025212315928867187,-0.0,0.0,-0.025212315928867187,0.002,8e-05,0.0,-0.7877762386998327,-0.0018748550284428055,-6.302209909598662e-05,-0.0,-0.0019378771275387922,-0.029043764635437536,0.0,0.029043764635437536,-0.06594132830381903,0.0,0.06594132830381903,-0.9374275142214028,0.0,0.9374275142214028,-0.050424631857734374,0,0.050424631857734374,-0.002638674539179461,0.001159428800987468,0.025212315928867187,0.4,0.033449649810791016,1.212956428527832,STABILIZE
0.04,0.0,0.0,-0.15401224082599507,-0.0024905136448188482,-0.0,0.0,-0.0024905136448188482,0.04,0.0,0.0,-0.127673140402229,-0.0008983299434936709,-0.0,0.0,-0.0008983299434936709,0.5,0,0,-0.14654171778808409,-0.021319104483307594,-0.0,0.0,-0.021319104483307594,0.002,8e-05,0.0,-0.8195395599804448,-0.0018965226344264717,-6.55631647984356e-05,-0.0,-0.0019620857992249073,-0.022458248587341773,0.0,0.022458248587341773,-0.06226284112047121,0.0,0.06226284112047121,-0.9482613172132358,0.0,0.9482613172132358,-0.04263820896661519,0,0.04263820896661519,-0.002491181471736833,0.0008964763116119203,0.021319104483307594,0.4,0.03349637985229492,1.2464559078216553,STABILIZE
0.04,0.0,0.0,-0.15597958942644014,-0.0023535986720501926,-0.0,0.0,-0.0023535986720501926,0.04,0.0,0.0,-0.12823007811551795,-0.0006662814419951045,-0.0,0.0,-0.0006662814419951045,0.5,0,0,-0.14772788967324146,-0.017738166567799054,-0.0,0.0,-0.017738166567799054,0.002,8e-05,0.0,-0.8512280545507677,-0.0018954952549616523,-6.809824436406141e-05,0.0,-0.0019635934993257136,-0.016657036049877613,0.0,0.016657036049877613,-0.05883996680125481,0.0,0.05883996680125481,-0.9477476274808262,0.0,0.9477476274808262,-0.03547633313559811,0,0.03547633313559811,-0.002354010768216556,0.0006648240159200064,0.017738166567799054,0.4,0.03343558311462402,1.2798924446105957,STABILIZE
0.04,0.0,0.0,-0.15792070511575304,-0.002319023954696339,-0.0,0.0,-0.002319023954696339,0.04,0.0,0.0,-0.1288284037669331,-0.0007148113458565459,-0.0,-0.0,-0.0007148113458565459,0.5,0,0,-0.14879717526774142,-0.01596825811123354,-0.0,0.0,-0.01596825811123354,0.002,8e-05,0.0,-0.8829004303939617,-0.0018919273767889367,-7.063203443151695e-05,0.0,-0.0019625594112204535,-0.017870283646413646,0.0,0.017870283646413646,-0.057975598867408475,0.0,0.057975598867408475,-0.9459636883944683,0.0,0.9459636883944683,-0.03193651622246708,0,0.03193651622246708,-0.002319422028381697,0.0007135186170510397,0.01596825811123354,0.4,0.033481597900390625,1.3133902549743652,STABILIZE
0.04,0.0,0.0,-0.15972297901699153,-0.002158176976713234,-0.0,0.0,-0.002158176976713234,0.04,0.0,0.0,-0.12954887979741167,-0.0008627516495600718,-0.0,-0.0,-0.0008627516495600718,0.5,0,0,-0.1498179806387208,-0.015279854575926228,-0.0,0.0,-0.015279854575926228,0.002,8e-05,0.0,-0.9144616819849313,-0.0018896896440956416,-7.31569345587945e-05,0.0,-0.001962846578654436,-0.021568791239001794,0.0,0.021568791239001794,-0.05395442441783085,0.0,0.05395442441783085,-0.9448448220478207,0.0,0.9448448220478207,-0.030559709151852455,0,0.030559709151852455,-0.002158636833438996,0.000861600425344698,0.015279854575926228,0.4,0.033403635025024414,1.346782922744751,STABILIZE
0.04,0.0,0.0,-0.1614742857796338,-0.0020932605591928214,-0.0,0.0,-0.0020932605591928214,0.04,0.0,0.0,-0.1301547363354054,-0.00072415388472433,-0.0,0.0,-0.00072415388472433,0.5,0,0,-0.1508677140146046,-0.0156837562690236,-0.0,-0.0,-0.0156837562690236,0.002,8e-05,0.0,-0.9463464206228593,-0.0019055218438786888,-7.570771364982875e-05,-0.0,-0.0019812295575285174,-0.018103847118108248,0.0,0.018103847118108248,-0.05233151397982053,0.0,0.05233151397982053,-0.9527609219393444,0.0,0.9527609219393444,-0.0313675125380472,0,0.0313675125380472,-0.0020936566953775994,0.000723007786496198,0.0156837562690236,0.4,0.03346562385559082,1.3802759647369385,STABILIZE
0.04,0.0,0.0,-0.1630007663102244,-0.0018261357925238562,-0.0,0.0,-0.0018261357925238562,0.04,0.0,0.0,-0.13036327698008174,-0.0002494781478098243,-0.0,0.0,-0.0002494781478098243,0.5,0,0,-0.15199259297519926,-0.01682122446891077,-0.0,-0.0,-0.01682122446891077,0.002,8e-05,0.0,-0.9780295595179758,-0.0018951343563318004,-7.824236476143807e-05,0.0,-0.0019733767210932383,-0.0062369536952456076,0.0,0.0062369536952456076,-0.0456533948130964,0.0,0.0456533948130964,-0.9475671781659002,0.0,0.9475671781659002,-0.03364244893782154,0,0.03364244893782154,-0.0018262819641755535,0.0002484058499682211,0.01682122446891077,0.4,0.03343629837036133,1.4137115478515625,STABILIZE
0.04,0.0,0.0,-0.1646160653197986,-0.0018261357925238562,-0.0,0.0,-0.0018261357925238562,0.04,0.0,0.0,-0.13058395159076372,-0.0002494781478098243,-0.0,0.0,-0.0002494781478098243,0.5,0,0,-0.15318292317235965,-0.01682122446891077,-0.0,0.0,-0.01682122446891077,0.002,8e-05,0.0,-1.0115561861941003,-0.0018951343563318004,-8.092449489552803e-05,0.0,-0.0019760588512273284,-0.0062369536952456076,0.0,0.0062369536952456076,-0.0456533948130964,0.0,0.0456533948130964,-0.9475671781659002,0.0,0.9475671781659002,-0.03364244893782154,0,0.03364244893782154,-0.0018262819641755535,0.0002484058499682211,0.01682122446891077,0.4,0.03538179397583008,1.4491026401519775,STABILIZE
0.04,0.0,0.0,-0.16593722513333142,-0.0015808365531127335,-0.0,0.0,-0.0015808365531127335,0.04,0.0,0.0,-0.13068574190525062,-0.00012179741485131316,-0.0,0.0,-0.00012179741485131316,0.5,0,0,-0.1541105914330732,-0.013875042601556021,-0.0,0.0,-0.013875042601556021,0.002,8e-05,0.0,-1.0438204951584809,-0.001930296336952174,-8.350563961267848e-05,-0.0,-0.0020138019765648524,-0.003044935371282829,0.0,0.003044935371282829,-0.03952091382781834,0.0,0.03952091382781834,-0.965148168476087,0.0,0.965148168476087,-0.027750085203112042,0,0.027750085203112042,-0.001580895357882471,0.00012103175346769773,0.013875042601556021,0.4,0.03342938423156738,1.4825186729431152,STABILIZE
0.04,0.0,0.0,-0.16716954349963242,-0.0014730937949553895,-0.0,0.0,-0.0014730937949553895,0.04,0.0,0.0,-0.13072103919297212,-4.21938169090025e-05,-0.0,0.0,-4.21938169090025e-05,0.5,0,0,-0.15497482496176762,-0.012913637856562523,-0.0,0.0,-0.012913637856562523,0.002,8e-05,0.0,-1.076040580070805,-0.0019257688782059249,-8.608324640566441e-05,0.0,-0.0020118521246115894,-0.0010548454227250624,0.0,0.0010548454227250624,-0.03682734487388473,0.0,0.03682734487388473,-0.9628844391029624,0.0,0.9628844391029624,-0.025827275713125045,0,0.025827275713125045,-0.001473112665041433,4.152978468459391e-05,0.012913637856562523,0.4,0.0334620475769043,1.5159838199615479,STABILIZE
0.04,0.0,0.0,-0.1683200555743538,-0.001374716158977922,-0.0,0.0,-0.001374716158977922,0.04,0.0,0.0,-0.13072072949357438,3.700515412671064e-07,-0.0,0.0,3.700515412671064e-07,0.5,0,0,-0.15579404268514005,-0.012235767302940953,-0.0,0.0,-0.012235767302940953,0.002,8e-05,0.0,-1.1080690160452211,-0.0019134961487249798,-8.86455212836177e-05,0.0,-0.0020021416700085975,9.25128853167766e-06,0.0,-9.25128853167766e-06,-0.03436790397444805,0.0,0.03436790397444805,-0.9567480743624899,0.0,0.9567480743624899,-0.024471534605881907,0,0.024471534605881907,-0.0013747158755364238,-9.572049299961797e-07,0.012235767302940953,0.4,0.03347635269165039,1.549475908279419,STABILIZE
0.04,0.0,0.0,-0.16939037639284069,-0.001280868194148906,-0.0,0.0,-0.001280868194148906,0.04,0.0,0.0,-0.13070321682643887,2.0957658620816884e-05,-0.0,0.0,2.0957658620816884e-05,0.5,0,0,-0.15645143233363434,-0.00983384464470029,-0.0,0.0,-0.00983384464470029,0.002,8e-05,0.0,-1.140486131836767,-0.0019397012487402312,-9.123889054694136e-05,-0.0,-0.0020309401392871727,0.0005239414655204221,0.0,-0.0005239414655204221,-0.03202170485372265,0.0,0.03202170485372265,-0.9698506243701156,0.0,0.9698506243701156,-0.01966768928940058,0,0.01966768928940058,-0.0012808609246354682,-2.139733579490163e-05,0.00983384464470029,0.4,0.03342485427856445,1.5828814506530762,STABILIZE
0.04,0.0,0.0,-0.1701869641657189,-0.0009521537413196473,-0.0,0.0,-0.0009521537413196473,0.04,0.0,0.0,-0.13058486721227744,0.0001414621611632154,-0.0,0.0,0.0001414621611632154,0.5,0,0,-0.15700551934701434,-0.008278686303773273,-0.0,0.0,-0.008278686303773273,0.002,8e-05,0.0,-1.1739605348158284,-0.0020005816760024454,-9.391684278526628e-05,-0.0,-0.0020944985187877118,0.0035365540290803847,0.0,-0.0035365540290803847,-0.023803843532991184,0.0,0.023803843532991184,-1.0002908380012228,0.0,1.0002908380012228,-0.016557372607546545,0,0.016557372607546545,-0.0009521128217333636,-0.00014173730927635682,0.008278686303773273,0.4,0.033464670181274414,1.6163513660430908,STABILIZE
0.04,0.0,0.0,-0.1707808507409285,-0.0007102768286135848,-0.0,0.0,-0.0007102768286135848,0.04,0.0,0.0,-0.1303755202015959,0.00025037496558014783,-0.0,0.0,0.00025037496558014783,0.5,0,0,-0.15756862705971217,-0.008418323823065703,-0.0,-0.0,-0.008418323823065703,0.002,8e-05,0.0,-1.2082073320652502,-0.002047925273601926,-9.665658656522002e-05,-0.0,-0.0021445818601671463,0.006259374139503696,0.0,-0.006259374139503696,-0.01775692071533962,0.0,0.01775692071533962,-1.023962636800963,0.0,1.023962636800963,-0.016836647646131405,0,0.016836647646131405,-0.0007102032240285923,-0.00025058367311942947,0.008418323823065703,0.4,0.03344535827636719,1.649827480316162,STABILIZE
0.04,0.0,0.0,-0.17133177172813965,-0.0006588814246571015,-0.0,0.0,-0.0006588814246571015,0.04,0.0,0.0,-0.13004956152137148,0.0003898347033261719,-0.0,0.0,0.0003898347033261719,0.5,0,0,-0.1582986567121547,-0.010913610767448432,-0.0,-0.0,-0.010913610767448432,0.002,8e-05,0.0,-1.2424610798247604,-0.002048311704177371,-9.939688638598084e-05,-0.0,-0.002147708590563352,0.009745867583154297,0.0,-0.009745867583154297,-0.016472035616427537,0.0,0.016472035616427537,-1.0241558520886855,0.0,1.0241558520886855,-0.021827221534896864,0,0.021827221534896864,-0.000658732866636365,-0.0003900856804454802,0.010913610767448432,0.4,0.03344583511352539,1.6834735870361328,STABILIZE
0.04,0.0,0.0,-0.17175491270201293,-0.0005060106857730962,-0.0,0.0,-0.0005060106857730962,0.04,0.0,0.0,-0.12956869807698534,0.000575037768216485,-0.0,0.0,0.000575037768216485,0.5,0,0,-0.15907231904925476,-0.011564745378158135,-0.0,-0.0,-0.011564745378158135,0.002,8e-05,0.0,-1.2763852670358165,-0.002028402151395353,-0.00010211082136286532,0.0,-0.0021305129727582184,0.014375944205412126,0.0,-0.014375944205412126,-0.012650267144327404,0.0,0.012650267144327404,-1.0142010756976765,0.0,1.0142010756976765,-0.02312949075631627,0,0.02312949075631627,-0.0005057785099859989,-0.0005752419906685342,0.011564745378158135,0.4,0.03344917297363281,1.716700553894043,STABILIZE
0.04,0.0,0.0,-0.1720744532121368,-0.0003821043291683877,-0.0,0.0,-0.0003821043291683877,0.04,0.0,0.0,-0.12908833257430632,0.0005744177415428566,-0.0,-0.0,0.0005744177415428566,0.5,0,0,-0.15999189866849403,-0.013745336756759399,-0.0,-0.0,-0.013745336756759399,0.002,8e-05,0.0,-1.309895541377939,-0.002003567699879707,-0.00010479164331023513,0.0,-0.0021083593431899424,0.014360443538571414,0.0,-0.014360443538571414,-0.009552608229209694,0.0,0.009552608229209694,-1.0017838499398535,0.0,1.0017838499398535,-0.027490673513518797,0,0.027490673513518797,-0.0003818286779752492,-0.0005746010101314589,0.013745336756759399,0.4,0.03345060348510742,1.7501881122589111,STABILIZE
0.04,0.0,0.0,-0.17260207030232,-0.0006314834735580918,-0.0,-0.0,-0.0006314834735580918,0.04,0.0,0.0,-0.12877003092645545,0.00038096231900741157,-0.0,-0.0,0.00038096231900741157,0.5,0,0,-0.16027634838335034,-0.004255578935277041,-0.0,0.0,-0.004255578935277041,0.002,8e-05,0.0,-1.3430712411163177,-0.0019853324028261603,-0.00010744569928930543,0.0,-0.002092778102115466,0.009524057975185289,0.0,-0.009524057975185289,-0.015787086838952295,0.0,0.015787086838952295,-0.99266620141308,0.0,0.99266620141308,-0.008511157870554082,0,0.008511157870554082,-0.0006314268755040663,-0.00038105612023909337,0.004255578935277041,0.4,0.03342080116271973,1.7835791110992432,STABILIZE
0.04,0.0,0.0,-0.17316676490273494,-0.0006750702421384597,-0.0,-0.0,-0.0006750702421384597,0.04,0.0,0.0,-0.12857551227673403,0.0002325394148826594,-0.0,-0.0,0.0002325394148826594,0.5,0,0,-0.16005155125741152,0.0033592018174079252,-0.0,0.0,0.0033592018174079252,0.002,8e-05,0.0,-1.3756888166990413,-0.0019496516019825944,-0.00011005510533592331,0.0,-0.0020597067073185177,0.005813485372066485,0.0,-0.005813485372066485,-0.016876756053461492,0.0,0.016876756053461492,-0.9748258009912971,0.0,0.9748258009912971,0.0067184036348158505,0,-0.0067184036348158505,-0.0006750975046655366,-0.000232460255719583,-0.0033592018174079252,0.4,0.03345990180969238,1.8170461654663086,STABILIZE
0.04,0.0,0.0,-0.17360628938327397,-0.0005252508830608388,-0.0,0.0,-0.0005252508830608388,0.04,0.0,0.0,-0.12780062532442282,0.0009260236323460963,-0.0,0.0,0.0009260236323460963,0.5,0,0,-0.15985173145525494,0.0029849170007283385,-0.0,-0.0,0.0029849170007283385,0.002,8e-05,0.0,-1.4078115717307191,-0.0019194045148569852,-0.00011262492573845754,0.0,-0.002032029440595443,0.023150590808652408,0.0,-0.023150590808652408,-0.01313127207652097,0.0,0.01313127207652097,-0.9597022574284926,0.0,0.9597022574284926,0.005969834001456677,0,-0.005969834001456677,-0.0005253473656298196,-0.0009259688997182668,-0.0029849170007283385,0.4,0.03347158432006836,1.8505408763885498,STABILIZE
0.04,0.0,0.0,-0.17419772916857545,-0.0007070531376877856,-0.0,-0.0,-0.0007070531376877856,0.04,0.0,0.0,-0.12719429360855472,0.0007248561101881854,-0.0,-0.0,0.0007248561101881854,0.5,0,0,-0.15984491524657019,0.00010185782765777512,-0.0,-0.0,0.00010185782765777512,0.002,8e-05,0.0,-1.439874714990975,-0.001916538810010956,-0.00011518997719927801,0.0,-0.002031728787210234,0.018121402754704634,0.0,-0.018121402754704634,-0.01767632844219464,0.0,0.01767632844219464,-0.958269405005478,0.0,0.958269405005478,0.00020371565531555023,0,-0.00020371565531555023,-0.0007070557149156841,-0.0007248535962498635,-0.00010185782765777512,0.4,0.03345942497253418,1.88399338722229,STABILIZE
0.04,0.0,0.0,-0.17424941140330016,-6.176823947934022e-05,-0.0,0.0,-6.176823947934022e-05,0.04,0.0,0.0,-0.12706912366095666,0.0001495973875749708,-0.0,-0.0,0.0001495973875749708,0.5,0,0,-0.16004401771708493,-0.0029744769032315943,-0.0,-0.0,-0.0029744769032315943,0.002,8e-05,0.0,-1.4717422733652672,-0.001904332298874142,-0.00011773938186922139,0.0,-0.0020220716807433634,0.00373993468937427,0.0,-0.00373993468937427,-0.0015442059869835052,0.0,0.0015442059869835052,-0.9521661494370709,0.0,0.9521661494370709,-0.005948953806463189,0,0.005948953806463189,-6.17527066245558e-05,-0.0001496038000926938,0.0029744769032315943,0.4,0.03346848487854004,1.9174575805664062,STABILIZE
0.04,0.0,0.0,-0.1742155083827261,4.0568755917965364e-05,-0.0,0.0,4.0568755917965364e-05,0.04,0.0,0.0,-0.12659962771953706,0.0005618044035433467,-0.0,0.0,0.0005618044035433467,0.5,0,0,-0.160235281032111,-0.0028608493476279338,-0.0,0.0,-0.0028608493476279338,0.002,8e-05,0.0,-1.5033908575652468,-0.0018935535327205884,-0.00012027126860521976,0.0,-0.0020138248013258082,0.014045110088583666,0.0,-0.014045110088583666,0.001014218897949134,0.0,-0.001014218897949134,-0.9467767663602942,0.0,0.9467767663602942,-0.0057216986952558675,0,0.0057216986952558675,4.062485889718248e-05,-0.0005618003494454334,0.0028608493476279338,0.4,0.03342771530151367,1.950883388519287,STABILIZE
0.04,0.0,0.0,-0.1740802119367323,0.00016182346178587474,-0.0,0.0,0.00016182346178587474,0.04,0.0,0.0,-0.1257743943216117,0.0009870335044847832,-0.0,0.0,0.0009870335044847832,0.5,0,0,-0.16041589501594816,-0.0027003277780859323,-0.0,0.0,-0.0027003277780859323,0.002,8e-05,0.0,-1.5351878877433864,-0.0019015671328764818,-0.00012281503101947092,-0.0,-0.0020243821638959527,0.02467583761211958,0.0,-0.02467583761211958,0.004045586544646869,0.0,-0.004045586544646869,-0.9507835664382409,0.0,0.9507835664382409,-0.0054006555561718645,0,0.0054006555561718645,0.00016191649807630444,-0.0009870182467465244,0.0027003277780859323,0.4,0.03344297409057617,1.9843378067016602,STABILIZE
0.04,0.0,0.0,-0.17415536742012308,-8.994348863182553e-05,-0.0,-0.0,-8.994348863182553e-05,0.04,0.0,0.0,-0.12523346091558654,0.0006473704307429942,-0.0,-0.0,0.0006473704307429942,0.5,0,0,-0.16008214405459104,0.004992770394841508,-0.0,0.0,0.004992770394841508,0.002,8e-05,0.0,-1.5668412817700461,-0.0018940844748422802,-0.0001253473025416037,0.0,-0.0020194317773838837,0.016184260768574855,0.0,-0.016184260768574855,-0.002248587215795638,0.0,0.002248587215795638,-0.94704223742114,0.0,0.94704223742114,0.009985540789683016,0,-0.009985540789683016,-9.005631134932316e-05,-0.0006473547455095906,-0.004992770394841508,0.4,0.033423423767089844,2.0177619457244873,STABILIZE
0.04,0.0,0.0,-0.173684949939076,0.0005625901336353276,-0.0,0.0,0.0005625901336353276,0.04,0.0,0.0,-0.12427485610374923,0.0011464319055375688,-0.0,0.0,0.0011464319055375688,0.5,0,0,-0.16039248711408458,-0.00463938815912611,-0.0,-0.0,-0.00463938815912611,0.002,8e-05,0.0,-1.5982349730181313,-0.001877245390121658,-0.00012785879784145052,0.0,-0.0020051041879631084,0.02866079763843922,0.0,-0.02866079763843922,0.01406475334088319,0.0,-0.01406475334088319,-0.938622695060829,0.0,0.938622695060829,-0.00927877631825222,0,0.00927877631825222,0.0005627757853983465,-0.001146340781734468,0.00463938815912611,0.4,0.033446550369262695,2.051307439804077,STABILIZE
0.04,0.0,0.0,-0.17371488451933872,-3.581700772635074e-05,-0.0,-0.0,-3.581700772635074e-05,0.04,0.0,0.0,-0.12376060001304062,0.0006153122646974017,-0.0,-0.0,0.0006153122646974017,0.5,0,0,-0.15914505602624693,0.018657038331176493,-0.0,0.0,0.018657038331176493,0.002,8e-05,0.0,-1.6296813395383574,-0.0018812937123800113,-0.0001303745071630686,-0.0,-0.0020116682195430798,0.015382806617435043,0.0,-0.015382806617435043,-0.0008954251931587685,0.0,0.0008954251931587685,-0.9406468561900057,0.0,0.9406468561900057,0.03731407666235299,0,-0.03731407666235299,-3.6217724365432554e-05,-0.000615288808261051,-0.018657038331176493,0.4,0.03343057632446289,2.084641218185425,STABILIZE
0.04,0.0,0.0,-0.17322031342691555,0.0005919405061487087,-0.0,0.0,0.0005919405061487087,0.04,0.0,0.0,-0.12324483665207525,0.0006173050338364265,-0.0,0.0,0.0006173050338364265,0.5,0,0,-0.15948928685309616,-0.005150022236408359,-0.0,-0.0,-0.005150022236408359,0.002,8e-05,0.0,-1.661177020116751,-0.0018848219587327118,-0.0001328941616093401,-0.0,-0.002017716120342052,0.015432625845910661,0.0,-0.015432625845910661,0.014798512653717717,0.0,-0.014798512653717717,-0.9424109793663559,0.0,0.9424109793663559,-0.010300044472816718,0,0.010300044472816718,0.0005920514693172436,-0.0006171986109014456,0.005150022236408359,0.4,0.03342032432556152,2.1180613040924072,STABILIZE
0.04,0.0,0.0,-0.17295602170492014,0.00031588736166310717,-0.0,-0.0,0.00031588736166310717,0.04,0.0,0.0,-0.12280549030034384,0.0005251165600531463,-0.0,-0.0,0.0005251165600531463,0.5,0,0,-0.15849758746206688,0.014816265423960046,-0.0,0.0,0.014816265423960046,0.002,8e-05,0.0,-1.6924087027913204,-0.001866440190764012,-0.00013539269622330565,0.0,-0.0020018328869873176,0.013127914001328657,0.0,-0.013127914001328657,0.007897184041577679,0.0,-0.007897184041577679,-0.933220095382006,0.0,0.933220095382006,0.029632530847920092,0,-0.029632530847920092,0.0003156157368999908,-0.0005252798620941071,-0.014816265423960046,0.4,0.03346657752990723,2.1515727043151855,STABILIZE
0.04,0.0,0.0,-0.1729149360348192,4.913101032711351e-05,-0.0,-0.0,4.913101032711351e-05,0.04,0.0,0.0,-0.12244045230932904,0.00043651923559407914,-0.0,-0.0,0.00043651923559407914,0.5,0,0,-0.15616714642445076,0.03483481053263905,-0.0,0.0,0.03483481053263905,0.002,8e-05,0.0,-1.7234840296290632,-0.0018580227607730962,-0.00013787872237032507,0.0,-0.001995901483143421,0.010912980889851978,0.0,-0.010912980889851978,0.0012282752581778376,0.0,-0.0012282752581778376,-0.9290113803865481,0.0,0.9290113803865481,0.0696696210652781,0,-0.0696696210652781,4.860018233976354e-05,-0.0004365786544208773,-0.03483481053263905,0.4,0.03344988822937012,2.186755418777466,STABILIZE
0.04,0.0,0.0,-0.1727492719429063,0.00019726480904116902,-0.0,0.0,0.00019726480904116902,0.04,0.0,0.0,-0.121363658245603,0.001282194426715428,-0.0,0.0,0.001282194426715428,0.5,0,0,-0.15444997430130797,0.02555907160170024,-0.0,-0.0,0.02555907160170024,0.002,8e-05,0.0,-1.7545288705022364,-0.001848334945686373,-0.00014036230964017892,0.0,-0.0019886972553265518,0.032054860667885696,0.0,-0.032054860667885696,0.004931620226029225,0.0,-0.004931620226029225,-0.9241674728431865,0.0,0.9241674728431865,0.05111814320340048,0,-0.05111814320340048,0.0001961207825794017,-0.0012823699120872248,-0.02555907160170024,0.4,0.03359222412109375,2.218593120574951,STABILIZE
0.04,0.0,0.0,-0.17282143669065275,-8.627565776359105e-05,-0.0,-0.0,-8.627565776359105e-05,0.04,0.0,0.0,-0.12097782628343773,0.0004612765562345332,-0.0,-0.0,0.0004612765562345332,0.5,0,0,-0.15233263405400221,0.03164199423023808,-0.0,0.0,0.03164199423023808,0.002,8e-05,0.0,-1.7850545920940972,-0.0018247321519771393,-0.0001428043673675278,0.0,-0.0019675365193446673,0.01153191390586333,0.0,-0.01153191390586333,-0.0021568914440897764,0.0,0.0021568914440897764,-0.9123660759885697,0.0,0.9123660759885697,0.06328398846047616,0,-0.06328398846047616,-8.678509143086589e-05,-0.0004611809822179,-0.03164199423023808,0.4,0.03345775604248047,2.252077579498291,STABILIZE
0.04,0.0,0.0,-0.1731295271171339,-0.00036830214562833934,-0.0,-0.0,-0.00036830214562833934,0.04,0.0,0.0,-0.12127455278811905,-0.0003547173133132592,-0.0,-0.0,-0.0003547173133132592,0.5,0,0,-0.14978655018743414,0.03804597897267424,-0.0,0.0,0.03804597897267424,0.002,8e-05,0.0,-1.8153468482284394,-0.0018106214882473955,-0.00014522774785827517,0.0,-0.0019558492361056706,-0.00886793283283148,0.0,0.00886793283283148,-0.009207553640708483,0.0,0.009207553640708483,-0.9053107441236977,0.0,0.9053107441236977,0.07609195794534848,0,-0.07609195794534848,-0.0003678307368013495,0.00035520612593646476,-0.03804597897267424,0.4,0.03346061706542969,2.285508632659912,STABILIZE
0.04,0.0,0.0,-0.17288273802875154,0.0002949447102317755,-0.0,0.0,0.0002949447102317755,0.04,0.0,0.0,-0.12071929548851368,0.0006636039073269794,-0.0,0.0,0.0006636039073269794,0.5,0,0,-0.14783891910930014,0.0290958712834513,-0.0,-0.0,0.0290958712834513,0.002,8e-05,0.0,-1.8456029610667948,-0.001807997365755312,-0.0001476482368853436,0.0,-0.001955645602640656,0.016590097683174484,0.0,-0.016590097683174484,0.007373617755794388,0.0,-0.007373617755794388,-0.9039986828776561,0.0,0.9039986828776561,0.0581917425669026,0,-0.0581917425669026,0.0002942705772101212,-0.0006639031219250008,-0.0290958712834513,0.4,0.033469200134277344,2.3189847469329834,STABILIZE
0.04,0.0,0.0,-0.17337152744295048,-0.0005846118341041593,-0.0,-0.0,-0.0005846118341041593,0.04,0.0,0.0,-0.11952784206606346,0.001425026300313426,-0.0,0.0,0.001425026300313426,0.5,0,0,-0.14604917387222538,0.026757592718640213,-0.0,-0.0,0.026757592718640213,0.002,8e-05,0.0,-1.8753900032820345,-0.0017813251347236982,-0.00015003120026256279,0.0,-0.001931356334986261,0.035625657507835654,0.0,-0.035625657507835654,-0.014615295852603983,0.0,0.014615295852603983,-0.8906625673618491,0.0,0.8906625673618491,0.05351518543728043,0,-0.05351518543728043,-0.0005859425765365304,-0.0014244796418907966,-0.026757592718640213,0.4,0.03344368934631348,2.3524632453918457,STABILIZE
0.04,0.0,0.0,-0.17392161991710958,-0.0006578717946867017,-0.0,-0.0,-0.0006578717946867017,0.04,0.0,0.0,-0.12052757054209846,-0.0011956047348837548,-0.0,-0.0,-0.0011956047348837548,0.5,0,0,-0.1430833617251518,0.04433627643428179,-0.0,0.0,0.04433627643428179,0.002,8e-05,0.0,-1.905451051867263,-0.0017975446776615977,-0.00015243608414938106,-0.0,-0.0019499807618109787,-0.02989011837209387,0.0,0.02989011837209387,-0.016446794867167543,0.0,0.016446794867167543,-0.8987723388307989,0.0,0.8987723388307989,0.08867255286856358,0,-0.08867255286856358,-0.0006560206562048194,0.001196621443462114,-0.04433627643428179,0.4,0.0334467887878418,2.385885238647461,STABILIZE
0.04,0.0,0.0,-0.17566140113778697,-0.0020819764568463257,-0.0,-0.0,-0.0020819764568463257,0.04,0.0,0.0,-0.1187344799584569,0.002145771166952253,-0.0,0.0,0.002145771166952253,0.5,0,0,-0.1409879971624864,0.03134373762151029,-0.0,-0.0,0.03134373762151029,0.002,8e-05,0.0,-1.935998318040569,-0.0018277783504605997,-0.00015487986544324554,-0.0,-0.001982658215903845,0.05364427917380633,0.0,-0.05364427917380633,-0.05204941142115814,0.0,0.05204941142115814,-0.9138891752302999,0.0,0.9138891752302999,0.06268747524302058,0,-0.06268747524302058,-0.00208432290458528,-0.002143491986737342,-0.03134373762151029,0.4,0.03342556953430176,2.4193079471588135,STABILIZE
0.04,0.0,0.0,-0.17768205039234783,-0.002405357566323474,-0.0,-0.0,-0.002405357566323474,0.04,0.0,0.0,-0.11946828205723127,-0.0008735095546577512,-0.0,-0.0,-0.0008735095546577512,0.5,0,0,-0.138854158307033,0.03175121452111788,-0.0,0.0,0.03175121452111788,0.002,8e-05,0.0,-1.9666546463662553,-0.001824646982336172,-0.00015733237170930043,0.0,-0.0019819793540454722,-0.02183773886644378,0.0,0.02183773886644378,-0.06013393915808685,0.0,0.06013393915808685,-0.912323491168086,0.0,0.912323491168086,0.06350242904223576,0,-0.06350242904223576,-0.002404387955405121,0.0008761749390679645,-0.03175121452111788,0.4,0.03360247611999512,2.4529290199279785,STABILIZE
0.04,0.0,0.0,-0.1762903720185488,0.0016632820909382512,-0.0,0.0,0.0016632820909382512,0.04,0.0,0.0,-0.12156195388352503,-0.0025022784851288617,-0.0,-0.0,-0.0025022784851288617,0.5,0,0,-0.13769957396944693,0.017248951763387324,-0.0,-0.0,0.017248951763387324,0.002,8e-05,0.0,-1.9965561947989856,-0.001786860776736679,-0.00015972449558391885,0.0,-0.001946585272320598,-0.06255696212822154,0.0,0.06255696212822154,0.04158205227345628,0.0,-0.04158205227345628,-0.8934303883683395,0.0,0.8934303883683395,0.03449790352677465,0,-0.03449790352677465,0.001664788416239445,0.002501276566141712,-0.017248951763387324,0.4,0.03346824645996094,2.4863903522491455,STABILIZE
0.04,0.0,0.0,-0.17618901492068925,0.00012116757092835551,-0.0,-0.0,0.00012116757092835551,0.04,0.0,0.0,-0.12185882446902144,-0.00035489461008961557,-0.0,0.0,-0.00035489461008961557,0.5,0,0,-0.13510660850116263,0.038747080116738886,-0.0,0.0,0.038747080116738886,0.002,8e-05,0.0,-2.02616959999537,-0.0017700705970959143,-0.00016209356799962962,0.0,-0.001932164165095544,-0.008872365252240388,0.0,0.008872365252240388,0.0030291892732088876,0.0,-0.0030291892732088876,-0.8850352985479571,0.0,0.8850352985479571,0.07749416023347777,0,-0.07749416023347777,0.00012164746493903165,0.00035473040296716234,-0.038747080116738886,0.4,0.033460140228271484,2.519871473312378,STABILIZE
0.04,0.0,0.0,-0.1791124530492618,-0.0034935860266751017,-0.0,-0.0,-0.0034935860266751017,0.04,0.0,0.0,-0.12140778977934814,0.0005389984053323473,-0.0,0.0,0.0005389984053323473,0.5,0,0,-0.12892239819194257,0.09237868979999914,-0.0,0.0,0.09237868979999914,0.002,8e-05,0.0,-2.055471046224284,-0.0017508002325448396,-0.00016443768369794271,0.0,-0.0019152379162427824,0.013474960133308683,0.0,-0.013474960133308683,-0.08733965066687754,0.0,0.08733965066687754,-0.8754001162724198,0.0,0.8754001162724198,0.18475737959999827,0,-0.18475737959999827,-0.003495305927681589,-0.0005277301191369367,-0.09237868979999914,0.4,0.03347206115722656,2.5533511638641357,STABILIZE
0.04,0.0,0.0,-0.17955814503938688,-0.0005335981380401877,-0.0,0.0,-0.0005335981380401877,0.04,0.0,0.0,-0.12038758843577249,0.0012214209575659497,-0.0,0.0,0.0012214209575659497,0.5,0,0,-0.12680151504216355,0.03173994947175446,-0.0,-0.0,0.03173994947175446,0.002,8e-05,0.0,-2.0842816893121903,-0.0017246557990791356,-0.00016674253514497523,0.0,-0.001891398334224111,0.03053552393914874,0.0,-0.03053552393914874,-0.013339953451004694,0.0,0.013339953451004694,-0.8623278995395678,0.0,0.8623278995395678,0.06347989894350892,0,-0.06347989894350892,-0.0005349510631487308,-0.0012208290169132283,-0.03173994947175446,0.4,0.03341031074523926,2.586744546890259,STABILIZE
0.04,0.0,0.0,-0.18009041771215842,-0.0006366014102087619,-0.0,-0.0,-0.0006366014102087619,0.04,0.0,0.0,-0.1214999023893189,-0.0013303343711700438,-0.0,-0.0,-0.0013303343711700438,0.5,0,0,-0.12146081031251538,0.0798439487955341,-0.0,0.0,0.0798439487955341,0.002,8e-05,0.0,-2.112550716762635,-0.0016904965876303353,-0.00016900405734101082,0.0,-0.0018595006449713461,-0.033258359279251096,0.0,0.033258359279251096,-0.01591503525521905,0.0,0.01591503525521905,-0.8452482938151676,0.0,0.8452482938151676,0.1596878975910682,0,-0.1596878975910682,-0.0006328911947384673,0.0013321034607787399,-0.0798439487955341,0.4,0.03344464302062988,2.62019419670105,STABILIZE
0.04,0.0,0.0,-0.1815224094308448,-0.0017104639375907962,-0.0,-0.0,-0.0017104639375907962,0.04,0.0,0.0,-0.12081401640507003,0.0008192667779062772,-0.0,0.0,0.0008192667779062772,0.5,0,0,-0.11780020698746128,0.054655780264163234,-0.0,-0.0,0.054655780264163234,0.002,8e-05,0.0,-2.1409385055209853,-0.0016954109547381204,-0.00017127508044167885,-0.0,-0.0018666860351797994,0.02048166944765693,0.0,-0.02048166944765693,-0.042761598439769906,0.0,0.042761598439769906,-0.8477054773690602,0.0,0.8477054773690602,0.10931156052832647,0,-0.10931156052832647,-0.0017120238590737063,-0.0008160019859914059,-0.054655780264163234,0.4,0.033487796783447266,2.653721332550049,STABILIZE
0.04,0.0,0.0,-0.18134036674711548,0.00021762333628894847,-0.0,0.0,0.00021762333628894847,0.04,0.0,0.0,-0.11888756200218704,0.0023029842549856026,-0.0,0.0,0.0023029842549856026,0.5,0,0,-0.11738174303593511,0.006253170917266501,-0.0,-0.0,0.006253170917266501,0.002,8e-05,0.0,-2.1693245365409037,-0.0016967072359089562,-0.0001735459629232723,-0.0,-0.0018702531988322286,0.05757460637464006,0.0,-0.05757460637464006,0.005440583407223712,0.0,-0.005440583407223712,-0.8483536179544781,0.0,0.8483536179544781,0.012506341834533002,0,-0.012506341834533002,0.00021712064297737434,-0.0023030317022573127,-0.006253170917266501,0.4,0.033460140228271484,2.6871564388275146,STABILIZE
0.04,0.0,0.0,-0.18132852199382257,1.4168115247539665e-05,-0.0,-0.0,1.4168115247539665e-05,0.04,0.0,0.0,-0.11845879165635191,0.0005128741413425639,-0.0,-0.0,0.0005128741413425639,0.5,0,0,-0.11514556691151107,0.033435057975817424,-0.0,0.0,0.033435057975817424,0.002,8e-05,0.0,-2.197756050534424,-0.0017004194049490605,-0.0001758204840427539,-0.0,-0.0018762398889918144,0.012821853533564097,0.0,-0.012821853533564097,0.0003542028811884916,0.0,-0.0003542028811884916,-0.8502097024745302,0.0,0.8502097024745302,0.06687011595163485,0,-0.06687011595163485,1.3569528428817913e-05,-0.0005128903276976076,-0.033435057975817424,0.4,0.033440589904785156,2.720582962036133,STABILIZE
0.04,0.0,0.0,-0.1818255402217332,-0.0005946064280891447,-0.0,-0.0,-0.0005946064280891447,0.04,0.0,0.0,-0.11787887368526097,0.0006937833141948621,-0.0,0.0,0.0006937833141948621,0.5,0,0,-0.11110118802230845,0.06048102338362239,-0.0,0.0,0.06048102338362239,0.002,8e-05,0.0,-2.226365415853,-0.0017113368853179391,-0.00017810923326824,-0.0,-0.0018894461185861792,0.017344582854871553,0.0,-0.017344582854871553,-0.014865160702228616,0.0,0.014865160702228616,-0.8556684426589696,0.0,0.8556684426589696,0.12096204676724479,0,-0.12096204676724479,-0.0005960698074998367,-0.0006925264442367853,-0.06048102338362239,0.4,0.03343510627746582,2.7540555000305176,STABILIZE
0.04,0.0,0.0,-0.18094911452716972,0.0010484721542506122,-0.0,0.0,0.0010484721542506122,0.04,0.0,0.0,-0.11539505210635807,0.002971407362609982,-0.0,0.0,0.002971407362609982,0.5,0,0,-0.11059499606388269,0.007569497568463757,-0.0,-0.0,0.007569497568463757,0.002,8e-05,0.0,-2.254756534756804,-0.001698221411313332,-0.00018038052278054434,0.0,-0.0018786019340938762,0.07428518406524955,0.0,-0.07428518406524955,0.026211803856265307,0.0,-0.026211803856265307,-0.8491107056566659,0.0,0.8491107056566659,0.015138995136927513,0,-0.015138995136927513,0.0010476869966269447,-0.002971684291762929,-0.007569497568463757,0.4,0.03343629837036133,2.7874600887298584,STABILIZE
0.04,0.0,0.0,-0.1811221605092389,-0.00020681957749647248,-0.0,-0.0,-0.00020681957749647248,0.04,0.0,0.0,-0.11465320897004123,0.0008866295662407844,-0.0,-0.0,0.0008866295662407844,0.5,0,0,-0.10814181246045428,0.03664968050078078,-0.0,0.0,0.03664968050078078,0.002,8e-05,0.0,-2.283359223387402,-0.0017092555132191746,-0.00018266873787099215,-0.0,-0.0018919242510901668,0.02216573915601961,0.0,-0.02216573915601961,-0.005170489437411812,0.0,0.005170489437411812,-0.8546277566095873,0.0,0.8546277566095873,0.07329936100156156,0,-0.07329936100156156,-0.00020795368661292004,-0.0008863642533361983,-0.03664968050078078,0.4,0.033468008041381836,2.820949077606201,STABILIZE
0.04,0.0,0.0,-0.18248352580187888,-0.0016272500922295005,-0.0,-0.0,-0.0016272500922295005,0.04,0.0,0.0,-0.11603302472254752,-0.0016493040645772917,-0.0,-0.0,-0.0016493040645772917,0.5,0,0,-0.1028704341731782,0.07876147249494211,-0.0,0.0,0.07876147249494211,0.002,8e-05,0.0,-2.3119781440479676,-0.0017104204703979667,-0.00018495825152383742,-0.0,-0.001895378721921804,-0.04123260161443229,0.0,0.04123260161443229,-0.04068125230573751,0.0,0.04068125230573751,-0.8552102351989833,0.0,0.8552102351989833,0.15752294498988423,0,-0.15752294498988423,-0.0016227095262342347,0.0016537716146919317,-0.07876147249494211,0.4,0.03346419334411621,2.854436159133911,STABILIZE
0.04,0.0,0.0,-0.18197531641451828,0.000608289897550543,-0.0,0.0,0.000608289897550543,0.04,0.0,0.0,-0.11601703462822455,1.9138986959802153e-05,-0.0,0.0,1.9138986959802153e-05,0.5,0,0,-0.10009006299588226,0.04159879128201342,-0.0,-0.0,0.04159879128201342,0.002,8e-05,0.0,-2.340574309468189,-0.001711377137693737,-0.00018724594475745513,-0.0,-0.0018986230824511922,0.0004784746739950538,0.0,-0.0004784746739950538,0.015207247438763574,0.0,-0.015207247438763574,-0.8556885688468685,0.0,0.8556885688468685,0.08319758256402685,0,-0.08319758256402685,0.0006082614650848394,-2.0022247045280184e-05,-0.04159879128201342,0.4,0.033418893814086914,2.887845993041992,STABILIZE
0.04,0.0,0.0,-0.18365986607686574,-0.002014875455233967,-0.0,-0.0,-0.002014875455233967,0.04,0.0,0.0,-0.11714218796715939,-0.0013457862933142484,-0.0,-0.0,-0.0013457862933142484,0.5,0,0,-0.09369191973148538,0.09565955601257906,-0.0,0.0,0.09565955601257906,0.002,8e-05,0.0,-2.368990971988627,-0.0016994463598155392,-0.00018951927775909017,0.0,-0.0018889656375746294,-0.03364465733285621,0.0,0.03364465733285621,-0.050371886380849176,0.0,0.050371886380849176,-0.8497231799077696,0.0,0.8497231799077696,0.1913191120251581,0,-0.1913191120251581,-0.002010370450568878,0.0013525067463256058,-0.09565955601257906,0.4,0.03344225883483887,2.9213051795959473,STABILIZE
0.04,0.0,0.0,-0.18588177493539698,-0.0026580799512194793,-0.0,-0.0,-0.0026580799512194793,0.04,0.0,0.0,-0.1200883346686043,-0.003524489067314264,-0.0,-0.0,-0.003524489067314264,0.5,0,0,-0.08501591000758893,0.1297393872341302,-0.0,0.0,0.1297393872341302,0.002,8e-05,0.0,-2.3972818345056144,-0.0016922245521092058,-0.00019178254676044916,0.0,-0.001884007098869655,-0.08811222668285659,0.0,0.08811222668285659,-0.06645199878048698,0.0,0.06645199878048698,-0.8461122760546028,0.0,0.8461122760546028,0.2594787744682604,0,-0.2594787744682604,-0.0026420911862519722,0.0035364906865736783,-0.1297393872341302,0.4,0.03343629837036133,2.9547371864318848,STABILIZE
0.04,0.0,0.0,-0.18690594640507713,-0.0012246971509929608,-0.0,0.0,-0.0012246971509929608,0.04,0.0,0.0,-0.12298502242735004,-0.003463839162166832,-0.0,0.0,-0.003463839162166832,0.5,0,0,-0.07868653700060001,0.09460775513073813,-0.0,-0.0,0.09460775513073813,0.002,8e-05,0.0,-2.4250933957282035,-0.0016628436156597888,-0.0001940074716582563,0.0,-0.001856851087318045,-0.0865959790541708,0.0,0.0865959790541708,-0.03061742877482402,0.0,0.03061742877482402,-0.8314218078298944,0.0,0.8314218078298944,0.18921551026147626,0,-0.18921551026147626,-0.0012132513944694114,0.003467864747482076,-0.09460775513073813,0.4,0.03345060348510742,2.988176107406616,STABILIZE
0.04,0.0,0.0,-0.18877980723243426,-0.0022397121726979445,-0.0,-0.0,-0.0022397121726979445,0.04,0.0,0.0,-0.12574849860245566,-0.0033030154310201725,-0.0,0.0,-0.0033030154310201725,0.5,0,0,-0.07123174021190774,0.11137832962875582,-0.0,0.0,0.11137832962875582,0.002,8e-05,0.0,-2.4526621015467533,-0.001647560083061779,-0.00019621296812374027,0.0,-0.0018437730511855193,-0.08257538577550431,0.0,0.08257538577550431,-0.055992804317448616,0.0,0.055992804317448616,-0.8237800415308895,0.0,0.8237800415308895,0.22275665925751165,0,-0.22275665925751165,-0.002226853692084835,0.0033116980822739356,-0.11137832962875582,0.4,0.03346610069274902,3.0216422080993652,STABILIZE
