Mode,Time,Freq,time2delay,actualDelay,North-Desired,East-Desired,Down-Desired,Roll-UAV,Pitch-UAV,Yaw-UAV,Roll-Control,Pitch-Control,Yaw-Control,Thrust-Control,North-Pos,East-Pos,Down-Pos,Yaw-Ang,North-Vel,East-Vel,Down-Vel,Yaw-Vel,North-Acc,East-Acc,Down-Acc,North-Avg,East-Avg,Down-Avg,Yaw-Avg,North-Dif,East-Dif,Down-Dif,Yaw-Dif,North-One,East-One,Down-One,Yaw-One,North-Two,East-Two,Down-Two,Yaw-Two,Landing-State,Q-Size,Kalman-Time,Kalman-Dt
STABILIZE,0.03466320037841797,28.85499250127272,0.03269246419270833,0.032865285873413086,0.0,0.0,0.0,0.1665485600212074,-1.492748942163688,3.738072886515122,-0.09216267567007119,-0.21410081030117833,-0.0011671866551614372,0.4,-0.06691084257786474,0.028794652855919835,0.6451098555555259,-0.005816734865508203,-0.2280251355841756,0.08247524965554476,1.2647341936826706,-0.019827772356282563,-7.353951781988144,0.7109581958502531,17.473065853118896,0.0,0.0,0.0,0.0,0.0,0.0,0.0,0.0,0.0,0.0,0.0,0.0,0.0,0.0,0.0,0.0,False,0,3.5047569274902344,0.0399091796875
STABILIZE,0.06772589683532715,30.247093777944443,0.03206804593404134,0.0321805477142334,0.0,0.0,0.0,0.16729603884850067,-1.4932443443219254,3.7398798984374135,-0.048725250856293895,-0.11221614793438082,-0.0005694047073936169,0.4,-0.06658849764587774,0.028912216628553724,0.649848364480317,-0.0028184101419230006,-0.07376635330729187,0.069425132824108,1.3091392815113068,0.159079001111858,-1.0920774191617966,0.8320355787873268,23.292501270771027,0.0,0.0,0.0,0.0,0.0,0.0,0.0,0.0,0.0,0.0,0.0,0.0,0.0,0.0,0.0,0.0,False,0,3.5363147258758545,0.059863037109375
STABILIZE,0.10115361213684082,29.916149555641148,0.03245499928792318,0.032564640045166016,0.0,0.0,0.0,0.1671331281646253,-1.4932380477412843,3.741190867871233,-0.03684458526210855,-0.07565867064959285,-0.0014810542905034127,0.4,-0.06407348623729812,0.031232984736511978,0.6650329169809611,-0.007352094656050868,-0.009305762068834156,0.11801940854638815,1.281869038939476,-0.14266577639183967,6.376487761735916,0.7311335299164057,19.21324133872986,0.0,0.0,0.0,0.0,0.0,0.0,0.0,0.0,0.0,0.0,0.0,0.0,0.0,0.0,0.0,0.0,False,0,3.5909132957458496,0.034919921875
STABILIZE,0.14395737648010254,23.36243121003498,0.0324590524037679,0.04184532165527344,0.0,0.0,0.0,0.16790643364471766,-1.4933052824159267,3.7425603207998206,-0.0298763243220716,-0.055573986609979885,-0.0012613085234456443,0.4,-0.05888866356896766,0.03243728372039207,0.6581406691103575,-0.006226716840148685,0.1532163703814149,0.13008135138079524,0.928038265556097,0.04952430094937407,3.200925886631012,0.6213576067239046,12.560459971427917,0.0,0.0,0.0,0.0,0.0,0.0,0.0,0.0,0.0,0.0,0.0,0.0,0.0,0.0,0.0,0.0,False,0,3.619739294052124,0.029930908203125
STABILIZE,0.1773669719696045,29.931307134038864,0.03236106236775716,0.03248882293701172,0.0,0.0,0.0,0.16661792912996534,-1.4939801904832886,3.7435250850200847,-0.025821173048859256,-0.04240401315260556,-0.0010361309105314462,0.4,-0.05359633317704726,0.033490476127904685,0.6485100420613362,-0.005083866691078902,0.1532163703814149,0.13008135138079524,0.928038265556097,0.04952430094937407,3.200925886631012,0.6213576067239046,12.560459971427917,0.0,0.0,0.0,0.0,0.0,0.0,0.0,0.0,0.0,0.0,0.0,0.0,0.0,0.0,0.0,0.0,False,0,3.6484570503234863,0.029930908203125
STABILIZE,0.21090984344482422,29.815348744633056,0.032381566365559895,0.03251338005065918,0.0,0.0,0.0,0.16622257857089798,-1.4941804004033346,3.7439989293937543,-0.00752888990591777,-0.004520922915408208,-0.001086941673707612,0.4,-0.05705145057574052,0.03239016358501152,0.6447500133468931,-0.005320122726437383,-0.3284682519733906,0.009768159361556172,1.2263030745089054,-0.026120864531630338,-6.154882907867432,-1.232837326824665,14.225490391254425,0.0,0.0,0.0,0.0,0.0,0.0,0.0,0.0,0.0,0.0,0.0,0.0,0.0,0.0,0.0,0.0,False,0,3.6770761013031006,0.069763916015625
STABILIZE,0.25069379806518555,25.133050502145203,0.032292874654134114,0.0388491153717041,0.0,0.0,0.0,0.16663569829397795,-1.493892145076019,3.7444714931069547,-0.007155814186319845,-0.00027538259247824156,-0.0009598945124951804,0.4,-0.05043079655603801,0.031932500211826996,0.6547106063862859,-0.0046662827736433776,-0.05076273810118437,0.02158917486667633,1.1414142325520515,-0.2114937260601904,3.578917682170868,0.7600550074130297,20.565414428710938,0.0,0.0,0.0,0.0,0.0,0.0,0.0,0.0,0.0,0.0,0.0,0.0,0.0,0.0,0.0,0.0,False,0,3.734600067138672,0.034920166015625
STABILIZE,0.2841634750366211,29.879280498664293,0.03240207036336263,0.03254580497741699,0.0,0.0,0.0,0.16581804994513338,-1.4927765830854853,3.7455310262019528,-0.0060434650676373875,0.0011736105257010745,-0.000767805106431138,0.4,-0.04657273824918047,0.03228780599451191,0.6509263224385051,-0.0036934721382605876,0.0793109938967973,0.08521367562934756,1.1382602155208588,0.04013640603838989,0.31611165031790733,0.7219312246888876,16.86365455389023,0.0,0.0,0.0,0.0,0.0,0.0,0.0,0.0,0.0,0.0,0.0,0.0,0.0,0.0,0.0,0.0,False,0,3.76314377784729,0.0349189453125
STABILIZE,0.3176255226135254,29.886306308874037,0.03237441380818685,0.03248786926269531,0.0,0.0,0.0,0.16656857034104142,-1.4923726414291025,3.746288323426178,-0.005609770940328568,0.0032020884731329274,-0.0014896278970632846,0.4,-0.04077315887332262,0.03245058591152753,0.6552801215873554,-0.007278261385237415,0.18661997746676207,0.07431309204548597,1.5565721318125725,-0.20124359980777143,5.833000689744949,0.8437703363597393,22.17601388692856,0.0,0.0,0.0,0.0,0.0,0.0,0.0,0.0,0.0,0.0,0.0,0.0,0.0,0.0,0.0,0.0,False,0,3.792116403579712,0.039908935546875
STABILIZE,0.3510298728942871,29.93365686554382,0.032357247670491536,0.03248405456542969,0.0,0.0,0.0,0.1668356414097595,-1.4920982599235384,3.7466588611886515,-0.00782880184807996,-0.00017363410008228237,-0.0010312137401968702,0.4,-0.04103071928309338,0.03615582160724588,0.6591273159616138,-0.004969566036254975,-0.13159251539036632,0.25216646026819944,1.3594009913504124,0.11379748827689154,-0.6507698446512222,0.5941042676568031,12.204161286354065,0.0,0.0,0.0,0.0,0.0,0.0,0.0,0.0,0.0,0.0,0.0,0.0,0.0,0.0,0.0,0.0,False,0,3.820812702178955,0.02494287109375
STABILIZE,0.3854401111602783,29.061923601920693,0.032413514455159505,0.03345346450805664,0.0,0.0,0.0,0.16720532539858646,-1.4915562203798745,3.747844752783295,-0.010756112031241256,0.0016517383281614841,-0.0005678088601429513,0.4,-0.041342322473408896,0.03916610227296051,0.6536951073720312,-0.002643460048772629,-0.13159251539036632,0.25216646026819944,1.3594009913504124,0.11379748827689154,-0.6507698446512222,0.5941042676568031,12.204161286354065,0.0,0.0,0.0,0.0,0.0,0.0,0.0,0.0,0.0,0.0,0.0,0.0,0.0,0.0,0.0,0.0,False,1,3.849400520324707,0.02494287109375
STABILIZE,0.41883349418640137,29.944128334915863,0.032357009251912434,0.03247880935668945,0.0,0.0,0.0,0.1686081822210836,-1.4915524851201722,3.7491774934450937,-0.010345382704851604,-0.001869765578791683,-0.000261748578847594,0.4,-0.04159551230060088,0.038325610878388976,0.6389278392750661,-0.0011094485017053017,-0.019742162839975208,0.04923685337416828,0.8979524485766888,0.15794256168763102,-3.9954829961061478,0.4970040637999773,10.942557454109192,0.0,0.0,0.0,0.0,0.0,0.0,0.0,0.0,0.0,0.0,0.0,0.0,0.0,0.0,0.0,0.0,False,0,3.906844139099121,0.034920166015625
STABILIZE,0.45234227180480957,29.844200939234383,0.0324127991994222,0.03255605697631836,0.0,0.0,0.0,0.1694940791007754,-1.491933374888106,3.7493448330797587,-0.011893534053282008,-0.006743906953732001,-0.0007853168972212042,0.4,-0.04493642890024138,0.04061222427360523,0.643723871242263,-0.0037148519983485886,-0.2914440119639039,0.19135151524096727,1.5076260082423687,-0.15753886015508622,-2.0011626183986664,0.7736196275800467,22.086359560489655,0.0,0.0,0.0,0.0,0.0,0.0,0.0,0.0,0.0,0.0,0.0,0.0,0.0,0.0,0.0,0.0,False,0,3.935584545135498,0.02993212890625
STABILIZE,0.48575329780578613,29.930025617788306,0.03236583073933919,0.03247570991516113,0.0,0.0,0.0,0.1702748551002725,-1.4914310358189928,3.750424429855444,-0.00879812396756835,-0.012013188879452737,-0.00037393144465833737,0.4,-0.04726781042549602,0.03670521391551884,0.6419924533870763,-0.0016524035704974858,-0.2414446324110031,-0.14530748594552279,1.309012807905674,0.10845650712956637,-4.45232093334198,-1.329469308257103,15.697203576564789,0.0,0.0,0.0,0.0,0.0,0.0,0.0,0.0,0.0,0.0,0.0,0.0,0.0,0.0,0.0,0.0,False,0,3.964871883392334,0.034919921875
STABILIZE,0.5192687511444092,29.838680762061948,0.032385857899983723,0.03251767158508301,0.0,0.0,0.0,0.17070131503657515,-1.4908276312945046,3.75109037329952,-0.005567705076922291,-0.011337217543209072,-0.0006561998233814535,0.4,-0.046579910757922525,0.035376495180975166,0.6457137508544563,-0.003053529766730921,-0.05708024255000055,-0.012157777382526547,1.4246976003050804,-0.08961198852907473,-5.47075979411602,0.8608339354395866,23.973555862903595,0.0,0.0,0.0,0.0,0.0,0.0,0.0,0.0,0.0,0.0,0.0,0.0,0.0,0.0,0.0,0.0,False,0,3.9928574562072754,0.034919921875
STABILIZE,0.5527207851409912,29.894400729843767,0.03229811986287435,0.032457828521728516,0.0,0.0,0.0,0.17067698248765698,-1.4904195274915963,3.750791125636509,-0.0027872244145730612,-0.010643028836681355,-0.0009432954405313073,0.4,-0.04590355283219132,0.03403058232247613,0.6494520046488509,-0.004474028623090648,-0.05708024255000055,-0.012157777382526547,1.4246976003050804,-0.08961198852907473,-5.47075979411602,0.8608339354395866,23.973555862903595,0.0,0.0,0.0,0.0,0.0,0.0,0.0,0.0,0.0,0.0,0.0,0.0,0.0,0.0,0.0,0.0,False,0,4.027921438217163,0.034919921875
STABILIZE,0.5860984325408936,29.9608123263306,0.03233793576558431,0.03244280815124512,0.0,0.0,0.0,0.17004801811463402,-1.4899315958527635,3.751534762482394,-0.0036380384176418323,-0.010460019860731019,-0.0008049324045839449,0.4,-0.04585452646279908,0.034477635805208906,0.6449475479060083,-0.0037696223433331504,-0.0922577572055161,0.09106432553380728,0.9528436698019505,0.03270415970542431,-0.38576587103307247,0.6342314649373293,14.311181008815765,0.0,0.0,0.0,0.0,0.0,0.0,0.0,0.0,0.0,0.0,0.0,0.0,0.0,0.0,0.0,0.0,False,0,4.056529998779297,0.02993115234375
STABILIZE,0.6196556091308594,29.801155297243913,0.03237942059834798,0.03251051902770996,0.0,0.0,0.0,0.16972401101588153,-1.490455385984739,3.7523846941472376,-0.00175482546494697,-0.005709557758874035,-0.001076730863535488,0.4,-0.04225803047665093,0.03379797578276584,0.6348083538576011,-0.005111506955032117,0.10398508748039603,0.03533110429998487,0.8059929125010967,-0.08664447143790253,-4.4460587203502655,0.5818260833621025,12.862788140773773,0.0,0.0,0.0,0.0,0.0,0.0,0.0,0.0,0.0,0.0,0.0,0.0,0.0,0.0,0.0,0.0,False,0,4.085273742675781,0.034919921875
STABILIZE,0.6531388759613037,29.864175555017585,0.03226974805196126,0.032390594482421875,0.0,0.0,0.0,0.1697379915593389,-1.4906219785674637,3.7534467885631746,-0.0037132405790823698,-0.00170669317664869,-0.0013546820638339803,0.4,-0.03885653240413678,0.03329751778760989,0.6280593735877898,-0.006479591575865142,0.10398508748039603,0.03533110429998487,0.8059929125010967,-0.08664447143790253,-4.4460587203502655,0.5818260833621025,12.862788140773773,0.0,0.0,0.0,0.0,0.0,0.0,0.0,0.0,0.0,0.0,0.0,0.0,0.0,0.0,0.0,0.0,False,0,4.115262269973755,0.034919921875
STABILIZE,0.6865284442901611,29.945197264146902,0.032202752431233723,0.03255486488342285,0.0,0.0,0.0,0.1694969605868315,-1.490390819352741,3.75351167536029,-0.006008606937634097,0.000977107816588106,-0.0015779733555609503,0.4,-0.034802509842506386,0.035255137090423175,0.6420963976823881,-0.007570579771438237,0.17163041047751904,0.15925808111205697,1.1549916118383408,0.09367591773469926,4.583139345049858,0.6091926712542772,16.11262857913971,0.0,0.0,0.0,0.0,0.0,0.0,0.0,0.0,0.0,0.0,0.0,0.0,0.0,0.0,0.0,0.0,False,0,4.176608562469482,0.03492919921875
STABILIZE,0.7201828956604004,29.715014417184435,0.03255179723103841,0.03267168998718262,0.0,0.0,0.0,0.16924413686583525,-1.4900943464540801,3.7528700644651316,-0.0038576362690250212,0.0007386116352730024,-0.0005029539670179768,0.4,-0.03457992747964946,0.03139897707707764,0.6435078600563189,-0.0021881574149379473,-0.08009623852558434,-0.1389533281326294,1.376333087682724,0.27791217975647364,0.3088749945163727,-1.4098803512752056,13.63903135061264,0.0,0.0,0.0,0.0,0.0,0.0,0.0,0.0,0.0,0.0,0.0,0.0,0.0,0.0,0.0,0.0,False,0,4.20523738861084,0.0349189453125
STABILIZE,0.7536237239837646,29.903139102970847,0.0323217233022054,0.032468318939208984,0.0,0.0,0.0,0.16882119874582338,-1.4895175156343314,3.7530766776875244,-0.0006396184850886107,0.0008295617029469434,0.0005757674065808957,0.4,-0.034417027537694024,0.027552089149772318,0.6451377193631899,0.0031947631583380213,-0.08009623852558434,-0.1389533281326294,1.376333087682724,0.27791217975647364,0.3088749945163727,-1.4098803512752056,13.63903135061264,0.0,0.0,0.0,0.0,0.0,0.0,0.0,0.0,0.0,0.0,0.0,0.0,0.0,0.0,0.0,0.0,False,0,4.234042167663574,0.0349189453125
STABILIZE,0.7870697975158691,29.899515255203877,0.03235462506612142,0.03248262405395508,0.0,0.0,0.0,0.16797788382673837,-1.4884457095431685,3.754271960792277,-0.0029616180686575697,0.0014022888989863695,0.0005907998728375681,0.4,-0.03086629175830701,0.030042164576302446,0.6443586470351808,0.003259021534876275,0.10637809755280614,0.2030978910624981,1.236260961741209,-0.008950642742184366,4.57884818315506,0.6232754793018103,15.24961143732071,0.0,0.0,0.0,0.0,0.0,0.0,0.0,0.0,0.0,0.0,0.0,0.0,0.0,0.0,0.0,0.0,False,0,4.262621164321899,0.0399091796875
STABILIZE,0.8215804100036621,28.97679399227618,0.03234985669453939,0.03352689743041992,0.0,0.0,0.0,0.16783167508981778,-1.4887793215954412,3.7554143099309614,-0.004005724883537877,0.0022996723465867766,0.000317120729110553,0.4,-0.02695297939914176,0.031029540584069083,0.6431630337117211,0.001884129186161686,0.1272009452804923,0.11339313350617886,1.0447624139487743,-0.08968127092644673,3.784891590476036,0.6890879012644291,18.588849902153015,0.0,0.0,0.0,0.0,0.0,0.0,0.0,0.0,0.0,0.0,0.0,0.0,0.0,0.0,0.0,0.0,False,0,4.292245388031006,0.05986279296875
STABILIZE,0.8576188087463379,27.748180687501655,0.032337220509847005,0.035089731216430664,0.0,0.0,0.0,0.16767981010249078,-1.4890258487357964,3.7562219798003156,-0.005713394019248593,0.004258709715487214,-0.000524400904177254,0.4,-0.020920336727297845,0.03498524578648165,0.666942628807309,-0.002315131642363565,-0.005215038254391402,0.1484667882323265,1.3199476525187492,-0.15208076527587913,0.6880642380565405,0.7265434134751558,18.58268529176712,0.0,0.0,0.0,0.0,0.0,0.0,0.0,0.0,0.0,0.0,0.0,0.0,0.0,0.0,0.0,0.0,False,0,4.349360227584839,0.029931884765625
STABILIZE,0.891577959060669,29.44652410171443,0.03237751324971517,0.033132314682006836,0.0,0.0,0.0,0.1672907027632116,-1.4894955309629405,3.756959213343854,-0.006031846947430022,0.0027661758762000947,-0.00037574991539190316,0.4,-0.022712644107646143,0.03235599781487625,0.6578304828149417,-0.0015665373371353364,-0.15190262347459793,-0.048082717694342136,1.127467304468155,0.032084560162083664,-0.2024268265813589,0.615473510697484,14.871294796466827,0.0,0.0,0.0,0.0,0.0,0.0,0.0,0.0,0.0,0.0,0.0,0.0,0.0,0.0,0.0,0.0,False,0,4.378039836883545,0.034919921875
STABILIZE,0.9251995086669922,29.743039895616164,0.03250244458516439,0.03264451026916504,0.0,0.0,0.0,0.1674266128555243,-1.4898114272120535,3.7574505600772716,-0.006344501346335047,0.003230178353585581,-0.0006902090395776224,0.4,-0.021977548273471075,0.029761302267943854,0.6530551922331703,-0.0031283609433228835,-0.029406504472717643,-0.05916688241995871,1.1552579700946808,-0.08099487779788385,2.333095483481884,-1.4311685226857662,12.720945477485657,0.0,0.0,0.0,0.0,0.0,0.0,0.0,0.0,0.0,0.0,0.0,0.0,0.0,0.0,0.0,0.0,False,0,4.406353235244751,0.034920166015625
STABILIZE,0.9586551189422607,29.892270193993472,0.032337220509847005,0.03245997428894043,0.0,0.0,0.0,0.16796342303560496,-1.489190093440994,3.7573724397886394,-0.0048955307765201975,-0.003031080542081813,-0.0007707952757703002,0.4,-0.027361148182382288,0.029807090519546487,0.6499747096371729,-0.003519522716615541,-0.33436401281505823,0.07030640263110399,1.2211118824779987,-0.02357876684012944,-4.171978682279587,0.7192539051175117,20.929275453090668,0.0,0.0,0.0,0.0,0.0,0.0,0.0,0.0,0.0,0.0,0.0,0.0,0.0,0.0,0.0,0.0,False,0,4.435111045837402,0.02993115234375
STABILIZE,0.9920303821563721,29.9608123263306,0.03231075604756673,0.03244280815124512,0.0,0.0,0.0,0.1675870155793138,-1.4885247903271523,3.7588622748013485,-0.007956928460375885,-0.006665707820836793,-0.0008737934112396445,0.4,-0.029133613087917197,0.034533020063226144,0.6375334814523608,-0.004021063556527116,-0.15937817515805364,0.31657994259148836,0.8731783367693424,-0.03196634586261088,-5.3415607661008835,0.5188345443457365,8.445294201374054,0.0,0.0,0.0,0.0,0.0,0.0,0.0,0.0,0.0,0.0,0.0,0.0,0.0,0.0,0.0,0.0,False,0,4.463947296142578,0.034919921875
STABILIZE,1.0255126953125,29.866940106670086,0.03240016301472982,0.03252601623535156,0.0,0.0,0.0,0.16733888761337193,-1.4878839264839347,3.760007612147795,-0.009450709883370916,-0.011446622663914255,-0.0009828132567648465,0.4,-0.03099643013257912,0.039327643594587514,0.6287751502295132,-0.004550942428164309,-0.15937817515805364,0.31657994259148836,0.8731783367693424,-0.03196634586261088,-5.3415607661008835,0.5188345443457365,8.445294201374054,0.0,0.0,0.0,0.0,0.0,0.0,0.0,0.0,0.0,0.0,0.0,0.0,0.0,0.0,0.0,0.0,False,0,4.492760419845581,0.034919921875
STABILIZE,1.0588963031768799,29.95546286905969,0.03235510190327962,0.03247427940368652,0.0,0.0,0.0,0.16761108132396751,-1.4873229971983475,3.761243022613921,-0.009525342987287477,-0.010930914286141843,-0.0002150413334913333,0.4,-0.031687874517406234,0.03741079316758321,0.6216436400782018,-0.0007097097543241524,-0.04630641487892717,0.07533821044489741,1.1452993378043175,0.09559984328567434,2.6388758793473244,0.5362576339393854,12.062975764274597,0.0,0.0,0.0,0.0,0.0,0.0,0.0,0.0,0.0,0.0,0.0,0.0,0.0,0.0,0.0,0.0,False,0,4.55018424987793,0.029931884765625
STABILIZE,1.0923821926116943,29.862687162253565,0.03242019017537435,0.03257298469543457,0.0,0.0,0.0,0.16764427177446556,-1.4879378209453544,3.761826150014311,-0.011013019588932907,-0.011030738272929524,0.00015191108842750888,0.4,-0.031239773705423586,0.03732319761491802,0.6161813003259962,0.001121298682985472,-0.04630641487892717,0.07533821044489741,1.1452993378043175,0.09559984328567434,2.6388758793473244,0.5362576339393854,12.062975764274597,0.0,0.0,0.0,0.0,0.0,0.0,0.0,0.0,0.0,0.0,0.0,0.0,0.0,0.0,0.0,0.0,False,0,4.578855037689209,0.029931884765625
STABILIZE,1.1258399486541748,29.886732221747184,0.032414944966634114,0.03253293037414551,0.0,0.0,0.0,0.16807446697047057,-1.4878094347332993,3.76195165474031,-0.008455788611671011,-0.006565993608198391,-0.00036893445753227266,0.4,-0.029613759288627476,0.0340218314127357,0.6054135917024801,-0.0014779842896987397,0.020646049233619124,-0.1035892404615879,0.8214282803237438,-0.14584412221278312,-4.735567420721054,-1.5452289953827858,9.8914235830307,0.0,0.0,0.0,0.0,0.0,0.0,0.0,0.0,0.0,0.0,0.0,0.0,0.0,0.0,0.0,0.0,False,0,4.607618808746338,0.06984033203125
STABILIZE,1.1594665050506592,29.74071999376015,0.032401116689046223,0.03264331817626953,0.0,0.0,0.0,0.16947641665846858,-1.4879164766041981,3.763529428438583,-0.0068153968200083065,-0.00679793774385805,-0.00022683305667624666,0.4,-0.031294572132416903,0.03556331101762655,0.6269589578030672,-0.0007649102982911422,-0.09664159151725471,0.08492611232213676,1.3845169916749,0.03366788672411055,1.0917939245700836,-1.4362876303493977,18.49711239337921,0.0,0.0,0.0,0.0,0.0,0.0,0.0,0.0,0.0,0.0,0.0,0.0,0.0,0.0,0.0,0.0,False,0,4.63627028465271,0.034919921875
STABILIZE,1.1928396224975586,29.963380744529616,0.03232410748799642,0.03245806694030762,0.0,0.0,0.0,0.1694560861735172,-1.4882037714361618,3.764045961494565,-0.004130086333089455,-0.006162636494912142,-8.22648094526978e-05,0.4,-0.031912028013728624,0.03579399576756038,0.6278803974598863,-4.192887553143587e-05,-0.09664159151725471,0.08492611232213676,1.3845169916749,0.03366788672411055,1.0917939245700836,-1.4362876303493977,18.49711239337921,0.0,0.0,0.0,0.0,0.0,0.0,0.0,0.0,0.0,0.0,0.0,0.0,0.0,0.0,0.0,0.0,False,0,4.664809226989746,0.034919921875
STABILIZE,1.22633695602417,29.853334946653664,0.032413514455159505,0.03253960609436035,0.0,0.0,0.0,0.16958281819913268,-1.4880336570371462,3.764735383713913,-0.0024268524955508414,-0.0051074375442840625,0.0005119677989246078,0.4,-0.031070989581566514,0.03207801616965377,0.6229754876010464,0.002919469755947458,-0.02049851173069328,-0.12077050050720572,1.0637179017066956,0.15064301045559145,1.783464103937149,0.4814918152987957,15.716791152954102,0.0,0.0,0.0,0.0,0.0,0.0,0.0,0.0,0.0,0.0,0.0,0.0,0.0,0.0,0.0,0.0,False,0,4.693570613861084,0.029930908203125
STABILIZE,1.2597157955169678,29.958672314164698,0.032361777623494466,0.0324864387512207,0.0,0.0,0.0,0.16951286212099295,-1.486734853877786,3.7654410276325403,-0.003940319769256242,-0.005389621467116872,0.0002974586707815308,0.4,-0.031084411703118653,0.03397427530508323,0.6157853309336626,0.0018407686518219352,-0.23580992128700018,0.14668439980596304,1.1428055353462696,0.03068227696875509,-4.526302218437195,0.4899410530924797,15.507479012012482,0.0,0.0,0.0,0.0,0.0,0.0,0.0,0.0,0.0,0.0,0.0,0.0,0.0,0.0,0.0,0.0,False,0,4.750940561294556,0.034919921875
STABILIZE,1.29329252243042,29.785917693427546,0.03243068059285482,0.03255939483642578,0.0,0.0,0.0,0.16941051600514853,-1.486627918728593,3.766438235251362,-0.007032914438469479,-0.008859463770807577,0.0004193615507695289,0.4,-0.03433091353020445,0.03542561202855249,0.6136248289254425,0.0024421143230959207,-0.23580992128700018,0.14668439980596304,1.1428055353462696,0.03068227696875509,-4.526302218437195,0.4899410530924797,15.507479012012482,0.0,0.0,0.0,0.0,0.0,0.0,0.0,0.0,0.0,0.0,0.0,0.0,0.0,0.0,0.0,0.0,False,0,4.779584169387817,0.034919921875
STABILIZE,1.3267195224761963,29.912522554004806,0.03228166898091634,0.03242969512939453,0.0,0.0,0.0,0.16948228635228654,-1.4868473385556797,3.767272798990573,-0.005322147815851461,-0.005354275071206386,0.00013348321728971535,0.4,-0.03106368616887864,0.03438711957211357,0.612619363649642,0.0010093438369281674,0.11596899712458253,0.01189584654639475,1.193439681082964,-0.07868894190106407,1.7184291034936905,0.533753540366888,15.424911677837372,0.0,0.0,0.0,0.0,0.0,0.0,0.0,0.0,0.0,0.0,0.0,0.0,0.0,0.0,0.0,0.0,False,0,4.8082497119903564,0.06485205078125
STABILIZE,1.360138177871704,29.924046659294405,0.03232863744099935,0.03247237205505371,0.0,0.0,0.0,0.16951643729813662,-1.4863807512580032,3.76669607489253,-0.004467424166452589,-0.0049731763396941514,-1.2430502705407766e-05,0.4,-0.031043070480368026,0.03344764684187923,0.6258767427386172,0.00027884226008075257,-0.013597558427136391,-0.03076797293033451,1.0389125905930996,-0.0430617013547123,0.1472072908654809,0.7032544352114201,24.25590306520462,0.0,0.0,0.0,0.0,0.0,0.0,0.0,0.0,0.0,0.0,0.0,0.0,0.0,0.0,0.0,0.0,False,0,4.836956977844238,0.0399091796875
STABILIZE,1.3937389850616455,29.76140096926865,0.032387526830037434,0.03263688087463379,0.0,0.0,0.0,0.16898997912351674,-1.485369989982547,3.7674239169259596,-0.004621938921824836,-0.005181374476656276,0.00010595293504060414,0.4,-0.030652737049784745,0.03074221138820527,0.6221266551732848,0.0008678459200858269,-0.039452212513424456,-0.06992120179347694,0.995241105556488,0.02975706648069604,-0.3080320078879595,0.43607740662992,10.53999587893486,0.0,0.0,0.0,0.0,0.0,0.0,0.0,0.0,0.0,0.0,0.0,0.0,0.0,0.0,0.0,0.0,False,0,4.867444753646851,0.024943115234375
STABILIZE,1.427154302597046,29.925541174959687,0.03235438664754232,0.032485246658325195,0.0,0.0,0.0,0.16854553657978988,-1.486516074380934,3.769560485475704,-0.0036011910684970575,-0.005790936584389089,0.0009060345785014196,0.4,-0.0314510324709991,0.0308849994152083,0.6119446634277849,0.0048520285520071305,-0.1219852245412767,0.08990013157017529,1.0899901390075684,0.21042924374608654,2.3330513387918472,0.41096131317317486,9.006315469741821,0.0,0.0,0.0,0.0,0.0,0.0,0.0,0.0,0.0,0.0,0.0,0.0,0.0,0.0,0.0,0.0,False,0,4.895479917526245,0.034919921875
STABILIZE,1.4608979225158691,29.634184942346824,0.032396825154622395,0.03290915489196777,0.0,0.0,0.0,0.16812638708033326,-1.4863063662290734,3.770134221365985,-0.005181749691955797,-0.005212662503569083,0.0013789541020922584,0.4,-0.033234271097671145,0.03409409728685911,0.6133210195736496,0.007192309386600232,-0.09941154858097434,0.21847663447260857,1.5245230868458748,-0.08420591381132947,1.4879354275763035,-1.5171876177191734,13.71404230594635,0.0,0.0,0.0,0.0,0.0,0.0,0.0,0.0,0.0,0.0,0.0,0.0,0.0,0.0,0.0,0.0,False,0,4.952976942062378,0.034919921875
STABILIZE,1.4944493770599365,29.80581434185374,0.03249505360921224,0.03265690803527832,0.0,0.0,0.0,0.16633565021817343,-1.4857688089970522,3.771752549312455,-0.004575819793539791,-0.006828570179728188,0.0014809866657919998,0.4,-0.03279031980930655,0.032489620469413776,0.6104184033233663,0.0076767501839043574,-0.039404365816153586,-0.018186334636993706,1.094930525869131,0.029593382064453742,1.4314797706902027,-1.4297263696789742,19.814012944698334,0.0,0.0,0.0,0.0,0.0,0.0,0.0,0.0,0.0,0.0,0.0,0.0,0.0,0.0,0.0,0.0,False,0,4.982419013977051,0.029930908203125
STABILIZE,1.5278911590576172,29.90335229784261,0.03242209752400716,0.03254055976867676,0.0,0.0,0.0,0.16606617791107525,-1.48569474413324,3.7724227616247625,-0.0034177773433910082,-0.012344954093506505,0.0013357006898779063,0.4,-0.03994815522639287,0.030246724659494257,0.606401935893851,0.006927161742772899,-0.4637395031750202,-0.047264431486837566,1.1796189472079277,-0.03098373243705463,-3.3573664724826813,0.3555313451215625,12.526506185531616,0.0,0.0,0.0,0.0,0.0,0.0,0.0,0.0,0.0,0.0,0.0,0.0,0.0,0.0,0.0,0.0,False,0,5.011264801025391,0.034919921875
STABILIZE,1.5613529682159424,29.884602778767366,0.03241899808247884,0.03255105018615723,0.0,0.0,0.0,0.1662442964380245,-1.4849961438471946,3.772944417322622,-0.0036534053117330614,-0.011540745960831433,0.0021039456931018943,0.4,-0.038590893568502246,0.02845050648909822,0.6090947136709993,0.010732483395422321,0.012637180043384433,-0.033012122730724514,1.3607853092253208,0.2140168272880622,0.05873385816812515,0.5143411457538605,19.449959695339203,0.0,0.0,0.0,0.0,0.0,0.0,0.0,0.0,0.0,0.0,0.0,0.0,0.0,0.0,0.0,0.0,False,0,5.039892196655273,0.034920166015625
STABILIZE,1.5948467254638672,29.856947608200457,0.03240850766499837,0.03255295753479004,0.0,0.0,0.0,0.1660286118706402,-1.4839397056816641,3.7740577381573344,-0.004188600470711231,-0.009941595844080891,0.0024045024638902476,0.4,-0.03712274023504085,0.02925387504313798,0.6044715827453504,0.012194452809725594,0.01767464855220169,0.10901979403570294,0.9499507956206799,0.08654248550781514,-8.023151755332947,0.44610812328755856,17.3665851354599,0.0,0.0,0.0,0.0,0.0,0.0,0.0,0.0,0.0,0.0,0.0,0.0,0.0,0.0,0.0,0.0,False,0,5.071818828582764,0.029931884765625
STABILIZE,1.6282896995544434,29.90228635388224,0.03237489064534505,0.03250288963317871,0.0,0.0,0.0,0.16660176079153946,-1.4838511266658654,3.7748927287833682,-0.0017762383983858287,-0.006867704925695876,0.002517571590790139,0.4,-0.03448867126821904,0.028578889569256836,0.5933838545779281,0.012717270232758801,0.07090321159921587,0.03192296717315912,0.7399783935397863,0.04489611407496319,2.074180543422699,0.2993508242070675,10.287361592054367,0.0,0.0,0.0,0.0,0.0,0.0,0.0,0.0,0.0,0.0,0.0,0.0,0.0,0.0,0.0,0.0,False,0,5.09727931022644,0.034920166015625
STABILIZE,1.661698579788208,29.930025617788306,0.0323825200398763,0.03251290321350098,0.0,0.0,0.0,0.16639029173153352,-1.483818149658779,3.777045519032392,-0.0028835488683286318,-0.0036997783692396436,0.0030733667160341214,0.4,-0.030013435609491927,0.028767961425875045,0.5901899722396983,0.0154445982114753,0.18845282029360533,0.07266282918862998,0.9956385008990765,0.1616399218442161,3.0012551695108414,0.34345858730375767,13.418464362621307,0.0,0.0,0.0,0.0,0.0,0.0,0.0,0.0,0.0,0.0,0.0,0.0,0.0,0.0,0.0,0.0,False,1,5.126033782958984,0.034919921875
STABILIZE,1.6952180862426758,29.83316262660749,0.032430203755696614,0.03262186050415039,0.0,0.0,0.0,0.16573891580029645,-1.4837939238315665,3.778661285657923,-0.005004924400271516,0.00016396711176930778,0.002425020897005878,0.4,-0.03055347682928389,0.029778441650524422,0.5851892707637686,0.012162093101571625,0.045035360381007195,0.1152933924458921,0.9072107262909412,-0.14020206579323524,-4.659524187445641,0.27783182449638844,12.527227401733398,0.0,0.0,0.0,0.0,0.0,0.0,0.0,0.0,0.0,0.0,0.0,0.0,0.0,0.0,0.0,0.0,False,0,5.183454990386963,0.03481689453125
STABILIZE,1.7286903858184814,29.875662430907745,0.032424243291219075,0.03256392478942871,0.0,0.0,0.0,0.16623474484535705,-1.4844404439251906,3.7788905238819415,-0.006836227361318153,0.0007856615054050364,0.0018984630069487482,0.4,-0.02868202792013591,0.03075934514225975,0.5810636546223066,0.009497532924735447,0.045035360381007195,0.1152933924458921,0.9072107262909412,-0.14020206579323524,-4.659524187445641,0.27783182449638844,12.527227401733398,0.0,0.0,0.0,0.0,0.0,0.0,0.0,0.0,0.0,0.0,0.0,0.0,0.0,0.0,0.0,0.0,False,0,5.212082624435425,0.03481689453125
STABILIZE,1.7621681690216064,29.87140700225052,0.032411845525105794,0.0325322151184082,0.0,0.0,0.0,0.16649989492337106,-1.4838270075603588,3.780898599497925,-0.006270804158785977,0.00020851678784084533,0.0024680254451914484,0.4,-0.028286048418862068,0.030642982993980758,0.5830693441404736,0.012304201487185255,-0.03960948088206351,0.05164435715414584,1.255791075527668,0.1763011230008468,-1.1155994608998299,0.39164074696600437,17.73722469806671,0.0,0.0,0.0,0.0,0.0,0.0,0.0,0.0,0.0,0.0,0.0,0.0,0.0,0.0,0.0,0.0,False,0,5.240793466567993,0.0349208984375
STABILIZE,1.7956230640411377,29.892057157110788,0.03236964543660482,0.0325007438659668,0.0,0.0,0.0,0.167725593714271,-1.4829368418124358,3.782476800083021,-0.005402754933259365,-0.0003251253002394823,0.002143624558771989,0.4,-0.02692510058734401,0.028981768946270366,0.5808681123174422,0.01064657878370115,0.016992258315440267,-0.03756276564672589,1.0042638517916203,-0.08117144886009925,1.9572950899600983,0.22868621163070202,12.517659366130829,0.0,0.0,0.0,0.0,0.0,0.0,0.0,0.0,0.0,0.0,0.0,0.0,0.0,0.0,0.0,0.0,False,0,5.270532131195068,0.02993115234375
STABILIZE,1.829226016998291,29.758022519102926,0.032370837529500325,0.03267359733581543,0.0,0.0,0.0,0.16698158334241564,-1.4828563736462765,3.7837864888563715,-0.005250899404466813,-0.0051415305547008894,0.002213468107182429,0.4,-0.02971634766802737,0.0289272199254217,0.5821427223622223,0.010958972448599766,-0.2289759460836649,0.06268084980547428,1.3621000573039055,0.03828891990918078,2.065209671854973,0.21111259702593088,12.10825890302658,0.0,0.0,0.0,0.0,0.0,0.0,0.0,0.0,0.0,0.0,0.0,0.0,0.0,0.0,0.0,0.0,False,0,5.298884391784668,0.034920166015625
STABILIZE,1.863584041595459,29.104676256496727,0.032395156224568684,0.03341817855834961,0.0,0.0,0.0,0.1661877872948132,-1.4819551088409522,3.78429576483636,-0.005855553373945253,-0.0021404593455525874,0.0016622391677060715,0.4,-0.02614990140121496,0.03052614983834937,0.5814184726656185,0.00817474095613335,0.14997964026406407,0.15062956372275949,1.0632609948515892,-0.1469466641552113,-1.7680319026112556,0.4307189956307411,18.156419694423676,0.0,0.0,0.0,0.0,0.0,0.0,0.0,0.0,0.0,0.0,0.0,0.0,0.0,0.0,0.0,0.0,False,1,5.327688694000244,0.034919921875
STABILIZE,1.8980350494384766,29.031147041723194,0.03238371213277181,0.03251361846923828,0.0,0.0,0.0,0.1660624426513729,-1.481897158954713,3.7841531846374363,-0.004114623814870888,-0.0034210664458360716,0.0013076809635334636,0.4,-0.026356390143903126,0.029017726273518608,0.5859029488713295,0.006380605512019624,-0.06457052077166736,0.012591069389600307,1.2339765205979347,-0.035132065171739064,2.5704214349389076,0.3136614803224802,13.817818462848663,0.0,0.0,0.0,0.0,0.0,0.0,0.0,0.0,0.0,0.0,0.0,0.0,0.0,0.0,0.0,0.0,False,0,5.384893894195557,0.034919921875
STABILIZE,1.930635690689087,30.67289733295306,0.03135851224263509,0.03154730796813965,0.0,0.0,0.0,0.16354637171586947,-1.479714913514894,3.7922230531418064,-0.004198915772256039,-0.0047739262804675974,0.0016012679880530313,0.4,-0.027806686818723947,0.029032167053736443,0.5869770520598435,0.007822329152314034,-0.14132694341242313,0.05775290192104876,1.1631464585661888,0.10106264726014905,2.3729324340820312,-1.5095909126102924,16.82175099849701,0.0,0.0,0.0,0.0,0.0,0.0,0.0,0.0,0.0,0.0,0.0,0.0,0.0,0.0,0.0,0.0,False,0,5.413809776306152,0.029931884765625
STABILIZE,1.9639244079589844,30.03741155575926,0.03226736386617025,0.032387733459472656,0.0,0.0,0.0,0.15971650322134348,-1.4755195765389193,3.788858331201929,-0.005117395537953533,-0.006559999238306595,0.0012089512677027664,0.4,-0.029067541784142562,0.028930022779017246,0.5864269784404642,0.005841217605666865,-0.13697168324142694,0.05836379714310169,1.2368790805339813,-0.0989589289854653,0.06959512829780579,2.352854795753956,14.090920984745026,0.0,0.0,0.0,0.0,0.0,0.0,0.0,0.0,0.0,0.0,0.0,0.0,0.0,0.0,0.0,0.0,False,0,5.443517446517944,0.034919921875
STABILIZE,1.9974088668823242,29.863537654237483,0.0324435551961263,0.03257179260253906,0.0,0.0,0.0,0.15899074226117674,-1.4711820862508438,3.7796670310132074,-0.012557249304356234,-0.008586282041444022,0.0005979873286142786,0.4,-0.03386372586820882,0.03856914613402343,0.5911237523273796,0.0027771085132873964,-0.33620153553783894,0.6230221129953861,1.3582456856966019,-0.1639276483499869,-8.258868753910065,14.169619977474213,13.049180805683136,0.0,0.0,0.0,0.0,0.0,0.0,0.0,0.0,0.0,0.0,0.0,0.0,0.0,0.0,0.0,0.0,False,0,5.4720139503479,0.034919921875
STABILIZE,2.0308749675750732,29.88183495650563,0.03241089185078939,0.03252696990966797,0.0,0.0,0.0,0.16035966158123538,-1.476162788259664,3.807652023590042,-0.004541471099099675,-0.015686393103036708,0.00017176001329726525,0.4,-0.04039797747964913,0.029340098840130363,0.5798043393938627,0.0006438191975741269,-0.43591936118900776,-0.490710511803627,0.4170706495642662,-0.10831036509371189,-8.957132697105408,-39.052364230155945,-2.234368585050106,0.0,0.0,0.0,0.0,0.0,0.0,0.0,0.0,0.0,0.0,0.0,0.0,0.0,0.0,0.0,0.0,False,0,5.500786542892456,0.02993212890625
STABILIZE,2.0643534660339355,29.870556061987237,0.03237775166829427,0.03251171112060547,0.0,0.0,0.0,0.16239820624421974,-1.477831915738086,3.792185487101371,-0.005043006629955306,-0.009181518500242427,0.004218544691727825,0.4,-0.032074357028667955,0.028817540254974284,0.5731155512809898,0.02080807976698256,0.4259384237229824,0.03429112839512527,0.8565858006477356,1.2115104602814182,0.5343038588762283,44.37534213066101,-35.64043045043945,0.0,0.0,0.0,0.0,0.0,0.0,0.0,0.0,0.0,0.0,0.0,0.0,0.0,0.0,0.0,0.0,False,0,5.529711484909058,0.034919921875
STABILIZE,2.097865581512451,29.840166762711743,0.032351287206014,0.03248882293701172,0.0,0.0,0.0,0.15863012961734121,-1.4721404471687611,3.8190281305395213,-0.026893408337093482,-0.03359909786587404,0.007460609092343266,0.4,-0.06497707850148335,0.05730522333737521,0.5748733125602726,0.03689494285709266,-1.025944110006094,0.89683523401618,1.1263608001172543,0.48246257829830974,-35.288214683532715,-7.644489407539368,-1.506350189447403,0.0,0.0,0.0,0.0,0.0,0.0,0.0,0.0,0.0,0.0,0.0,0.0,0.0,0.0,0.0,0.0,False,0,5.587985515594482,0.034920166015625
STABILIZE,2.131291389465332,29.916789706060673,0.03229835828145345,0.032454490661621094,0.0,0.0,0.0,0.1583743176885831,-1.4747478718844136,3.817102017193578,-0.017585266259155435,-0.026861863135986028,0.01516811611037806,0.4,-0.05716826511853221,0.04511388854267299,0.5700516837999025,0.0751809929886586,0.41424608789384365,-0.6715144030749798,0.7897743955254555,2.266361994212131,17.970940470695496,-11.82335540652275,-10.876882821321487,0.0,0.0,0.0,0.0,0.0,0.0,0.0,0.0,0.0,0.0,0.0,0.0,0.0,0.0,0.0,0.0,False,0,5.616711616516113,0.02993115234375
STABILIZE,2.164707660675049,29.924687147729056,0.03235295613606771,0.03257322311401367,0.0,0.0,0.0,0.15648203512337222,-1.4802136240460104,3.7964385605201736,-0.02807591293379428,-0.029660767788297293,0.009423458360222596,0.4,-0.06454893516627613,0.06628910226169989,0.5667881680885417,0.04630249393980906,-0.5280700977891684,1.3422605581581593,1.0402720421552658,-1.664156488088272,13.578814268112183,31.29897713661194,-10.294823348522186,0.0,0.0,0.0,0.0,0.0,0.0,0.0,0.0,0.0,0.0,0.0,0.0,0.0,0.0,0.0,0.0,False,0,5.6454479694366455,0.034919921875
STABILIZE,2.1982529163360596,29.810686719072056,0.03248647054036458,0.03260397911071777,0.0,0.0,0.0,0.15109066799070495,-1.4776487812909649,3.8290928411683582,-0.018883262742924813,-0.020211921539313154,0.01619296857988148,0.4,-0.05731776825674019,0.04712283689410923,0.5696585797993398,0.07988276950303952,0.3725091926753521,-1.0890606790781021,1.2306253425776958,2.0184436297004167,-15.257282555103302,-52.74816155433655,6.052079051733017,0.0,0.0,0.0,0.0,0.0,0.0,0.0,0.0,0.0,0.0,0.0,0.0,0.0,0.0,0.0,0.0,False,0,5.67403769493103,0.034919921875
STABILIZE,2.231722354888916,29.879067646891208,0.03237870534261068,0.03250861167907715,0.0,0.0,0.0,0.15550462438097282,-1.472888673047995,3.809798837423542,-0.013841118868022846,-0.025293371018030565,0.019658413912389115,0.4,-0.0574534475937279,0.04016201517484115,0.5598107387204725,0.0968859000531605,-0.07668679463677108,-0.343852024525404,0.4755552392452955,1.02151391420041,-15.356959402561188,40.72630703449249,-2.7741430327296257,0.0,0.0,0.0,0.0,0.0,0.0,0.0,0.0,0.0,0.0,0.0,0.0,0.0,0.0,0.0,0.0,False,0,5.7030370235443115,0.029934326171875
STABILIZE,2.265242338180542,29.832738239185172,0.03235295613606771,0.03251481056213379,0.0,0.0,0.0,0.15802485746300174,-1.4717595574008273,3.797068645471107,-0.01403919113310902,-0.00629087343244117,0.01519662004955341,0.4,-0.05831432717219943,0.06255744042939734,0.5525171937441574,0.07432801020405383,-0.15005292370915413,1.4270693995058537,0.7798846811056137,-1.259095854620368,-9.49854925274849,23.34788888692856,13.603219389915466,0.0,0.0,0.0,0.0,0.0,0.0,0.0,0.0,0.0,0.0,0.0,0.0,0.0,0.0,0.0,0.0,False,0,5.731342077255249,0.034919921875
STABILIZE,2.2985947132110596,29.982014954179594,0.03231647809346517,0.03244924545288086,0.0,0.0,0.0,0.15539987702674832,-1.482100250360815,3.829611081771633,-0.01906432926960249,-0.04649544492709709,0.02429891266480187,0.4,-0.104529509968046,0.059715188223200794,0.5880516481321786,0.11944010692736097,-1.446347963064909,-0.019376460113562644,2.102929726243019,1.387748870939905,-14.284229278564453,-1.7852704972028732,39.203840494155884,0.0,0.0,0.0,0.0,0.0,0.0,0.0,0.0,0.0,0.0,0.0,0.0,0.0,0.0,0.0,0.0,False,0,5.788763523101807,0.034920166015625
STABILIZE,2.3326892852783203,29.329566591611542,0.03242615063985189,0.033231258392333984,0.0,0.0,0.0,0.15761696710350503,-1.4925774403824972,3.8191446706422347,-0.01180190635592811,-0.03652288888603349,0.01922044483634583,0.4,-0.09717611111591506,0.06675607029200356,0.5874441332026612,0.09372806517477178,0.36995471455156803,0.492517976090312,0.9983845055103302,-1.472776935422042,20.968109369277954,24.944421648979187,7.133562862873077,0.0,0.0,0.0,0.0,0.0,0.0,0.0,0.0,0.0,0.0,0.0,0.0,0.0,0.0,0.0,0.0,False,0,5.818185806274414,0.029930908203125
STABILIZE,2.366157054901123,29.879493353470014,0.03245976765950521,0.032575368881225586,0.0,0.0,0.0,0.15403549337918537,-1.5009496514793461,3.8568310931614262,-0.01825650873576275,-0.01942424474576906,0.015537853469045865,0.4,-0.06925883184671885,0.06018602488099713,0.5830878961953688,0.07506397543781136,1.5334565192461014,-0.2854200778529048,0.9600220248103142,-0.9829787339551384,7.371117174625397,-2.679242007434368,22.593438625335693,0.0,0.0,0.0,0.0,0.0,0.0,0.0,0.0,0.0,0.0,0.0,0.0,0.0,0.0,0.0,0.0,False,0,5.846969127655029,0.034921142578125
STABILIZE,2.4000368118286133,29.517812152518754,0.032428773244222005,0.03255963325500488,0.0,0.0,0.0,0.14662004237466716,-1.5090639162133213,3.8798701750055256,-0.027591994084694982,-0.025847343640846163,0.015300009182151124,0.4,-0.07770141803816376,0.06692277933728463,0.5852151554054192,0.07362842561209167,-0.6084300111979246,0.4836550448089838,1.1591913178563118,0.01305195789536546,-35.03082990646362,28.401434421539307,26.528623700141907,0.0,0.0,0.0,0.0,0.0,0.0,0.0,0.0,0.0,0.0,0.0,0.0,0.0,0.0,0.0,0.0,False,0,5.875513792037964,0.034919921875
STABILIZE,2.433133840560913,30.213539640690957,0.03198126157124837,0.03211617469787598,0.0,0.0,0.0,0.1408140080541861,-1.515418019853843,3.842567096853501,-0.01750112460320954,-0.009306319039879515,0.009425826787595556,0.4,-0.05685303989452663,0.07115193941044427,0.5806501466734724,0.04410999983614134,1.1346797458827496,0.3335402114316821,0.767842261120677,-1.6488070253108433,58.978891372680664,-9.126440435647964,13.86047750711441,0.0,0.0,0.0,0.0,0.0,0.0,0.0,0.0,0.0,0.0,0.0,0.0,0.0,0.0,0.0,0.0,False,0,5.904101371765137,0.029930908203125
STABILIZE,2.4665114879608154,29.95995628477753,0.03234842618306478,0.0324702262878418,0.0,0.0,0.0,0.14070024271582307,-1.5208340397005458,3.8644036385168548,0.0006486130437964953,0.03243637474609607,0.009731920516935421,0.4,-0.03850868444688193,0.04525848793317991,0.571465695325552,0.045488359233346265,0.9693609550595284,-1.4362914487719536,0.6673075724393129,0.2075866310713183,0.0860399566590786,-58.921051025390625,2.3335952311754227,0.0,0.0,0.0,0.0,0.0,0.0,0.0,0.0,0.0,0.0,0.0,0.0,0.0,0.0,0.0,0.0,False,0,5.932924032211304,0.034919921875
STABILIZE,2.5000314712524414,29.83464807767543,0.03241852124532064,0.03267025947570801,0.0,0.0,0.0,0.13015240292491354,-1.5264577399866992,3.8764298940979547,0.03749330894395218,0.05725137019067366,0.011574257256591086,0.4,-0.0005328111246678605,0.0025129315754842483,0.5733786646036261,0.05451711578074286,1.0388968512415886,-0.8994264528155327,1.531499158591032,0.5616867962549339,22.37405925989151,23.52433204650879,45.248207449913025,0.0,0.0,0.0,0.0,0.0,0.0,0.0,0.0,0.0,0.0,0.0,0.0,0.0,0.0,0.0,0.0,False,0,5.990194320678711,0.034919921875
STABILIZE,2.5336365699768066,29.75738914508691,0.03246882756551107,0.03259873390197754,0.0,0.0,0.0,0.13530578065368815,-1.528396980102454,3.8839238922779282,0.02974939627021421,0.03746365324076002,0.008835920386948087,0.4,-0.004550151019260369,0.007519988733357392,0.5610522481917303,0.040689244874205534,-0.36670733243227005,0.40937596932053566,0.3137299558147788,-0.7135748354703849,-40.85327982902527,10.496355593204498,-6.553290039300919,0.0,0.0,0.0,0.0,0.0,0.0,0.0,0.0,0.0,0.0,0.0,0.0,0.0,0.0,0.0,0.0,False,0,6.018870830535889,0.034920166015625
STABILIZE,2.5670197010040283,29.95268190614935,0.03231623967488607,0.032468557357788086,0.0,0.0,0.0,0.1329621719947275,-1.527980445284789,3.8834470596964965,0.028188815281727824,0.03713190123942455,0.008221038830903304,0.4,-0.011552867831237951,0.014801049322120906,0.5590569889801511,0.037489348940670034,-0.5244501866400242,0.5268280860036612,0.9369534440338612,-0.07629748189727369,25.143933296203613,22.878140211105347,23.234330117702484,0.0,0.0,0.0,0.0,0.0,0.0,0.0,0.0,0.0,0.0,0.0,0.0,0.0,0.0,0.0,0.0,False,0,6.048332929611206,0.02993212890625
STABILIZE,2.600513458251953,29.857160144932696,0.03241160710652669,0.0325469970703125,0.0,0.0,0.0,0.13344103228856888,-1.5251626720870413,3.9089911134186983,0.031064077619111844,0.03030473309665726,0.006722712328767545,0.4,-0.004202906152070804,0.014358961725694522,0.558293417803009,0.029897704665153863,0.3604935482144356,0.04585759015753865,1.1603391729295254,-0.3438195031831299,-15.131130814552307,-61.823099851608276,-3.2457977533340454,0.0,0.0,0.0,0.0,0.0,0.0,0.0,0.0,0.0,0.0,0.0,0.0,0.0,0.0,0.0,0.0,False,0,6.077013254165649,0.039908935546875
STABILIZE,2.6339869499206543,29.873747337981925,0.032373936971028645,0.03258919715881348,0.0,0.0,0.0,0.1419224730512851,-1.5236364449726607,3.8759125072683265,0.045774958203227856,0.00510509188499117,0.007129719076632917,0.4,-0.022771672181012576,-0.025013768776680136,0.5593435163696588,0.03182603936270726,-1.2026057578623295,-2.2227557376027107,0.9515824727714062,0.22856160840389855,-31.350141763687134,-60.14588475227356,4.583419114351273,0.0,0.0,0.0,0.0,0.0,0.0,0.0,0.0,0.0,0.0,0.0,0.0,0.0,0.0,0.0,0.0,False,0,6.105767011642456,0.029930908203125
STABILIZE,2.667543888092041,29.800943557096573,0.03244212468465169,0.03256869316101074,0.0,0.0,0.0,0.14544295532075066,-1.5228557756948695,3.8435041134302623,0.010832500941211923,-0.015651295997650694,0.003720812652714534,0.4,-0.02029120557988462,-0.012677293675892303,0.5637954153075652,0.014732222153534449,0.07828979287296534,0.7772354409098625,1.470945868641138,-0.9157695658005071,15.003521740436554,65.72517156600952,42.68839359283447,0.0,0.0,0.0,0.0,0.0,0.0,0.0,0.0,0.0,0.0,0.0,0.0,0.0,0.0,0.0,0.0,False,0,6.134413957595825,0.02993212890625
STABILIZE,2.70093035697937,29.952895808041134,0.03232863744099935,0.03245210647583008,0.0,0.0,0.0,0.14546942230378446,-1.4798813993759128,3.8044217709994492,0.025650205159840987,-0.0379227832653927,0.005632608866745726,0.4,-0.05241767743353176,-0.028054888009820828,0.5565933708826812,0.024210232388505483,-1.8591465428471565,-0.466750655323267,1.9687363877892494,0.11002943833043947,-50.30134320259094,22.12710827589035,41.72787070274353,0.0,0.0,0.0,0.0,0.0,0.0,0.0,0.0,0.0,0.0,0.0,0.0,0.0,0.0,0.0,0.0,False,0,6.191777229309082,0.034919921875
STABILIZE,2.7350432872772217,29.31378290922052,0.0323217233022054,0.03308868408203125,0.0,0.0,0.0,0.17158907954611816,-1.490460188461499,3.769753011432934,0.03671670244935384,-0.05682526722569266,0.005726356494473326,0.4,-0.0829339119734301,-0.03691706432093388,0.5724871374944517,0.024595074797450402,-1.8591465428471565,-0.466750655323267,1.9687363877892494,0.11002943833043947,-50.30134320259094,22.12710827589035,41.72787070274353,0.0,0.0,0.0,0.0,0.0,0.0,0.0,0.0,0.0,0.0,0.0,0.0,0.0,0.0,0.0,0.0,False,0,6.220365762710571,0.034919921875
STABILIZE,2.7684361934661865,29.946266269696775,0.032362969716389973,0.0325014591217041,0.0,0.0,0.0,0.16434374294061554,-1.474482988610664,3.847376403802836,0.042599780912326454,-0.1384749246895822,0.019767882386947346,0.4,-0.18354378243135838,-0.04464639620280147,0.5576886249326972,0.09448678219389277,-5.993371456861496,-0.4070831462740898,0.14240529853850603,4.220122024925234,-66.86543822288513,-11.925779283046722,-144.7088122367859,0.0,0.0,0.0,0.0,0.0,0.0,0.0,0.0,0.0,0.0,0.0,0.0,0.0,0.0,0.0,0.0,False,0,6.249101161956787,0.034920166015625
STABILIZE,2.8019607067108154,29.830828645192494,0.03243115743001302,0.032555580139160156,0.0,0.0,0.0,0.17466698690170804,-1.4796341251836174,3.766027997014338,0.013058635242769937,-0.10994420980154383,0.004013877850292721,0.4,-0.1607046783397102,-0.03701705063468322,0.576261892271928,0.01566437393239857,1.3466518372297287,0.4897181876003742,2.1290581673383713,-4.6080447532702244,139.85644578933716,65.24288058280945,-33.960312604904175,0.0,0.0,0.0,0.0,0.0,0.0,0.0,0.0,0.0,0.0,0.0,0.0,0.0,0.0,0.0,0.0,False,0,6.277756690979004,0.029930908203125
STABILIZE,2.8360884189605713,29.3033381307027,0.03233817418416341,0.03268098831176758,0.0,0.0,0.0,0.18002217537611537,-1.489713136521029,3.759905159310245,0.0070075367448406,-0.028015072540893464,0.02386415389463499,0.4,-0.05150187733606834,-0.019401251617410034,0.559958720324108,0.11452999843851544,6.348168849945068,1.0370558127760887,0.22445607464760542,5.978786880063621,178.12607288360596,-63.48199248313904,-142.93943643569946,0.0,0.0,0.0,0.0,0.0,0.0,0.0,0.0,0.0,0.0,0.0,0.0,0.0,0.0,0.0,0.0,False,0,6.306704044342041,0.034921142578125
STABILIZE,2.8690738677978516,30.31420703811045,0.03186086018880208,0.03201746940612793,0.0,0.0,0.0,0.17234808431763582,-1.4800915344145966,3.850830345088747,0.035151597819987127,0.000943227213814521,0.04351079799752134,0.4,-0.03895256983340282,-0.06809675520971653,0.5860871981737641,0.21205381032392978,0.6184147670865059,-2.8871601447463036,2.574317157268524,5.831872499224408,-47.78400659561157,-48.85093867778778,-29.53810691833496,0.0,0.0,0.0,0.0,0.0,0.0,0.0,0.0,0.0,0.0,0.0,0.0,0.0,0.0,0.0,0.0,False,0,6.335276126861572,0.029930908203125
STABILIZE,2.9024431705474854,29.965949603126408,0.03235009511311849,0.03245854377746582,0.0,0.0,0.0,0.1797533433992519,-1.4724324377557794,3.763533270419991,0.01103281710685693,-0.013819886913873019,0.0317495279919206,0.4,-0.08130284171042142,-0.043412417295358684,0.611229449774572,0.1527370155194766,-1.003295462578535,-0.320489052683115,1.5393787994980812,1.083129477589918,-51.28033757209778,-62.72946000099182,-41.70306324958801,0.0,0.0,0.0,0.0,0.0,0.0,0.0,0.0,0.0,0.0,0.0,0.0,0.0,0.0,0.0,0.0,False,0,6.392585754394531,0.034919921875
STABILIZE,2.942772626876831,24.796065077563377,0.032439502080281575,0.039383888244628906,0.0,0.0,0.0,0.1729734201526622,-1.4787989211141717,3.8534928382045828,0.024040379639440616,0.04126480059575024,0.040295306890198,0.4,-0.08901056435698172,-0.0701262897246734,0.6149158115834988,0.19468121221461918,-0.5612760782241821,-1.597408764064312,1.225675642490387,2.587403083317533,-20.231477916240692,10.75810119509697,1.1182863265275955,0.0,0.0,0.0,0.0,0.0,0.0,0.0,0.0,0.0,0.0,0.0,0.0,0.0,0.0,0.0,0.0,False,0,6.421479225158691,0.02993212890625
STABILIZE,2.976410388946533,29.72954735543868,0.03237298329671224,0.032491207122802734,0.0,0.0,0.0,0.1735666861151013,-1.4756494568548553,3.8289404425725024,0.04838566499743088,0.022386958506243646,0.048335807494998974,0.4,-0.09593243832104209,-0.09577425418105429,0.6149684057554131,0.23410194731354236,-0.5612760782241821,-1.597408764064312,1.225675642490387,2.587403083317533,-20.231477916240692,10.75810119509697,1.1182863265275955,0.0,0.0,0.0,0.0,0.0,0.0,0.0,0.0,0.0,0.0,0.0,0.0,0.0,0.0,0.0,0.0,False,0,6.450053930282593,0.02993212890625
STABILIZE,3.009803056716919,29.94541105915111,0.032164843877156575,0.03245401382446289,0.0,0.0,0.0,0.177992435253858,-1.4757005765519247,3.8010053957539736,0.031404090078423465,-0.028184231694481972,0.03661709195480216,0.4,-0.07711807017778889,-0.05964155749156062,0.6075616019203238,0.17492000704765398,0.9918469004333019,2.120768278837204,0.7673350628465414,-3.346209565905858,5.199769139289856,55.74917197227478,0.19022633787244558,0.0,0.0,0.0,0.0,0.0,0.0,0.0,0.0,0.0,0.0,0.0,0.0,0.0,0.0,0.0,0.0,False,0,6.478901386260986,0.034919921875
STABILIZE,3.0437018871307373,29.499335363580737,0.03239181836446126,0.03292059898376465,0.0,0.0,0.0,0.17289209821285675,-1.4793817283494441,3.848393248215522,0.02389005484170842,-0.044440265640278795,0.045685543079748404,0.4,-0.08859677348271144,-0.08789002611609374,0.6071427580680838,0.2195195876301302,-0.8111212402582169,-1.7361603677272797,0.9876338765025139,2.838063341894185,-29.78091537952423,-89.2446219921112,-6.010032445192337,0.0,0.0,0.0,0.0,0.0,0.0,0.0,0.0,0.0,0.0,0.0,0.0,0.0,0.0,0.0,0.0,False,1,6.507749795913696,0.034920166015625
STABILIZE,3.0769190788269043,30.104460793109634,0.032344849904378255,0.03240156173706055,0.0,0.0,0.0,0.17825187572061268,-1.47550741026446,3.784125436993933,0.029974126667710207,-0.01720788996155098,0.03563762110005634,0.4,-0.08612445432472225,-0.07674179290679511,0.603892317356511,0.16871713728702223,0.6428446620702744,0.8481879718601704,0.9290092624723911,-1.9778550171142042,25.195974111557007,-8.399461209774017,7.395515590906143,0.0,0.0,0.0,0.0,0.0,0.0,0.0,0.0,0.0,0.0,0.0,0.0,0.0,0.0,0.0,0.0,False,0,6.56494140625,0.0349208984375
STABILIZE,3.110515594482422,29.765413875326445,0.03251460393269857,0.03269815444946289,0.0,0.0,0.0,0.1748310181634941,-1.4753870281803387,3.816838201136886,0.04502658119888018,-0.020806452721084102,0.043228071046096404,0.4,-0.0958853033017525,-0.113611073391197,0.6008840896329007,0.2059790095633134,-0.714835012331605,-2.2805647924542427,0.8543794974684715,2.4646515638842987,-25.51364004611969,-53.68490815162659,0.7250293623656034,0.0,0.0,0.0,0.0,0.0,0.0,0.0,0.0,0.0,0.0,0.0,0.0,0.0,0.0,0.0,0.0,False,0,6.5937604904174805,0.034920166015625
STABILIZE,3.1440324783325195,29.836558160710222,0.032416613896687825,0.03254580497741699,0.0,0.0,0.0,0.17483464670149068,-1.4772783502501976,3.8338376882074017,0.014115769571361294,-0.02195888136340673,0.03673036601109438,0.4,-0.10261106075385534,-0.09335713549459185,0.6049100794279788,0.17291212823238683,-0.5285033956170082,1.1680061928927898,1.2914450839161873,-1.7748256163231653,18.24638545513153,17.294175922870636,22.68793433904648,0.0,0.0,0.0,0.0,0.0,0.0,0.0,0.0,0.0,0.0,0.0,0.0,0.0,0.0,0.0,0.0,False,0,6.623863697052002,0.034919921875
STABILIZE,3.1774706840515137,29.904631530914898,0.032351287206014,0.03246903419494629,0.0,0.0,0.0,0.178121835322118,-1.4758725052199386,3.8036935020791964,0.04284098694747307,-0.02667957121038536,0.03644794988154577,0.4,-0.09428479004619073,-0.102750980591663,0.6009044068340152,0.1709282862271942,0.36897039972245693,-0.6402553990483284,0.8184293285012245,0.13155600679935114,11.842013895511627,-53.286027908325195,5.585841089487076,0.0,0.0,0.0,0.0,0.0,0.0,0.0,0.0,0.0,0.0,0.0,0.0,0.0,0.0,0.0,0.0,False,0,6.651272296905518,0.029931884765625
STABILIZE,3.2108583450317383,29.951826329132004,0.03235009511311849,0.03246641159057617,0.0,0.0,0.0,0.1762037794649609,-1.4746876808423528,3.8254053927901976,0.032469431831728464,-0.012995853061601738,0.03592801689016684,0.4,-0.08525067616021556,-0.11102053422343498,0.5938190448691308,0.16776792342935906,0.36897039972245693,-0.6402553990483284,0.8184293285012245,0.13155600679935114,11.842013895511627,-53.286027908325195,5.585841089487076,0.0,0.0,0.0,0.0,0.0,0.0,0.0,0.0,0.0,0.0,0.0,0.0,0.0,0.0,0.0,0.0,False,0,6.68008017539978,0.029931884765625
STABILIZE,3.2448368072509766,29.429788308927233,0.03240040143330892,0.0331118106842041,0.0,0.0,0.0,0.17948264379253726,-1.4765381284988974,3.808025549560277,0.04742646853761811,-0.012774066975386937,0.03580348249893012,0.4,-0.08304318175229745,-0.12191978584683742,0.5872920215322661,0.16657831067852463,-0.03846206527668983,-0.8112654089927673,0.8364802226424217,0.2484752383724823,-19.36834007501602,60.63839793205261,26.959991455078125,0.0,0.0,0.0,0.0,0.0,0.0,0.0,0.0,0.0,0.0,0.0,0.0,0.0,0.0,0.0,0.0,False,1,6.7087719440460205,0.034775634765625
STABILIZE,3.278287649154663,29.896531569418507,0.03241709073384603,0.032526254653930664,0.0,0.0,0.0,0.17777824479035462,-1.4748857563282833,3.8264316287129923,0.032036605170268795,-0.0073078592673539115,0.03444304261543428,0.4,-0.08343129782734161,-0.13052123949234753,0.5922037360889462,0.15924394699554212,0.12648541014641523,-1.4746461063623428,1.1706174351274967,1.2585522142511174,19.99366730451584,-35.43183505535126,18.04679036140442,0.0,0.0,0.0,0.0,0.0,0.0,0.0,0.0,0.0,0.0,0.0,0.0,0.0,0.0,0.0,0.0,False,0,6.766181945800781,0.029930908203125
STABILIZE,3.3118155002593994,29.824889249169814,0.03243378003438314,0.032586097717285156,0.0,0.0,0.0,0.17836313309888985,-1.4748215098614028,3.8240103266522225,0.06049410500146632,0.0005935440257742097,0.03764782261828617,0.4,-0.07848533825839485,-0.1518285917912101,0.5911874802100888,0.17468290576294856,0.12648541014641523,-1.4746461063623428,1.1706174351274967,1.2585522142511174,19.99366730451584,-35.43183505535126,18.04679036140442,0.0,0.0,0.0,0.0,0.0,0.0,0.0,0.0,0.0,0.0,0.0,0.0,0.0,0.0,0.0,0.0,False,0,6.7949724197387695,0.029930908203125
STABILIZE,3.3452906608581543,29.87268350355398,0.032377036412556966,0.0325167179107666,0.0,0.0,0.0,0.18092536117214378,-1.4750431708443108,3.8172130077675908,0.04149700873097943,-0.0013722182925396621,0.033121814488617896,0.4,-0.07445045330962483,-0.13436659640817286,0.585233338027604,0.1515456827411374,0.07605793653056026,0.8766716346144676,0.8574070408940315,-1.0926188515028872,-6.147836521267891,56.42962455749512,13.583053648471832,0.0,0.0,0.0,0.0,0.0,0.0,0.0,0.0,0.0,0.0,0.0,0.0,0.0,0.0,0.0,0.0,False,0,6.823654413223267,0.034921142578125
STABILIZE,3.3798184394836426,28.96378753142005,0.032358439763387044,0.033635616302490234,0.0,0.0,0.0,0.17813063986284497,-1.4753830794772247,3.8386149786450026,0.039933662961431506,-0.012999279149041035,0.034899399554364774,0.4,-0.0827470986271463,-0.138819500697442,0.5855310348553875,0.15988097611296234,-0.6559222936630249,-0.39866198785603046,1.0588892735540867,0.7828946388002559,-23.159945011138916,-49.043869972229004,16.93141609430313,0.0,0.0,0.0,0.0,0.0,0.0,0.0,0.0,0.0,0.0,0.0,0.0,0.0,0.0,0.0,0.0,False,0,6.852224349975586,0.034918701171875
STABILIZE,3.413327693939209,29.840379060601318,0.03242948849995931,0.0325620174407959,0.0,0.0,0.0,0.18246076635322148,-1.4724514342194084,3.7999501315272064,0.036847240760230215,-0.02080554996676337,0.036703038231146005,0.4,-0.09120509369438899,-0.14308441955908624,0.5857116026468844,0.1683359391645275,-0.6559222936630249,-0.39866198785603046,1.0588892735540867,0.7828946388002559,-23.159945011138916,-49.043869972229004,16.93141609430313,0.0,0.0,0.0,0.0,0.0,0.0,0.0,0.0,0.0,0.0,0.0,0.0,0.0,0.0,0.0,0.0,False,0,6.88185715675354,0.034918701171875
STABILIZE,3.446985960006714,29.710594168815344,0.032381327946980794,0.03280282020568848,0.0,0.0,0.0,0.1799051016648731,-1.4722011718193508,3.8324131668786308,0.030085185875927983,-0.01925247700043887,0.03696615068073057,0.4,-0.08943258614180051,-0.14094932961557197,0.6098409426532554,0.16908119406781447,-0.544955674558878,-1.0442769154906273,1.1971822939813137,1.5110928025619323,-22.390548884868622,-49.03612434864044,16.126011312007904,0.0,0.0,0.0,0.0,0.0,0.0,0.0,0.0,0.0,0.0,0.0,0.0,0.0,0.0,0.0,0.0,False,0,6.9390480518341064,0.0349208984375
STABILIZE,3.4806253910064697,29.728283057382626,0.0324740727742513,0.03264212608337402,0.0,0.0,0.0,0.17812396975623362,-1.472294446590204,3.8447719672949456,0.01616028885139721,-0.022708761002219927,0.03194716347163831,0.4,-0.09000867720344823,-0.13936216594184264,0.6025073459964497,0.14350551858607263,-0.19264494767412543,-0.12200884521007538,0.7612696848809719,-1.1200404601949017,10.910791158676147,33.216866850852966,13.356447219848633,0.0,0.0,0.0,0.0,0.0,0.0,0.0,0.0,0.0,0.0,0.0,0.0,0.0,0.0,0.0,0.0,False,0,6.972019195556641,0.02993115234375
STABILIZE,3.5320827960968018,19.432378463776576,0.03231695493062337,0.05067133903503418,0.0,0.0,0.0,0.17939529207635513,-1.4707247837415702,3.840979077871473,0.017040621293589703,-0.016103967984738423,0.030154096412190287,0.4,-0.07379633007705928,-0.12220026776295943,0.6026281865557512,0.133848640616496,0.7229686714708805,0.6965025793761015,1.3266919180750847,-0.20632692807691375,13.062779605388641,-7.746484130620956,16.352982819080353,0.0,0.0,0.0,0.0,0.0,0.0,0.0,0.0,0.0,0.0,0.0,0.0,0.0,0.0,0.0,0.0,False,0,7.0005879402160645,0.034920166015625
STABILIZE,3.565660238265991,29.78274515373145,0.03255322774251302,0.032666921615600586,0.0,0.0,0.0,0.17933947662423144,-1.4701240472597266,3.842343835045006,0.0325335669686538,-0.013713647596721714,0.03241798508472066,0.4,-0.07697720695562775,-0.14571255899643326,0.6045227897071245,0.14468403471131236,-0.343341170810163,-1.5413734130561352,1.250099204480648,0.9119387901714819,-13.348965346813202,-31.240156292915344,17.83766895532608,0.0,0.0,0.0,0.0,0.0,0.0,0.0,0.0,0.0,0.0,0.0,0.0,0.0,0.0,0.0,0.0,False,0,7.032099962234497,0.034919921875
STABILIZE,3.5991294384002686,29.879280498664293,0.032404216130574544,0.03252768516540527,0.0,0.0,0.0,0.1831084603856091,-1.4694716574722846,3.8105343634197872,0.01798892582515182,0.003302640305531408,0.028234411177839328,0.4,-0.0613369666780313,-0.13012596591645575,0.5926444471752274,0.12335362807617334,0.439291400834918,-0.34640736412256956,0.9820085018873215,0.9605773143030832,5.334793031215668,-37.19024062156677,4.558109492063522,0.0,0.0,0.0,0.0,0.0,0.0,0.0,0.0,0.0,0.0,0.0,0.0,0.0,0.0,0.0,0.0,False,0,7.089596509933472,0.034919921875
STABILIZE,3.632587194442749,29.889713951797955,0.032369407018025716,0.03250432014465332,0.0,0.0,0.0,0.17905255531823802,-1.469539212312044,3.8475616726840727,0.020904185358396058,0.0103565787497132,0.030698169670737137,0.4,-0.05078634472376657,-0.13227341000172724,0.5901199452734758,0.135220052944774,0.439291400834918,-0.34640736412256956,0.9820085018873215,0.9605773143030832,5.334793031215668,-37.19024062156677,4.558109492063522,0.0,0.0,0.0,0.0,0.0,0.0,0.0,0.0,0.0,0.0,0.0,0.0,0.0,0.0,0.0,0.0,False,0,7.118284225463867,0.034919921875
STABILIZE,3.6659677028656006,29.95674656458018,0.0323369820912679,0.03244185447692871,0.0,0.0,0.0,0.17989154800823887,-1.4693085867058504,3.83708373561045,0.01976814215013741,0.012093877056754482,0.030149411869652656,0.4,-0.04895996176197828,-0.12954428247191516,0.5886997194209623,0.1320350865408264,-0.05408977158367634,-0.07150928722694516,1.0446920059621334,0.0959703076769748,-2.6373369619250298,31.631720066070557,19.95810568332672,0.0,0.0,0.0,0.0,0.0,0.0,0.0,0.0,0.0,0.0,0.0,0.0,0.0,0.0,0.0,0.0,False,0,7.1471099853515625,0.034919921875
