Mode,Time,Freq,North-Vision,East-Vision,Down-Vision,Yaw-Vision,North-Desired,East-Desired,Down-Desired,Roll-UAV,Pitch-UAV,Yaw-UAV,Roll-Control,Pitch-Control,Yaw-Control,Thrust-Control,xGyro,yGyro,zGyro
STABILIZE,0.5689525604248047,1.7578632905620397,0.0,0.0,0.0,0.0,300,0,50,0.857259657410092,-2.292712650586629,124.92965139162591,-0.0,6.733033710860236,0.0,0.505938347707429,3,0,0
STABILIZE,0.5935313701629639,40.63460569657043,0.0,0.0,0.0,0.4949881830806144,300,0,50,0.8582599599583816,-2.2928437048413284,124.93052565583967,-0.0,6.031095886230469,-0.2474940915403072,0.5050388698577881,3,0,0
STABILIZE,0.6439023017883301,19.855163435820966,0.0,0.0,0.0,0.9754891075423154,300,0,50,0.8583989649801619,-2.2931719808083124,124.93170044837692,-0.0,6.060489177703857,-0.4877445537711577,0.5050756114721299,3,0,0
STABILIZE,0.682084321975708,26.196553597861456,0.0,0.0,0.0,1.4257443421981209,300,0,50,0.8592111705220116,-2.292034327424682,124.93168678799857,-0.0,6.045709133148193,-0.7128721710990604,0.5050571364164352,4,0,0
STABILIZE,0.7185347080230713,27.44244962051819,0.0,0.0,0.0,1.828375647888516,300,0,50,0.859404336809476,-2.292533358120916,124.93221954275383,-0.0,6.043824291229248,-0.914187823944258,0.5050547803640366,4,-1,0
STABILIZE,0.754431962966919,27.870240674046805,0.0,0.0,0.0,2.6031256161125484,300,0,50,0.8587574965507346,-2.2929286553191304,124.93212392010545,-0.0,6.043174839019775,-1.3015628080562742,0.5050539685487747,3,0,0
STABILIZE,0.7945537567138672,24.9248505449316,0.0,0.0,0.0,3.2197064319174986,300,0,50,0.859236356844576,-2.292949572773464,124.93204195783541,-0.0,6.048209953308105,-1.6098532159587493,0.5050602624416352,4,0,0
STABILIZE,0.8419754505157471,21.091318690160108,0.0,0.0,0.0,3.646183916208398,300,0,50,0.8593626619833684,-2.292536346328678,124.93232882578054,-0.0,6.056895732879639,-1.823091958104199,0.5050711196660995,3,0,0
STABILIZE,0.8886702060699463,21.41994658168763,0.0,0.0,0.0,3.8742786634863435,300,0,50,0.8592548730605291,-2.292322049143469,124.93353093907447,-0.0,6.055969905853272,-1.9371393317431718,0.5050699623823166,3,0,0
STABILIZE,0.9296367168426514,24.415013504703364,0.0,0.0,0.0,3.9214103935940363,300,0,50,0.8601444518390704,-2.2922597236672924,124.93303916545423,-0.0,6.049148368835449,-1.9607051967970182,0.5050614354610443,4,0,0
STABILIZE,0.9722321033477783,23.481846836002887,0.0,0.0,0.0,3.8243421117040945,300,0,50,0.8614349840662325,-2.293201009112285,124.93370852399289,-0.0,6.051142787933349,-1.9121710558520473,0.5050639284849167,4,0,0
STABILIZE,1.0138611793518066,24.02538693306144,0.0,0.0,0.0,3.627973151455309,300,0,50,0.8632204382039562,-2.2940278888886794,124.93430958063985,-0.0,6.049865627288819,-1.8139865757276545,0.505062332034111,4,0,0
STABILIZE,1.0555944442749023,23.966081938174963,0.0,0.0,0.0,3.3746501821865764,300,0,50,0.8624350731711105,-2.2938208487794634,124.93492429766516,-0.0,6.050169467926025,-1.6873250910932882,0.5050627118349076,3,0,0
STABILIZE,1.0927298069000244,26.929893610873908,0.0,0.0,0.0,3.0977818068473995,300,0,50,0.8630072615966577,-2.294457337032744,124.93683675063276,-0.0,6.04465684890747,-1.5488909034236997,0.5050558210611343,4,0,1
STABILIZE,1.133314609527588,24.647149388273178,0.0,0.0,0.0,2.820210826724277,300,0,50,0.8636912410090111,-2.293632591690465,124.936645505336,-0.0,6.047998523712158,-1.4101054133621385,0.5050599981546402,3,0,0
STABILIZE,1.1775951385498047,22.588032549397642,0.0,0.0,0.0,2.5556131653286895,300,0,50,0.8654827249231114,-2.2943638488184797,124.93710995819956,-0.0,6.053687953948975,-1.2778065826643448,0.5050671099424362,4,0,0
STABILIZE,1.2154779434204102,26.404678715997154,0.0,0.0,0.0,2.3109705913500327,300,0,50,0.8649005580180735,-2.294190105881467,124.93687773176778,-0.0,6.045551204681397,-1.1554852956750163,0.5050569390058517,3,0,0
STABILIZE,1.2554852962493896,24.99927880460373,0.0,0.0,0.0,2.088921357127357,300,0,50,0.8647953837770259,-2.293415306297494,124.93765637333316,-0.0,6.0477776527404785,-1.0444606785636785,0.5050597220659256,3,0,0
STABILIZE,1.2934107780456543,26.3708118779511,0.0,0.0,0.0,1.8895452923874416,300,0,50,0.865281714590272,-2.2938912851052793,124.93782029787324,-0.0,6.045712566375732,-0.9447726461937208,0.5050571407079697,3,-1,0
STABILIZE,1.3391990661621094,21.859223047978404,0.0,0.0,0.0,1.7115612315095305,300,0,50,0.866264674861372,-2.2951851790661735,124.93772467522486,-0.0,6.054880428314209,-0.8557806157547653,0.5050686005353927,4,-1,0
STABILIZE,1.380829095840454,24.0113579116098,0.0,0.0,0.0,1.5530664929749298,300,0,50,0.8670968373622029,-2.296203731026152,124.9379432412783,-0.0,6.049779224395752,-0.7765332464874649,0.5050622240304947,4,-1,0
STABILIZE,1.4275579452514648,21.403550670279593,0.0,0.0,0.0,1.4119642239090648,300,0,50,0.8674856245363647,-2.2953999031382057,124.9389677696538,-0.0,6.056179046630859,-0.7059821119545324,0.5050702238082886,3,0,0
STABILIZE,1.472407341003418,22.319981694045776,0.0,0.0,0.0,1.2861940530916034,300,0,50,0.8684300582716776,-2.296856440978711,124.9401289018127,-0.0,6.053513717651367,-0.6430970265458017,0.5050668921470642,4,-1,0
STABILIZE,1.511298656463623,25.700549635720808,0.0,0.0,0.0,1.1738453038477534,300,0,50,0.8686421676619183,-2.2968577216391806,124.93982837348922,-0.0,6.046928215026855,-0.5869226519238767,0.5050586602687835,3,0,0
STABILIZE,1.5495145320892334,26.177914531621553,0.0,0.0,0.0,1.0732031535281603,300,0,50,0.8681747799514484,-2.2973204669554486,124.9403338074878,-0.0,6.045791816711426,-0.5366015767640802,0.5050572397708892,3,0,0
STABILIZE,1.5936777591705322,22.642783878037985,0.0,0.0,0.0,0.9827582761906275,300,0,50,0.8692421570918216,-2.299506127489853,124.94051139240622,-0.0,6.053229331970215,-0.49137913809531375,0.5050665366649628,4,-1,0
STABILIZE,1.6391983032226562,21.970749696182374,0.0,0.0,0.0,0.9011978449535551,300,0,50,0.8685942496160224,-2.3002288468814047,124.94204135478032,-0.0,6.0546492576599125,-0.4505989224767776,0.5050683115720749,3,0,0
STABILIZE,1.6795015335083008,24.81792630900043,0.0,0.0,0.0,0.8273880453550454,300,0,50,0.8691016579661603,-2.3002335426364593,124.94212331705035,-0.0,6.048145866394043,-0.4136940226775227,0.5050601823329925,3,0,0
STABILIZE,1.7215611934661865,23.777503146294176,0.0,0.0,0.0,0.7603536728097569,300,0,50,0.8692686774357082,-2.3014561464978915,124.94268339256229,-0.0,6.0506712913513185,-0.3801768364048784,0.5050633391141891,4,0,0
STABILIZE,1.764859676361084,23.100331003640488,0.0,0.0,0.0,0.699257734047371,300,0,50,0.8689315969279976,-2.3013541205471646,124.94301124164245,-0.0,6.051859188079834,-0.3496288670236855,0.5050648239850998,3,0,0
STABILIZE,1.806260108947754,24.15962398046173,0.0,0.0,0.0,0.643382466847868,300,0,50,0.8700244271951996,-2.3014557196110683,124.94361229828941,-0.0,6.049710273742676,-0.321691233423934,0.5050621378421783,3,0,0
STABILIZE,1.8533329963684082,21.244834799698115,0.0,0.0,0.0,0.5921123589060153,300,0,50,0.869719523281782,-2.3089655126034976,124.90825923914542,-0.0,6.056429672241211,-0.29605617945300766,0.5050705370903015,3,-5,-20
STABILIZE,1.894749402999878,24.154893401366028,0.0,0.0,0.0,0.5449193010723572,300,0,50,0.8710620289796598,-2.296342896130491,124.92242505148403,-0.0,6.049373817443848,-0.2724596505361786,0.5050617172718048,3,2,-17
STABILIZE,1.9382145404815674,23.007196770229946,0.0,0.0,0.0,0.5013497852322127,300,0,50,0.8705615041795447,-2.306775156314039,124.96975826243222,-0.0,6.052614212036133,-0.25067489261610637,0.5050657677650452,4,-7,1
STABILIZE,1.9896607398986816,19.44156596628333,0.0,0.0,0.0,0.4610139552765252,300,0,50,0.871294842380822,-2.30178783755946,124.90757622022842,-0.0,6.061581802368164,-0.2305069776382626,0.5050769772529602,4,2,-14
STABILIZE,2.0349104404449463,22.104834884529843,0.0,0.0,0.0,0.42357628479726095,300,0,50,0.8732252245949969,-2.303643514579588,124.96660271503568,-0.0,6.054355430603027,-0.21178814239863047,0.5050679442882537,5,-2,14
STABILIZE,2.0734848976135254,25.92917903066271,0.0,0.0,0.0,0.3887476552326611,300,0,50,0.872412111918648,-2.301536401220639,124.91661939068952,-0.0,6.0462315559387205,-0.19437382761633054,0.5050577894449234,2,1,-39
STABILIZE,2.114671468734741,24.292695923130832,0.0,0.0,0.0,0.3562786251383644,300,0,50,0.873159697467647,-2.290019421619528,124.90457093699362,-0.0,6.049322605133057,-0.1781393125691822,0.5050616532564163,4,3,22
STABILIZE,2.1590678691864014,22.55644888059501,0.0,0.0,0.0,0.32595370510856714,300,0,50,0.8695205940222054,-2.290500096182368,124.89804127614708,-0.0,6.05238676071167,-0.16297685255428357,0.5050654834508896,1,-1,-36
STABILIZE,2.1963744163513184,26.779788280062828,0.0,0.0,0.0,0.2975864782951605,300,0,50,0.8707561112100373,-2.280439227534939,124.82871485607146,-0.0,6.045879077911377,-0.14879323914758025,0.5050573488473892,3,6,-55
STABILIZE,2.2371129989624023,24.55250248785342,0.0,0.0,0.0,0.27101543078013374,300,0,50,0.8709587757293162,-2.283717718336545,124.96025063910756,-0.0,6.04876298904419,-0.13550771539006687,0.5050609537363052,5,-6,82
STABILIZE,2.2758946418762207,25.788724860275085,0.0,0.0,0.0,0.24610037802203663,300,0,50,0.8719369335236561,-2.3180398458026823,124.9533658084242,-0.0,6.0465422630310055,-0.12305018901101832,0.5050581778287888,1,-10,-43
STABILIZE,2.312858819961548,27.054789395600853,0.0,0.0,0.0,0.22271939279295716,300,0,50,0.8721968542380868,-2.3118709043216916,124.93792958089996,-0.0,6.044470596313476,-0.11135969639647858,0.5050555882453919,3,4,-12
STABILIZE,2.3553507328033447,23.539437204655915,0.0,0.0,0.0,0.20076615643621204,300,0,50,0.8728282732103427,-2.3032891985163935,124.96281879023549,-0.0,6.0509542465209964,-0.10038307821810602,0.5050636928081512,4,-1,-7
STABILIZE,2.399296760559082,22.76012437392489,0.0,0.0,0.0,0.18014766909619925,300,0,50,0.8740566934047401,-2.2982165023971897,124.84604987618495,-0.0,6.052692317962647,-0.09007383454809963,0.5050658653974534,4,5,-30
STABILIZE,2.438749074935913,25.352111313934792,0.0,0.0,0.0,0.16078226607391136,300,0,50,0.872792468078053,-2.2879152964683414,124.8310507807676,-0.0,6.047228050231934,-0.08039113303695568,0.5050590350627899,3,7,-10
STABILIZE,2.481733560562134,23.2700158118117,0.0,0.0,0.0,0.1425978969392831,300,0,50,0.8748578532500414,-2.2963006343350014,124.8447384798643,-0.0,6.051497268676758,-0.07129894846964155,0.5050643715858459,5,-6,13
STABILIZE,2.519801616668701,26.273515409671763,0.0,0.0,0.0,0.12553063177030407,300,0,50,0.8712730177919896,-2.3088703168419404,124.91604565479923,-0.0,6.04588623046875,-0.06276531588515204,0.5050573577880859,3,-4,26
STABILIZE,2.562540054321289,23.431342316372817,0.0,0.0,0.0,0.10952336515108707,300,0,50,0.870859737986351,-2.307850484221493,124.9260313913658,-0.0,6.050152015686035,-0.054761682575543535,0.5050626900196076,3,0,16
STABILIZE,2.6028664112091064,24.777901179139395,0.0,0.0,0.0,0.09452469358177548,300,0,50,0.8726374014395526,-2.310091640042903,124.91756195679498,-0.0,6.0494636535644535,-0.04726234679088774,0.5050618295669556,3,-2,-7
STABILIZE,2.6462321281433105,23.064762522752392,0.0,0.0,0.0,0.08048794593975331,300,0,50,0.8743427609370873,-2.310110423063121,124.88689440742162,-0.0,6.051860046386719,-0.040243972969876654,0.5050648250579834,4,0,-11
STABILIZE,2.690699577331543,22.49209830597547,0.0,0.0,0.0,0.06737034976605114,300,0,50,0.8772255810145086,-2.338701594928794,124.88800089806716,-0.0,6.053520011901855,-0.03368517488302557,0.5050669000148773,6,-19,-1
STABILIZE,2.731778860092163,24.346703507203642,0.0,0.0,0.0,0.055132318592082584,300,0,50,0.8849035674152492,-2.3792058973674393,124.82972572406862,-0.0,6.04918155670166,-0.027566159296041292,0.5050614769458771,5,-15,-23
STABILIZE,2.7730109691619873,24.263886799875046,0.0,0.0,0.0,0.04373684740823892,300,0,50,0.8862541306019135,-2.4030996066314363,124.79416775924953,-0.0,6.049463367462158,-0.02186842370411946,0.5050618292093277,4,-18,-25
STABILIZE,2.8133175373077393,24.810732792276934,0.0,0.0,0.0,0.03314900482713861,300,0,50,0.8888129435805824,-2.3896087023601917,124.80217274095679,-0.0,6.048264884948731,-0.016574502413569305,0.5050603311061859,8,20,11
STABILIZE,2.8560307025909424,23.41185467170519,0.0,0.0,0.0,0.02333551161315509,300,0,50,0.8896752549632965,-2.3641483184553227,124.76242103998732,-0.0,6.05150957107544,-0.011667755806577544,0.5050643869638443,6,-2,0
STABILIZE,2.8994715213775635,23.025131476378167,0.0,0.0,0.0,0.014264396123141742,300,0,50,0.8854944855001612,-2.415803331600837,124.91879139084558,-0.0,6.052187919616699,-0.007132198061570871,0.5050652348995208,6,-11,93
STABILIZE,2.938972234725952,25.322417831872297,0.0,0.0,0.0,0.005904717903236399,300,0,50,0.8833333709580868,-2.3877210088283296,125.00856739729623,-0.0,6.047143936157227,-0.0029523589516181996,0.5050589299201965,4,21,63
STABILIZE,2.9858622550964355,21.33246531309761,0.0,0.0,0.0,-0.0017736487282533485,300,0,50,0.8860328431449757,-2.3683988305531867,124.82001319506887,-0.0,6.056276035308838,0.0008868243641266743,0.5050703450441361,1,-4,-90
STABILIZE,3.0259194374084473,24.967135535409213,0.0,0.0,0.0,-0.00880017876579732,300,0,50,0.8890375394103994,-2.4123686002219666,124.69411914828719,-0.0,6.048185348510742,0.00440008938289866,0.5050602316856384,3,-12,-10
STABILIZE,3.068890333175659,23.276989416785522,0.0,0.0,0.0,-0.01520381544201404,300,0,50,0.8862082402684275,-2.369238090047452,124.72775099976033,-0.0,6.0515765190124515,0.00760190772100702,0.5050644706487656,-3,22,9
STABILIZE,3.1016759872436523,30.507357166236318,0.0,0.0,0.0,-0.021013050695501585,300,0,50,0.8817635480268946,-2.297090374957784,124.71144050802233,-0.0,6.039204883575439,0.010506525347750793,0.5050490061044693,-2,56,-10
STABILIZE,3.1414668560028076,25.138624008822454,0.0,0.0,0.0,-0.026255973408258627,300,0,50,0.8760805104723266,-2.2634175423496212,125.06635079767454,-0.0,6.04762544631958,0.013127986704129313,0.5050595318078994,12,-15,168
STABILIZE,3.1888999938964844,21.084851074525574,0.0,0.0,0.0,-0.0309602911528687,300,0,50,0.8763785841965742,-2.346983199297435,124.85767485815231,-0.0,6.057149505615234,0.01548014557643435,0.505071436882019,-2,-13,-159
STABILIZE,3.2289037704467773,25.005389421471836,0.0,0.0,0.0,-0.035153330688812295,300,0,50,0.8811445087725093,-2.2832737560404945,124.77679175800102,-0.0,6.047930431365967,0.017576665344406148,0.5050599130392075,4,45,-55
STABILIZE,3.2607641220092773,31.391436462020913,0.0,0.0,0.0,-0.038862021935247223,300,0,50,0.8750496855161836,-2.2907062825179376,125.08184166671212,-0.0,6.038319396972656,0.019431010967623612,0.5050478992462158,4,-32,101
STABILIZE,3.298715114593506,26.35440779139177,0.0,0.0,0.0,-0.04211286963004569,300,0,50,0.8781386919291747,-2.3409090266911776,124.95508701609504,-0.0,6.045548915863037,0.021056434815022847,0.5050569361448288,1,-40,-98
STABILIZE,3.331664800643921,30.3556726398981,0.0,0.0,0.0,-0.04493191636929698,300,0,50,0.8794225540497256,-2.275066856865901,124.85738799020717,-0.0,6.039577960968018,0.02246595818464849,0.50504947245121,5,37,42
STABILIZE,3.3660378456115723,29.100031914746,0.0,0.0,0.0,-0.04734470021613553,300,0,50,0.877815325160657,-2.2693004696591177,125.02431781352229,-0.0,6.040989589691162,0.023672350108067765,0.505051236987114,6,2,124
STABILIZE,3.4036574363708496,26.6132663291075,0.0,0.0,0.0,-0.04937620958079351,300,0,50,0.8795429894947,-2.3375767481498575,124.87873916155263,-0.0,6.044975852966308,0.024688104790396754,0.5050562198162079,2,-20,-110
STABILIZE,3.436983346939087,29.99273476159149,0.0,0.0,0.0,-0.051050837612619124,300,0,50,0.8794001424915114,-2.3100344372086044,124.82773130883098,-0.0,6.04020938873291,0.025525418806309562,0.5050502617359162,2,20,-47
STABILIZE,3.4755232334136963,25.952121373370375,0.0,0.0,0.0,-0.05239233791567366,300,0,50,0.879969289348444,-2.2868143553515,125.02280151152654,-0.0,6.046205234527588,0.02619616895783683,0.5050577565431594,5,-12,60
STABILIZE,3.514573574066162,25.623458977335208,0.0,0.0,0.0,-0.053423783007201096,300,0,50,0.8795601716893308,-2.3226647376444274,124.9598544881357,-0.0,6.046849536895752,0.026711891503600548,0.5050585619211196,2,-30,-48
STABILIZE,3.557863712310791,23.101348857959582,0.0,0.0,0.0,-0.054167526585982374,300,0,50,0.8796885579013859,-2.293421282713018,124.86864414195935,-0.0,6.051960754394531,0.027083763292991187,0.5050649509429932,4,25,8
STABILIZE,3.5973262786865234,25.345676923448792,0.0,0.0,0.0,-0.05464517036704347,300,0,50,0.8795708972207618,-2.2998130591156802,124.99946958532178,-0.0,6.047333908081055,0.027322585183521736,0.5050591673851014,3,-18,15
STABILIZE,3.6343393325805664,27.02341343985568,0.0,0.0,0.0,-0.05487753597067392,300,0,50,0.8787221928555348,-2.3225119121617483,124.91037659778813,-0.0,6.0444869041442875,0.02743876798533696,0.5050556086301804,1,-19,-70
STABILIZE,3.6739614009857178,25.242865224665678,0.0,0.0,0.0,-0.05488464212629481,300,0,50,0.8796652392086726,-2.286702511003841,124.91476157923528,-0.0,6.047558212280274,0.027442321063147406,0.5050594477653504,5,20,49
STABILIZE,3.709482431411743,28.15441517033059,0.0,0.0,0.0,-0.054685687263448676,300,0,50,0.8789929991839552,-2.2833147371755147,124.9957949435483,-0.0,6.04275541305542,0.027342843631724338,0.5050534442663193,5,2,59
STABILIZE,3.7475788593292236,26.25591716902352,0.0,0.0,0.0,-0.05429903741034766,300,0,50,0.8797535514202067,-2.319076327009232,124.87413561405204,-0.0,6.045548915863037,0.02714951870517383,0.5050569361448288,2,-10,-64
STABILIZE,3.786269426345825,25.857884418578845,0.0,0.0,0.0,-0.05374221920174686,300,0,50,0.8787605593087633,-2.284315359888921,124.95551048782357,-0.0,6.046431255340576,0.02687110960087343,0.5050580390691757,5,14,59
STABILIZE,3.8235394954681396,26.83324163521208,0.0,0.0,0.0,-0.053031917708804686,300,0,50,0.8791499868131598,-2.291477667007326,124.98008550845728,-0.0,6.0448150634765625,0.026515958854402343,0.5050560188293457,4,-6,16
STABILIZE,3.8579814434051514,29.04240409915524,0.0,0.0,0.0,-0.052183978740304816,300,0,50,0.8780646270653624,-2.3132621284782586,124.87740044447531,-0.0,6.041160964965821,0.026091989370152408,0.5050514512062073,3,-2,-31
STABILIZE,3.9057505130767822,20.93791464699158,0.0,0.0,0.0,-0.05121341522340489,300,0,50,0.8769649132481375,-2.2865274874063592,124.96975826243222,-0.0,6.057338047027588,0.025606707611702445,0.5050716725587845,4,7,42
STABILIZE,3.941838264465332,27.715543103334348,0.0,0.0,0.0,-0.05013441724933669,300,0,50,0.8770958607811313,-2.299125344443625,124.956371091659,-0.0,6.0434120178222654,0.025067208624668345,0.5050542650222778,3,-10,-11
STABILIZE,3.978458881378174,27.315024779717753,0.0,0.0,0.0,-0.04896036536182881,300,0,50,0.8780085448089743,-2.305957668047753,124.89153893605723,-0.0,6.043836879730224,0.024480182680914404,0.5050547960996628,3,3,-7
STABILIZE,4.015668630599976,26.880877763037308,0.0,0.0,0.0,-0.047703846670361524,300,0,50,0.8780090784175032,-2.2911468297194033,124.94456852477322,-0.0,6.04464111328125,0.023851923335180762,0.5050558013916016,5,10,40
STABILIZE,4.0538084506988525,26.226693762701267,0.0,0.0,0.0,-0.046376673383928535,300,0,50,0.8765069704086292,-2.3024063965661696,124.93094912756821,-0.0,6.04573917388916,0.023188336691964267,0.5050571739673615,2,-10,-29
STABILIZE,4.096486568450928,23.43160411615513,0.0,0.0,0.0,-0.044989903381349894,300,0,50,0.8779522491091746,-2.2994237383329894,124.91310867345614,-0.0,6.0514723777771,0.022494951690674947,0.5050643404722214,4,6,17
STABILIZE,4.136586904525757,24.94545584308221,0.0,0.0,0.0,-0.0435538624592836,300,0,50,0.878658106471213,-2.2885270252858803,124.95809229932983,-0.0,6.048104095458984,0.0217769312296418,0.5050601301193237,5,7,32
STABILIZE,4.176756143569946,24.897183391208856,0.0,0.0,0.0,-0.04207816792717791,300,0,50,0.8796051015274647,-2.3042556702839505,124.90903788071081,-0.0,6.048262310028076,0.021039083963588955,0.5050603278875351,2,-9,-32
STABILIZE,4.219084739685059,23.632677668907306,0.0,0.0,0.0,-0.0405717532480692,300,0,50,0.8798656625721302,-2.293645825181982,124.93358558058783,-0.0,6.050588607788086,0.0202858766240346,0.5050632357597351,5,8,26
STABILIZE,4.2563416957855225,26.84440462094787,0.0,0.0,0.0,-0.03904289345422046,300,0,50,0.8799967701876826,-2.288268331871066,124.95432203490799,-0.0,6.04449348449707,0.01952144672711023,0.5050556168556214,4,3,14
STABILIZE,4.294729232788086,26.055785406338913,0.0,0.0,0.0,-0.037499231096228165,300,0,50,0.8807394998990686,-2.3031035027483338,124.90316391802459,-0.0,6.046363162994385,0.018749615548114083,0.505057953953743,3,-6,-21
STABILIZE,4.341140031814575,21.5508056560342,0.0,0.0,0.0,-0.03594780251273817,300,0,50,0.8800934066922678,-2.290608952322265,124.94201403402363,-0.0,6.055668067932129,0.017973901256369086,0.5050695850849152,5,6,22
STABILIZE,4.377084016799927,27.82734232979048,0.0,0.0,0.0,-0.03439506423483184,300,0,50,0.8798651823244541,-2.289960084351114,124.94429531720641,-0.0,6.043003177642822,0.01719753211741592,0.5050537539720535,4,0,1
STABILIZE,4.417866945266724,24.52493831203003,0.0,0.0,0.0,-0.032846919364158,300,0,50,0.8800379114052614,-2.302061472013084,124.9024125972159,-0.0,6.04883451461792,0.016423459682079,0.5050610431432724,4,-4,-10
STABILIZE,4.454772472381592,27.09936359231142,0.0,0.0,0.0,-0.031308743786812185,300,0,50,0.8813662231162702,-2.2964073560407825,124.92424188180325,-0.0,6.044608497619629,0.015654371893406092,0.5050557606220245,5,3,16
STABILIZE,4.495730400085449,24.417998381566154,0.0,0.0,0.0,-0.02978541210572285,300,0,50,0.8830460227652702,-2.295113035193065,124.92913229724898,-0.0,6.049098873138428,0.014892706052861426,0.505061373591423,4,-4,-11
STABILIZE,4.539186239242554,23.017550021402464,0.0,0.0,0.0,-0.028281323192897397,300,0,50,0.8819301406096194,-2.3017711889733583,124.90925644676425,-0.0,6.052133846282959,0.014140661596448698,0.5050651673078537,3,0,3
STABILIZE,4.580617189407349,24.141685421067475,0.0,0.0,0.0,-0.026800425279373874,300,0,50,0.883453913124767,-2.2937465704722397,124.93618105247243,-0.0,6.049509429931641,0.013400212639686937,0.5050618867874146,4,0,2
STABILIZE,4.618116617202759,26.676062608518677,0.0,0.0,0.0,-0.025346240515223873,300,0,50,0.8845970626762449,-2.298170398620292,124.9171248246881,-0.0,6.044889163970947,0.012673120257611937,0.5050561114549637,4,-4,-14
STABILIZE,4.65840482711792,24.82497706489894,0.0,0.0,0.0,-0.023921888944597586,300,0,50,0.8845695818370062,-2.299679870426865,124.92023939094963,-0.0,6.048526096343994,0.011960944472298793,0.50506065762043,4,1,10
STABILIZE,4.695831537246704,26.730635396086928,0.0,0.0,0.0,-0.02253011185174973,300,0,50,0.8833003939510004,-2.295387096533512,124.92771161790162,-0.0,6.044871139526367,0.011265055925874864,0.505056088924408,4,3,10
STABILIZE,4.743690013885498,20.895981028581676,0.0,0.0,0.0,-0.021173294443399618,300,0,50,0.8837394470485852,-2.30230949325732,124.91304037156443,-0.0,6.057479953765869,0.010586647221699809,0.5050718499422073,4,-5,-10
STABILIZE,4.785405158996582,23.976082818386047,0.0,0.0,0.0,-0.019853487840828084,300,0,50,0.8836282963920138,-2.2987526722470357,124.9272608254164,-0.0,6.050081062316894,0.009926743920414042,0.5050626013278962,4,2,10
STABILIZE,4.825855731964111,24.72721270110775,0.0,0.0,0.0,-0.01857243036196065,300,0,50,0.8836955844275091,-2.297802849065581,124.92282120245589,-0.0,6.048359298706055,0.009286215180980325,0.5050604491233825,4,-2,-8
STABILIZE,4.8694167137146,22.9882819779232,0.0,0.0,0.0,-0.017331568079486024,300,0,50,1.3878211215347191,-2.497905620518975,124.83659689437366,-0.0,6.051388549804687,0.008665784039743012,0.5050642356872559,452,-185,-62
STABILIZE,4.916723966598511,21.126908411365594,0.0,0.0,0.0,-0.016132074645955733,300,0,50,1.041775030043018,-2.3421499866860045,124.94724595892785,-0.0,6.057764625549316,0.008066037322977867,0.5050722057819367,-157,74,21
STABILIZE,4.9588401317596436,23.750036805925188,0.0,0.0,0.0,-0.014974870380936955,300,0,50,1.0035540384995671,-2.332359337397614,124.89208535119083,-0.0,6.050511360168457,0.0074874351904684775,0.5050631392002106,-9,0,-48
STABILIZE,5.003124237060547,22.58414055643203,0.0,0.0,0.0,-0.013860640618764655,300,0,50,0.8997194750246233,-2.2950093016950457,124.91544459815228,-0.0,6.0532636642456055,0.006930320309382327,0.505066579580307,3,11,42
STABILIZE,5.040072441101074,27.067185513587464,0.0,0.0,0.0,-0.012789853318366323,300,0,50,0.8896350742410698,-2.2469136708807547,124.89733093647341,-0.0,6.044399356842041,0.006394926659183162,0.5050554991960525,2,12,-53
STABILIZE,5.083577394485474,22.988911969920363,0.0,0.0,0.0,-0.011762775939104384,300,0,50,0.9139144223889082,-2.3366994957283342,124.90604625785434,-0.0,6.05223913192749,0.005881387969552192,0.5050652989149094,15,-41,52
STABILIZE,5.122097969055176,25.969957772466657,0.0,0.0,0.0,-0.01077949158867647,300,0,50,0.9327531513368612,-2.442914486850733,124.9810144141844,-0.0,6.045873355865479,0.005389745794338235,0.5050573416948319,18,-79,68
STABILIZE,5.163477659225464,24.168951429345228,0.0,0.0,0.0,-0.009839914450899179,300,0,50,1.1206292438456977,-2.7424874376211386,124.76643719121928,-0.0,6.049867057800293,0.0049199572254495895,0.5050623338222504,128,-145,-87
STABILIZE,5.199926853179932,27.446939109380622,0.0,0.0,0.0,-0.008943804502732354,300,0,50,1.359417779871221,-3.01052198989901,124.63409544586112,-0.0,6.043699264526367,0.004471902251366177,0.5050546240806579,162,-201,-117
STABILIZE,5.236690521240234,27.209590782883982,0.0,0.0,0.0,-0.008090781531224446,300,0,50,1.8561461687464544,-3.8817335359884697,124.41294758091443,-0.0,6.043653202056885,0.004045390765612223,0.5050545665025711,167,-356,-40
STABILIZE,5.27102518081665,29.12792022000611,0.0,0.0,0.0,-0.007280338462212379,300,0,50,2.085860158129381,-4.504980186902494,124.41208697707901,-0.0,6.041518878936768,0.0036401692311061897,0.505051898598671,159,-427,14
STABILIZE,5.307121753692627,27.704924963009933,0.0,0.0,0.0,-0.006511854013621365,300,0,50,2.7195770621542117,-5.815197446139469,124.45896939554198,-0.0,6.043570804595947,0.0032559270068106827,0.5050544635057449,254,-474,37
STABILIZE,5.34244704246521,28.31234474565288,0.0,0.0,0.0,-0.005784604687104501,300,0,50,3.114514181333393,-6.4452683098079815,124.48741030324592,-0.0,6.042404079437256,0.0028923023435522507,0.5050530050992965,282,-434,41
STABILIZE,5.3730878829956055,32.64964503674181,0.0,0.0,0.0,-0.005097776112556641,300,0,50,3.8712325470263984,-7.377034605531482,124.6704047314889,-0.0,6.036318969726563,0.0025488880562783206,0.5050453987121583,291,-298,110
STABILIZE,5.400094747543335,37.044301561506394,0.0,0.0,0.0,-0.0044504737607453555,300,0,50,4.268132705261723,-7.651100214846474,124.8941207475635,-0.0,6.0326591491699215,0.0022252368803726778,0.5050408239364624,302,-175,171
STABILIZE,5.42796516418457,35.888014237798615,0.0,0.0,0.0,-0.003841733039933485,300,0,50,4.694191794837479,-7.701989393031301,125.18214982486293,-0.0,6.033540344238281,0.0019208665199667424,0.5050419254302978,352,-20,220
STABILIZE,5.461821556091309,29.553794012161696,0.0,0.0,0.0,-0.0032705287929298333,300,0,50,5.252924320832971,-7.5649177416729,125.53119981220726,-0.0,6.039064407348633,0.0016352643964649167,0.5050488305091858,429,121,234
STABILIZE,5.4856133460998535,42.02119943094155,0.0,0.0,0.0,-0.0027357842115015526,300,0,50,5.763034010787612,-7.315772931318345,125.85434972221891,-0.0,6.030079364776611,0.0013678921057507763,0.5050375992059708,445,217,233
STABILIZE,5.5118443965911865,38.13835745980941,0.0,0.0,0.0,-0.002236379185516913,300,0,50,6.22785570456366,-6.903413493670342,126.25601948692902,-0.0,6.03131217956543,0.0011181895927584566,0.5050391402244568,358,317,248
STABILIZE,5.538269996643066,37.85131305838823,0.0,0.0,0.0,-0.001771158104562301,300,0,50,6.620662445052032,-6.037420212106772,127.11088596344781,-0.0,6.031836032867432,0.0008855790522811505,0.5050397950410843,111,353,275
STABILIZE,5.567156076431274,34.625895717068985,0.0,0.0,0.0,-0.0013389371300936606,300,0,50,6.545885960905555,-5.548008129771386,127.51612108690468,-0.0,6.034750270843506,0.0006694685650468303,0.5050434378385544,-28,370,240
STABILIZE,5.592340469360352,39.724054325384046,0.0,0.0,0.0,-0.0009385109564409224,300,0,50,6.367448549499441,-5.11507957743789,127.80585771149661,-0.0,6.030028438568115,0.0004692554782204612,0.5050375355482102,-118,367,190
STABILIZE,5.619351863861084,37.03350786264867,0.0,0.0,0.0,-0.0005686590791848208,300,0,50,6.066250440593396,-4.6452248880171885,128.0736694288528,-0.0,6.032328987121582,0.0002843295395924104,0.505040411233902,-195,344,147
STABILIZE,5.644498348236084,39.77641848511575,0.0,0.0,0.0,-0.00022815158956945224,300,0,50,5.665597947182795,-4.19869102574385,128.27835653789975,-0.0,6.030162906646728,0.00011407579478472612,0.5050377036333085,-269,321,109
STABILIZE,5.6725428104400635,35.67222037948954,0.0,0.0,0.0,8.424548629830581e-05,300,0,50,5.253980011946561,-3.8339499594418838,128.40252937701058,-0.0,6.033669948577881,-4.212274314915291e-05,0.5050420874357223,-304,283,67
STABILIZE,5.700572490692139,35.68678901736563,0.0,0.0,0.0,0.0003697652846788607,300,0,50,4.847407025186029,-3.4727887660386503,128.46568130607653,-0.0,6.033774375915527,-0.00018488264233943035,0.5050422179698945,-277,252,19
STABILIZE,5.725379467010498,40.32441786682562,0.0,0.0,0.0,0.0006296356190972497,300,0,50,4.531924002517725,-3.163986522152265,128.4715416083844,-0.0,6.029568099975586,-0.00031481780954862486,0.5050369601249695,-244,243,-14
STABILIZE,5.7564074993133545,32.23833424286911,0.0,0.0,0.0,0.0008650748942194083,300,0,50,4.17422742257098,-2.8221389692877117,128.41834809512835,-0.0,6.036921215057373,-0.00043253744710970417,0.5050461515188217,-246,235,-57
STABILIZE,5.780194997787476,42.049003488791755,0.0,0.0,0.0,0.001077288400143359,300,0,50,3.393026030354653,-2.226380841575227,128.07305471182752,-0.0,6.0290319442749025,-0.0005386442000716795,0.5050362899303437,-301,193,-173
STABILIZE,5.808748245239258,35.0336947261155,0.0,0.0,0.0,0.0012674649687139446,300,0,50,2.866137553817053,-2.021914006129018,127.78577695533677,-0.0,6.034062767028809,-0.0006337324843569723,0.505042578458786,-371,129,-210
STABILIZE,5.837215423583984,35.13405930641648,0.0,0.0,0.0,0.0014367739736881324,300,0,50,2.27317382724875,-1.9451806727853327,127.5162986718231,-0.0,6.0344501495361325,-0.0007183869868440662,0.5050430626869201,-468,52,-218
STABILIZE,5.867996454238892,32.49257466010768,0.0,0.0,0.0,0.001586362656839332,300,0,50,1.4002747975474739,-1.9729663092157677,127.21325683872797,-0.0,6.036698341369629,-0.000793181328419666,0.505045872926712,-595,-30,-203
STABILIZE,5.89681339263916,34.77316177384989,0.0,0.0,0.0,0.0017173537623906211,300,0,50,0.4945111920767709,-2.0831218926024406,126.93089681843963,-0.0,6.034584617614746,-0.0008586768811953106,0.5050432307720184,-636,-83,-196
STABILIZE,5.925012826919556,35.473701125705155,0.0,0.0,0.0,0.0018308434625051496,300,0,50,-0.9494332203419728,-2.399084736059938,126.31913043485994,-0.0,6.033870792388916,-0.0009154217312525748,0.5050423384904862,-479,-119,-235
STABILIZE,5.964159965515137,25.530657089813435,52.35809731528438,-17.49376696998976,-11.723417268571211,0.811675379974788,300,0,50,-1.4624334676977038,-2.5389640220540373,126.00783773324744,-0.1511718714409365,4.85835652840963,-0.405837689987394,0.5065436607697498,-410,-107,-250
STABILIZE,5.994801044464111,32.6526951701803,103.82026961831441,-35.92678738132125,-23.074580543545633,2.3704659429036257,300,0,50,-2.1050884213034364,-2.886843912616181,125.16168657810958,-0.27854650381498325,3.7790674416032544,-1.1852329714518128,0.5077460671388411,-298,-98,-282
STABILIZE,6.028331518173218,29.825525499900447,155.32954629580996,-54.96298780981087,-34.43240348839208,4.64055593551903,300,0,50,-2.1646069031743393,-3.0934750642556383,124.7154566592543,-0.39084609619509814,2.7596155555517567,-2.320277967759515,0.5088662846873401,-50,-144,-346
STABILIZE,6.059740781784058,31.841608211108074,206.8011914682773,-57.03104588399555,-34.008466535958185,7.566436936651674,300,0,50,-2.165045102498278,-3.3515955969532363,124.20282364128816,-0.35306353970025256,1.7122819353650534,-3.783218468325837,0.5084667576619786,-7,-167,-367
STABILIZE,6.091995477676392,31.00942635979861,258.2728366407446,-58.159850516838524,-33.95678357712108,11.114717220001184,300,0,50,-2.3421621529604635,-3.870508546974377,123.26226561144239,-0.35696119847308955,0.6803822258722032,-5.557358610000592,0.5084753331800572,-110,-173,-350
STABILIZE,6.124111175537109,31.158007339504064,257.15622240309284,-59.08508570140742,-33.9137744711228,14.466638883480467,300,0,50,-2.410191904310848,-4.114095717778658,122.75191387665905,-0.3619190531542589,0.8658240696276657,-7.233319441740234,0.508469544066359,-61,-153,-363
STABILIZE,6.159511566162109,28.24941740641459,257.0542554928135,-59.882368600989736,-34.12073854434859,17.621765371221002,300,0,50,-2.2621989939130085,-4.312978446691558,122.19480266681778,-0.36666175014551083,0.8653402849120103,-8.810882685610501,0.5085080671414649,92,-131,-428
STABILIZE,6.190536260604858,32.241803688244204,257.5387240940505,-61.66628252707275,-35.14600435596049,20.543925776397987,300,0,50,-1.4470619135271785,-4.586727732870615,120.6691979534254,-0.3803744371599154,0.8527498431977046,-10.0,0.5086256868067075,309,-62,-616
STABILIZE,6.225289583206177,28.81930492379997,258.0608242003157,-63.0505858842717,-36.15593664486155,23.259905706407633,300,0,50,-1.0093031367900138,-4.711406005980027,119.72827109336444,-0.38757152165031544,0.8432511701900576,-10.0,0.5087356537877993,267,-69,-661
STABILIZE,6.260358095169067,28.488687536932765,258.7137230704907,-64.28415870215953,-37.17380653601137,25.725955194999926,300,0,50,-0.8086521892948731,-4.868402599807824,118.80312197028621,-0.3946417075768139,0.8296900252468494,-10.0,0.5088384040749423,94,-98,-647
STABILIZE,6.28943657875061,34.40238190930044,260.3035182191644,-64.32691076985776,-37.06838929905701,27.900075548906056,300,0,50,-1.222757860853725,-5.245741096260233,117.1264881139665,-0.3905045475790469,0.7928604223086222,-10.0,0.508777456943561,-273,-131,-604
STABILIZE,6.319786071777344,32.956728767080236,261.7745910527201,-64.36966283755599,-36.96297206210266,29.82058998371457,300,0,50,-1.577822683535899,-5.41199686528163,116.36919771993051,-0.3911459047452932,0.7645045990305889,-10.0,0.5087737887914329,-325,-115,-603
STABILIZE,6.354200124740601,29.06172223607993,262.78171374242316,-63.754407111977194,-36.64434062974655,31.526102006674968,300,0,50,-1.9422979060687642,-5.550306061540272,115.49822565734881,-0.3860121206213988,0.746571430398767,-10.0,0.5087447375160612,-296,-72,-610
STABILIZE,6.38492488861084,32.55815253250534,264.18538706167436,-63.06306798042541,-37.03618567696185,33.027863899893546,300,0,50,-2.3960892712220643,-5.68215902148596,113.72328488830512,-0.3806971028864357,0.7160192074523944,-10.0,0.5087958055293309,-182,-3,-662
STABILIZE,6.415227651596069,33.00938109928855,265.4620427281382,-61.83760716092345,-37.86668739538569,34.37460798095272,300,0,50,-2.529633343317565,-5.704794268395383,112.73741538350548,-0.3715512493085936,0.6908037283165247,-10.0,0.5088944023003203,-141,18,-689
STABILIZE,6.448242425918579,30.335254764401693,265.83320315062605,-60.46233432579036,-38.87909435300708,35.597484124798044,300,0,50,-2.6078193725203476,-5.723320302745396,111.85315177279894,-0.36333547740534483,0.6866837619618714,-10.0,0.509006199561851,-113,21,-701
STABILIZE,6.479607343673706,31.86047430229555,266.11808163211765,-58.68691403524914,-39.61616577762491,36.651351775837185,300,0,50,-2.734758651688446,-5.813451052146061,109.80998264485967,-0.35097110967432044,0.6810284036776222,-10.0,0.509070003368286,-97,0,-717
STABILIZE,6.507669448852539,35.64433037876792,266.5291115301491,-56.82569117525099,-39.972634794256514,37.52819261058737,300,0,50,-2.80089814818603,-5.865077036987603,108.8589675953946,-0.33811093516987684,0.6716912344822354,-10.0,0.5090854835186213,-105,0,-722
STABILIZE,6.53641676902771,34.80259216542065,267.1003279989667,-54.985856082461474,-40.30119833608986,38.19591117165576,300,0,50,-2.881388512460045,-5.9189650951048876,107.81974748298799,-0.3272794794499199,0.6597729502434273,-10.0,0.5091192361357404,-111,3,-726
STABILIZE,6.5725319385528564,27.689012998501443,267.8385877638274,-53.14199686165805,-40.685838084029264,38.68282701533024,300,0,50,-2.939853651094885,-6.039404808947484,105.83022266079,-0.3184158317949698,0.6458737162443355,-10.0,0.5091780606216507,-62,0,-745
STABILIZE,6.602025508880615,33.913645331349656,268.39520496133355,-50.89066118380183,-41.097468248554996,38.98723676644069,300,0,50,-2.8933507350176764,-6.0597442585221355,104.74600526213135,-0.3012996593402114,0.6339305739066922,-10.0,0.5092042284800301,-25,30,-756
STABILIZE,6.637530565261841,28.173515859048592,270.07750307034127,-48.59833643709846,-41.80583892825499,39.13403103323501,300,0,50,-2.817902971341834,-6.01715717527346,103.72821145315106,-0.2892121466875152,0.5979081892076467,-10.0,0.5092978640904539,-2,75,-769
STABILIZE,6.667926549911499,32.90656749907815,271.43244172880037,-46.0334078738995,-42.52880881197396,39.145744366017354,300,0,50,-2.5203380961874124,-5.68290052389773,101.51969027559495,-0.2711484868852871,0.570385908060496,-10.0,0.5093611866187554,72,204,-832
STABILIZE,6.69536828994751,36.4519224083988,271.87974631467716,-43.51290021169584,-43.151008636285844,39.035037842247206,300,0,50,-2.298362924577522,-5.404154100567163,100.27344029925608,-0.25480187075787386,0.5638788410587607,-10.0,0.5094146575751102,95,237,-862
STABILIZE,6.726722002029419,31.90021447802741,272.41066730099845,-40.61655430562922,-43.22037367710052,38.785495977515964,300,0,50,-2.2430678474912145,-5.049145626945641,99.05690847599594,-0.23753577111346788,0.5535608807000084,-10.0,0.5094120573428478,-20,289,-838
STABILIZE,6.7534215450286865,37.4752416861743,274.45991633675436,-37.80064306902968,-42.9193399830445,38.393186699826195,300,0,50,-2.419712120796788,-4.731116651264215,98.01221738206415,-0.2185692215259855,0.5057657498558005,-10.0,0.5093543622419653,-182,281,-783
STABILIZE,6.784291744232178,32.4069661428152,275.469766402005,-35.967711645894724,-42.634031668586935,37.901194191472584,300,0,50,-3.152375200563243,-4.3023212171522225,96.17288841971474,-0.21254142078160088,0.49036819428775363,-10.0,0.5093400372372323,-305,223,-706
STABILIZE,6.811820030212402,36.338231217077904,275.62452585336024,-33.55355916254303,-41.420208588987485,37.31046703322238,300,0,50,-3.4705604168219333,-4.149502991549181,95.34794500194977,-0.1947810954647799,0.48963509821929285,-10.0,0.5091735641410671,-241,143,-567
STABILIZE,6.842056751251221,33.07393388846833,277.6698128152317,-30.998721338932242,-39.87936213831038,36.61122360568578,300,0,50,-3.5643564164859565,-3.9925004213058592,94.57440558787832,-0.17981025452618488,0.44255606488975036,-10.0,0.5090187278184737,-76,148,-532
STABILIZE,6.875472545623779,29.93258876003568,279.30121789807225,-27.338959469006962,-37.84855744834283,35.82468476521201,300,0,50,-3.3966176426410217,-3.8628745299164184,93.87593678297448,-0.15526132712746601,0.411852742763751,-10.0,0.5088120033447356,112,136,-525
STABILIZE,6.9070494174957275,31.675205413243113,279.4472608959871,-24.42782277480875,-36.5587987980748,34.96502497341697,300,0,50,-2.5975935121157807,-3.641117497473145,92.52059502521216,-0.13923008621709979,0.41319685694086583,-10.0,0.5086973781606507,312,106,-486
STABILIZE,6.935079336166382,35.68557450972051,279.7378327514166,-21.972960811582542,-35.5233416195809,33.97875368473288,300,0,50,-2.2079901303481444,-3.5496006465577903,91.89441011229457,-0.12453786049636292,0.4064720072013332,-10.0,0.5085870962854094,262,86,-435
STABILIZE,6.966883182525635,31.45499951253534,280.5312457308056,-20.134828678864213,-34.68580705472444,32.952085128177714,300,0,50,-1.8985008121199383,-3.4699367351733468,91.2729995016068,-0.11654569864965908,0.3893431447520499,-10.0,0.5085227457770061,179,67,-383
STABILIZE,7.004584074020386,26.534975674872047,280.0603925767123,-18.822643556759065,-34.08046454969317,31.86058836769961,300,0,50,-1.4929613183581931,-3.268270704173666,90.41411687385605,-0.11114305456466153,0.4030428269669361,-10.0,0.5084867574423173,161,106,-323
STABILIZE,7.03503155708313,32.850639890975735,279.76053285722384,-17.952241503264876,-33.77188019715148,30.665480132965047,300,0,50,-1.245582752234321,-3.1073386407234715,89.9940260889544,-0.10619004620905625,0.40824753622921456,-10.0,0.5084440612456457,189,135,-319
STABILIZE,7.067676782608032,30.674467587175286,280.0067114392315,-17.611447056704566,-33.96477281275215,29.415622482294236,300,0,50,-0.9793112425359588,-2.8573861604995625,89.56319824667752,-0.106005553438994,0.401723761481551,-10.0,0.5084846481623461,188,189,-300
STABILIZE,7.10376501083374,27.69413209552925,280.1708788784232,-17.692297903304425,-34.242806842530825,27.9119493984985,300,0,50,-0.5234084417946255,-2.248332642680825,88.86435378136932,-0.10790665996429684,0.39898096304402875,-10.0,0.5085229651611896,169,237,-242
STABILIZE,7.13354229927063,33.59555295681915,280.73994859328405,-17.936756074028867,-34.43107233716608,26.294017815666127,300,0,50,-0.3399031367460681,-1.8839038440899747,88.52978379506541,-0.10971601381062755,0.3855144786725805,-10.0,0.5085237216057916,137,262,-235
STABILIZE,7.164802312850952,31.998779343439352,281.55226646742574,-18.343725015310586,-34.24699582280018,24.69459236560011,300,0,50,-0.28550574928794115,-1.506730339394704,88.2504495485794,-0.11274230671126688,0.36875425852461047,-10.0,0.5084994144990171,57,304,-224
STABILIZE,7.199245452880859,29.071189448075575,282.35303197838334,-18.59201510033113,-34.04879510643513,23.159675486509997,300,0,50,-0.48705897544461096,-0.683840780857498,87.69783943340119,-0.11380452383492932,0.3530144590189389,-10.0,0.5084853649383262,-92,275,-181
STABILIZE,7.227220296859741,35.708360292865656,283.3121125739907,-19.323660020953884,-33.29679107812578,21.5691278394512,300,0,50,-0.6542280154632317,-0.3767424023647665,87.48533175775457,-0.11984305898182357,0.3322441304202583,-10.0,0.5083735730326773,-113,238,-162
STABILIZE,7.257577896118164,32.99795449538975,284.50251111819034,-20.071504612819002,-32.28835532591956,20.187073605509887,300,0,50,-0.7547507909643655,-0.09703174842246388,87.23761445693656,-0.12437291529431876,0.3078088386837091,-10.0,0.5082686786592059,-52,200,-175
STABILIZE,7.291577577590942,29.412246500799416,285.6718751685363,-20.81934920468412,-31.279919573713347,18.823267729707148,300,0,50,-0.4899814426357302,0.31304283086561113,86.595884033468,-0.12880965797041968,0.285125936328148,-9.411633864853574,0.5081823725675677,168,146,-268
STABILIZE,7.3226165771484375,32.20986345973675,286.23000820797887,-21.168591465702892,-30.601176448312387,17.52723386250558,300,0,50,-0.29677086566340777,0.44277448346548126,86.14139641590619,-0.12971593630939737,0.27532881873114995,-8.76361693125279,0.50811378846328,157,95,-325
STABILIZE,7.354886293411255,30.99613500151496,286.72524284398605,-21.45047774869771,-30.49138538956035,16.2766791424418,300,0,50,-0.25039313414708075,0.4569537427390162,85.65691743769884,-0.1312362689665423,0.26566812409210755,-8.1383395712209,0.5081235132509986,58,16,-374
STABILIZE,7.386816740036011,31.321345361132686,287.6660444152571,-21.842400971434657,-30.723357131216265,15.124673417560922,300,0,50,-0.604065185207954,0.062027882699794784,84.53081731904966,-0.1339572963715928,0.24532415233018467,-7.562336708780461,0.5081571772792182,-162,-192,-441
STABILIZE,7.415185213088989,35.26492176530432,288.99754123086535,-21.93916974650359,-31.663045094778123,13.986364381476212,300,0,50,-0.9408717916607734,-0.3223520852196476,83.88186055543925,-0.1334623629677379,0.21656523488935067,-6.993182190738106,0.5082686933528394,-219,-263,-465
STABILIZE,7.442131280899048,37.12594821863244,289.88028937214654,-21.147286882641968,-33.19518687314801,12.627905567871176,300,0,50,-1.2878853154153833,-0.7278025463983446,83.23060884826769,-0.1253242724761881,0.20022085275655074,-6.313952783935588,0.5084436604963101,-227,-273,-468
STABILIZE,7.468557357788086,37.84823902038459,290.8556558602644,-20.24536707903822,-34.38556585110995,10.964844124709499,300,0,50,-1.4952657601511319,-1.051509116827344,82.66349824148153,-0.11935781134824258,0.18017701653754412,-5.4824220623547495,0.5085505700447492,-150,-231,-443
STABILIZE,7.494029521942139,39.2721416466138,291.8939207518177,-19.509483295010618,-35.127639342158254,9.033752521074147,300,0,50,-1.5013244581100507,-1.2947303389024998,82.11798469285097,-0.11533041848446271,0.1588351401189246,-4.516876260537074,0.508606685548897,13,-154,-390
STABILIZE,7.523369550704956,34.098369185242994,292.1297029851188,-19.50948329501062,-35.127639342158254,6.889814823077946,300,0,50,-1.3549734611556585,-1.3712094611430135,81.72442919287482,-0.11840596508974614,0.1574946391379787,-3.444907411538973,0.5085863452947819,129,-54,-321
STABILIZE,7.547760009765625,41.00524993400921,291.68095431079166,-19.50948329501062,-35.127639342158254,4.631431766554257,300,0,50,-1.1068311945052143,-1.2701880818324687,81.38337052685941,-0.11823146973601822,0.16900454213704724,-2.3157158832771283,0.5085768278864308,188,85,-238
STABILIZE,7.579510450363159,31.501539663226833,289.6407972330004,-14.914478899871886,-41.53468762754874,2.3465497955965233,300,0,50,-0.7271764635113778,-0.7024449354961434,81.07863480685012,-0.07612799674565493,0.21493286802267111,-1.1732748977982617,0.509442620737713,127,239,-66
STABILIZE,7.605826139450073,38.01667754332536,290.9246438652456,-9.668204216708174,-50.14029980236561,0.3731598708403359,300,0,50,-0.6220093194571941,-0.39212617617060375,81.09187854365078,-0.03852658561800662,0.1775391544228726,-0.18657993542016796,0.5104220061503449,86,216,10
STABILIZE,7.636701583862305,32.38819777453456,291.3221211824201,-4.159012274016702,-58.74457871109551,-1.2704755698108223,300,0,50,-0.500378751460635,-0.19406280315384017,81.15587058598463,-0.007568990285378729,0.17336151968602462,0.6352377849054112,0.5112523975761178,107,159,47
STABILIZE,7.666534900665283,33.534847648973,291.67184230592795,-3.292572376760976,-60.82385524327993,-2.5779866633040585,300,0,50,-0.26260151031909673,-0.05476979285045131,81.22027243966868,-0.017068393342036952,0.16637198336275652,1.2889933316520292,0.5112510987005399,183,93,39
STABILIZE,7.699267148971558,30.554471746082623,292.02156342943573,-3.0774027675302236,-60.70456788603796,-3.563166695144223,300,0,50,0.19473506985898398,-0.09783522946486596,81.16464737906809,-0.01805274306212071,0.15955417054734905,1.7815833475721115,0.5111760141378959,147,-60,-45
STABILIZE,7.727842807769775,35.00416447593534,295.03863900340605,-3.7722652559619374,-60.881122998080436,-4.012996934996304,300,0,50,0.2168584261066255,-0.2975184245319804,81.09206978894754,-0.025327681875621344,0.08921705563363488,2.006498467498152,0.5111891938517904,22,-143,-58
STABILIZE,7.759663105010986,31.435903585561817,294.31643894410564,-4.700988648894729,-61.401156318839476,-4.273024059220048,300,0,50,0.1708700954142685,-0.5388732173751508,81.0025874806312,-0.031505258924151,0.11667737700663837,2.136512029610024,0.511262049545545,-28,-190,-77
STABILIZE,7.791667461395264,31.25203227801414,294.4806081998759,-5.62971204182752,-61.921189639598516,-4.382225478965118,300,0,50,0.22814990274342017,-0.8461799699984206,80.8238550904303,-0.037116004294003434,0.11057975534315902,2.191112739482559,0.5113156997319375,54,-215,-134
STABILIZE,7.816555738449097,40.20189588904544,293.9331279198146,-5.689101820842784,-63.811656175161694,-4.585688509494881,300,0,50,0.7859564311782729,-1.4664646666901864,80.25160818138829,-0.03471376834713083,0.12413023663025481,2.2928442547474406,0.5115421669996024,195,-221,-202
STABILIZE,7.844379186630249,35.995194123099104,293.38564763975324,-5.466883045059963,-65.4765985931633,-4.880445899920086,300,0,50,1.0569471213454378,-1.8335045185346854,79.94944061250693,-0.03236743255818654,0.13499114134046877,2.440222949960043,0.5117038802898375,195,-259,-214
STABILIZE,7.870543956756592,38.228039154924446,292.82408142348993,-4.891007261660753,-68.53689897342282,-5.338966164301176,300,0,50,1.230208103134328,-2.187372137121403,79.71342342573715,-0.02745550509203573,0.14641383797115007,2.669483082150588,0.5120636660678326,143,-285,-189
STABILIZE,7.900412559509277,33.49227034623738,292.43784239400014,-4.0108704776219755,-70.91788666986183,-6.020517717612857,300,0,50,1.3799103750936692,-2.5818652940045337,79.44715533113336,-0.021409088872898212,0.15343939779560922,3.0102588588064285,0.5122798805605763,107,-279,-186
STABILIZE,7.927521705627441,36.93794804051079,292.0516033645104,-3.1307336935832004,-73.29887436630082,-6.915568449903716,300,0,50,1.3394313656992944,-2.711842086362584,79.06141356756773,-0.01574587732293305,0.16125386473182918,3.457784224951858,0.512518009061077,9,-159,-271
STABILIZE,7.954630136489868,36.86490002197319,291.8973683538767,-1.4311997086933577,-76.5682598619402,-7.878067033791491,300,0,50,0.318988857383651,-2.033249131943477,78.90905253775225,-0.002399933267339928,0.16349965524447096,3.9390335168957455,0.5128803928272567,-799,483,-152
STABILIZE,7.97939658164978,40.38887604961097,291.743133343243,-0.2581455002259004,-78.85201562339853,-8.904722846557814,300,0,50,-0.05762381140752494,-1.8258145793028973,78.60226093080279,0.0031721115533791923,0.16657806968250316,4.452361423278907,0.513073149545483,-358,121,-250
STABILIZE,8.005258321762085,38.73035689551688,290.9757868961401,0.9149087082415569,-81.13577138485685,-9.989070788633168,300,0,50,-0.09103469558884723,-1.5513517517989859,78.64344697149797,0.010103849882505667,0.18439479343889725,4.994535394316584,0.5133035626279899,59,157,26
STABILIZE,8.029095888137817,41.89737186466751,290.4483851854978,0.9149087082415569,-81.13577138485685,-11.074746267172872,300,0,50,-0.06569247929270496,-1.5770823550628932,78.6834377290884,0.00554217125316715,0.19414626640556185,5.537373133586436,0.5132080311965368,12,116,55
STABILIZE,8.054993152618408,38.63047662905826,289.92098347485546,0.9149087082415569,-81.13577138485685,-12.161162445561994,300,0,50,-0.09973054025847838,-1.5504768472549895,78.67190153958023,0.005546321156272064,0.20466084838161086,6.080581222780997,0.5132154663747673,-42,60,4
STABILIZE,8.079924583435059,40.12113907462144,289.92098347485546,0.9149087082415569,-81.13577138485685,-13.166334853507527,300,0,50,-0.12388977312645974,-1.5765239870982446,78.6701325205852,0.005543855924315329,0.2025792198512003,6.583167426753763,0.5132110495393583,-17,0,-18
STABILIZE,8.108845710754395,34.589345208642584,288.8724005059972,3.206991266693388,-80.21546401757462,-14.121762321901837,300,0,50,-0.11718196707255187,-1.6575238407956605,78.63540100865569,0.027357463954818098,0.22745513951207372,7.0608811609509186,0.5131033150695542,16,-48,10
STABILIZE,8.136400938034058,36.29986325792325,289.0675110284306,5.600141023236028,-79.62205541090975,-14.770505540046997,300,0,50,-0.12388550425822849,-1.7076328833112244,78.82835385270855,0.04267226629946713,0.2191429870558852,7.385252770023499,0.5130475737544846,8,-55,130
STABILIZE,8.163996934890747,36.24684785896383,289.6791576011844,8.19678673644689,-79.31136879474086,-15.136298081568246,300,0,50,-0.1949487133737452,-1.6714535847210785,78.95303895600713,0.05911002766518286,0.20534841195065776,7.568149040784123,0.5130272413893221,-33,35,93
STABILIZE,8.192957878112793,34.53750761680473,290.5476112776811,8.390875932507909,-80.04426167523165,-15.174734763776309,300,0,50,-0.14986498254001823,-1.6472917905321585,78.79323985018551,0.051598696426710326,0.18714187692367815,7.587367381888154,0.5131426716413853,0,-1,-129
STABILIZE,8.222519874572754,33.863811784462854,291.4160649541777,8.483897930478117,-80.45025579510508,-14.901401916093914,300,0,50,-0.17475200408057617,-1.6337766604337014,78.63739542389334,0.051818304023343975,0.16973271926042305,7.450700958046957,0.5131738529994461,-2,1,-123
STABILIZE,8.255267143249512,30.522897791361935,292.62096454946095,8.072974019760432,-80.22623225689178,-14.319332947035903,300,0,50,-0.17757556693086243,-1.6353436552396905,78.97450624056849,0.04780075065242921,0.14482667583571607,7.159666473517952,0.5131425309878945,7,-12,152
STABILIZE,8.290088653564453,28.727912822514913,293.6450824744892,8.001324586067902,-80.34489648570214,-13.731602469749324,300,0,50,-0.1758058275643151,-1.6370785232888736,78.91566416086883,0.048482067729165954,0.125091119589471,6.865801234874662,0.5131757673951087,5,-5,-57
STABILIZE,8.322903871536255,30.474109056562646,293.1905100697392,8.12195628777991,-79.98941656309415,-13.108483995795671,300,0,50,-0.17613469050068065,-1.6156366384934997,78.75742916836714,0.04973995100639025,0.13846718042956624,6.554241997897836,0.5131165587177456,1,3,14
STABILIZE,8.356980562210083,29.35152800229533,292.4872618732166,8.120858383084057,-79.94122399537683,-12.514232907058537,300,0,50,-0.17791611589401102,-1.6157367434535226,78.9273096334037,0.04938524936831098,0.15334382696960547,6.257116453529268,0.5131253790297773,4,-3,134
STABILIZE,8.38968539237976,30.58655718338207,292.12653815040915,8.035154042544868,-79.5798402250815,-11.968052724084597,300,0,50,-0.17379017470722086,-1.6208137084409577,78.98514084510619,0.04857644813631571,0.15960247335372027,5.984026362042298,0.5130735891006089,6,-6,31
STABILIZE,8.423986673355103,29.160524211770433,292.13556890024176,8.036676711373973,-79.59048763865587,-11.425961780414204,300,0,50,-0.16843997547255882,-1.6038835904792001,78.80319143580623,0.048884664478843924,0.1583389142013301,5.712980890207102,0.513092421470894,1,6,-57
STABILIZE,8.45982027053833,27.913271485804795,291.2626187051312,8.1323724832919,-79.69421031729358,-10.823287453184166,300,0,50,-0.16479420192050584,-1.6008630460404678,78.88916302688918,0.049761774867394,0.17843313785963166,5.411643726592083,0.5131120831047372,5,0,59
STABILIZE,8.497321367263794,26.672330575569305,292.1094828702685,8.121819474015561,-79.77758456694353,-10.297844149791874,300,0,50,-0.1532395495572541,-1.6040772903751934,78.97842676915207,0.049433047129542065,0.15673247583750705,5.148922074895937,0.5131258504716806,3,-1,-12
STABILIZE,8.533555030822754,27.603730248047018,292.2896712227318,7.899676014049054,-79.82986642740396,-9.733613856037543,300,0,50,-0.15041449260308692,-1.5953804318493574,78.89102766853259,0.04747140186100925,0.1548261150970317,4.866806928018772,0.5131254989169495,0,4,-71
STABILIZE,8.573736667633057,24.892455058547036,291.53194933777,7.8655198384564615,-79.5636334808494,-9.158545681644428,300,0,50,-0.13638304289205933,-1.5869324483414036,78.96686325888724,0.04786410497576898,0.1726093847105211,4.579272840822214,0.5131054320748645,6,-2,65
STABILIZE,8.611622095108032,26.395871617369416,291.8405369753069,7.985363613928411,-79.48759699429517,-8.599000839947044,300,0,50,-0.12574790474582057,-1.580529893046457,78.9830234864635,0.04895728614994479,0.16362465845872312,4.299500419973522,0.5130949025572199,2,0,-48
STABILIZE,8.648669242858887,27.001145888320952,291.9681937367502,8.037289695317698,-79.54476586447915,-8.093665316327593,300,0,50,-0.11643037945958601,-1.572654364768315,78.90313076374186,0.0490749442463831,0.16147218355830975,4.046832658163797,0.5130991094780826,4,2,-65
STABILIZE,8.686630964279175,26.34811669221298,291.4442540576911,8.129110245610802,-79.83901287957183,-7.4995474157108095,300,0,50,-0.10434548030115916,-1.5656052893797445,79.05624994455519,0.04975860911572613,0.17379403857850598,3.7497737078554048,0.513139924675985,4,-2,71
STABILIZE,8.720861196517944,29.21963997101934,292.0758381509382,8.128922136561174,-80.02982426536549,-6.9492526889812165,300,0,50,-0.0953040974286341,-1.5621374742720822,79.05147564232536,0.04943986397299042,0.15771902922534015,3.4746263444906083,0.5131419070785769,4,-1,-5
STABILIZE,8.758891344070435,26.29723629432713,292.8045540451285,8.241059083386494,-80.00009740408831,-6.3826535573720395,300,0,50,-0.07585267916778983,-1.549532680323941,78.97051057990403,0.050495269978317193,0.1430995971161373,3.1913267786860198,0.5131481542598981,3,0,-3
STABILIZE,8.797412395477295,25.964491766745077,292.8937807004726,8.239369753346926,-80.01482748045215,-5.836228659881814,300,0,50,-0.06745760294547724,-1.5463251594566796,79.0462710381778,0.05019155656224269,0.14298422833698904,2.918114329940907,0.5131517210861397,5,-1,55
STABILIZE,8.833325386047363,27.85358338203262,293.01364686787207,8.29639896536608,-79.84566449137749,-5.322451961035609,300,0,50,-0.046189674530526914,-1.5365945944886443,79.0437916795091,0.05065138992953978,0.14039478378643105,2.6612259805178047,0.5131195219846733,3,0,-35
STABILIZE,8.874129056930542,24.514474414798794,293.00566477242154,8.07803141699694,-79.87492917225386,-4.860163307003025,300,0,50,-0.025981772798464052,-1.5257955318023253,79.0423778303509,0.04872527154956952,0.14104884149127558,2.4300816535015124,0.5131473319024027,2,0,-29
STABILIZE,8.915444135665894,24.211084109236374,292.3454326949406,8.08706207639086,-79.66870867620223,-4.474883125698887,300,0,50,-0.013961880499071318,-1.521819401210026,79.08956760732652,0.04934400628018861,0.15595529488545185,2.2374415628494435,0.5131221500754363,6,-1,32
STABILIZE,8.953533172607422,26.25887597117618,292.10916284377817,8.047096775007441,-79.51209967688253,-4.130758892203337,300,0,50,0.006534810168836145,-1.5074401454598565,79.06432322815415,0.048916692870306595,0.15964165150853651,2.0653794461016686,0.5130957077824889,2,1,-32
STABILIZE,8.989877939224243,27.521138035340513,292.02537027644087,8.159337345909655,-79.48351923479295,-3.77137636923072,300,0,50,0.018242688221163587,-1.5021093962560732,79.04939926481768,0.0499743874126559,0.1608774559552911,1.88568818461536,0.5130879767961377,4,0,-15
STABILIZE,9.029117107391357,25.489541172895777,291.27483501135566,8.116814775359792,-79.42139444281595,-3.420435796744374,300,0,50,0.043677325514512595,-1.4943529694015831,79.13397749730994,0.049360804131123065,0.1777831073474938,1.710217898372187,0.5130935943348689,4,-1,26
STABILIZE,9.066501140594482,26.753482675919784,291.2821875545253,8.105948943132079,-79.52731242292627,-3.0551575872226264,300,0,50,0.06779533712363586,-1.4821363222973691,79.07798360649417,0.04933330942947678,0.1756391627703064,1.5275787936113132,0.5131007194462193,3,0,-32
STABILIZE,9.102758407592773,27.58811573803056,290.8087076224305,7.9646330305171995,-79.27437012400883,-2.668514789124383,300,0,50,0.08021172724043313,-1.4778402400311368,79.10245617429034,0.04808680157409952,0.1864646549637988,1.3342573945621914,0.513060489421166,4,-1,14
STABILIZE,9.141830205917358,25.595469551898162,291.0456226124762,8.105948943132079,-79.52731242292627,-2.277217765680484,300,0,50,0.10778942976736619,-1.465569805187209,79.15178380047617,0.04975816683359141,0.17988404508669342,1.138608882840242,0.513111277565172,4,0,-5
STABILIZE,9.176819801330566,28.588495906974842,291.0456226124762,8.10594894313208,-79.52731242292627,-1.906374986685935,300,0,50,0.12099882885918573,-1.4584128341540934,79.11966825099877,0.04931791694422885,0.18034359743349454,0.9531874933429675,0.5130889992925463,3,0,-29
STABILIZE,9.213321685791016,27.401036120493103,291.51910254457096,8.148471513681942,-79.58943721490327,-1.5951257595733825,300,0,50,0.1469165019331148,-1.449372331735641,79.1603625180737,0.04972049137512621,0.16955621911589386,0.7975628797866913,0.5131023950150208,4,-1,23
STABILIZE,9.247132778167725,29.58589798754294,291.6305303277574,8.092782947055893,-79.63919352027409,-1.344957633393833,300,0,50,0.16230517159720476,-1.4432182245717537,79.1787220665627,0.049046266308068485,0.16818743630310076,0.6724788166969164,0.5130965040738925,5,-1,7
STABILIZE,9.287973165512085,24.49071300529601,292.26663351344985,8.092782947055893,-79.63919352027409,-1.0757091806459926,300,0,50,0.18710760284571767,-1.4305751175312371,79.15405825346978,0.04934825109556721,0.15436716152638666,0.5378545903229963,0.5131224191332382,3,0,-13
STABILIZE,9.330554962158203,23.511068011233373,291.92400652500953,8.144557038486164,-79.67843722632291,-0.8478815479820481,300,0,50,0.21504349009767973,-1.4196294192211742,79.19731384148346,0.04981928844716646,0.16369847443866126,0.42394077399102403,0.5131339632989305,4,-1,16
STABILIZE,9.366712808609009,27.64430149481954,291.92400652500953,8.200245605112213,-79.62868092095209,-0.6350780615394793,300,0,50,0.22854266530112236,-1.4118890006225515,79.20520270997484,0.050070680224477866,0.16269540554496756,0.31753903076973966,0.513103015739543,3,0,0
