E-kp,E-ki,E-kd,E-I-Tot,E-P,E-I,E-D,E-PID,N-kp,N-ki,N-kd,N-I-Tot,N-P,N-I,N-D,N-PID,D-kp,D-ki,D-kd,D-I-Tot,D-P,D-I,D-D,D-PID,Y-kp,Y-ki,Y-kd,Y-I-Tot,Y-P,Y-I,Y-D,Y-PID,errorN,desiredN,actualN,errorE,desiredE,actualE,errorD,desiredD,actualD,errorY,desiredY,actualY,roll,pitch,yaw-rate,thrust,dt,Time,Mode
0.12,0.004,0.06,-0.0020020089394113785,-0.007233729790184126,-8.008035757645514e-06,-0.10890487226625091,-0.11614661009219268,0.1,0.004,0.04,-0.00010470938308977724,-0.00031528305096339146,-4.18837532359109e-07,-0.0037973063842638276,-0.004113008272759578,0.002,8e-05,0,-0.027942160793925766,-0.0016826934598717285,-2.2353728635140615e-06,-0.0,-0.0016849288327352426,0.2,0.02,0,-0.00027386489819591615,-0.0016492306249375065,-5.477297963918323e-06,-0.0,-0.0016547079229014248,-0.0031528305096339146,0.0,0.0031528305096339146,-0.06028108158486772,0.0,0.06028108158486772,-0.8413467299358642,0.0,0.8413467299358642,-0.008246153124687532,0,0.008246153124687532,-0.11614720084380434,0.004096292117097847,0.0016547079229014248,0.4,0.03321123123168945,0.03351283073425293,STABILIZE
0.12,0.004,0.06,-0.004206492266355931,-0.007091878688537342,-1.6825969065423727e-05,-0.05350173074521349,-0.06061043540281626,0.1,0.004,0.04,-0.00015224406438998868,-0.00012743356124880287,-6.089762575599547e-07,-0.0008914589163603032,-0.001019501453866666,0.002,8e-05,0,-0.059002139034072476,-0.0016653456092213727,-4.720171122725798e-06,-0.0,-0.0016700657803440985,0.2,0.02,0,-0.0005883614084505047,-0.001686238729526713,-1.1767228169010093e-05,-0.0,-0.0016980059576957231,-0.0012743356124880285,0.0,0.0012743356124880285,-0.05909898907114452,0.0,0.05909898907114452,-0.8326728046106864,0.0,0.8326728046106864,-0.008431193647633565,0,0.008431193647633565,-0.060610584768363195,0.0010105824906746406,0.0016980059576957231,0.4,0.03730154037475586,0.07082080841064453,STABILIZE
0.12,0.004,0.06,-0.006148018716114281,-0.006955423741195551,-2.4592074864457123e-05,-0.034988871623829576,-0.041968887439889586,0.1,0.004,0.04,-0.00014975791287940532,7.422097032240137e-06,-5.990316515176213e-07,-5.7512818078358325e-05,-5.068975269763581e-05,0.002,8e-05,0,-0.08682111736908538,-0.0016610022008819948,-6.9456893895268306e-06,-0.0,-0.0016679478902715216,0.2,0.02,0,-0.0008391116381523527,-0.0014971674314949003,-1.6782232763047053e-05,-0.0,-0.0015139496642579474,7.422097032240137e-05,0.0,-7.422097032240137e-05,-0.05796186450996293,0.0,0.05796186450996293,-0.8305011004409973,0.0,0.8305011004409973,-0.007485837157474501,0,0.007485837157474501,-0.04196889370442669,4.5206411976558445e-05,0.0015139496642579474,0.4,0.03349661827087402,0.10423755645751953,STABILIZE
0.12,0.004,0.06,-0.008105128808379693,-0.007018294901545393,-3.242051523351877e-05,-0.026476506981174243,-0.03352722239795315,0.1,0.004,0.04,-4.298579146093635e-05,0.00031907514994511746,-1.719431658437454e-07,0.0008882016123020496,0.0012071048190813232,0.002,8e-05,0,-0.1145894064291552,-0.0016596412767403439,-9.167152514332417e-06,-0.0,-0.0016688084292546762,0.2,0.02,0,-0.0010606045416539163,-0.0013238077591350766,-2.1212090833078326e-05,-0.0,-0.001345019849968155,0.0031907514994511743,0.0,-0.0031907514994511743,-0.058485790846211604,0.0,0.058485790846211604,-0.829820638370172,0.0,0.829820638370172,-0.006619038795675382,0,0.006619038795675382,-0.033527082724628045,-0.001210978010538782,0.001345019849968155,0.4,0.0334630012512207,0.13773536682128906,STABILIZE
0.12,0.004,0.06,-0.010091538902367213,-0.007123467683697188,-4.036615560946885e-05,-0.021495505787907935,-0.02865933962721459,0.1,0.004,0.04,8.151146699850845e-06,0.00015281853074807796,3.2604586799403385e-08,0.00031308591197762954,0.0004659370473125069,0.002,8e-05,0,-0.14216421660106984,-0.0016481010117889634,-1.1373137328085589e-05,-0.0,-0.001659474149117049,0.2,0.02,0,-0.0012439456465197195,-0.0010957996031450326,-2.487891293039439e-05,-0.0,-0.001120678516075427,0.0015281853074807796,0.0,-0.0015281853074807796,-0.05936223069747657,0.0,0.05936223069747657,-0.8240505058944817,0.0,0.8240505058944817,-0.005478998015725163,0,0.005478998015725163,-0.02865929494022316,-0.00046867763909751506,0.001120678516075427,0.4,0.0334625244140625,0.1711885929107666,STABILIZE
0.12,0.004,0.06,-0.012084015517644995,-0.007109309564542482,-4.833606207057998e-05,0.00032756637895767503,-0.006830079247655387,0.1,0.004,0.04,0.00010153450452457229,0.000277665826314616,4.0613801809828914e-07,0.0013695236805234428,0.0016475956448561572,0.002,8e-05,0,-0.1699682414104221,-0.0016534482596035102,-1.359745931283377e-05,0.0,-0.001667045718916344,0.2,0.02,0,-0.00136530723461682,-0.0007217124427049589,-2.73061446923364e-05,0.0,-0.0007490185873972953,0.00277665826314616,0.0,-0.00277665826314616,-0.05924424637118735,0.0,0.05924424637118735,-0.8267241298017551,0.0,0.8267241298017551,-0.0036085622135247943,0,0.0036085622135247943,-0.006829975466406988,-0.0016480258088028828,0.0007490185873972953,0.4,0.03363156318664551,0.20482373237609863,STABILIZE
0.12,0.004,0.06,-0.014109616705180707,-0.007255997634240963,-5.643846682072283e-05,-0.0004905974173272084,-0.0078030335183888935,0.1,0.004,0.04,0.0002367580507043727,0.000403658650911429,9.470322028174908e-07,0.0012675290340779294,0.001672134717192176,0.002,8e-05,0,-0.1976027425387801,-0.0016498466072249283,-1.5808219403102408e-05,0.0,-0.0016656548266280307,0.2,0.02,0,-0.0016748525165955707,-0.0018480602594669326,-3.349705033191142e-05,-0.0,-0.001881557309798844,0.00403658650911429,0.0,-0.00403658650911429,-0.06046664695200803,0.0,0.06046664695200803,-0.8249233036124641,0.0,0.8249233036124641,-0.009240301297334663,0,0.009240301297334663,-0.0078027637455929015,-0.0016733931193837713,0.001881557309798844,0.4,0.03349947929382324,0.2383251190185547,STABILIZE
0.12,0.004,0.06,-0.016174144216054325,-0.007411948582935579,-6.46965768642173e-05,-0.0013645385543976146,-0.00884118371419741,0.1,0.004,0.04,0.00038000341302664605,0.00042855942206496735,1.5200136521065843e-06,0.0010050513745968497,0.0014351308103139238,0.002,8e-05,0,-0.2248377925432193,-0.001629628645645597,-1.7987023403457546e-05,0.0,-0.0016476156690490545,0.2,0.02,0,-0.002209533462406566,-0.0031993015817208164,-4.4190669248131314e-05,-0.0,-0.0032434922509689476,0.004285594220649673,0.0,-0.004285594220649673,-0.06176623819112983,0.0,0.06176623819112983,-0.8148143228227985,0.0,0.8148143228227985,-0.01599650790860408,0,0.01599650790860408,-0.008840782692969892,-0.0014375991397416145,0.0032434922509689476,0.4,0.03342485427856445,0.2717599868774414,STABILIZE
0.12,0.004,0.06,-0.018406400926486266,-0.00745383588057601,-7.362560370594507e-05,-0.0012932125210205494,-0.008820674005302506,0.1,0.004,0.04,0.0005498247643922188,0.00047254887702546727,2.199299057568875e-06,0.00035790726554720724,0.0008326554416302434,0.002,8e-05,0,-0.25409804633985617,-0.0016284053756368815,-2.0327843707188495e-05,0.0,-0.00164873321934407,0.2,0.02,0,-0.0027954280400627786,-0.0032606479986224076,-5.590856080125557e-05,-0.0,-0.0033165565594236632,0.0047254887702546725,0.0,-0.0047254887702546725,-0.06211529900480009,0.0,0.06211529900480009,-0.8142026878184407,0.0,0.8142026878184407,-0.016303239993112038,0,0.016303239993112038,-0.008820436720095436,-0.0008351652884835888,0.0033165565594236632,0.4,0.03593730926513672,0.30771756172180176,STABILIZE
0.12,0.004,0.06,-0.020500290150088307,-0.0075055297050408525,-8.200116060035324e-05,-0.0011333257459109876,-0.008720856611552193,0.1,0.004,0.04,0.0007157116240678466,0.0004955168031085885,2.8628464962713864e-06,0.0008102682121850036,0.0013086478617898635,0.002,8e-05,0,-0.28125737765357006,-0.0016225402124621356,-2.250059021228561e-05,0.0,-0.0016450408026744212,0.2,0.02,0,-0.0032491795508623397,-0.0027107812936689696,-6.498359101724679e-05,-0.0,-0.0027757648846862162,0.004955168031085885,0.0,-0.004955168031085885,-0.06254608087534044,0.0,0.06254608087534044,-0.8112701062310678,0.0,0.8112701062310678,-0.013553906468344847,0,0.013553906468344847,-0.008720546793418719,-0.001310710833561424,0.0027757648846862162,0.4,0.0334775447845459,0.3411753177642822,STABILIZE
0.12,0.004,0.06,-0.02259976703303149,-0.0075308146166489795,-9.039906813212596e-05,-0.0012510041845259627,-0.008872217869307069,0.1,0.004,0.04,0.0009231407657572211,0.0006200395381203349,3.6925630630288846e-06,0.0008110667330995276,0.0014347988342828914,0.002,8e-05,0,-0.30857408833467487,-0.0016330820766778163,-2.468592706677399e-05,0.0,-0.0016577680037445904,0.2,0.02,0,-0.003718555895664674,-0.0028060849084712612,-7.437111791329348e-05,-0.0,-0.0028804560263845547,0.006200395381203349,0.0,-0.006200395381203349,-0.06275678847207483,0.0,0.06275678847207483,-0.8165410383389081,0.0,0.8165410383389081,-0.014030424542356305,0,0.014030424542356305,-0.00887186625391726,-0.0014369713942578484,0.0028804560263845547,0.4,0.033454179763793945,0.3746302127838135,STABILIZE
0.12,0.004,0.06,-0.024680055129186956,-0.007460548950741536,-9.872022051674782e-05,-0.000603127414595046,-0.00816239658585333,0.1,0.004,0.04,0.0010019808206586079,0.00023562044521540347,4.007923282634432e-06,-0.0004089125737365983,-0.00016928420523856043,0.002,8e-05,0,-0.33559301697427274,-0.0016149689401581831,-2.684744135794182e-05,0.0,-0.001641816381516125,0.2,0.02,0,-0.004182727152954779,-0.0027744333368536107,-8.365454305909557e-05,-0.0,-0.002858087879912706,0.0023562044521540345,0.0,-0.0023562044521540345,-0.06217124125617947,0.0,0.06217124125617947,-0.8074844700790915,0.0,0.8074844700790915,-0.013872166684268052,0,0.013872166684268052,-0.008162437332856931,0.0001673079617853416,0.002858087879912706,0.4,0.03346061706542969,0.4080934524536133,STABILIZE
0.12,0.004,0.06,-0.026812077958340726,-0.0074315232115108225,-0.00010724831183336291,-5.2243865420481786e-05,-0.007591015388764667,0.1,0.004,0.04,0.0009521685630869206,-0.00014469081635360963,3.8086742523476823e-06,-0.001352269922141305,-0.001493152064242567,0.002,8e-05,0,-0.363225419367862,-0.00160528956327102,-2.9058033549428964e-05,0.0,-0.0016343475968204492,0.2,0.02,0,-0.004658084608891205,-0.002761563587445599,-9.316169217782409e-05,0.0,-0.002854725279623423,-0.0014469081635360963,0.0,0.0014469081635360963,-0.06192936009592352,0.0,0.06192936009592352,-0.80264478163551,0.0,0.80264478163551,-0.013807817937227993,0,0.013807817937227993,-0.007591375005860477,0.001491322647789758,0.002854725279623423,0.4,0.03442668914794922,0.44251370429992676,STABILIZE
0.12,0.004,0.06,-0.0287714627009755,-0.007029356728835036,-0.00011508585080390201,0.0012666338663695192,-0.005877808713269419,0.1,0.004,0.04,0.0009681985602171796,4.7923448340247504e-05,3.8727942408687185e-06,-0.000989521485425123,-0.0009377252428440068,0.002,8e-05,0,-0.3899129862053631,-0.0015957086208701337,-3.119303889642905e-05,0.0,-0.0016269016597665628,0.2,0.02,0,-0.00517045164557951,-0.0030635557841277145,-0.00010340903291159021,0.0,-0.0031669648170393047,0.000479234483402475,0.0,-0.000479234483402475,-0.05857797274029197,0.0,0.05857797274029197,-0.7978543104350668,0.0,0.7978543104350668,-0.015317778920638571,0,0.015317778920638571,-0.005878059200001226,0.0009361538026060121,0.0031669648170393047,0.4,0.03344917297363281,0.47599077224731445,STABILIZE
0.12,0.004,0.06,-0.030704678662280827,-0.006935623678472998,-0.00012281871464912331,0.0017012786016106906,-0.005357163791511431,0.1,0.004,0.04,0.000960752517479964,-2.2261243851706313e-05,3.843010069919856e-06,-0.001212270559975808,-0.0012306887937575946,0.002,8e-05,0,-0.41680005115384383,-0.0016076714313853517,-3.334400409230751e-05,0.0,-0.0016410154354776591,0.2,0.02,0,-0.005689558468255565,-0.003103920826808845,-0.00011379116936511131,-0.0,-0.003217711996173956,-0.00022261243851706312,0.0,0.00022261243851706312,-0.05779686398727499,0.0,0.05779686398727499,-0.8038357156926759,0.0,0.8038357156926759,-0.015519604134044223,0,0.015519604134044223,-0.005357496949427871,0.0012292376633640486,0.003217711996173956,0.4,0.03344845771789551,0.5094234943389893,STABILIZE
0.12,0.004,0.06,-0.032608211233935966,-0.006830884116520472,-0.00013043284493574386,0.0020900768941154073,-0.004871240067340808,0.1,0.004,0.04,0.0008822724039044412,-0.00023469021459910698,3.5290896156177648e-06,-0.002018250756907417,-0.0022494118818909064,0.002,8e-05,0,-0.44352339784194944,-0.0015982922764255353,-3.5481871827355956e-05,0.0,-0.0016337741482528912,0.2,0.02,0,-0.0062483485085383,-0.003342058223287302,-0.000124966970170766,-0.0,-0.003467025193458068,-0.0023469021459910696,0.0,0.0023469021459910696,-0.05692403430433727,0.0,0.05692403430433727,-0.7991461382127676,0.0,0.7991461382127676,-0.01671029111643651,0,0.01671029111643651,-0.004871895900232139,0.0022479910910321132,0.003467025193458068,0.4,0.03343987464904785,0.5428633689880371,STABILIZE
0.12,0.004,0.06,-0.03448503457367546,-0.006731245845253715,-0.00013794013829470183,0.0021778764863506794,-0.004691309497197737,0.1,0.004,0.04,0.0007338991536279145,-0.00044345179934431414,2.935596614511658e-06,-0.0015983048673394846,-0.002038821070069287,0.002,8e-05,0,-0.4701183186167291,-0.0015897158617224584,-3.760946548933833e-05,0.0,-0.0016273253272117967,0.2,0.02,0,-0.0068466036447485164,-0.0035760801374231225,-0.00013693207289497034,-0.0,-0.0037130122103180927,-0.004434517993443141,0.0,0.004434517993443141,-0.0560937153771143,0.0,0.0560937153771143,-0.7948579308612291,0.0,0.7948579308612291,-0.017880400687115612,0,0.017880400687115612,-0.004691945527437612,0.002037356945116478,0.0037130122103180927,0.4,0.033458709716796875,0.5763378143310547,STABILIZE
0.12,0.004,0.06,-0.036396624919864555,-0.006851056169684959,-0.00014558649967945822,0.0017357356161889785,-0.0052609070531754384,0.1,0.004,0.04,0.0007067727284162202,-8.101660099341379e-05,2.8270909136648806e-06,0.00015142219454470076,7.323268446495185e-05,0.002,8e-05,0,-0.496636298801186,-0.001583988013893708,-3.9730903904094885e-05,0.0,-0.0016237189177978027,0.2,0.02,0,-0.0073431717215732585,-0.002966130437919514,-0.00014686343443146517,-0.0,-0.0031129938723509793,-0.0008101660099341379,0.0,0.0008101660099341379,-0.057092134747374665,0.0,0.057092134747374665,-0.791994006946854,0.0,0.791994006946854,-0.01483065218959757,0,0.01483065218959757,-0.005260887921115281,-7.4594434700932e-05,0.0031129938723509793,0.4,0.03348255157470703,0.6097984313964844,STABILIZE
0.12,0.004,0.06,-0.038388860456775344,-0.007139881641760524,-0.00015355544182710137,-0.000329175849379183,-0.007622612932966809,0.1,0.004,0.04,0.0006836846935437833,-6.895345842893854e-05,2.7347387741751335e-06,-0.00028042941793424793,-0.00034664813758901133,0.002,8e-05,0,-0.5240245406763309,-0.0016359244154071164,-4.192196325410647e-05,-0.0,-0.001677846378661223,0.2,0.02,0,-0.00793320534000511,-0.0035243240756525056,-0.0001586641068001022,-0.0,-0.003682988182452608,-0.0006895345842893854,0.0,0.0006895345842893854,-0.059499013681337705,0.0,0.059499013681337705,-0.8179622077035582,0.0,0.8179622077035582,-0.017621620378262527,0,0.017621620378262527,-0.007622719185922928,0.00034430374626088665,0.003682988182452608,0.4,0.03348350524902344,0.6432938575744629,STABILIZE
0.12,0.004,0.06,-0.04041353535551798,-0.007263224900248019,-0.00016165414142207192,-0.0009781370644947325,-0.008403016106164823,0.1,0.004,0.04,0.0007053070558293045,6.463921699722077e-05,2.821228223317218e-06,0.00020693020291397027,0.00027439064813450826,0.002,8e-05,0,-0.5509720303907975,-0.0016111695957940454,-4.40777624312638e-05,-0.0,-0.001655247358225309,0.2,0.02,0,-0.008401358078962768,-0.0027990490661227007,-0.00016802716157925536,0.0,-0.002967076227701956,0.0006463921699722077,0.0,-0.0006463921699722077,-0.060526874168733494,0.0,0.060526874168733494,-0.8055847978970226,0.0,0.8055847978970226,-0.013995245330613502,0,0.013995245330613502,-0.008402948831971506,-0.0002764431867812915,0.002967076227701956,0.4,0.03345084190368652,0.6767430305480957,STABILIZE
0.12,0.004,0.06,-0.04245014873663029,-0.00730402216088091,-0.00016980059494652117,-0.0014132825747836591,-0.00888710533061109,0.1,0.004,0.04,0.0006595106442555959,-0.00013686855841391196,2.638042577022384e-06,0.0002333495392734545,9.911902343656491e-05,0.002,8e-05,0,-0.5777466793893916,-0.001600390722569147,-4.621973435115133e-05,-0.0,-0.0016466104569202984,0.2,0.02,0,-0.008788700813892672,-0.0023152487245264187,-0.00017577401627785346,0.0,-0.002491022740804272,-0.0013686855841391196,0.0,0.0013686855841391196,-0.06086685134067425,0.0,0.06086685134067425,-0.8001953612845735,0.0,0.8001953612845735,-0.011576243622632093,0,0.011576243622632093,-0.008887085122857309,-0.00010091460385568967,0.002491022740804272,0.4,0.033460140228271484,0.7102158069610596,STABILIZE
0.12,0.004,0.06,-0.04441311533701744,-0.007011570869599707,-0.00017765246134806976,-0.000840565390397226,-0.008029788721345002,0.1,0.004,0.04,0.0007360781247154346,0.0002279111267290402,2.9443124988617384e-06,0.0016011438501340807,0.0018319992893619827,0.002,8e-05,0,-0.6045796100291317,-0.001597420580856931,-4.8366368802330544e-05,-0.0,-0.0016457869496592614,0.2,0.02,0,-0.009070880228095443,-0.0016798731744719526,-0.00018141760456190888,0.0,-0.0018612907790338615,0.002279111267290402,0.0,-0.002279111267290402,-0.05842975724666423,0.0,0.05842975724666423,-0.7987102904284654,0.0,0.7987102904284654,-0.008399365872359763,0,0.008399365872359763,-0.008029520070215753,-0.001833176409313796,0.0018612907790338615,0.4,0.03359532356262207,0.7438244819641113,STABILIZE
0.12,0.004,0.06,-0.04636485700383535,-0.006998794132275982,-0.00018545942801534142,-0.0004445559324830732,-0.007628809492774397,0.1,0.004,0.04,0.0009416327550639185,0.0006142524585449933,3.766531020255674e-06,0.0016587692737118135,0.0022767882632770626,0.002,8e-05,0,-0.6311401317914407,-0.0015873994922981725,-5.049121054331526e-05,-0.0,-0.0016378907028414876,0.2,0.02,0,-0.009390715750273754,-0.0019115089306914056,-0.0001878143150054751,0.0,-0.0020993232456968805,0.006142524585449933,0.0,-0.006142524585449933,-0.058323284435633185,0.0,0.058323284435633185,-0.7936997461490862,0.0,0.7936997461490862,-0.009557544653457027,0,0.009557544653457027,-0.00762842959416961,-0.0022780607980557085,0.0020993232456968805,0.4,0.03346419334411621,0.7772769927978516,STABILIZE
0.12,0.004,0.06,-0.04828549722632431,-0.006893160077650004,-0.00019314198890529725,0.0007339674199061998,-0.006352334646649102,0.1,0.004,0.04,0.0009609293163252689,5.7712650606983346e-05,3.843717265301076e-06,0.00029833674627309135,0.0003598931141453758,0.002,8e-05,0,-0.6573004037552646,-0.0015648162542367548,-5.258403230042117e-05,0.0,-0.0016174002865371759,0.2,0.02,0,-0.009613425678163529,-0.0013321731349878341,-0.00019226851356327057,0.0,-0.0015244416485511048,0.0005771265060698335,0.0,-0.0005771265060698335,-0.05744300064708337,0.0,0.05744300064708337,-0.7824081271183774,0.0,0.7824081271183774,-0.006660865674939171,0,0.006660865674939171,-0.006352292764695861,-0.0003606315962591684,0.0015244416485511048,0.4,0.03343558311462402,0.8107125759124756,STABILIZE
0.12,0.004,0.06,-0.05017331707870084,-0.00672254224161619,-0.00020069326831480337,0.0016090069420812041,-0.00531422856784979,0.1,0.004,0.04,0.0009051248968752829,-0.00016560000262963632,3.6204995875011316e-06,-0.0005513048494278921,-0.0007132843524700274,0.002,8e-05,0,-0.6835650937347062,-0.0015588130017409228,-5.46852074987765e-05,0.0,-0.0016134982092396992,0.2,0.02,0,-0.009761803077916013,-0.0008806219303548748,-0.00019523606155832026,0.0,-0.001075857991913195,-0.001656000026296363,0.0,0.001656000026296363,-0.05602118534680159,0.0,0.05602118534680159,-0.7794065008704614,0.0,0.7794065008704614,-0.004403109651774374,0,0.004403109651774374,-0.00531428336717608,0.0007128759584844157,0.001075857991913195,0.4,0.033698320388793945,0.844404935836792,STABILIZE
0.12,0.004,0.06,-0.05196687207469773,-0.006434482962839523,-0.00020786748829879092,0.0025921260785711454,-0.004050224372567168,0.1,0.004,0.04,0.0007578140642933468,-0.0004404051565214333,3.0312562571733874e-06,-0.0007267719933384483,-0.0011641458936027082,0.002,8e-05,0,-0.7094568182934021,-0.0015481344863813625,-5.675654546347218e-05,0.0,-0.0016048910318448347,0.2,0.02,0,-0.009852973111374114,-0.0005451296710694568,-0.00019705946222748228,0.0,-0.0007421891332969391,-0.004404051565214333,0.0,0.004404051565214333,-0.05362069135699602,0.0,0.05362069135699602,-0.7740672431906812,0.0,0.7740672431906812,-0.002725648355347284,0,0.002725648355347284,-0.00405027974819489,0.0011639532168826597,0.0007421891332969391,0.4,0.03344893455505371,0.8778650760650635,STABILIZE
0.12,0.004,0.06,-0.05376515698817728,-0.0064476832578672415,-0.0002150606279527091,0.001682173203296024,-0.004980570682523926,0.1,0.004,0.04,0.0006452985799541972,-0.0003361833819113049,2.5811943198167886e-06,-0.0013462937691634824,-0.0016798959567549706,0.002,8e-05,0,-0.7353885655829553,-0.001549621823853791,-5.883108524663643e-05,0.0,-0.0016084529091004273,0.2,0.02,0,-0.009980857802968267,-0.0007642096262095968,-0.00019961715605936535,0.0,-0.0009638267822689622,-0.003361833819113049,0.0,0.003361833819113049,-0.05373069381556035,0.0,0.05373069381556035,-0.7748109119268954,0.0,0.7748109119268954,-0.003821048131047984,0,0.003821048131047984,-0.004980682703492455,0.0016795637994043674,0.0009638267822689622,0.4,0.03346848487854004,0.9113397598266602,STABILIZE
0.12,0.004,0.06,-0.05556662137558261,-0.006463134774032242,-0.00022226648550233044,0.0015977965591584063,-0.005087604700376166,0.1,0.004,0.04,0.0005686206285668848,-0.00022924864972707036,2.274482514267539e-06,-0.002014119799302753,-0.0022410939665155555,0.002,8e-05,0,-0.7613310593206251,-0.0015512364512382734,-6.090648474565001e-05,0.0,-0.0016121429359839234,0.2,0.02,0,-0.010146748928616351,-0.0009919492075219853,-0.00020293497857232703,0.0,-0.0011948841860943123,-0.0022924864972707036,0.0,0.0022924864972707036,-0.05385945645026868,0.0,0.05385945645026868,-0.7756182256191367,0.0,0.7756182256191367,-0.004959746037609927,0,0.004959746037609927,-0.005087798679144893,0.0022406535552230216,0.0011948841860943123,0.4,0.0334475040435791,0.9447858333587646,STABILIZE
0.12,0.004,0.06,-0.05735536804112616,-0.006402720056560339,-0.00022942147216450465,0.001462072809378996,-0.0051700687193458475,0.1,0.004,0.04,0.0004906206723770023,-0.00023266378517423632,1.962482689508009e-06,-0.0006906584937537117,-0.0009213597962384399,0.002,8e-05,0,-0.7873112041101912,-0.0015499082618457255,-6.298489632881529e-05,0.0,-0.0016128931581745407,0.2,0.02,0,-0.010393008500910378,-0.0014691209334999275,-0.00020786017001820755,-0.0,-0.0016769811035181352,-0.002326637851742363,0.0,0.002326637851742363,-0.05335600047133616,0.0,0.05335600047133616,-0.7749541309228627,0.0,0.7749541309228627,-0.0073456046674996375,0,0.0073456046674996375,-0.005170186799777255,0.0009206969600753409,0.0016769811035181352,0.4,0.03352475166320801,0.9783046245574951,STABILIZE
0.12,0.004,0.06,-0.05920122296380964,-0.006621451241728775,-0.00023680489185523858,0.0003019027263453773,-0.006556353407238635,0.1,0.004,0.04,0.0006762377907155625,0.0005548714778922922,2.70495116286225e-06,0.0017228514490393162,0.0022804278780944706,0.002,8e-05,0,-0.8132664859578521,-0.0015517798925909476,-6.506131887662818e-05,0.0,-0.0016168412114675758,0.2,0.02,0,-0.010718928700362682,-0.0019485683687341438,-0.00021437857400725363,-0.0,-0.0021629469427413973,0.005548714778922922,0.0,-0.005548714778922922,-0.05517876034773979,0.0,0.05517876034773979,-0.7758899462954738,0.0,0.7758899462954738,-0.009742841843670719,0,0.009742841843670719,-0.00655596553784844,-0.0022815427180624334,0.0021629469427413973,0.4,0.03345227241516113,1.011772632598877,STABILIZE
0.12,0.004,0.06,-0.0610660447345676,-0.0066967916427784924,-0.0002442641789382704,-0.0007847519120113664,-0.00772580773372813,0.1,0.004,0.04,0.0007801877035991538,0.00031108017880597234,3.120750814396615e-06,0.0017964491876692138,0.002110650117289583,0.002,8e-05,0,-0.8392156145627085,-0.0015531055952490648,-6.71372491650167e-05,-0.0,-0.0016202428444140814,0.2,0.02,0,-0.011019723724351088,-0.001800316464931455,-0.00022039447448702178,-0.0,-0.002020710939418477,0.0031108017880597232,0.0,-0.0031108017880597232,-0.0558065970231541,0.0,0.0558065970231541,-0.7765527976245324,0.0,0.7765527976245324,-0.009001582324657274,0,0.009001582324657274,-0.007725476039948156,-0.002111863871639192,0.002020710939418477,0.4,0.033415794372558594,1.0451838970184326,STABILIZE
0.12,0.004,0.06,-0.06300615390335848,-0.006949456047850026,-0.0002520246156134339,-0.001499512563975401,-0.00870099322743886,0.1,0.004,0.04,0.0009848311353553238,0.0006108593257482444,3.939324541421295e-06,0.0022631980643103376,0.002877996714600003,0.002,8e-05,0,-0.8651808054545802,-0.001550118551572325,-6.921446443636642e-05,-0.0,-0.0016193330160086915,0.2,0.02,0,-0.011302675861295712,-0.00168922061274812,-0.00022605351722591424,-0.0,-0.0019152741299740342,0.006108593257482444,0.0,-0.006108593257482444,-0.05791213373208355,0.0,0.05791213373208355,-0.7750592757861625,0.0,0.7750592757861625,-0.0084461030637406,0,0.0084461030637406,-0.008700568880765954,-0.0028792793168139113,0.0019152741299740342,0.4,0.03350090980529785,1.0786776542663574,STABILIZE
0.12,0.004,0.06,-0.0649226329711303,-0.006842898479633582,-0.0002596905318845212,-0.001136257983796523,-0.008238846995314627,0.1,0.004,0.04,0.001057762920259834,0.00021700593570804158,4.231051681039336e-06,0.0010699133221321205,0.0012911503095212014,0.002,8e-05,0,-0.8910616264525616,-0.0015401492737117856,-7.128493011620494e-05,0.0,-0.0016114342038279906,0.2,0.02,0,-0.011624837431848944,-0.0019171606223160815,-0.00023249674863697888,-0.0,-0.0021496573709530605,0.002170059357080416,0.0,-0.002170059357080416,-0.05702415399694652,0.0,0.05702415399694652,-0.7700746368558928,0.0,0.7700746368558928,-0.009585803111580407,0,0.009585803111580407,-0.008238630865624227,-0.0012925286820667983,0.0021496573709530605,0.4,0.033608198165893555,1.112297773361206,STABILIZE
0.12,0.004,0.06,-0.06681707298415966,-0.0067948639886058525,-0.00026726829193663863,-0.0011728945788365517,-0.008235026859379043,0.1,0.004,0.04,0.0010380040001934316,-5.9058426012236714e-05,4.152016000773726e-06,0.0004179487679638032,0.0003630423579523402,0.002,8e-05,0,-0.9166496747722739,-0.0015296279891904292,-7.333197398178191e-05,0.0,-0.0016029599631722112,0.2,0.02,0,-0.011954546883535524,-0.001970970193970978,-0.0002390909376707105,-0.0,-0.0022100611316416886,-0.0005905842601223671,0.0,0.0005905842601223671,-0.05662386657171544,0.0,0.05662386657171544,-0.7648139945952146,0.0,0.7648139945952146,-0.00985485096985489,0,0.00985485096985489,-0.008234964294428247,-0.00036445877387402846,0.0022100611316416886,0.4,0.03345656394958496,1.1457509994506836,STABILIZE
0.12,0.004,0.06,-0.06870059025322783,-0.006750347355321223,-0.00027480236101291134,-0.0003860812819130342,-0.007411230998247169,0.1,0.004,0.04,0.001045754986423053,2.314899994791019e-05,4.183019945692212e-06,-0.0012689999460206644,-0.001241667926127062,0.002,8e-05,0,-0.942379993153839,-0.0015369170354045496,-7.539039945230712e-05,0.0,-0.0016123074348568568,0.2,0.02,0,-0.01235582040159823,-0.002396877087261962,-0.00024711640803196463,-0.0,-0.0026439934952939264,0.0002314899994791019,0.0,-0.0002314899994791019,-0.05625289462767686,0.0,0.05625289462767686,-0.7684585177022748,0.0,0.7684585177022748,-0.01198438543630981,0,0.01198438543630981,-0.007411490552057628,0.0012401177141356094,0.0026439934952939264,0.4,0.033483028411865234,1.1792409420013428,STABILIZE
0.12,0.004,0.06,-0.07061898848895988,-0.0068918954700313475,-0.00028247595395583953,-0.0005843805682359421,-0.0077587519922231295,0.1,0.004,0.04,0.0010828065377864041,0.00011092388354794722,4.331226151145617e-06,-0.0004751223272630474,-0.0003598672175639546,0.002,8e-05,0,-0.9688903530694559,-0.001587319271604226,-7.751122824555649e-05,-0.0,-0.0016648304998497826,0.2,0.02,0,-0.01285091039970696,-0.0029643727873854405,-0.0002570182079941392,-0.0,-0.0032213909953795797,0.001109238835479472,0.0,-0.001109238835479472,-0.05743246225026123,0.0,0.05743246225026123,-0.7936596358021131,0.0,0.7936596358021131,-0.014821863936927202,0,0.014821863936927202,-0.007758844826779774,0.0003578600914552201,0.0032213909953795797,0.4,0.03340268135070801,1.2126491069793701,STABILIZE
0.12,0.004,0.06,-0.07268001695022079,-0.007181722827008981,-0.0002907200678008832,-0.0006717732380742594,-0.008144216132884123,0.1,0.004,0.04,0.0012971586924709051,0.000622431062634964,5.1886347698836205e-06,-2.750766772480984e-06,0.0006248689306323666,0.002,8e-05,0,-0.9970122304590769,-0.00163319375563782,-7.976097843672617e-05,-0.0,-0.001712954734074546,0.2,0.02,0,-0.013429711435760447,-0.0033614193844260856,-0.000268594228715209,-0.0,-0.0036300136131412948,0.006224310626349639,0.0,-0.006224310626349639,-0.05984769022507484,0.0,0.05984769022507484,-0.8165968778189099,0.0,0.8165968778189099,-0.016807096922130428,0,0.016807096922130428,-0.008144032483951423,-0.0006272579213877454,0.0036300136131412948,0.4,0.03443789482116699,1.2471187114715576,STABILIZE
0.12,0.004,0.06,-0.07472206693154837,-0.007303795514428266,-0.0002988882677261935,-0.0013526790835028176,-0.008955362865657276,0.1,0.004,0.04,0.001717518376716139,0.0012529162705413703,6.870073506864556e-06,0.002438136656443242,0.0036979230004914767,0.002,8e-05,0,-1.0239252997979518,-0.0016043318961678815,-8.191402398383615e-05,-0.0,-0.0016862459201517177,0.2,0.02,0,-0.014044698377686023,-0.00366603732273962,-0.00028089396755372046,-0.0,-0.0039469312902933405,0.012529162705413703,0.0,-0.012529162705413703,-0.06086496262023555,0.0,0.06086496262023555,-0.8021659480839407,0.0,0.8021659480839407,-0.0183301866136981,0,0.0183301866136981,-0.00895417936006115,-0.00370078782977518,0.0039469312902933405,0.4,0.03355050086975098,1.280641794204712,STABILIZE
0.12,0.004,0.06,-0.07672755202629726,-0.007193820278671265,-0.00030691020810518903,-0.0011675108338402675,-0.00866824132061672,0.1,0.004,0.04,0.0020284014331571434,0.0009293000321869021,8.113605732628574e-06,0.002324360813740549,0.00326177445166008,0.002,8e-05,0,-1.0507327767801633,-0.0016026726903430547,-8.405862214241307e-05,-0.0,-0.0016867313124854677,0.2,0.02,0,-0.014631529526251037,-0.003508343050231383,-0.00029263059052502075,-0.0,-0.0038009736407564037,0.00929300032186902,0.0,-0.00929300032186902,-0.059948502322260545,0.0,0.059948502322260545,-0.8013363451715273,0.0,0.8013363451715273,-0.017541715251156914,0,0.017541715251156914,-0.008667242287267419,-0.0032644281734712692,0.0038009736407564037,0.4,0.03345346450805664,1.3140976428985596,STABILIZE
0.12,0.004,0.06,-0.07868282492325723,-0.006992128229641113,-0.0003147312996930289,-0.0006994151367926828,-0.008006274666126825,0.1,0.004,0.04,0.0023823080723086353,0.0010546526975492609,9.52923228923454e-06,0.0024267889120322727,0.003490970841870768,0.002,8e-05,0,-1.0773093587820406,-0.0015839806773402234,-8.618474870256326e-05,-0.0,-0.0016701654260427867,0.2,0.02,0,-0.01514015682755487,-0.003031450083295386,-0.0003028031365510974,-0.0,-0.0033342532198464836,0.010546526975492609,0.0,-0.010546526975492609,-0.058267735247009275,0.0,0.058267735247009275,-0.7919903386701117,0.0,0.7919903386701117,-0.015157250416476928,0,0.015157250416476928,-0.008005350870854407,-0.003493088731018247,0.0033342532198464836,0.4,0.03355669975280762,1.3476543426513672,STABILIZE
0.12,0.004,0.06,-0.08056820262378417,-0.006763902260948083,-0.0003222728104951367,0.0004066592185387775,-0.006679515852904442,0.1,0.004,0.04,0.0027711336446946504,0.0011624453142028961,1.1084534578778602e-05,0.002474374738230652,0.0036479045870123268,0.002,8e-05,0,-1.1033803088622978,-0.0015588508529230949,-8.827042470898382e-05,0.0,-0.0016471212776320787,0.2,0.02,0,-0.015565909415166466,-0.002545686989885127,-0.00031131818830332935,0.0,-0.0028570051781884563,0.011624453142028961,0.0,-0.011624453142028961,-0.05636585217456736,0.0,0.05636585217456736,-0.7794254264615474,0.0,0.7794254264615474,-0.012728434949425636,0,0.012728434949425636,-0.006678705294780365,-0.0036493883721275882,0.0028570051781884563,0.4,0.03344893455505371,1.3811085224151611,STABILIZE
0.12,0.004,0.06,-0.08239591780210623,-0.006558016239614107,-0.00032958367120842493,0.0018638690646166096,-0.005023730846205923,0.1,0.004,0.04,0.003110647428472474,0.0010151731763223832,1.2442589713889897e-05,0.0009338478090469511,0.001961463575083224,0.002,8e-05,0,-1.1292222732039623,-0.0015453905129404,-9.033778185631699e-05,0.0,-0.001635728294796717,0.2,0.02,0,-0.015991348424114066,-0.0025441928468354137,-0.00031982696848228135,0.0,-0.002864019815317695,0.010151731763223832,0.0,-0.010151731763223832,-0.05465013533011756,0.0,0.05465013533011756,-0.7726952564702,0.0,0.7726952564702,-0.012720964234177068,0,0.012720964234177068,-0.005023295232931058,-0.001962578909066143,0.002864019815317695,0.4,0.03344392776489258,1.4145493507385254,STABILIZE
0.12,0.004,0.06,-0.08424403263401567,-0.006580035028701968,-0.0003369761305360627,0.0021623868338234657,-0.004754624325414565,0.1,0.004,0.04,0.0035160223483908424,0.0012027486634692411,1.406408939356337e-05,-0.00012429254646069966,0.0010925202064021049,0.002,8e-05,0,-1.1552202542949213,-0.0015427218347077965,-9.24176203435937e-05,0.0,-0.0016351394550513903,0.2,0.02,0,-0.016499076084698455,-0.0030128591344388556,-0.0003299815216939691,0.0,-0.003342840656132825,0.01202748663469241,0.0,-0.01202748663469241,-0.054833625239183066,0.0,0.054833625239183066,-0.7713609173538982,0.0,0.7713609173538982,-0.015064295672194278,0,0.015064295672194278,-0.004754336913963766,-0.0010937702618659451,0.003342840656132825,0.4,0.03370404243469238,1.4482455253601074,STABILIZE
0.12,0.004,0.06,-0.08613889466529102,-0.006795360729523495,-0.0003445555786611641,0.0011901444139694084,-0.00594977189421525,0.1,0.004,0.04,0.0038803408911961173,0.0010887670086943426,1.5521363564784468e-05,0.0003770897750049998,0.0014813781472641269,0.002,8e-05,0,-1.1811588044641221,-0.0015503486295334386,-9.449270435712978e-05,0.0,-0.0016448413338905684,0.2,0.02,0,-0.017091230254203723,-0.003539308863357694,-0.0003418246050840745,-0.0,-0.0038811334684417686,0.010887670086943425,0.0,-0.010887670086943425,-0.05662800607936246,0.0,0.05662800607936246,-0.7751743147667193,0.0,0.7751743147667193,-0.01769654431678847,0,0.01769654431678847,-0.005949314067583135,-0.0014832157407615515,0.0038811334684417686,0.4,0.033461570739746094,1.4817161560058594,STABILIZE
0.12,0.004,0.06,-0.0880489769566648,-0.006843604659836999,-0.00035219590782665925,0.0004450521878758245,-0.006750748379787833,0.1,0.004,0.04,0.004113129486127554,0.0006950455835613433,1.6452517944510216e-05,-0.0008621930573971046,-0.00015069495589125107,0.002,8e-05,0,-1.2068851507422926,-0.0015362422172854962,-9.655081205938342e-05,0.0,-0.0016327930293448796,0.2,0.02,0,-0.01772120496255663,-0.0037618779298444352,-0.0003544240992511326,-0.0,-0.004116302029095568,0.006950455835613432,0.0,-0.006950455835613432,-0.057030038831974994,0.0,0.057030038831974994,-0.7681211086427481,0.0,0.7681211086427481,-0.018809389649222175,0,0.018809389649222175,-0.006750797487028715,0.00014847877311553213,0.004116302029095568,0.4,0.0334925651550293,1.5152573585510254,STABILIZE
0.12,0.004,0.06,-0.08993987979746493,-0.006792729673707741,-0.0003597595191898597,-8.496004256608211e-05,-0.007237449235463682,0.1,0.004,0.04,0.0043856256138683075,0.00081574459782566,1.754250245547323e-05,-0.0008309415265633683,2.3455737177649786e-06,0.002,8e-05,0,-1.2323920159951094,-0.0015271473917785503,-9.859136127960876e-05,0.0,-0.001625738753058159,0.2,0.02,0,-0.018209317957484445,-0.002922430803271339,-0.0003641863591496889,-0.0,-0.003286617162421028,0.0081574459782566,0.0,-0.0081574459782566,-0.056606080614231176,0.0,0.056606080614231176,-0.7635736958892752,0.0,0.7635736958892752,-0.014612154016356694,0,0.014612154016356694,-0.007237448401908255,-4.191341735864556e-06,0.003286617162421028,0.4,0.03340458869934082,1.5486438274383545,STABILIZE
0.12,0.004,0.06,-0.09181806489688991,-0.0067402603424672495,-0.00036727225958755965,-0.0005436612826322491,-0.0076511938846870586,0.1,0.004,0.04,0.004621073049287713,0.0007041270019032815,1.8484292197150852e-05,-0.0007456992861868721,-2.3087992086439778e-05,0.002,8e-05,0,-1.2575578892356334,-0.0015052167243668078,-0.00010060463113885068,0.0,-0.0016058213555056584,0.2,0.02,0,-0.018661209519139133,-0.002702845753460961,-0.00037322419038278263,-0.0,-0.0030760699438437435,0.007041270019032815,0.0,-0.007041270019032815,-0.05616883618722708,0.0,0.05616883618722708,-0.7526083621834039,0.0,0.7526083621834039,-0.013514228767304804,0,0.013514228767304804,-0.007651199117568848,2.128332128489126e-05,0.0030760699438437435,0.4,0.03343820571899414,1.5820510387420654,STABILIZE
0.12,0.004,0.06,-0.09369635490972372,-0.006720272384422726,-0.0003747854196388949,-0.00041873624848243527,-0.007513794052544056,0.1,0.004,0.04,0.004827841475527108,0.0006164916561219852,1.9311365902108433e-05,-0.001399960692505927,-0.0007641576704818333,0.002,8e-05,0,-1.2828154199939805,-0.0015061348823864672,-0.00010262523359951845,0.0,-0.0016087601159859857,0.2,0.02,0,-0.01908558213723167,-0.002530581509942783,-0.0003817116427446334,0.0,-0.0029122931526874164,0.006164916561219852,0.0,-0.006164916561219852,-0.05600226987018938,0.0,0.05600226987018938,-0.7530674411932335,0.0,0.7530674411932335,-0.012652907549713915,0,0.012652907549713915,-0.007513962622006355,0.0007624983439287142,0.0029122931526874164,0.4,0.033539533615112305,1.615602731704712,STABILIZE
0.12,0.004,0.06,-0.09558904818877959,-0.006700313125520882,-0.00038235619275511833,0.00028364661124505736,-0.006799022707030943,0.1,0.004,0.04,0.005006995969920309,0.0005285198714631032,2.0027983879681238e-05,-0.0013350720469063849,-0.0007865241915636005,0.002,8e-05,0,-1.3083608667701574,-0.0015072216069534346,-0.0001046688693416126,0.0,-0.0016118904762950472,0.2,0.02,0,-0.019485364665535833,-0.002358779903213276,-0.0003897072933107167,0.0,-0.002748487196523993,0.005285198714631031,0.0,-0.005285198714631031,-0.05583594271267402,0.0,0.05583594271267402,-0.7536108034767173,0.0,0.7536108034767173,-0.011793899516066379,0,0.011793899516066379,-0.006799184462998925,0.0007851246479070592,0.002748487196523993,0.4,0.03389739990234375,1.6494922637939453,STABILIZE
0.12,0.004,0.06,-0.09743748952848731,-0.006626573136093921,-0.00038974995811394923,0.0006479855694176178,-0.006368337524790253,0.1,0.004,0.04,0.005166730705491958,0.0004772011085330231,2.0666922821967833e-05,-0.0005172832558552385,-1.941522450024755e-05,0.002,8e-05,0,-1.3336501461193249,-0.00151101413180239,-0.00010669201168954599,0.0,-0.001617706143491936,0.2,0.02,0,-0.019715273903632917,-0.0013736892340827133,-0.00039430547807265835,0.0,-0.0017679947121553717,0.00477201108533023,0.0,-0.00477201108533023,-0.05522144280078268,0.0,0.05522144280078268,-0.755507065901195,0.0,0.755507065901195,-0.0068684461704135655,0,0.0068684461704135655,-0.0063683398064710356,1.8651807164032737e-05,0.0017679947121553717,0.4,0.03347325325012207,1.6830358505249023,STABILIZE
0.12,0.004,0.06,-0.0992852837523089,-0.006624677924738661,-0.0003971411350092356,0.0005013484062963359,-0.0065204706534515615,0.1,0.004,0.04,0.005289809638386378,0.00036771694201413025,2.1159238553545514e-05,-0.001068023394142906,-0.0006791472135752303,0.002,8e-05,0,-1.3586810162449954,-0.0014956702665695066,-0.00010869448129959964,0.0,-0.0016043647478691063,0.2,0.02,0,-0.019996945533619612,-0.001683073260306752,-0.0003999389106723923,0.0,-0.0020830121709791444,0.003677169420141302,0.0,-0.003677169420141302,-0.05520564937282218,0.0,0.05520564937282218,-0.7478351332847533,0.0,0.7478351332847533,-0.00841536630153376,0,0.00841536630153376,-0.006520570333443808,0.0006781895065853963,0.0020830121709791444,0.4,0.033471107482910156,1.716447114944458,STABILIZE
0.12,0.004,0.06,-0.10110316062138026,-0.006522389965957028,-0.00040441264248552105,0.0006502679501639074,-0.006276534658278642,0.1,0.004,0.04,0.00544076023572775,0.0004513317514355509,2.1763040942911e-05,-0.0006009793682433127,-0.00012788457586485074,0.002,8e-05,0,-1.3835508897062727,-0.0014871837203631222,-0.00011068407117650183,0.0,-0.001597867791539624,0.2,0.02,0,-0.020245859046271224,-0.001488468063057304,-0.0004049171809254245,0.0,-0.0018933852439827284,0.004513317514355509,0.0,-0.004513317514355509,-0.05435324971630857,0.0,0.05435324971630857,-0.7435918601815611,0.0,0.7435918601815611,-0.0074423403152865195,0,0.0074423403152865195,-0.00627655121668389,0.00012706929472186087,0.0018933852439827284,0.4,0.03344559669494629,1.7498958110809326,STABILIZE
0.12,0.004,0.06,-0.1029202494669001,-0.0064198424931510645,-0.0004116809978676004,0.0008925927630008861,-0.005938930728017779,0.1,0.004,0.04,0.0056230400592512785,0.0005366678316187196,2.2492160237005116e-05,-0.00019095057986698712,0.00036820941198873765,0.002,8e-05,0,-1.4086640052774042,-0.0014787595267788743,-0.00011269312042219235,0.0,-0.0015914526472010665,0.2,0.02,0,-0.020466025482636308,-0.0012964270177057667,-0.0004093205096527262,0.0,-0.0017057475273584929,0.005366678316187196,0.0,-0.005366678316187196,-0.05349868744292554,0.0,0.05349868744292554,-0.7393797633894371,0.0,0.7393797633894371,-0.0064821350885288335,0,0.0064821350885288335,-0.005938889032785893,-0.00036888130818234184,0.0017057475273584929,0.4,0.033965110778808594,1.7838456630706787,STABILIZE
0.12,0.004,0.06,-0.10470122818758448,-0.0063859964853334485,-0.00041880491275033793,0.0009348451357972884,-0.005869956262286498,0.1,0.004,0.04,0.005743701347302555,0.00036054265765134787,2.2974805389210222e-05,-0.00040434909751958646,-2.0831634479028362e-05,0.002,8e-05,0,-1.4334519582014527,-0.001481355713884808,-0.00011467615665611622,0.0,-0.0015960318705409242,0.2,0.02,0,-0.020693054311811447,-0.0013567496047198456,-0.00041386108623622895,0.0,-0.0017706106909560746,0.0036054265765134786,0.0,-0.0036054265765134786,-0.053216637377778736,0.0,0.053216637377778736,-0.740677856942404,0.0,0.740677856942404,-0.006783748023599228,0,0.006783748023599228,-0.005869958687582448,2.013663891732868e-05,0.0017706106909560746,0.4,0.03346657752990723,1.8173482418060303,STABILIZE
0.12,0.004,0.06,-0.1064368336123762,-0.006183261463745739,-0.0004257473344495048,0.001316435743077794,-0.00529257305511745,0.1,0.004,0.04,0.005776509967478862,9.740322402636184e-05,2.3106039869915446e-05,-0.0009066719509615701,-0.0007861626870652928,0.002,8e-05,0,-1.4583348346947398,-0.0014774607285960983,-0.00011666678677557919,0.0,-0.0015941275153716775,0.2,0.02,0,-0.02073212393309894,-0.00023198214703578878,-0.0004146424786619788,0.0,-0.0006466246256977676,0.0009740322402636182,0.0,-0.0009740322402636182,-0.05152717886454782,0.0,0.05152717886454782,-0.7387303642980492,0.0,0.7387303642980492,-0.0011599107351789439,0,0.0011599107351789439,-0.005292588969315827,0.0007860555426720188,0.0006466246256977676,0.4,0.03368330001831055,1.8510305881500244,STABILIZE
0.12,0.004,0.06,-0.10813710774575122,-0.0060965732837883115,-0.0004325484309830049,0.00156980078303041,-0.004959320931740906,0.1,0.004,0.04,0.0057817245918834,1.5581477522586193e-05,2.31268983675336e-05,-0.0008405804950518776,-0.0008018721191617578,0.002,8e-05,0,-1.4832319636218696,-0.0014878695938957919,-0.00011865855708974958,0.0,-0.0016065281509855414,0.2,0.02,0,-0.020636664438759514,0.0005704725211168152,-0.00041273328877519026,0.0,0.00015773923234162495,0.0001558147752258619,0.0,-0.0001558147752258619,-0.0508047773649026,0.0,0.0508047773649026,-0.7439347969478959,0.0,0.7439347969478959,0.002852362605584076,0,-0.002852362605584076,-0.00495928100590036,0.0008021190086317404,-0.00015773923234162495,0.4,0.03346681594848633,1.8844904899597168,STABILIZE
0.12,0.004,0.06,-0.10983326360634471,-0.006082716636992709,-0.00043933305442537884,0.0013053772583798216,-0.005216672433038266,0.1,0.004,0.04,0.005640092598702014,-0.0004232646014782157,2.2560370394808057e-05,-0.0020897691865653808,-0.0024904734176487884,0.002,8e-05,0,-1.5082078926104745,-0.0014928020699915476,-0.00012065663140883797,-0.0,-0.0016134587014003856,0.2,0.02,0,-0.02047694399032089,0.0009546432333225214,-0.0004095388798064178,0.0,0.0005451043535161036,-0.004232646014782157,0.0,0.004232646014782157,-0.05068930530827257,0.0,0.05068930530827257,-0.7464010349957738,0.0,0.7464010349957738,0.004773216166612607,0,-0.004773216166612607,-0.005216464937734625,0.0024909080013163698,-0.0005451043535161036,0.4,0.033461809158325195,1.9179730415344238,STABILIZE
0.12,0.004,0.06,-0.11146591285851472,-0.005860022782018165,-0.0004458636514340589,0.0016695479706447483,-0.004636338462807476,0.1,0.004,0.04,0.0055395909814946916,-0.0003006063946281365,2.2158363925978766e-05,-0.001997263745526702,-0.0022757117762288595,0.002,8e-05,0,-1.5331158051910037,-0.0014900213561936776,-0.0001226492644152803,-0.0,-0.001612670620608958,0.2,0.02,0,-0.02025556412897902,0.0013243210171230535,-0.0004051112825795804,0.0,0.0009192097345434731,-0.0030060639462813647,0.0,0.0030060639462813647,-0.04883352318348471,0.0,0.04883352318348471,-0.7450106780968389,0.0,0.7450106780968389,0.006621605085615267,0,-0.006621605085615267,-0.004636075430543202,0.002276247577151565,-0.0009192097345434731,0.4,0.033432960510253906,1.9513835906982422,STABILIZE
0.12,0.004,0.06,-0.1130382709172823,-0.005638353959764113,-0.0004521530836691292,0.002230820204885435,-0.0038596868385478073,0.1,0.004,0.04,0.005481457955253625,-0.00017371710007552978,2.1925831821014498e-05,-0.0012729028309080251,-0.0014246940991625404,0.002,8e-05,0,-1.5580021856361572,-0.0014873438118913503,-0.00012464017485089258,-0.0,-0.0016119839867422428,0.2,0.02,0,-0.01997359127642917,0.0016852212730800891,-0.0003994718255285834,0.0,0.0012857494475515057,-0.0017371710007552975,0.0,0.0017371710007552975,-0.04698628299803428,0.0,0.04698628299803428,-0.7436719059456751,0.0,0.7436719059456751,0.008426106365400445,0,-0.008426106365400445,-0.0038594772765960816,0.001425261702034481,-0.0012857494475515057,0.4,0.03346419334411621,1.9848785400390625,STABILIZE
0.12,0.004,0.06,-0.11455409963735481,-0.005438162542017501,-0.0004582163985494193,0.002227437244205646,-0.0036689416963612744,0.1,0.004,0.04,0.0055175532047308205,0.00010791227655010143,2.2070212818923282e-05,2.5649541347404493e-05,0.00015563203071642921,0.002,8e-05,0,-1.5828300537224758,-0.0014845342840879628,-0.00012662640429779808,-0.0,-0.0016111606883857609,0.2,0.02,0,-0.0197090835178794,0.001581572910767855,-0.00039418167035758803,0.0,0.001187391240410267,0.0010791227655010142,0.0,-0.0010791227655010142,-0.045318021183479176,0.0,0.045318021183479176,-0.7422671420439814,0.0,0.7422671420439814,0.007907864553839275,0,-0.007907864553839275,-0.0036689631414804354,-0.0001551256482380699,-0.001187391240410267,0.4,0.03344869613647461,2.018308639526367,STABILIZE
0.12,0.004,0.06,-0.11606065968631334,-0.005391498337993584,-0.0004642426387452534,0.002107573570362678,-0.0037481674063761595,0.1,0.004,0.04,0.005486301879279633,-9.319877942394406e-05,2.1945207517118534e-05,-0.0002585697546249277,-0.0003298233265317532,0.002,8e-05,0,-1.6076967455185656,-0.0014831660995158927,-0.00012861573964148527,0.0,-0.001611781839157378,0.2,0.02,0,-0.019400129329332733,0.0018427476502037685,-0.00038800258658665466,0.0,0.0014547450636171139,-0.0009319877942394405,0.0,0.0009319877942394405,-0.0449291528166132,0.0,0.0449291528166132,-0.7415830497579463,0.0,0.7415830497579463,0.009213738251018842,0,-0.009213738251018842,-0.003748114319000948,0.00033042606532341756,-0.0014547450636171139,0.4,0.033531904220581055,2.0518226623535156,STABILIZE
0.12,0.004,0.06,-0.11759652862576196,-0.005509547979392445,-0.0004703861145030479,0.0017132684538260204,-0.0042666656400694725,0.1,0.004,0.04,0.0055317196768707895,0.00013577088107348772,2.2126878707483158e-05,0.0013381981354470879,0.0014960958952280588,0.002,8e-05,0,-1.6325306915824265,-0.0014847601233215115,-0.00013060245532659412,0.0,-0.0016153625786481057,0.2,0.02,0,-0.019084395727625058,0.0018876929997461368,-0.0003816879145525012,0.0,0.0015060050851936357,0.0013577088107348772,0.0,-0.0013577088107348772,-0.045912899828270376,0.0,0.045912899828270376,-0.7423800616607558,0.0,0.7423800616607558,0.009438464998730684,0,-0.009438464998730684,-0.004266912037480408,-0.001495393017327713,-0.0015060050851936357,0.4,0.03345179557800293,2.0852935314178467,STABILIZE
0.12,0.004,0.06,-0.11915208708153875,-0.005576522670359527,-0.00047660834832615503,0.0008470963613700998,-0.005206034657315582,0.1,0.004,0.04,0.0055672040961588405,0.00010600676768178643,2.2268816384635364e-05,0.0009735614021297465,0.0011018369861961683,0.002,8e-05,0,-1.6572965753493645,-0.0014797205870013804,-0.00013258372602794916,0.0,-0.0016123043130293296,0.2,0.02,0,-0.0187915293122298,0.0017498283856124234,-0.000375830586244596,0.0,0.0013739977993678274,0.0010600676768178642,0.0,-0.0010600676768178642,-0.04647102225299606,0.0,0.04647102225299606,-0.7398602935006902,0.0,0.7398602935006902,0.008749141928062117,0,-0.008749141928062117,-0.0052062028485955055,-0.00110104200491937,-0.0013739977993678274,0.4,0.03347373008728027,2.1187937259674072,STABILIZE
0.12,0.004,0.06,-0.1209137120379235,-0.005470679270751196,-0.00048365484815169403,0.00045860191136187165,-0.005495732207541018,0.1,0.004,0.04,0.005891383210731192,0.0008389413212281259,2.3565532842924767e-05,0.002187623753239557,0.003050130607310608,0.002,8e-05,0,-1.6857549687642879,-0.0014729463496154485,-0.00013486039750114305,0.0,-0.0016078067471165915,0.2,0.02,0,-0.018564103776584493,0.0011771065486867135,-0.00037128207553168986,-0.0,0.0008058244731550236,0.008389413212281259,0.0,-0.008389413212281259,-0.04558899392292663,0.0,0.04558899392292663,-0.7364731748077242,0.0,0.7364731748077242,0.005885532743433567,0,-0.005885532743433567,-0.005496045493831835,-0.0030495660590299433,-0.0008058244731550236,0.4,0.03864145278930664,2.1574440002441406,STABILIZE
0.12,0.004,0.06,-0.12243642932067132,-0.005456186570328723,-0.0004897457172826853,-9.662590025267483e-05,-0.006042558187864083,0.1,0.004,0.04,0.006138393483589885,0.0007375707826038383,2.455357393435954e-05,0.0012718911078569866,0.0020340154643951843,0.002,8e-05,0,-1.7106186665576233,-0.0014848562229917307,-0.00013684949332460987,-0.0,-0.0016217057163163406,0.2,0.02,0,-0.018489194876211878,0.0004473548053884381,-0.00036978389752423754,-0.0,7.757090786420054e-05,0.007375707826038382,0.0,-0.007375707826038382,-0.04546822141940603,0.0,0.04546822141940603,-0.7424281114958653,0.0,0.7424281114958653,0.00223677402694219,0,-0.00223677402694219,-0.006042637589334414,-0.0020337795669847806,-7.757090786420054e-05,0.4,0.03348970413208008,2.190894365310669,STABILIZE
0.12,0.004,0.06,-0.12392895565217377,-0.0052875148654503365,-0.0004957158226086951,0.00026216606544676805,-0.005521064622612264,0.1,0.004,0.04,0.0063585112862012535,0.0006498356337686086,2.5434045144805016e-05,0.0015444887687149917,0.0022197584476284053,0.002,8e-05,0,-1.7355547989996936,-0.0014723377425169438,-0.00013884438391997548,0.0,-0.0016111821264369192,0.2,0.02,0,-0.018365182330415553,0.000732224021290047,-0.0003673036466083111,-0.0,0.00036492037468173596,0.006498356337686086,0.0,-0.006498356337686086,-0.04406262387875281,0.0,0.04406262387875281,-0.7361688712584719,0.0,0.7361688712584719,0.0036611201064502353,0,-0.0036611201064502353,-0.005521206450798344,-0.002219405654796149,-0.00036492037468173596,0.4,0.03387284278869629,2.224785327911377,STABILIZE
0.12,0.004,0.06,-0.1254037827761547,-0.005287485462896676,-0.0005016151311046188,0.0006151486923536198,-0.0051739519016476745,0.1,0.004,0.04,0.006641741217863689,0.0008461862648010041,2.6566964871454757e-05,0.0014662060562833379,0.0023389592859557966,0.002,8e-05,0,-1.760044629276942,-0.0014633310742463363,-0.00014080357034215537,0.0,-0.0016041346445884916,0.2,0.02,0,-0.018229377283470145,0.000811470487891941,-0.0003645875456694029,-0.0,0.00044688294222253817,0.00846186264801004,0.0,-0.00846186264801004,-0.0440623788574723,0.0,0.0440623788574723,-0.7316655371231682,0.0,0.7316655371231682,0.004057352439459705,0,-0.004057352439459705,-0.005174117520109499,-0.002338592891039047,-0.00044688294222253817,0.4,0.03347134590148926,2.258244752883911,STABILIZE
0.12,0.004,0.06,-0.12682874647472686,-0.005111848733762855,-0.0005073149858989075,0.0013402892607514093,-0.004278874458910353,0.1,0.004,0.04,0.006936109232384464,0.0008800018109210395,2.774443692953786e-05,0.0016182125331768305,0.0025259587810274077,0.002,8e-05,0,-1.7846355518810155,-0.0014702722684754497,-0.00014277084415048125,0.0,-0.001613043112625931,0.2,0.02,0,-0.018089713878209977,0.0008350367124528219,-0.00036179427756419957,-0.0,0.00047324243488862237,0.008800018109210394,0.0,-0.008800018109210394,-0.04259873944802379,0.0,0.04259873944802379,-0.7351361342377248,0.0,0.7351361342377248,0.004175183562264109,0,-0.004175183562264109,-0.004279058515934118,-0.0025256469697438975,-0.00047324243488862237,0.4,0.03345084190368652,2.291708469390869,STABILIZE
0.12,0.004,0.06,-0.12823184158214535,-0.00503677289311733,-0.0005129273663285813,0.0012909645121754367,-0.004258735747270474,0.1,0.004,0.04,0.0071516423883149745,0.0006447600211484007,2.86065695532599e-05,-0.0004621674360930497,0.00021119915460861098,0.002,8e-05,0,-1.8090344650583428,-0.0014597701878669156,-0.00014472275720466744,0.0,-0.001604492945071583,0.2,0.02,0,-0.018015825983315876,0.0004420661913370949,-0.00036031651966631753,-0.0,8.174967167077737e-05,0.006447600211484007,0.0,-0.006447600211484007,-0.04197310744264442,0.0,0.04197310744264442,-0.7298850939334578,0.0,0.7298850939334578,0.0022103309566854743,0,-0.0022103309566854743,-0.0042587438916480164,-0.00021103486284854448,-8.174967167077737e-05,0.4,0.03342843055725098,2.3251445293426514,STABILIZE
0.12,0.004,0.06,-0.1296594812382529,-0.005117290402305096,-0.0005186379249530116,0.0010071808553434524,-0.004628747471914656,0.1,0.004,0.04,0.007501221548481881,0.001044204953677045,3.0004886193927525e-05,0.0007345104675848467,0.0018087203074558193,0.002,8e-05,0,-1.8333509484782826,-0.0014526834168823988,-0.00014666807587826263,0.0,-0.0015993514927606614,0.2,0.02,0,-0.017828272177213264,0.0011204593163953308,-0.00035656544354426527,0.0,0.0007638938728510656,0.010442049536770451,0.0,-0.010442049536770451,-0.042644086685875805,0.0,0.042644086685875805,-0.7263417084411994,0.0,0.7263417084411994,0.005602296581976654,0,-0.005602296581976654,-0.004628924303784099,-0.0018082677067282602,-0.0007638938728510656,0.4,0.0334780216217041,2.3586223125457764,STABILIZE
0.12,0.004,0.06,-0.13108000222912977,-0.005097291732750558,-0.0005243200089165191,0.0005690267397914082,-0.005052585001875669,0.1,0.004,0.04,0.007887968677847216,0.0011564788305603963,3.155187471138887e-05,0.001210304541465987,0.0023983352467377723,0.002,8e-05,0,-1.8576967521637155,-0.0014560111472003187,-0.00014861574017309726,0.0,-0.001604626887373416,0.2,0.02,0,-0.01767294525296135,0.0009289392787901623,-0.00035345890505922696,0.0,0.0005754803737309354,0.011564788305603963,0.0,-0.011564788305603963,-0.04247743110625465,0.0,0.04247743110625465,-0.7280055736001593,0.0,0.7280055736001593,0.0046446963939508114,0,-0.0046446963939508114,-0.005052779406907699,-0.002397925649817601,-0.0005754803737309354,0.4,0.033441781997680664,2.3920540809631348,STABILIZE
0.12,0.004,0.06,-0.13254132527785248,-0.005227007973861554,-0.00053016530111141,0.00018228709468423154,-0.005574886180288733,0.1,0.004,0.04,0.008328680689100658,0.0013136527198257127,3.331472275640263e-05,0.0011158030677481917,0.002462770510330307,0.002,8e-05,0,-1.8821919857853613,-0.0014602837884232906,-0.00015057535886282893,0.0,-0.0016108591472861196,0.2,0.02,0,-0.017616382339932745,0.00033719990671441627,-0.0003523276467986549,-0.0,-1.512774008423861e-05,0.013136527198257126,0.0,-0.013136527198257126,-0.043558399782179624,0.0,0.043558399782179624,-0.7301418942116452,0.0,0.7301418942116452,0.0016859995335720811,0,-0.0016859995335720811,-0.005574958647958673,-0.002462606461308364,1.512774008423861e-05,0.4,0.033548593521118164,2.425652027130127,STABILIZE
0.12,0.004,0.06,-0.13404327712047348,-0.005390414461944218,-0.000536173108481894,-0.0008314854721317519,-0.006758073042557863,0.1,0.004,0.04,0.008765423952390335,0.0013062043312504477,3.506169580956134e-05,0.0010171096412145235,0.0023583756682745323,0.002,8e-05,0,-1.9063745105386567,-0.00144649368305768,-0.00015250996084309254,0.0,-0.0015990036439007724,0.2,0.02,0,-0.017622023603685644,-3.374359156572168e-05,-0.0003524404720737129,-0.0,-0.00038618406363943457,0.013062043312504476,0.0,-0.013062043312504476,-0.04492012051620182,0.0,0.04492012051620182,-0.72324684152884,0.0,0.72324684152884,-0.0001687179578286084,0,0.0001687179578286084,-0.006758066097857771,-0.002358395568652997,0.00038618406363943457,0.4,0.03343605995178223,2.4591007232666016,STABILIZE
0.12,0.004,0.06,-0.1355698158632721,-0.005474322465009587,-0.0005422792634530884,-0.0013068244275639032,-0.007323426156026579,0.1,0.004,0.04,0.00915664822440974,0.0011691415363002204,3.662659289763896e-05,0.0012524031130801362,0.0024581712422779957,0.002,8e-05,0,-1.9305157695210005,-0.0014428833093177254,-0.00015444126156168004,0.0,-0.0015973245708794054,0.2,0.02,0,-0.01759184588108883,0.00018036728026492432,-0.0003518369176217766,-0.0,-0.00017146963735685227,0.011691415363002203,0.0,-0.011691415363002203,-0.04561935387507989,0.0,0.04561935387507989,-0.7214416546588627,0.0,0.7214416546588627,0.0009018364013246216,0,-0.0009018364013246216,-0.007323464846770435,-0.0024580559711394837,0.00017146963735685227,0.4,0.0334625244140625,2.4925413131713867,STABILIZE
0.12,0.004,0.06,-0.13708656368301422,-0.005438203804586768,-0.0005483462547320569,-0.0009583982109186702,-0.006944948270237495,0.1,0.004,0.04,0.00948513678990866,0.0009814792234013692,3.794054715963464e-05,-0.00015068907355406024,0.0008687306970069435,0.002,8e-05,0,-1.9547517357840634,-0.0014482755166910798,-0.00015638013886272507,0.0,-0.001604655655553805,0.2,0.02,0,-0.01758929408909847,1.5248815843405288e-05,-0.0003517858817819694,-0.0,-0.0003365370659385641,0.009814792234013691,0.0,-0.009814792234013691,-0.04531836503822307,0.0,0.04531836503822307,-0.72413775834554,0.0,0.72413775834554,7.624407921702644e-05,0,-7.624407921702644e-05,-0.006944949426260161,-0.0008687214552925513,0.0003365370659385641,0.4,0.03346872329711914,2.5259952545166016,STABILIZE
0.12,0.004,0.06,-0.13859694015163465,-0.005419027021526908,-0.0005543877606065386,-0.0009608632323914398,-0.006934278014524886,0.1,0.004,0.04,0.009815710802700398,0.0009883791365656854,3.926284321080159e-05,-0.0004027685807247729,0.000624873399051714,0.002,8e-05,0,-1.9787952356094067,-0.001437747232258173,-0.00015830361884875256,0.0,-0.0015960508511069257,0.2,0.02,0,-0.01754682512373859,0.00025395486450218796,-0.00035093650247477185,-0.0,-9.698163797258389e-05,0.009883791365656853,0.0,-0.009883791365656853,-0.04515855851272423,0.0,0.04515855851272423,-0.7188736161290865,0.0,0.7188736161290865,0.0012697743225109398,0,-0.0012697743225109398,-0.006934291861105504,-0.0006247197232132107,9.698163797258389e-05,0.4,0.03344607353210449,2.559443473815918,STABILIZE
0.12,0.004,0.06,-0.14013096844929704,-0.005504671388747004,-0.0005605238737971882,-0.0008303149738750024,-0.0068955102364191955,0.1,0.004,0.04,0.01015016688263275,0.001000128668205147,4.0600667530531005e-05,-0.0007494577186676773,0.0002912716170680007,0.002,8e-05,0,-2.0030301426327113,-0.001449399591730879,-0.00016024241141061692,0.0,-0.0016096420031414958,0.2,0.02,0,-0.017629513476948355,-0.0004945282656454339,-0.0003525902695389671,-0.0,-0.0008471185351844009,0.010001286682051469,0.0,-0.010001286682051469,-0.045872261572891704,0.0,0.045872261572891704,-0.7246997958654395,0.0,0.7246997958654395,-0.0024726413282271692,0,0.0024726413282271692,-0.006895497659958079,-0.0002915691975911874,0.0008471185351844009,0.4,0.03344130516052246,2.592864513397217,STABILIZE
