Mode,Time,Freq,time2delay,actualDelay,North-Desired,East-Desired,Down-Desired,Roll-UAV,Pitch-UAV,Yaw-UAV,Roll-Control,Pitch-Control,Yaw-Control,Thrust-Control,North-Pos,East-Pos,Down-Pos,Yaw-Ang,North-Vel,East-Vel,Down-Vel,Yaw-Vel,North-Acc,East-Acc,Down-Acc,North-Avg,East-Avg,Down-Avg,Yaw-Avg,North-Dif,East-Dif,Down-Dif,Yaw-Dif,North-One,East-One,Down-One,Yaw-One,North-Two,East-Two,Down-Two,Yaw-Two,Landing-State,Q-Size,Kalman-Time,Kalman-Dt
STABILIZE,0.03448915481567383,29.005850541486286,0.03329327901204427,0.03340792655944824,0.0,0.0,0.0,2.054289102794878,-1.3965970608445393,-17.715762178585553,-0.01242117720578656,0.012282151912060309,0.018728979550802854,0.4,0.03748473620255593,0.03785949939213758,0.04371293421888596,0.03745795910160571,-0.2521513029932976,-0.022320936841424555,1.9432209432125092,-0.2764575629066725,-3.6330748349428177,0.10010525584220886,30.393749475479126,0.0,0.0,0.0,0.0,0.0,0.0,0.0,0.0,0.0,0.0,0.0,0.0,0.0,0.0,0.0,0.0,False,0,0.05851435661315918,0.034924072265625
STABILIZE,0.06777691841125488,30.038056906318708,0.032172234853108723,0.03237557411193848,0.0,0.0,0.0,2.054037666456057,-1.3979119789814725,-17.715588008761717,-0.01585154558858671,0.014814655241878328,0.04003028080605779,0.4,0.07919874661471689,0.08256327188785625,0.10968343247565245,0.08006056161211558,-0.18725770059973001,0.2322755753993988,1.8665531650185585,0.08358523371071779,1.2252125889062881,2.5281380861997604,31.849953532218933,0.0,0.0,0.0,0.0,0.0,0.0,0.0,0.0,0.0,0.0,0.0,0.0,0.0,0.0,0.0,0.0,False,0,0.11598682403564453,0.034925048828125
STABILIZE,0.10164237022399902,29.529449865528942,0.03244665463765462,0.03297019004821777,0.0,0.0,0.0,2.0521847642002795,-1.3969877690094052,-17.71510648042523,-0.00818058831522793,0.007973173369606705,0.048507037571989244,0.4,0.09644292773807152,0.10005063066679759,0.14086401360910975,0.09701407514397849,0.19524219678714871,0.06366780726239085,1.5333092771470547,0.0825995987268666,1.6002735123038292,0.05618474096991122,22.66363501548767,0.0,0.0,0.0,0.0,0.0,0.0,0.0,0.0,0.0,0.0,0.0,0.0,0.0,0.0,0.0,0.0,False,0,0.1448991298675537,0.034923828125
STABILIZE,0.13498568534851074,29.98908916710162,0.03242019017537435,0.0325469970703125,0.0,0.0,0.0,2.0521346049985625,-1.3966545838439555,-17.714793999270704,-0.007518192053647281,0.007033011180369761,0.05535670490075755,0.4,0.10906719469697299,0.11373495753339881,0.17230570702553236,0.1107134098015151,-0.21423252765089273,-0.13598577352240682,1.6955679282546043,-0.04674991679513324,0.012864591553807259,-0.340040004812181,24.85504001379013,0.0,0.0,0.0,0.0,0.0,0.0,0.0,0.0,0.0,0.0,0.0,0.0,0.0,0.0,0.0,0.0,False,0,0.17316627502441406,0.029835693359375
STABILIZE,0.16853642463684082,29.80941551057539,0.03252867062886556,0.03265786170959473,0.0,0.0,0.0,2.053544398731935,-1.3972608698545,-17.7144302916974,-0.006591518192005144,0.0060533768318168715,0.05922254537551365,0.4,0.11756460911548426,0.12336324405461732,0.1996168112579933,0.1184450907510273,0.05704761715605855,0.16427532536908984,1.988600380718708,-0.08772448176019758,2.0751159638166428,2.1143190562725067,26.998654007911682,0.0,0.0,0.0,0.0,0.0,0.0,0.0,0.0,0.0,0.0,0.0,0.0,0.0,0.0,0.0,0.0,False,0,0.20203495025634766,0.034925048828125
STABILIZE,0.20603728294372559,26.66537820895902,0.032406123479207356,0.036574363708496094,0.0,0.0,0.0,2.0532961640442875,-1.3972062283411397,-17.713375027470633,-0.007008895361353294,0.005712803994485076,0.06445948203375097,0.4,0.12498481336194403,0.13446892549759196,0.23353212321470032,0.12891896406750195,-0.3161692526191473,0.09659233037382364,2.0300080999732018,0.08223426364755025,-8.225253224372864,0.0805572490207851,31.51867687702179,0.0,0.0,0.0,0.0,0.0,0.0,0.0,0.0,0.0,0.0,0.0,0.0,0.0,0.0,0.0,0.0,False,0,0.2306194305419922,0.034924072265625
STABILIZE,0.2394094467163086,29.96252455620245,0.032392056783040364,0.03251314163208008,0.0,0.0,0.0,2.0532790885713625,-1.3966252353748656,-17.71285422554642,-0.006849833463620196,0.006660771838402285,0.06837516713603078,0.4,0.13388006628032492,0.14297614150427918,0.2649272990431423,0.13675033427206157,0.14497620286419988,-0.005503217471414246,1.7056388780474663,-0.033215883614539754,-1.0430880822241306,-0.09390853811055422,29.582178592681885,0.0,0.0,0.0,0.0,0.0,0.0,0.0,0.0,0.0,0.0,0.0,0.0,0.0,0.0,0.0,0.0,False,1,0.25936102867126465,0.029934814453125
STABILIZE,0.2728617191314697,29.89461380013257,0.0324738343556722,0.03261733055114746,0.0,0.0,0.0,2.0530754635567314,-1.3953872635878009,-17.712804706674937,-0.007941067383070223,0.005687048668298496,0.07260090348510896,0.4,0.1390212731616839,0.15403650571150443,0.3215964692840292,0.14520180697021792,-0.1905038021504879,0.07049737614579499,1.7638953402638435,-0.03470874352059703,1.6588596627116203,-0.08553220541216433,26.022255420684814,0.0,0.0,0.0,0.0,0.0,0.0,0.0,0.0,0.0,0.0,0.0,0.0,0.0,0.0,0.0,0.0,False,0,0.3170785903930664,0.034925048828125
STABILIZE,0.30632638931274414,29.88183495650563,0.0324886163075765,0.03264904022216797,0.0,0.0,0.0,2.053220391633183,-1.3954376362329297,-17.712495640614993,-0.005839387502278445,0.004436581804714121,0.07539749241791706,0.4,0.1398771439813338,0.1577076823474928,0.35466953887562047,0.15079498483583412,-0.2677018288522959,-0.06937375874258578,1.9817007705569267,0.1544659820598813,-4.258060455322266,-0.3150200005620718,26.574867963790894,0.0,0.0,0.0,0.0,0.0,0.0,0.0,0.0,0.0,0.0,0.0,0.0,0.0,0.0,0.0,0.0,False,0,0.3454434871673584,0.034924072265625
STABILIZE,0.3403747081756592,29.368997437226042,0.032501967748006184,0.03326058387756348,0.0,0.0,0.0,2.0532594517774987,-1.394484291235184,-17.71056952726905,-0.006021235471856144,0.005793902458877893,0.07771186193026354,0.4,0.14486470421617453,0.16164564449476881,0.3852696177242614,0.15542372386052708,0.23700576275587082,0.07586394203826785,1.7835276201367378,0.15171657745489994,1.4771435409784317,-0.07741954177618027,30.099940299987793,0.0,0.0,0.0,0.0,0.0,0.0,0.0,0.0,0.0,0.0,0.0,0.0,0.0,0.0,0.0,0.0,False,0,0.37453556060791016,0.02993505859375
STABILIZE,0.3739159107208252,29.814077138510967,0.03254440625508626,0.032709360122680664,0.0,0.0,0.0,2.0512658903135015,-1.3950339080199583,-17.710299734796834,-0.0046075234635158105,0.003026010862983969,0.0768271164233977,0.4,0.1408839676749011,0.16088462727179692,0.40512611856911934,0.1536542328467954,-0.3246075473725796,-0.0584883033297956,1.4645391143858433,-0.14917285225738586,-0.13201162219047546,-0.48442818224430084,24.20731782913208,0.0,0.0,0.0,0.0,0.0,0.0,0.0,0.0,0.0,0.0,0.0,0.0,0.0,0.0,0.0,0.0,False,0,0.403548002243042,0.0349248046875
STABILIZE,0.4074835777282715,29.794592751502407,0.03247860272725423,0.03261566162109375,0.0,0.0,0.0,2.051330350223793,-1.3944096927628427,-17.710434631032943,-0.005646548989295778,0.0036747901370966524,0.07545259978569563,0.4,0.139250682809896,0.1633497877671328,0.43322956842814403,0.15090519957139126,-0.20310792606323957,0.09419173002243042,1.6763979569077492,-0.33225948805416267,-0.9899021126329899,-0.2714394358918071,26.028481125831604,0.0,0.0,0.0,0.0,0.0,0.0,0.0,0.0,0.0,0.0,0.0,0.0,0.0,0.0,0.0,0.0,False,0,0.43225932121276855,0.034924072265625
STABILIZE,0.44118833541870117,29.66709341557091,0.032355578740437825,0.03283810615539551,0.0,0.0,0.0,2.0519553125328494,-1.3942242104381946,-17.710318517817054,-0.0047941175474495576,0.003156150761700452,0.0717267546127702,0.4,0.1361565682582409,0.16299943633357009,0.4881481902941832,0.1434535092255404,0.018234971503261477,-0.14074034988880157,1.7797162756323814,-0.21607642280751194,-2.3402538150548935,-2.5865793228149414,21.93753868341446,0.0,0.0,0.0,0.0,0.0,0.0,0.0,0.0,0.0,0.0,0.0,0.0,0.0,0.0,0.0,0.0,False,0,0.48958873748779297,0.02993505859375
STABILIZE,0.4746978282928467,29.841865230414584,0.03247192700703939,0.03265047073364258,0.0,0.0,0.0,2.051518607312792,-1.3938436408353778,-17.709500602663944,-0.003460357366177283,0.0022597208702869426,0.06989202192990063,0.4,0.13062364215491362,0.1586281753115286,0.5094014502444472,0.13978404385980125,-0.23154881782829762,-0.13705025194212794,1.8407447263598442,-0.08009396650820991,0.6404696498066187,1.4600014314055443,26.31809413433075,0.0,0.0,0.0,0.0,0.0,0.0,0.0,0.0,0.0,0.0,0.0,0.0,0.0,0.0,0.0,0.0,False,0,0.5193257331848145,0.034925048828125
STABILIZE,0.5083038806915283,29.75738914508691,0.0324590524037679,0.03270888328552246,0.0,0.0,0.0,2.0514669540071937,-1.3932166508139119,-17.708436800700714,-0.005254196577729272,0.0029336780221441696,0.06939255640851046,0.4,0.1276587849499467,0.16011692619299134,0.5349583338650629,0.1387851128170209,-0.0978245516307652,0.21154610440135002,1.7158299684524536,0.04719545990645096,-2.6830563321709633,-0.1261682016775012,21.1131289601326,0.0,0.0,0.0,0.0,0.0,0.0,0.0,0.0,0.0,0.0,0.0,0.0,0.0,0.0,0.0,0.0,False,0,0.547738790512085,0.034923828125
STABILIZE,0.541754961013794,29.892909322861357,0.03241780598958333,0.03257155418395996,0.0,0.0,0.0,2.0520577653703995,-1.3930148400682791,-17.70721248929199,-0.004107910773222203,0.004406388056888812,0.06906055985776914,0.4,0.12944314688018638,0.15796834811830895,0.5585205547135885,0.13812111971553828,0.2695732517167926,-0.022296940733212978,1.6443703323602676,0.09628884528830599,3.852878510951996,-0.3491544630378485,24.271318316459656,0.0,0.0,0.0,0.0,0.0,0.0,0.0,0.0,0.0,0.0,0.0,0.0,0.0,0.0,0.0,0.0,False,0,0.5764284133911133,0.02993505859375
STABILIZE,0.5752427577972412,29.861836718711064,0.03245714505513509,0.0326385498046875,0.0,0.0,0.0,2.0521341781117393,-1.3929132410043752,-17.706232357146092,-0.004091358074745073,0.0032976503993299103,0.06690887533479281,0.4,0.12768921815995646,0.15597296620747292,0.577573916358668,0.13381775066958562,0.09688942227512598,0.10770994704216719,1.8472518771886826,-0.06834031151420883,0.37334938533604145,-0.23680638987571,24.40739870071411,0.0,0.0,0.0,0.0,0.0,0.0,0.0,0.0,0.0,0.0,0.0,0.0,0.0,0.0,0.0,0.0,False,0,0.605276346206665,0.034925048828125
STABILIZE,0.6088147163391113,29.787821541695667,0.03246906598409017,0.032628774642944336,0.0,0.0,0.0,2.0522635248191463,-1.3930597699064131,-17.704516272117125,-0.0032565572134223763,0.0025771553423766737,0.06601362165971408,0.4,0.12389756213815999,0.15162579442307067,0.5999197630486927,0.13202724331942817,-0.10094469180330634,-0.12762201949954033,1.6666574403643608,0.049775523844783606,0.06685832049697638,-2.4108780547976494,25.166308879852295,0.0,0.0,0.0,0.0,0.0,0.0,0.0,0.0,0.0,0.0,0.0,0.0,0.0,0.0,0.0,0.0,False,0,0.633901834487915,0.034924072265625
STABILIZE,0.6421725749969482,29.978371965034913,0.03237131436665853,0.03249239921569824,0.0,0.0,0.0,2.0522773986408978,-1.3943909097426253,-17.70365908337629,-0.003784495259703407,0.0022159557372895726,0.06406367178558905,0.4,0.1193636544330595,0.1492890125299965,0.6208209943773028,0.1281273435711781,-0.12787939049303532,0.03769694594666362,1.6416540369391441,-0.07573572551846658,0.44980505481362343,1.598581112921238,23.414070904254913,0.0,0.0,0.0,0.0,0.0,0.0,0.0,0.0,0.0,0.0,0.0,0.0,0.0,0.0,0.0,0.0,False,1,0.6624760627746582,0.029934814453125
STABILIZE,0.6755893230438232,29.922552292897297,0.03244474728902181,0.032579660415649414,0.0,0.0,0.0,2.0527774965541896,-1.394836366142557,-17.70365908337629,-0.0020406729138643183,0.0007336350733323989,0.05952025992540052,0.4,0.11071743274921846,0.14186994329386104,0.6576704152228753,0.11904051985080104,-0.07105745607987046,-0.0006747238785465015,1.7725571990013123,-0.07360062439217646,-1.8785271793603897,-0.42666271328926086,22.577868402004242,0.0,0.0,0.0,0.0,0.0,0.0,0.0,0.0,0.0,0.0,0.0,0.0,0.0,0.0,0.0,0.0,False,0,0.7200701236724854,0.034924072265625
STABILIZE,0.7090475559234619,29.88779705704208,0.03250602086385091,0.0326385498046875,0.0,0.0,0.0,2.052517949365729,-1.3932339397302484,-17.70247063046071,-0.0029627294336069697,0.00195124532058076,0.056832380418334084,0.4,0.10656952169586278,0.13792619967815936,0.6753795986303899,0.11366476083666817,-0.06660479120910168,-0.027807665173895657,1.6045207157731056,-0.13447453862756967,-1.447946485131979,-0.6224206183105707,12.600836157798767,0.0,0.0,0.0,0.0,0.0,0.0,0.0,0.0,0.0,0.0,0.0,0.0,0.0,0.0,0.0,0.0,False,0,0.7485957145690918,0.034925048828125
STABILIZE,0.7425434589385986,29.856097491529283,0.032457860310872395,0.03258347511291504,0.0,0.0,0.0,2.0527691722611388,-1.3930423742683709,-17.702187177610153,-0.0030302669557256043,0.002952786271135348,0.05492489006594214,0.4,0.10584470064407976,0.13454306669896288,0.6932346515309157,0.10984978013188428,0.1590040628798306,0.020366090757306665,1.6822749748826027,-0.023695767180198963,-2.3274939507246017,-0.29162769205868244,21.6396763920784,0.0,0.0,0.0,0.0,0.0,0.0,0.0,0.0,0.0,0.0,0.0,0.0,0.0,0.0,0.0,0.0,False,0,0.7772414684295654,0.02993505859375
STABILIZE,0.7759847640991211,29.90228635388224,0.03243282636006673,0.032550811767578125,0.0,0.0,0.0,2.051195667431097,-1.3927156991269738,-17.7013795077408,-0.0025945686190331084,0.00038221046840579973,0.052444051441485715,0.4,0.09737046017337915,0.1301593491310453,0.7041202036186108,0.10488810288297143,-0.3052276326343417,0.004173776324023493,1.6893735155463219,-0.06644460718430634,-3.6357104778289795,-0.1899262424558401,24.25129860639572,0.0,0.0,0.0,0.0,0.0,0.0,0.0,0.0,0.0,0.0,0.0,0.0,0.0,0.0,0.0,0.0,False,0,0.8058242797851562,0.034923828125
STABILIZE,0.8094158172607422,29.912949214431915,0.032442839940389,0.03255796432495117,0.0,0.0,0.0,2.0512656768700896,-1.392187213239944,-17.700877488836802,-0.002505946283083923,0.00217505903986559,0.05155372520966823,0.4,0.09511741421768245,0.12589736913041838,0.7220779636121606,0.10310745041933646,0.06656779441982508,-0.02666121581569314,1.7813131213188171,0.10783471312115057,-0.7814949378371239,-0.05064873257651925,28.602227568626404,0.0,0.0,0.0,0.0,0.0,0.0,0.0,0.0,0.0,0.0,0.0,0.0,0.0,0.0,0.0,0.0,False,0,0.8351106643676758,0.034925048828125
STABILIZE,0.8427720069885254,29.977729176494133,0.03244641621907552,0.03255915641784668,0.0,0.0,0.0,2.0514046285310172,-1.3926495316693892,-17.70065892278336,-0.0023424295942357965,0.0021114791591688824,0.0506735773480842,0.4,0.09287590938589438,0.12152850396279534,0.7391025783529241,0.1013471546961684,0.06656779441982508,-0.02666121581569314,1.7813131213188171,0.10783471312115057,-0.7814949378371239,-0.05064873257651925,28.602227568626404,0.0,0.0,0.0,0.0,0.0,0.0,0.0,0.0,0.0,0.0,0.0,0.0,0.0,0.0,0.0,0.0,False,1,0.8633759021759033,0.034925048828125
STABILIZE,0.8762352466583252,29.882899442853276,0.032540114720662434,0.032668113708496094,0.0,0.0,0.0,2.052468643937658,-1.3928836790918737,-17.69872597924825,-0.001841871369068367,0.0009549716454110729,0.04824456991826405,0.4,0.08731713686357567,0.11603848038352876,0.7739697470857256,0.0964891398365281,0.12480400037020445,0.05961528513580561,1.4946534298360348,0.05761486012445252,5.366715043783188,-0.19630093593150377,21.174131333827972,0.0,0.0,0.0,0.0,0.0,0.0,0.0,0.0,0.0,0.0,0.0,0.0,0.0,0.0,0.0,0.0,False,0,0.9207963943481445,0.024947265625
STABILIZE,0.9097676277160645,29.824040957087497,0.032523187001546223,0.032654762268066406,0.0,0.0,0.0,2.051633226424801,-1.393361685612069,-17.698172733925478,-0.0015999061361904616,0.002284942342161117,0.046242185390665755,0.4,0.0863076609428179,0.1103070207288779,0.7770319547612483,0.09248437078133151,0.16678031533956528,-0.055871088989079,1.8414702266454697,0.0035518584509653026,0.5056178197264671,-0.3267089603468776,21.787704527378082,0.0,0.0,0.0,0.0,0.0,0.0,0.0,0.0,0.0,0.0,0.0,0.0,0.0,0.0,0.0,0.0,False,0,0.9494307041168213,0.034923828125
STABILIZE,0.9432563781738281,29.861198917841378,0.032431634267171223,0.032579898834228516,0.0,0.0,0.0,2.0523228620875607,-1.3941354179789844,-17.6981676112836,-0.003079067254869668,0.0011086165890594525,0.04402392183523861,0.4,0.08181915844904453,0.10960190909801051,0.7886063619663916,0.08804784367047722,-0.08074815268628299,0.1988544361665845,1.6343185678124428,-0.06241916449382924,-1.6551634296774864,-0.08760812343098223,22.752241790294647,0.0,0.0,0.0,0.0,0.0,0.0,0.0,0.0,0.0,0.0,0.0,0.0,0.0,0.0,0.0,0.0,False,0,0.9780035018920898,0.034924072265625
STABILIZE,0.976639986038208,29.95417928355139,0.032410653432210286,0.03253936767578125,0.0,0.0,0.0,2.052551673424756,-1.393198935010752,-17.697264318765864,-0.0030810777743747425,0.0009669900103468281,0.041801228136776725,0.4,0.07731221250999706,0.1089686236401252,0.7992940317803578,0.08360245627355345,-0.08074815268628299,0.1988544361665845,1.6343185678124428,-0.06241916449382924,-1.6551634296774864,-0.08760812343098223,22.752241790294647,0.0,0.0,0.0,0.0,0.0,0.0,0.0,0.0,0.0,0.0,0.0,0.0,0.0,0.0,0.0,0.0,False,0,1.0066578388214111,0.034924072265625
STABILIZE,1.0102505683898926,29.752956281788453,0.03248337109883626,0.03270721435546875,0.0,0.0,0.0,2.052451781908145,-1.3933999987044443,-17.697332620657566,-0.0020328881111019025,0.0012124599781431575,0.03992309180192604,0.4,0.07394559817644827,0.10519405552585771,0.8072292943270515,0.07984618360385208,-0.012657445040531456,0.006897517596371472,1.520033087581396,-0.021829551391625207,-0.41976580396294594,-0.23109482135623693,22.830286622047424,0.0,0.0,0.0,0.0,0.0,0.0,0.0,0.0,0.0,0.0,0.0,0.0,0.0,0.0,0.0,0.0,False,0,1.0354537963867188,0.02993603515625
STABILIZE,1.043642520904541,29.947549177108993,0.03239610989888509,0.03250741958618164,0.0,0.0,0.0,2.0528282960861417,-1.3939670111272613,-17.69661203570013,-0.001182222289046442,0.00013241366757420773,0.03823226549723385,0.4,0.06761633512535181,0.09920063071427548,0.8088128281609794,0.0764645309944677,-0.18932437524199486,-0.11122801806777716,1.518549956381321,0.003479981382121497,-3.1191593036055565,-2.3288557305932045,19.923916459083557,0.0,0.0,0.0,0.0,0.0,0.0,0.0,0.0,0.0,0.0,0.0,0.0,0.0,0.0,0.0,0.0,False,1,1.0640270709991455,0.034924072265625
STABILIZE,1.0772676467895508,29.739454745275996,0.032451661427815755,0.032788991928100586,0.0,0.0,0.0,2.0528171970287405,-1.3938351030989153,-17.695679714878423,-0.0003476976237639404,-0.0002434997258048966,0.034970183459204496,0.4,0.06067315357533154,0.09116790938705052,0.8279334184586022,0.06994036691840899,-0.19478339236229658,0.028666533762589097,1.5270483680069447,-0.1272746921491564,0.1815037219785154,-0.1839095028117299,23.179081082344055,0.0,0.0,0.0,0.0,0.0,0.0,0.0,0.0,0.0,0.0,0.0,0.0,0.0,0.0,0.0,0.0,False,0,1.1215453147888184,0.029935791015625
STABILIZE,1.1113579273223877,29.33510515530253,0.032498868306477864,0.033203125,0.0,0.0,0.0,2.052100027165889,-1.3933931685152743,-17.69448272422638,-0.001765185104391688,0.000927207694484291,0.03380427765624339,0.4,0.05792093662498313,0.08816842098739935,0.8302796554039885,0.06760855531248677,0.008143254672177136,0.05231163231655955,1.6516458243131638,0.049610415360779786,-8.358976989984512,-0.10233370121568441,26.291972398757935,0.0,0.0,0.0,0.0,0.0,0.0,0.0,0.0,0.0,0.0,0.0,0.0,0.0,0.0,0.0,0.0,False,0,1.1501164436340332,0.034924072265625
STABILIZE,1.1447255611419678,29.967020090880514,0.03242209752400716,0.032534122467041016,0.0,0.0,0.0,2.052743772495163,-1.3931363960911642,-17.694477601584502,-0.0018209891550414758,0.001331365938722754,0.0323728697115213,0.4,0.056693246575195075,0.08566092510138898,0.8400157504405273,0.0647457394230426,0.09470435325056314,0.06682237726636231,1.7828188836574554,0.009190259652090164,0.3599717281758785,-0.20475827623158693,21.291686594486237,0.0,0.0,0.0,0.0,0.0,0.0,0.0,0.0,0.0,0.0,0.0,0.0,0.0,0.0,0.0,0.0,False,0,1.1787950992584229,0.03482666015625
STABILIZE,1.1782383918762207,29.839954467842915,0.03250244458516439,0.03263378143310547,0.0,0.0,0.0,2.051960435174727,-1.3928897622291032,-17.694136092126,-0.001576846416656301,-0.0023549354233081132,0.028774845995679987,0.4,0.04436459970677484,0.08264846358524702,0.8460627471288978,0.05754969199135997,-0.5724852904677391,0.032593056675978005,1.6057893633842468,-0.25295413492071817,-1.6946356743574142,-0.329698296263814,16.47781878709793,0.0,0.0,0.0,0.0,0.0,0.0,0.0,0.0,0.0,0.0,0.0,0.0,0.0,0.0,0.0,0.0,False,0,1.2081801891326904,0.034925048828125
STABILIZE,1.2185306549072266,24.81851371901609,0.03243759473164876,0.039453744888305664,0.0,0.0,0.0,2.051591818402958,-1.392485500407603,-17.693381356222712,-0.0020841653182264064,0.0011030112507274877,0.027885434077332356,0.4,0.043551977047766165,0.081222630094519,0.8548447407571739,0.05577086815466471,0.11321385391056538,0.12248678831383586,1.7984163016080856,0.06719365348665328,1.7323782667517662,-0.11947933817282319,22.25119024515152,0.0,0.0,0.0,0.0,0.0,0.0,0.0,0.0,0.0,0.0,0.0,0.0,0.0,0.0,0.0,0.0,False,0,1.2361900806427002,0.02993505859375
STABILIZE,1.2537498474121094,28.39399396146712,0.03248742421468099,0.0343325138092041,0.0,0.0,0.0,2.052629366826565,-1.3923065281070077,-17.692460988232053,-0.000671285430631223,-0.00039896181101773786,0.024755256304298583,0.4,0.038130302664237475,0.0756098133769513,0.860831445853495,0.049510512608597165,-0.33833698835223913,-0.06735299830324948,1.434343308210373,-0.1054921916895676,-8.627498149871826,-0.2743839751929045,20.97855657339096,0.0,0.0,0.0,0.0,0.0,0.0,0.0,0.0,0.0,0.0,0.0,0.0,0.0,0.0,0.0,0.0,False,0,1.2972822189331055,0.029936279296875
STABILIZE,1.287163257598877,29.928530654184268,0.03243902524312337,0.03256416320800781,0.0,0.0,0.0,2.051826606155677,-1.3918155015387073,-17.692612959941087,-0.0008100823036614725,-0.0014331402029780184,0.022616205761942024,0.4,0.030295503213420553,0.07117886485584798,0.857318665040069,0.04523241152388405,-0.33833698835223913,-0.06735299830324948,1.434343308210373,-0.1054921916895676,-8.627498149871826,-0.2743839751929045,20.97855657339096,0.0,0.0,0.0,0.0,0.0,0.0,0.0,0.0,0.0,0.0,0.0,0.0,0.0,0.0,0.0,0.0,False,0,1.326098918914795,0.029936279296875
STABILIZE,1.3206307888031006,29.87842910976713,0.03246644337972005,0.03259468078613281,0.0,0.0,0.0,2.0523181663325065,-1.3936235806780566,-17.69257539390065,-0.001268504546832226,-0.0010167525800592976,0.020930250443805667,0.4,0.024444573408375254,0.06854592178867969,0.8562545134328626,0.041860500887611334,-0.22966687101870775,0.03326305886730552,1.5771012753248215,-0.05893892964765651,3.0768491327762604,-0.24312171153724194,19.520525634288788,0.0,0.0,0.0,0.0,0.0,0.0,0.0,0.0,0.0,0.0,0.0,0.0,0.0,0.0,0.0,0.0,False,0,1.3550686836242676,0.034923828125
STABILIZE,1.3601253032684326,25.320736264466003,0.03245261510213216,0.038648366928100586,0.0,0.0,0.0,2.0529525201516714,-1.3933037357258296,-17.69176943157859,-0.0012559239657730754,0.0004138652398235868,0.019173921622725985,0.4,0.02331889038879838,0.06571704473822201,0.8636556563393594,0.03834784324545197,0.0665460480377078,0.01291761000175029,1.7905550077557564,-0.06567525707743448,1.2612175196409225,-0.18962081521749496,21.38737142086029,0.0,0.0,0.0,0.0,0.0,0.0,0.0,0.0,0.0,0.0,0.0,0.0,0.0,0.0,0.0,0.0,False,0,1.3838632106781006,0.034923828125
STABILIZE,1.393643856048584,29.83464807767543,0.03247240384419759,0.0326228141784668,0.0,0.0,0.0,2.052163206415712,-1.394465614936672,-17.690825157925836,-0.0010652311467088912,0.00038433652500946075,0.01746156000842779,0.4,0.022362015560351927,0.06295965912047095,0.8706119850429213,0.03492312001685558,0.0665460480377078,0.01291761000175029,1.7905550077557564,-0.06567525707743448,1.2612175196409225,-0.18962081521749496,21.38737142086029,0.0,0.0,0.0,0.0,0.0,0.0,0.0,0.0,0.0,0.0,0.0,0.0,0.0,0.0,0.0,0.0,False,0,1.4124529361724854,0.034923828125
STABILIZE,1.4269752502441406,29.999599462134867,0.03242328961690267,0.032534122467041016,0.0,0.0,0.0,2.052357013033411,-1.3954639964942577,-17.689807459739505,-0.0014402961403433988,-0.00027467063338189703,0.016434783421527245,0.4,0.01949296735798999,0.06159807138500193,0.8738855424165797,0.03286956684305449,-0.05683420458808541,0.09176076855510473,1.5962041914463043,0.010658136673834662,1.5027793124318123,2.080089785158634,28.452590107917786,0.0,0.0,0.0,0.0,0.0,0.0,0.0,0.0,0.0,0.0,0.0,0.0,0.0,0.0,0.0,0.0,False,0,1.4443094730377197,0.0648603515625
STABILIZE,1.460472822189331,29.854609903837257,0.03253153165181478,0.032648563385009766,0.0,0.0,0.0,2.0526720555088778,-1.394967100232139,-17.689261044605903,-0.0015904592794791267,0.0007233999486712794,0.012992448754342726,0.4,0.01991638780843555,0.06081460192523431,0.899387886869872,0.02598489750868545,0.15271315351128578,0.09435616084374487,1.4876515604555607,0.13934046144182194,6.210587918758392,1.8788836896419525,19.824303686618805,0.0,0.0,0.0,0.0,0.0,0.0,0.0,0.0,0.0,0.0,0.0,0.0,0.0,0.0,0.0,0.0,False,0,1.5085639953613281,0.02993505859375
STABILIZE,1.493882417678833,29.932375148081015,0.0324590524037679,0.03258371353149414,0.0,0.0,0.0,2.0530078019952662,-1.3956568426166047,-17.68915517667377,-0.001443813692373468,0.001069981713447035,0.013392557070285058,0.4,0.021354535047595668,0.05965620357139353,0.8919362173821703,0.026785114140570117,0.15271315351128578,0.09435616084374487,1.4876515604555607,0.13934046144182194,-0.14359066262841225,1.8788836896419525,19.824303686618805,0.0,0.0,0.0,0.0,0.0,0.0,0.0,0.0,0.0,0.0,0.0,0.0,0.0,0.0,0.0,0.0,False,0,1.5373973846435547,0.02993505859375
STABILIZE,1.5273127555847168,29.91038943442512,0.032502206166585286,0.032622575759887695,0.0,0.0,0.0,2.0528782418444473,-1.3953571680667705,-17.68870096909396,-0.0005632925601046939,-0.0002205128712657185,0.014854192376264742,0.4,0.018737842605581496,0.0559287594028196,0.8847802913418269,0.029708384752529484,-0.07757169660180807,-0.056113506434485316,1.475476287305355,0.2572435470803391,-1.2104600667953491,-0.14633182436227798,20.71964293718338,0.0,0.0,0.0,0.0,0.0,0.0,0.0,0.0,0.0,0.0,0.0,0.0,0.0,0.0,0.0,0.0,False,0,1.5661275386810303,0.039912841796875
STABILIZE,1.5607936382293701,29.86757815281635,0.03252986272176107,0.03265881538391113,0.0,0.0,0.0,2.0535365013257074,-1.3956135136040575,-17.688362874730046,-0.0018643550332737206,0.0014811938437534653,0.013561257121561261,0.4,0.02153458222124375,0.05649358773833341,0.8966281157588265,0.027122514243122522,0.23317299783229828,0.17383622471243143,2.016742527484894,-0.04980320478722067,-2.373984642326832,1.9969752058386803,25.052666664123535,0.0,0.0,0.0,0.0,0.0,0.0,0.0,0.0,0.0,0.0,0.0,0.0,0.0,0.0,0.0,0.0,True,0,1.5947880744934082,0.02993505859375
STABILIZE,1.594249963760376,29.891205039944698,0.032494338353474934,0.03260517120361328,0.0,0.0,0.0,2.0530261581286604,-1.3960216174069657,-17.686609223660646,-0.0018561985912161096,0.001626753481684145,0.012371768164829348,0.4,0.024516763580015925,0.056981812913627125,0.8988164701685158,0.024743536329658696,0.23317299783229828,0.17383622471243143,2.016742527484894,-0.04980320478722067,-2.373984642326832,1.9969752058386803,25.052666664123535,0.0,0.0,0.0,0.0,0.0,0.0,0.0,0.0,0.0,0.0,0.0,0.0,0.0,0.0,0.0,0.0,True,0,1.623523235321045,0.02993505859375
STABILIZE,1.6276757717132568,29.917003095621904,0.03246930440266927,0.032590627670288086,0.0,0.0,0.0,2.053185173470275,-1.396286073793892,-17.686013289655563,-0.0018054074791950558,-0.0006137232725866692,0.009660679408045532,0.4,0.020417642053862695,0.057274091021738215,0.8897354662882158,0.019321358816091063,-0.1705495873466134,0.16030078986659646,1.3563919812440872,-0.22987620637571446,1.7724048346281052,-0.07619239622727036,19.059203565120697,0.0,0.0,0.0,0.0,0.0,0.0,0.0,0.0,0.0,0.0,0.0,0.0,0.0,0.0,0.0,0.0,True,0,1.6521797180175781,0.064860107421875
STABILIZE,1.662102222442627,29.047030062951446,0.03248146375020345,0.03311634063720703,0.0,0.0,0.0,2.053627428219033,-1.397032271960716,-17.686026950033902,-0.0008958186544104505,0.0007925747417280751,0.008124246760354377,0.4,0.020973416102998577,0.054738333574288624,0.9217632959455315,0.016248493520708753,0.09707124554552138,-0.04886992974206805,1.8779637292027473,-0.03697933785753661,1.6859741881489754,-0.055520248133689165,24.404138326644897,0.0,0.0,0.0,0.0,0.0,0.0,0.0,0.0,0.0,0.0,0.0,0.0,0.0,0.0,0.0,0.0,True,1,1.6809544563293457,0.034925048828125
STABILIZE,1.6951358318328857,30.274821172071807,0.03201797803243001,0.03214669227600098,0.0,0.0,0.0,2.052849213540475,-1.3966053851375901,-17.68584936511548,0.00017639974377658014,0.0028666271162360486,0.0028530479910684895,0.4,0.027772295111777166,0.04921138186781175,0.9215366725085993,0.005706095982136979,0.2404398750513792,-0.013961512013338506,1.8870441243052483,-0.22004767088177188,9.240474551916122,-0.21702938247472048,15.954425930976868,0.0,0.0,0.0,0.0,0.0,0.0,0.0,0.0,0.0,0.0,0.0,0.0,0.0,0.0,0.0,0.0,True,0,1.7382667064666748,0.02993505859375
STABILIZE,1.728506326675415,29.9650932679874,0.03241875966389974,0.03253364562988281,0.0,0.0,0.0,2.0524212595002913,-1.3971096451974077,-17.685717883973957,-0.0010332164226292632,-0.000733506724571447,0.0030533834504957906,0.4,0.023012694798687026,0.047865299600892044,0.9139721613564329,0.006106766900991581,-0.2019527368247509,0.0563229201361537,1.5747163444757462,0.07164919799164284,4.569863900542259,-0.04872588615398854,22.898273169994354,0.0,0.0,0.0,0.0,0.0,0.0,0.0,0.0,0.0,0.0,0.0,0.0,0.0,0.0,0.0,0.0,True,0,1.7669570446014404,0.0349248046875
STABILIZE,1.761925458908081,29.92212535848303,0.03249505360921224,0.03261828422546387,0.0,0.0,0.0,2.0519578738537883,-1.397425861611638,-17.6853439311169,-0.0007029046503279749,-0.00048424323981134063,0.0020755243717001533,0.4,0.019441932786014186,0.04563688385797322,0.9073591729787738,0.004151048743400307,-0.1443087006919086,0.00013121350548317423,1.3430063612759113,-0.048521313683173486,1.6830261796712875,-0.13701110146939754,21.56134396791458,0.0,0.0,0.0,0.0,0.0,0.0,0.0,0.0,0.0,0.0,0.0,0.0,0.0,0.0,0.0,0.0,True,0,1.7956998348236084,0.034924072265625
STABILIZE,1.7954254150390625,29.850572912959933,0.03251341183980306,0.032646894454956055,0.0,0.0,0.0,2.0509679233109597,-1.397218821502422,-17.684959732976086,-0.0013331209025460144,0.0016039587223572835,0.004062722493246034,0.4,0.022545469429214794,0.0455267949296663,0.9075277315159334,0.008125444986492068,0.22384771145880222,0.11357369367033243,1.720237359404564,0.2738768186174655,6.74419179558754,0.06987143424339592,27.58895456790924,0.0,0.0,0.0,0.0,0.0,0.0,0.0,0.0,0.0,0.0,0.0,0.0,0.0,0.0,0.0,0.0,True,0,1.8243131637573242,0.02993505859375
STABILIZE,1.8290631771087646,29.73017954479405,0.03247526486714681,0.03278613090515137,0.0,0.0,0.0,2.0499088171027844,-1.3949731833693688,-17.680509864731825,-0.0006522547268856027,0.0018152874146305136,0.002188573524334373,0.4,0.026023832470115593,0.04334723058816653,0.9067165741166874,0.004377147048668746,0.24951188825070858,-0.002615591074572876,1.9166206941008568,-0.1695588858566112,0.9305674582719803,-0.07349068764597178,24.79274570941925,0.0,0.0,0.0,0.0,0.0,0.0,0.0,0.0,0.0,0.0,0.0,0.0,0.0,0.0,0.0,0.0,True,0,1.8532915115356445,0.0349248046875
STABILIZE,1.862480878829956,29.921484979704232,0.032380135854085286,0.032505035400390625,0.0,0.0,0.0,2.0493803312157546,-1.39763781091932,-17.679686826936837,8.409712132949065e-05,0.0015519196384559714,0.0011280309762956892,0.4,0.02836798962437976,0.03913865168894151,0.9008209212450821,0.0022560619525913784,-0.022317729599308223,-0.01169075258076191,1.1222032830119133,0.13967715508334919,1.328236237168312,1.4390002936124802,7.053405046463013,0.0,0.0,0.0,0.0,0.0,0.0,0.0,0.0,0.0,0.0,0.0,0.0,0.0,0.0,0.0,0.0,True,0,1.9103748798370361,0.034924072265625
STABILIZE,1.8960700035095215,29.773654284355413,0.03250697453816732,0.03271603584289551,0.0,0.0,0.0,2.0486407497946892,-1.3991810067849197,-17.682482081854666,-0.0019759669741212468,0.0034211468737339597,0.019712284561676837,0.4,0.03621306465754301,0.041577637069093204,0.9073770939502562,0.039424569123353674,0.4908991511911154,0.24401366245001554,2.063083276152611,2.1328887853292695,9.379573911428452,-4.027199000120163,19.735100865364075,0.0,0.0,0.0,0.0,0.0,0.0,0.0,0.0,0.0,0.0,0.0,0.0,0.0,0.0,0.0,0.0,True,0,1.939086675643921,0.039913818359375
STABILIZE,1.9295310974121094,29.88438985115888,0.0324433167775472,0.03257632255554199,0.0,0.0,0.0,2.047047394727372,-1.397982948915817,-17.68131070441201,-0.00047487374472142006,-0.00499214929231726,0.029736668168348517,0.4,0.017752494304835553,0.03924723156680034,0.9011640077416868,0.05947333633669703,-0.9956886991858482,-0.0320896040648222,1.0996733792126179,1.1189021664810366,-4.504146799445152,-4.29195798933506,10.360344499349594,0.0,0.0,0.0,0.0,0.0,0.0,0.0,0.0,0.0,0.0,0.0,0.0,0.0,0.0,0.0,0.0,True,0,1.9684031009674072,0.0249462890625
STABILIZE,1.963059663772583,29.827010190512084,0.0324430783589681,0.0326540470123291,0.0,0.0,0.0,2.0482021235839274,-1.401937415001843,-17.67986441185526,-0.00037302569802303594,-0.005461089704711765,0.03850914988162675,0.4,-0.000507126370693927,0.03681882196842973,0.8816528077084872,0.0770182997632535,-0.9956886991858482,-0.0320896040648222,1.0996733792126179,1.1189021664810366,-4.504146799445152,-4.29195798933506,10.360344499349594,0.0,0.0,0.0,0.0,0.0,0.0,0.0,0.0,0.0,0.0,0.0,0.0,0.0,0.0,0.0,0.0,True,0,1.9976565837860107,0.0249462890625
STABILIZE,1.9965291023254395,29.877577769388033,0.03243974049886068,0.03257250785827637,0.0,0.0,0.0,2.046786780321854,-1.3966959918657986,-17.685707638690204,-0.00034504989637851226,0.0011735205685239015,0.030868675433754884,0.4,0.0031073463217974624,0.03450631343299249,0.8739241241326474,0.06173735086750977,0.238492782227695,-0.03376581007614732,1.708071306347847,-0.7667886258505427,18.79165917634964,6.277550011873245,40.62368869781494,0.0,0.0,0.0,0.0,0.0,0.0,0.0,0.0,0.0,0.0,0.0,0.0,0.0,0.0,0.0,0.0,True,0,2.0269627571105957,0.034924072265625
STABILIZE,2.0300002098083496,29.876513662136365,0.03241899808247884,0.03257632255554199,0.0,0.0,0.0,2.046294366371378,-1.4003517438973423,-17.68184345916727,-0.0022424451065079383,0.0015054703027048773,0.03360274655565327,0.4,0.007412718106047647,0.038174524448535765,0.8685666565596678,0.06720549311130654,0.30879133846610785,0.31174449250102043,1.3073860667645931,0.3524610798653712,-12.836991250514984,3.7874631583690643,19.118502736091614,0.0,0.0,0.0,0.0,0.0,0.0,0.0,0.0,0.0,0.0,0.0,0.0,0.0,0.0,0.0,0.0,True,0,2.055962085723877,0.029935791015625
STABILIZE,2.063559055328369,29.799884901491307,0.032429011662801106,0.03255105018615723,0.0,0.0,0.0,2.0474813251830795,-1.3995965811072326,-17.68987234653662,0.0007061620981300864,-0.0031490117417732966,0.026286380896519378,0.4,-0.0028337397502593243,0.03255755048766012,0.866853631474853,0.052572761793038755,-0.5699902307242155,-0.2386504551395774,1.768026314675808,-0.7912887812076429,-18.454408645629883,-13.546103239059448,32.440876960754395,0.0,0.0,0.0,0.0,0.0,0.0,0.0,0.0,0.0,0.0,0.0,0.0,0.0,0.0,0.0,0.0,True,0,2.0857510566711426,0.039912841796875
STABILIZE,2.096783399581909,30.094740618497525,0.03231004079182943,0.03242158889770508,0.0,0.0,0.0,2.0457530738796548,-1.3973446463935384,-17.69161745986956,-3.0641668343916655e-05,0.004198414934949726,0.03135529507166825,0.4,0.01017359675062085,0.02967067382186424,0.8570428453192971,0.0627105901433365,0.6283568684011698,-0.22546325344592333,1.2536133639514446,0.31279416929114034,-3.920859470963478,-9.904761612415314,14.760074019432068,0.0,0.0,0.0,0.0,0.0,0.0,0.0,0.0,0.0,0.0,0.0,0.0,0.0,0.0,0.0,0.0,True,0,2.143282651901245,0.029934814453125
STABILIZE,2.1302735805511475,29.86098632360584,0.03253892262776693,0.03266167640686035,0.0,0.0,0.0,2.0434000737105853,-1.3975878651610143,-17.69551237524376,-0.0008853211292597415,-0.00014414378153759897,0.03226762094170404,0.4,0.008810347048638275,0.029656573849800097,0.8512966508236537,0.06453524188340808,-0.050774950068444014,0.08498044335283339,1.5031642280519009,0.20037779328919297,-6.515911966562271,9.528131783008575,12.092505395412445,0.0,0.0,0.0,0.0,0.0,0.0,0.0,0.0,0.0,0.0,0.0,0.0,0.0,0.0,0.0,0.0,True,0,2.171888589859009,0.034925048828125
STABILIZE,2.1637279987335205,29.890352971358936,0.03247693379720052,0.03260612487792969,0.0,0.0,0.0,2.0450969488325104,-1.3965556528226961,-17.703309036181327,-0.0034376327891965097,-0.008272683883375168,0.03449425643462467,0.4,-0.017142716502467,0.03743652931577478,0.8495538624392508,0.06898851286924934,-1.5188519842922688,0.5467856768518686,1.4835375361144543,0.32556382159428743,-39.03335928916931,-2.1125206723809242,19.004151225090027,0.0,0.0,0.0,0.0,0.0,0.0,0.0,0.0,0.0,0.0,0.0,0.0,0.0,0.0,0.0,0.0,True,0,2.2004711627960205,0.034924072265625
STABILIZE,2.1971776485443115,29.898449584773854,0.0324893315633138,0.0326085090637207,0.0,0.0,0.0,2.046258294434824,-1.4001854714797348,-17.712201942480682,0.0010581449727084104,-0.0011710652218186023,0.03872342060124005,0.4,-0.019141721079602297,0.030816871946820697,0.8511467210563053,0.0774468412024801,-0.07658228860236704,-0.31881178729236126,1.6846871003508568,0.5681577068024334,42.5471693277359,-9.727969020605087,25.61681568622589,0.0,0.0,0.0,0.0,0.0,0.0,0.0,0.0,0.0,0.0,0.0,0.0,0.0,0.0,0.0,0.0,True,0,2.2291526794433594,0.02993505859375
STABILIZE,2.2305994033813477,29.917856684308887,0.032469781239827473,0.03258824348449707,0.0,0.0,0.0,2.0421821656042076,-1.3990482449829276,-17.696267111147044,0.004456282860836569,0.005689875893935881,0.037929289879246174,0.4,-0.0001230618463914715,0.01444184029411208,0.8391758438276986,0.07585857975849235,1.153467409312725,-0.9033298119902611,1.106307003647089,0.014849344853816794,17.3307865858078,-12.09704652428627,16.88995361328125,0.0,0.0,0.0,0.0,0.0,0.0,0.0,0.0,0.0,0.0,0.0,0.0,0.0,0.0,0.0,0.0,True,0,2.2578539848327637,0.034923828125
STABILIZE,2.2641096115112305,29.8422898775516,0.03249171574910482,0.032633066177368164,0.0,0.0,0.0,2.0461125125847266,-1.3926800540772428,-17.691629412700607,-0.005563570194019669,-0.006053218296124868,0.027775355881617357,0.4,-0.018508590131938764,0.030065497187618966,0.8385619856251757,0.055550711763234714,-1.0818202048540115,1.0192410089075565,1.5343166887760162,-1.1419989847679637,-45.00926434993744,48.7922340631485,21.499142050743103,0.0,0.0,0.0,0.0,0.0,0.0,0.0,0.0,0.0,0.0,0.0,0.0,0.0,0.0,0.0,0.0,True,0,2.2867274284362793,0.034925048828125
STABILIZE,2.297525405883789,29.926395250938253,0.03244498570760091,0.03255128860473633,0.0,0.0,0.0,2.054488458941278,-1.3964991970403378,-17.705462253317172,-0.013452628323155807,-0.009594110955915452,0.013531855152659079,0.4,-0.045939025266319024,0.06819386798898165,0.8382986280993334,0.027063710305318157,-0.49696476198732853,1.376070361584425,1.5943367034196854,-0.3563528736296769,13.290484249591827,0.28728789184242487,23.77922832965851,0.0,0.0,0.0,0.0,0.0,0.0,0.0,0.0,0.0,0.0,0.0,0.0,0.0,0.0,0.0,0.0,True,0,2.3442306518554688,0.02993505859375
STABILIZE,2.3310067653656006,29.868641623642514,0.032457621892293294,0.032579898834228516,0.0,0.0,0.0,2.0493173654093435,-1.4094334408942262,-17.67521305303048,0.01027164123972187,0.0029851467927375147,0.01461626867789065,0.4,-0.03269136704915572,0.030746700195988172,0.8517914409654398,0.0292325373557813,0.7744503673166037,-2.1564729511737823,2.6110006496310234,0.2274413506583107,34.11364555358887,-75.58318972587585,42.02267229557037,0.0,0.0,0.0,0.0,0.0,0.0,0.0,0.0,0.0,0.0,0.0,0.0,0.0,0.0,0.0,0.0,True,0,2.3734633922576904,0.034925048828125
STABILIZE,2.364393711090088,29.94968760041415,0.032416375478108723,0.03254199028015137,0.0,0.0,0.0,2.0368140638034005,-1.4164734449378054,-17.670134807382574,0.011372618785221798,0.003258755684439978,0.01570202323711075,0.4,-0.01982628462590331,-0.006623859164238702,0.8697225623489628,0.0314040464742215,0.7744503673166037,-2.1564729511737823,2.6110006496310234,0.2274413506583107,34.11364555358887,-75.58318972587585,42.02267229557037,0.0,0.0,0.0,0.0,0.0,0.0,0.0,0.0,0.0,0.0,0.0,0.0,0.0,0.0,0.0,0.0,True,0,2.40222430229187,0.034925048828125
STABILIZE,2.3978943824768066,29.84972315925815,0.032480748494466145,0.03261137008666992,0.0,0.0,0.0,2.035910557842255,-1.413013847401488,-17.710245093283476,-0.007080185247986354,-0.0019017754372219957,-0.002109739260279981,0.4,-0.02380632488293469,0.01553260553348285,0.8561654734811193,-0.004219478520559962,-0.24610187392681837,1.411801390349865,0.7311795372515917,-2.0281465537466543,-1.4028307050466537,74.23704862594604,-1.6760410740971565,0.0,0.0,0.0,0.0,0.0,0.0,0.0,0.0,0.0,0.0,0.0,0.0,0.0,0.0,0.0,0.0,True,0,2.4316892623901367,0.039912841796875
STABILIZE,2.431251287460327,29.978586234007576,0.03243544896443685,0.032564401626586914,0.0,0.0,0.0,2.0283367318263568,-1.4171873064277773,-17.67438147749903,0.011268928062694753,-0.003650052384711951,0.011589818355821579,0.4,-0.03273006645238031,-0.020076606181497952,0.8624776559849139,0.023179636711643158,-0.5175132304430008,-2.0070629194378853,1.6875799745321274,1.7382396013122863,-12.054110318422318,-52.23047733306885,53.72816324234009,0.0,0.0,0.0,0.0,0.0,0.0,0.0,0.0,0.0,0.0,0.0,0.0,0.0,0.0,0.0,0.0,True,0,2.460271120071411,0.02993505859375
STABILIZE,2.4648096561431885,29.801578786565393,0.03252533276875814,0.032668352127075195,0.0,0.0,0.0,2.0193817134942353,-1.4165003388076622,-17.63098245551277,0.003700202947844676,0.005419779496383161,0.03462177727423544,0.4,-0.013269136389577385,-0.029520655042486032,0.8312641947840406,0.06924355454847088,1.1158443056046963,-0.5164237692952156,-0.014995993115007877,2.7964425169696545,62.963324785232544,57.97026753425598,17.64332801103592,0.0,0.0,0.0,0.0,0.0,0.0,0.0,0.0,0.0,0.0,0.0,0.0,0.0,0.0,0.0,0.0,True,0,2.4891233444213867,0.034924072265625
STABILIZE,2.498201847076416,29.94434211465696,0.03241709073384603,0.032572031021118164,0.0,0.0,0.0,2.0216962938492236,-1.4158244702449483,-17.663098004990168,-0.011959647276243976,0.0048362064548863005,0.020348179325839835,0.4,0.002671743822244688,0.009525478071745176,0.7869407784479706,0.04069635865167967,-0.23599311243742704,2.9464740306138992,0.5769518204033375,-4.379382826462892,-11.398901790380478,103.20168733596802,13.93054872751236,0.0,0.0,0.0,0.0,0.0,0.0,0.0,0.0,0.0,0.0,0.0,0.0,0.0,0.0,0.0,0.0,True,0,2.5464553833007812,0.034925048828125
STABILIZE,2.5316383838653564,29.907616833758787,0.03252557118733724,0.03264880180358887,0.0,0.0,0.0,2.0272278933032877,-1.417986865447492,-17.630864634749585,-0.0033183288242817654,0.006108396660328229,0.028075954109787145,0.4,0.021011590663287297,0.018728331143712477,0.7782643120250907,0.05615190821957429,1.0467460379004478,0.5631015636026859,1.0809450410306454,0.9984945758718802,29.754537343978882,-123.4063982963562,12.676788866519928,0.0,0.0,0.0,0.0,0.0,0.0,0.0,0.0,0.0,0.0,0.0,0.0,0.0,0.0,0.0,0.0,True,0,2.575728416442871,0.029934814453125
STABILIZE,2.5652382373809814,29.763935310355595,0.03253296216328939,0.032675743103027344,0.0,0.0,0.0,2.020167185248787,-1.4206529871013243,-17.564176375240876,0.012626668295950334,-0.00917173344362181,0.028764967348868287,0.4,-0.008837164328983502,-0.021352728796356826,0.7751245907104845,0.057529934697736575,-1.7747949808835983,-2.345522493124008,1.572868786752224,0.1869103944736468,-76.31014585494995,14.990107715129852,-2.5814568623900414,0.0,0.0,0.0,0.0,0.0,0.0,0.0,0.0,0.0,0.0,0.0,0.0,0.0,0.0,0.0,0.0,True,0,2.604189395904541,0.034925048828125
STABILIZE,2.5986037254333496,29.972159496927254,0.03238633473714193,0.03251791000366211,0.0,0.0,0.0,2.035098832548081,-1.4215205278476215,-17.660639136888964,-0.01591645267385716,0.0054021623191970744,0.010253490225522788,0.4,0.008408516594504771,0.028974311487750336,0.7863115692713027,0.020506980451045577,1.006159745156765,3.0105987563729286,2.2094273939728737,-2.1018874104602276,49.42053258419037,50.9931206703186,16.58869832754135,0.0,0.0,0.0,0.0,0.0,0.0,0.0,0.0,0.0,0.0,0.0,0.0,0.0,0.0,0.0,0.0,True,0,2.6331729888916016,0.039912841796875
STABILIZE,2.631985902786255,29.952468007312614,0.03247550328572591,0.03258991241455078,0.0,0.0,0.0,2.0523770767140976,-1.3996719266315143,-17.682114959186777,-0.01801498018625775,0.006145094844615111,-0.008844929095908546,0.4,0.02629384820983416,0.08106823501795266,0.8012619910615468,-0.017689858191817093,1.006159745156765,3.0105987563729286,2.2094273939728737,-2.1018874104602276,49.42053258419037,50.9931206703186,16.58869832754135,0.0,0.0,0.0,0.0,0.0,0.0,0.0,0.0,0.0,0.0,0.0,0.0,0.0,0.0,0.0,0.0,True,0,2.6617982387542725,0.039912841796875
STABILIZE,2.665564775466919,29.78274515373145,0.032541545232137044,0.03267335891723633,0.0,0.0,0.0,2.054603291496699,-1.3964628049386663,-17.668901958237388,0.006452035041858592,0.006710321780767067,0.009120729752518392,0.4,0.04429511013750163,0.05404493202676303,0.8067053629366843,0.018241459505036785,0.9815359488129616,-1.6143940389156342,1.6517464071512222,2.20603925756646,13.075518608093262,-62.581753730773926,34.72667038440704,0.0,0.0,0.0,0.0,0.0,0.0,0.0,0.0,0.0,0.0,0.0,0.0,0.0,0.0,0.0,0.0,True,0,2.6907150745391846,0.024946044921875
STABILIZE,2.699148416519165,29.775979327284862,0.03240230878194173,0.0327301025390625,0.0,0.0,0.0,2.0409623365071257,-1.405646100999454,-17.66275137288979,0.0006567888593626046,0.0009665938659693896,0.01404260869103518,0.4,0.043186964002741496,0.04708088814180854,0.8061450242696654,0.02808521738207036,-0.000899744190974161,-0.30892970971763134,1.9472314044833183,0.6402126273689243,-45.72144150733948,21.280883252620697,41.93442463874817,0.0,0.0,0.0,0.0,0.0,0.0,0.0,0.0,0.0,0.0,0.0,0.0,0.0,0.0,0.0,0.0,True,1,2.7197391986846924,0.034849365234375
STABILIZE,2.7326598167419434,29.8405913615117,0.03247264226277669,0.03260922431945801,0.0,0.0,0.0,2.0458762307281266,-1.4077521471413452,-17.684543091436716,-0.02547424302386109,-0.047146840122359625,0.11466301984758692,0.4,-0.10383891140722153,0.12083793938800147,0.8473288685672623,0.22932603969517384,-4.24983948469162,2.1435674279928207,2.5870148092508316,5.846781094635253,100.10623931884766,68.12490820884705,-11.687621474266052,0.0,0.0,0.0,0.0,0.0,0.0,0.0,0.0,0.0,0.0,0.0,0.0,0.0,0.0,0.0,0.0,True,0,2.7770426273345947,0.039912841796875
STABILIZE,2.766106128692627,29.8978102189781,0.03242209752400716,0.03267645835876465,0.0,0.0,0.0,2.0393664201188697,-1.4021001656031598,-17.65358184392905,-0.007410144258134354,0.0010447350079570087,0.10780432289818095,0.4,-0.09107553083081224,0.13236161706377209,0.8221425904129367,0.2156086457963619,0.8582675829529762,0.6047530565410852,-0.14638403663411736,-0.926199584828234,158.46234560012817,-45.48074007034302,-21.793729066848755,0.0,0.0,0.0,0.0,0.0,0.0,0.0,0.0,0.0,0.0,0.0,0.0,0.0,0.0,0.0,0.0,True,0,2.8122847080230713,0.024947265625
STABILIZE,2.7997212409973145,29.749368740602037,0.03256228764851888,0.032709598541259766,0.0,0.0,0.0,2.0398543517577026,-1.395495586119169,-17.664860193796034,0.014242542474737467,0.013422614718655843,0.11471142009701721,0.4,-0.04205834011987875,0.07673902823154044,0.8734963361817384,0.22942284019403442,2.7146512642502785,-3.006565384566784,5.010446161031723,1.1978730271081357,3.4841828048229218,-64.40057158470154,91.47894382476807,0.0,0.0,0.0,0.0,0.0,0.0,0.0,0.0,0.0,0.0,0.0,0.0,0.0,0.0,0.0,0.0,True,0,2.8410513401031494,0.034923828125
STABILIZE,2.833324432373047,29.76013396056394,0.03240779240926107,0.0325469970703125,0.0,0.0,0.0,2.043480755320156,-1.4036546739695723,-17.677922930583684,-0.011865619038594183,-0.023336996633329516,0.09828539881388118,0.4,-0.10901756785124903,0.10604400034752047,0.8683586467097278,0.19657079762776236,-3.924281895160675,1.7939290031790733,1.1968642473220825,-1.8241943303657233,-139.1627550125122,57.69140124320984,-14.726799726486206,0.0,0.0,0.0,0.0,0.0,0.0,0.0,0.0,0.0,0.0,0.0,0.0,0.0,0.0,0.0,0.0,True,0,2.8697736263275146,0.034923828125
STABILIZE,2.8667080402374268,29.95417928355139,0.03226807912190755,0.032392024993896484,0.0,0.0,0.0,2.0413093954943267,-1.4059565544415724,-17.658047080098946,-0.008736895022078153,-0.01388701420126564,0.08184985663544632,0.4,-0.14121345787470851,0.12305230826035776,0.8651490413370039,0.16369971327089264,-1.8739642575383186,1.0702614672482014,1.329869031906128,-1.7656873568222171,5.059279128909111,-18.909193575382233,34.660518169403076,0.0,0.0,0.0,0.0,0.0,0.0,0.0,0.0,0.0,0.0,0.0,0.0,0.0,0.0,0.0,0.0,True,0,2.898411512374878,0.029936279296875
STABILIZE,2.9000983238220215,29.94797683734015,0.03233078320821126,0.03244471549987793,0.0,0.0,0.0,2.041503202112026,-1.3956589770507204,-17.674178279371223,0.0062885500980151285,0.020302540135834633,0.09111974742816911,0.4,-0.06673867806423833,0.09254213294069068,0.8491349137873511,0.18223949485633822,4.260227084159851,-1.6336189582943916,0.8507713675498962,1.353652780046613,71.6305136680603,10.24865061044693,20.109418034553528,0.0,0.0,0.0,0.0,0.0,0.0,0.0,0.0,0.0,0.0,0.0,0.0,0.0,0.0,0.0,0.0,True,0,2.9271137714385986,0.034924072265625
STABILIZE,2.9336276054382324,29.828070774307335,0.03233817418416341,0.0325779914855957,0.0,0.0,0.0,2.042099989890756,-1.408947750411215,-17.65110590035492,-0.011467311548225303,-0.00860182001105655,0.08544123781741764,0.4,-0.08675398257605134,0.11911566660507848,0.8380483998929955,0.17088247563483527,-1.2373361736536026,1.669253595173359,0.8708050474524498,-0.48437407077056127,-132.47344493865967,54.84703779220581,24.599391222000122,0.0,0.0,0.0,0.0,0.0,0.0,0.0,0.0,0.0,0.0,0.0,0.0,0.0,0.0,0.0,0.0,True,0,2.956002712249756,0.0349248046875
STABILIZE,2.9669992923736572,29.96188244706689,0.03238061269124349,0.03250622749328613,0.0,0.0,0.0,2.042680342526795,-1.4075661312081682,-17.65299786275501,0.00204511063570079,-0.011225759783350903,0.09083099769378125,0.4,-0.11299442483472127,0.10213917244979347,0.8410257808075445,0.1816619953875625,2.231515944004059,-1.129436306655407,1.9302640110254288,0.7406325231456847,141.72743558883667,-3.148891031742096,25.433102250099182,0.0,0.0,0.0,0.0,0.0,0.0,0.0,0.0,0.0,0.0,0.0,0.0,0.0,0.0,0.0,0.0,True,0,3.014089822769165,0.034924072265625
STABILIZE,3.000565767288208,29.793322915186817,0.032490046819051106,0.03263711929321289,0.0,0.0,0.0,2.043181507657145,-1.4027139221331089,-17.6804927892589,-0.007496513474351755,0.007945716372080242,0.07625470055808793,0.4,-0.07845017447632185,0.11555827475887824,0.8414809837253157,0.15250940111617586,1.958618313074112,0.9264719672501087,1.544634997844696,-1.5013116515053568,-26.46220028400421,31.81469738483429,31.755921244621277,0.0,0.0,0.0,0.0,0.0,0.0,0.0,0.0,0.0,0.0,0.0,0.0,0.0,0.0,0.0,0.0,True,0,3.0428357124328613,0.034925048828125
STABILIZE,3.034014940261841,29.89461380013257,0.032380135854085286,0.03252530097961426,0.0,0.0,0.0,2.0395841323986637,-1.402874004691781,-17.64903976813099,-0.0020095823301272105,-0.021215901360360435,0.09474505694053861,0.4,-0.13581532543938934,0.11133852222151275,0.8430233274086498,0.18949011388107723,-3.487348183989525,-0.11280181352049112,1.6165362671017647,2.4234115220059964,-115.7025694847107,-27.306967973709106,27.61307656764984,0.0,0.0,0.0,0.0,0.0,0.0,0.0,0.0,0.0,0.0,0.0,0.0,0.0,0.0,0.0,0.0,True,0,3.0716612339019775,0.034924072265625
STABILIZE,3.0674476623535156,29.91060273269247,0.03240636189778646,0.032543182373046875,0.0,0.0,0.0,2.0399657692185382,-1.4066016871530211,-17.640708644890868,-0.0015317273802929311,-0.00898817775494628,0.09246921234176494,0.4,-0.15073791161825675,0.10592905176353191,0.8508118909384592,0.1849384246835299,-0.9663701988756657,-0.16999621875584126,1.9895799458026886,-0.03125601285903616,45.38370072841644,8.289971947669983,23.78428876399994,0.0,0.0,0.0,0.0,0.0,0.0,0.0,0.0,0.0,0.0,0.0,0.0,0.0,0.0,0.0,0.0,True,0,3.100245714187622,0.029935791015625
STABILIZE,3.101174831390381,29.65115407726839,0.03243068059285482,0.032866716384887695,0.0,0.0,0.0,2.044751597392602,-1.4034326928215468,-17.695765092243047,-0.0062579763368719255,0.014030406431615712,0.07490440102930494,0.4,-0.09384628660721618,0.11525347533438726,0.8442599874480313,0.14980880205860989,3.1830843538045883,0.7506678812205791,1.3947771862149239,-1.7566147311703246,84.72108840942383,8.346352726221085,18.980494141578674,0.0,0.0,0.0,0.0,0.0,0.0,0.0,0.0,0.0,0.0,0.0,0.0,0.0,0.0,0.0,0.0,True,0,3.1289470195770264,0.034924072265625
STABILIZE,3.134646415710449,29.876726477522848,0.03245261510213216,0.032605886459350586,0.0,0.0,0.0,2.0420336089897595,-1.400328371843776,-17.659512155675912,-0.00681070782464325,0.015649897122226034,0.057759740870697684,0.4,-0.037640123878878606,0.12535634702502446,0.8421562218322971,0.11551948174139537,3.1830843538045883,0.7506678812205791,1.3947771862149239,-1.7566147311703246,84.72108840942383,8.346352726221085,18.980494141578674,0.0,0.0,0.0,0.0,0.0,0.0,0.0,0.0,0.0,0.0,0.0,0.0,0.0,0.0,0.0,0.0,True,0,3.1580986976623535,0.034924072265625
STABILIZE,3.168104887008667,29.88609335698966,0.03246000607808431,0.03260660171508789,0.0,0.0,0.0,2.040619759831567,-1.4032638590830007,-17.63573114453322,0.0009639845173409259,-0.016836667404060805,0.06466485593666224,0.4,-0.085419748279344,0.11110217778945948,0.83430121546559,0.12932971187332448,-2.815430797636509,0.1579565112479031,1.6671260818839073,-0.036383363831813335,-49.901580810546875,23.56608361005783,26.44093930721283,0.0,0.0,0.0,0.0,0.0,0.0,0.0,0.0,0.0,0.0,0.0,0.0,0.0,0.0,0.0,0.0,True,0,3.2154507637023926,0.034924072265625
STABILIZE,3.2016806602478027,29.784648596445134,0.03246930440266927,0.032654523849487305,0.0,0.0,0.0,2.0451626894032717,-1.4061783221461863,-17.695517497885636,-0.007474258210409164,0.0044337676968728154,0.04822459996264899,0.4,-0.0640918037296514,0.12368093819359056,0.8343011064273834,0.09644919992529798,1.1386795900762081,0.91946916654706,1.5177647583186626,-1.6841028816205306,82.03327655792236,4.234401881694794,19.20027732849121,0.0,0.0,0.0,0.0,0.0,0.0,0.0,0.0,0.0,0.0,0.0,0.0,0.0,0.0,0.0,0.0,True,0,3.244016170501709,0.034925048828125
STABILIZE,3.2351503372192383,29.876088040458722,0.032395394643147786,0.032599449157714844,0.0,0.0,0.0,2.0427968826295086,-1.4040213697506374,-17.677164779585812,-0.007868308287998192,0.00517373168210526,0.031615949784464914,0.4,-0.04244333997609914,0.1363320155340852,0.8341898749863487,0.06323189956892983,1.1386795900762081,0.91946916654706,1.5177647583186626,-1.6841028816205306,82.03327655792236,4.234401881694794,19.20027732849121,0.0,0.0,0.0,0.0,0.0,0.0,0.0,0.0,0.0,0.0,0.0,0.0,0.0,0.0,0.0,0.0,True,0,3.2729713916778564,0.034925048828125
STABILIZE,3.2688827514648438,29.64465742193574,0.032431872685750325,0.03294229507446289,0.0,0.0,0.0,2.0416605099063476,-1.4054901805873075,-17.649009032279725,-0.0038253269919751986,-0.010674961954000304,0.030624873989814897,0.4,-0.07129581890709012,0.1355545652313415,0.8298276173384427,0.061249747979629794,-1.8528083339333534,0.12630040291696787,1.272846758365631,0.16887677407410906,-71.92005515098572,25.337547063827515,23.263168334960938,0.0,0.0,0.0,0.0,0.0,0.0,0.0,0.0,0.0,0.0,0.0,0.0,0.0,0.0,0.0,0.0,True,0,3.301673650741577,0.06485986328125
STABILIZE,3.3024842739105225,29.76309048203629,0.03256991704305013,0.03269004821777344,0.0,0.0,0.0,2.0445005879406035,-1.4073319837856837,-17.67841811929851,-0.006657676909049769,-0.006336627831993098,0.017774159864057823,0.4,-0.08404893468166083,0.1434460631832279,0.8568985629746376,0.035548319728115646,-0.7120808120816946,0.30962557066231966,1.7678247764706612,-1.0043093080113823,52.677446603775024,-21.505455672740936,16.91727787256241,0.0,0.0,0.0,0.0,0.0,0.0,0.0,0.0,0.0,0.0,0.0,0.0,0.0,0.0,0.0,0.0,True,0,3.3302524089813232,0.034924072265625
STABILIZE,3.3359153270721436,29.912522554004806,0.032393725713094075,0.03252363204956055,0.0,0.0,0.0,2.0436540713703453,-1.4063616700367187,-17.67897136462128,-0.004784464097479873,-0.005973839263046538,0.0064662637692632415,0.4,-0.09454042327780832,0.14491259078825358,0.8584820499344228,0.012932527538526483,-0.7120808120816946,0.30962557066231966,1.7678247764706612,-1.0043093080113823,52.677446603775024,-21.505455672740936,16.91727787256241,0.0,0.0,0.0,0.0,0.0,0.0,0.0,0.0,0.0,0.0,0.0,0.0,0.0,0.0,0.0,0.0,True,0,3.359307289123535,0.034924072265625
STABILIZE,3.3694655895233154,29.805602535495517,0.03241446812947591,0.03253579139709473,0.0,0.0,0.0,2.040616344736982,-1.4050363998943247,-17.646519428327256,-0.0007415549235713882,0.005695191639516819,0.015725849677326865,0.4,-0.06861857535454856,0.13394766933675736,0.8407545431974764,0.03145169935465373,-0.3652052953839302,0.35354902502149343,0.9317432530224323,0.5187388335581582,-53.936946392059326,27.176013588905334,20.811204612255096,0.0,0.0,0.0,0.0,0.0,0.0,0.0,0.0,0.0,0.0,0.0,0.0,0.0,0.0,0.0,0.0,True,0,3.416304349899292,0.02993603515625
STABILIZE,3.4035534858703613,29.337362206927423,0.03231409390767415,0.03315258026123047,0.0,0.0,0.0,2.0416923129746705,-1.4065678563722885,-17.65812050463252,-0.003545294608123797,-0.010130256700648071,0.008796794630047351,0.4,-0.09363248356210552,0.1324908821467249,0.8371699588512577,0.017593589260094702,-1.5510393306612968,0.20052902400493622,1.6705416142940521,-0.622498638478202,-7.060752809047699,-11.88860833644867,18.945670127868652,0.0,0.0,0.0,0.0,0.0,0.0,0.0,0.0,0.0,0.0,0.0,0.0,0.0,0.0,0.0,0.0,True,0,3.4449336528778076,0.034924072265625
STABILIZE,3.4370312690734863,29.869492454832255,0.032366069157918294,0.032506704330444336,0.0,0.0,0.0,2.0430483189683297,-1.4078458487990213,-17.670899788569617,0.00028127652851127664,0.0046815456913100245,0.007690191700409337,0.4,-0.07085967708083331,0.11954775831370208,0.8404466828083531,0.015380383400818674,1.1312955059111118,-0.48235575668513775,1.8113069236278534,0.043082392025420684,54.191190004348755,-11.626416444778442,23.31063002347946,0.0,0.0,0.0,0.0,0.0,0.0,0.0,0.0,0.0,0.0,0.0,0.0,0.0,0.0,0.0,0.0,True,0,3.4736037254333496,0.0349248046875
STABILIZE,3.470458745956421,29.913375887030632,0.03231361707051595,0.032449960708618164,0.0,0.0,0.0,2.041499573574029,-1.4060784306295748,-17.65858324994879,0.0006847261144642281,0.005404803919014738,0.006720369463430718,0.4,-0.04795091185628747,0.10655036294374105,0.8438326776059007,0.013440738926861436,1.1312955059111118,-0.48235575668513775,1.8113069236278534,0.043082392025420684,54.191190004348755,-11.626416444778442,23.31063002347946,0.0,0.0,0.0,0.0,0.0,0.0,0.0,0.0,0.0,0.0,0.0,0.0,0.0,0.0,0.0,0.0,True,0,3.50236177444458,0.0349248046875
STABILIZE,3.5059754848480225,28.15573814510499,0.03239873250325521,0.03468751907348633,0.0,0.0,0.0,2.0407128211590084,-1.4051853833955956,-17.649541787034988,-0.0038295937369087606,0.002962751837602792,0.008550372010674507,0.4,-0.03379525569677276,0.10858314923519513,0.8346763180379775,0.017100744021349014,0.6415002979338169,0.3563773352652788,1.106836274266243,0.3418197518601971,-10.606017708778381,19.375459849834442,17.5187811255455,0.0,0.0,0.0,0.0,0.0,0.0,0.0,0.0,0.0,0.0,0.0,0.0,0.0,0.0,0.0,0.0,True,0,3.531125783920288,0.034924072265625
STABILIZE,3.5393824577331543,29.935579647565145,0.03249052365620931,0.03260445594787598,0.0,0.0,0.0,2.0421142905993306,-1.4062437425518302,-17.666333807109464,-0.0006699127316522951,-0.00410358766191649,0.002976636934502179,0.4,-0.04317958339802596,0.1007250965852339,0.8320580557589697,0.005953273869004358,-0.6696262862533331,-0.20167732145637274,1.4710926450788975,-0.49950923636278066,22.688819468021393,-6.102771311998367,15.240667760372162,0.0,0.0,0.0,0.0,0.0,0.0,0.0,0.0,0.0,0.0,0.0,0.0,0.0,0.0,0.0,0.0,True,1,3.5597002506256104,0.064860107421875
STABILIZE,3.572887659072876,29.844838014188433,0.03251460393269857,0.032662391662597656,0.0,0.0,0.0,2.0420903849372354,-1.405143228321812,-17.66941422242514,-0.0006055313362102408,0.0028671725956570253,-0.006610938136269031,0.4,-0.03051733668731264,0.09337686797668661,0.8659033388293901,-0.013221876272538062,1.0120752267539501,0.16946253599599004,1.3304109685122967,0.042495209200211145,25.83540976047516,9.849175065755844,22.837693989276886,0.0,0.0,0.0,0.0,0.0,0.0,0.0,0.0,0.0,0.0,0.0,0.0,0.0,0.0,0.0,0.0,True,0,3.6178274154663086,0.029935791015625
STABILIZE,3.6063592433929443,29.876088040458722,0.032485040028889973,0.032633066177368164,0.0,0.0,0.0,2.038895563952962,-1.405333086236397,-17.643797597943006,-0.0012592523926278612,-0.003099897937407997,-0.004407688660530251,0.4,-0.03716017967152053,0.08868634244986064,0.8578152555940788,-0.008815377321060502,-0.4350408911705017,0.008597662235843018,1.639576070010662,0.23318473933749806,-44.29847598075867,-5.915729328989983,25.00758469104767,0.0,0.0,0.0,0.0,0.0,0.0,0.0,0.0,0.0,0.0,0.0,0.0,0.0,0.0,0.0,0.0,True,0,3.6462087631225586,0.0399130859375
STABILIZE,3.639875650405884,29.839105318573747,0.032453091939290364,0.032593727111816406,0.0,0.0,0.0,2.0406402503990773,-1.4054717177322071,-17.654362193041724,-0.001272110810919011,-0.0032258434622969433,-0.0026589099441043824,0.4,-0.04358273241944157,0.08446140359713009,0.8581731089891,-0.005317819888208765,-0.4350408911705017,0.008597662235843018,1.639576070010662,0.23318473933749806,-44.29847598075867,-5.915729328989983,25.00758469104767,0.0,0.0,0.0,0.0,0.0,0.0,0.0,0.0,0.0,0.0,0.0,0.0,0.0,0.0,0.0,0.0,True,0,3.6748218536376953,0.0399130859375
