Mode,Time,Freq,North-Vision,East-Vision,Down-Vision,Yaw-Vision,North-Desired,East-Desired,Down-Desired,Roll-UAV,Pitch-UAV,Yaw-UAV,Roll-Control,Pitch-Control,Yaw-Control,Thrust-Control,northVraw,eastVraw,downVraw,yawVraw,zGyro
GUIDED_NOGPS,0.0026934146881103516,374.4579948218909,335.8820782540071,-25.538699439851275,-17.573240997270233,4.235258878413197,330.1761609748502,-18.783643294410375,-11.07808791621109,-1.2450259850952592,1.9945635808147595,2.8275141147211,-3.0,-3.0,-0.2964681214889238,0.5194854592431775,335.8820782540071,-25.538699439851275,-17.573240997270233,1.2936832438598043,2.0626480624709638
GUIDED_NOGPS,0.02818584442138672,39.2383411448832,336.68642444843573,-18.733884856450914,2.357486192840277,3.937641839375998,330.17592103407344,-18.78368883194176,-11.078121015139905,-1.2450259850952592,1.9945635808147595,2.8275141147211,1.0568145139512206,-0.3853178000891133,-0.2756349287563199,0.45969317837605944,337.49077064286433,-11.929070273050556,22.288213382950786,3.09983904719324,2.6929016371148693
GUIDED_NOGPS,0.05524611473083496,36.97246218398505,336.9545398465786,-16.465613328650793,9.001061922877113,3.9878832671158015,330.17426081150046,-18.784003919850367,-11.078351377925937,-0.7850638108311168,1.361247096630021,2.9790465572128872,0.42914307277344943,-0.3115701788256262,-0.2791518286981061,0.4397617600975908,337.49077064286433,-11.929070273050556,22.288213382950786,3.09983904719324,2.9220847551671985
GUIDED_NOGPS,0.10064029693603516,22.030758887301452,337.1802558565381,-11.18285044310087,23.024510427734885,4.039878297193348,330.16981291949145,-18.7848480699141,-11.078972623764127,-0.4201038049497396,0.8105208330022534,3.1237626843564135,0.7685991133047668,-0.30131530826620506,-0.2827914808035344,0.39768955084550295,337.8574038864167,-9.690410783201502,24.497104517303093,3.3511417526345304,2.291831180523293
GUIDED_NOGPS,0.14595532417297363,22.07226379548062,337.30499762437233,-8.44977106301963,26.396503320739985,4.138332389733556,330.16126695853836,-18.786469978330185,-11.08017442020946,-0.28896379935952454,-0.025738927556958363,3.2330427228688556,0.6561310274521859,-0.29853706183852824,-0.2896832672813489,0.38756996677715166,337.8039646957093,-3.729832132806837,32.404192061966086,4.208757113961719,1.432394487827058
GUIDED_NOGPS,0.18601393699645996,24.969662332714197,337.766024063712,-5.205983147853488,29.959628898049854,4.242256186382258,330.1473687312214,-18.789107674895586,-11.082142509967749,0.08215661026638103,-0.5952142738998224,3.359255440663994,0.8698457569168063,-0.35361444395014235,-0.2969579330467581,0.3768746857759472,338.18721045070544,-2.197706527552133,32.97759011488039,4.382677614043536,2.864788975654116
GUIDED_NOGPS,0.23143768310546875,22.018615248124565,337.9960112852882,-2.45272691173121,32.883131254892476,4.355747235954102,330.126919456166,-18.792988672187423,-11.08505873768641,0.5564125028335088,-0.6816394322323441,3.5391553663261366,0.898088886754087,-0.3384398753753414,-0.3049023065167871,0.3680954300222633,338.64070675074544,-1.430642074834665,33.26761158783097,4.4132018676332425,3.4377467707849396
GUIDED_NOGPS,0.2669641971588135,28.154604159115014,338.2235290109353,-0.5821814777235601,33.879538775632106,4.500716954615972,330.0987749819996,-18.798330114743415,-11.089101076745242,0.9432029138801575,-0.9663391124765179,3.645037599169909,0.9428068175831473,-0.35575003951912765,-0.31505018682311803,0.36509408044286795,338.62835927109984,1.8818041692161125,35.39341462418497,4.871752093535837,3.323155211758775
GUIDED_NOGPS,0.31273627281188965,21.851934438528307,338.56070196012286,0.46751663514619274,35.167774884532186,4.591479540293273,330.0618450013085,-18.80533892824227,-11.094443656047211,1.3303697323830974,-1.0020395507728226,3.7542194537130325,0.8668332668665799,-0.3749516680333993,-0.32140356782052915,0.3612133443782618,339.5432686323546,0.9513878110571257,36.842298441580645,4.633681368377638,2.177239621497128
GUIDED_NOGPS,0.3615987300872803,20.470104783332275,339.3134603378,-0.5692368326140034,37.91324289961546,4.671590402514539,330.01509226459433,-18.814211968684152,-11.101256786809218,1.7154716993225776,-1.1339089458612008,3.8472304085093274,0.6499338500577233,-0.44040714569768635,-0.32701132817601775,0.35295650094072595,341.56775658409487,-4.540902478115253,41.504015633080805,3.6358235046902534,1.604281826366305
GUIDED_NOGPS,0.3981795310974121,27.340308061351532,340.1969924909585,-1.9627519737292467,41.314147143261174,4.757246614314933,329.9575317942315,-18.825136171571057,-11.109706989352894,1.7665924636089496,-1.2321971822866826,3.915617250687257,0.5292404014795393,-0.5151551486365908,-0.3330072630020453,0.34272843760215776,342.6048712164979,-2.298741254129617,45.5961273551221,3.8998450626801193,2.177239621497128
GUIDED_NOGPS,0.4423789978027344,22.633742013469178,341.0506625230149,-2.5423067693948167,44.69192607542993,4.80801377869898,329.8882300984234,-18.83828870108728,-11.119957019895363,1.7773128723981078,-1.2219723890991736,4.001982004534306,0.6057096698583975,-0.5349403186345265,-0.33656096450892864,0.3325643507140241,342.9090569110275,-0.7872765759395843,46.975635238086944,4.0740026265283324,1.4896902673401404
GUIDED_NOGPS,0.4889965057373047,21.45544762109377,342.0611537010183,-2.219150222137245,48.94330045289502,4.8488973385011525,329.80630438515936,-18.8538370992798,-11.132165897340036,1.6417675548757933,-1.2532960635196753,4.073900908286778,0.7008373367361398,-0.5872078907076206,-0.3394228136950807,0.3197736009492948,343.68081516111687,-3.571432836342538,54.25813876547606,3.535876609637991,1.0313240312354819
GUIDED_NOGPS,0.5302541255950928,24.242009501901535,342.9533727263871,-1.085460199437523,51.31170201783504,4.880671037575283,329.7109217761718,-18.871939435238733,-11.14648893006738,1.5779665443952926,-1.1833504441071019,4.050651798125702,0.8304241379962073,-0.6301258332541746,-0.34164697263026983,0.3126254271562927,344.0043637591984,1.1023288139695493,52.70133204994214,4.142600205384519,0.2864788975654116
GUIDED_NOGPS,0.572390079498291,23.735655795686693,343.46097498414605,0.23886004510915093,53.627231739980715,4.89463324309916,329.6012985208926,-18.892744454277743,-11.163077742725703,1.450088754546552,-1.4023042175046139,4.068345830057442,0.9006841546429885,-0.6181194040109451,-0.34262432701694123,0.30562907155188074,344.10576787289,3.1856841577004373,53.92222440452398,4.421063100157644,0.2864788975654116
GUIDED_NOGPS,0.6147055625915527,23.63800517360896,343.8353115029927,3.6521329723152687,53.16167703563266,4.8886393356654025,329.4766992104101,-18.916391727114455,-11.182080303021928,1.4718032065784918,-1.2474884817344603,4.045349863782479,1.2383090048473158,-0.6276998970971709,-0.3422047534965782,0.30696872798403624,344.4765538107308,6.668385945275816,52.86147465243187,4.800838511505918,-0.8594366926962349
GUIDED_NOGPS,0.6596510410308838,22.254963760041598,344.1155183418775,6.043320816679851,53.52191919465897,4.887132002856649,329.33643599142584,-18.9430117990509,-11.203640948512383,1.4958287171491291,-1.3154290137388118,4.09063359109284,1.2248578870147253,-0.6352089315285591,-0.3420992401999655,0.3058233195704859,344.3100911054518,8.275892347063296,53.782058527021086,4.953610633343277,0.17188733853924698
GUIDED_NOGPS,0.7030661106109619,23.035880424216128,344.24137353074445,7.740056879800804,53.47519723549134,4.911158306640253,329.1798677802115,-18.972726339153922,-11.227900413393566,1.6710971342237684,-1.4953883833910748,4.096469987738616,1.2384922209269746,-0.6356853888010201,-0.34378108146481773,0.3058907070533453,344.3100911054518,8.275892347063296,53.782058527021086,4.953610633343277,1.3178029288008934
GUIDED_NOGPS,0.7471780776977539,22.675100284364287,343.93401754936286,11.144254365794092,53.66507147376524,4.972325353188448,329.00639947656555,-19.00564828943561,-11.254995855292934,1.6981057299144087,-1.571375091681113,4.1746829108112555,1.5312104511658835,-0.5928859553188629,-0.3480627747231914,0.3052397980128255,342.46758385229043,16.88097840325568,53.43109736725354,6.161818922285257,1.432394487827058
GUIDED_NOGPS,0.7891256809234619,23.843329865670707,343.76217769656785,13.3883974585882,54.18738768621581,5.022950858040312,328.81548117777015,-19.041882014033707,-11.28506088205968,1.7824365814926753,-1.5299113611074926,4.17806641577135,1.5286200148897233,-0.6082641837981091,-0.3516065600628219,0.30358265429517356,343.24656860891486,15.00832162544562,55.349007164372814,5.744996229202401,0.6875493541569879
GUIDED_NOGPS,0.8359866142272949,21.345818935025676,343.415840152958,16.999970158101203,54.727430177403896,5.037022588425776,328.60660739254786,-19.081523448392055,-11.318225578555515,1.9074246677139715,-1.3019161247961764,4.140685644217517,1.7711836011090536,-0.5898915634042105,-0.3525915811898043,0.3018630327321218,342.7448660926816,19.11061044560231,55.40218600058535,6.2749092978506,-1.260507149287811
GUIDED_NOGPS,0.8749897480010986,25.643824896062608,343.20113238814963,17.52161804184821,54.94694724345832,5.0150384988946355,328.3793162550186,-19.124660248441,-11.354616533445437,2.1001055848605006,-1.1142662823035963,4.03406126863174,1.541022803615779,-0.6040126994635963,-0.35105269492262453,0.30109530866928874,343.2365522814099,18.44592205449669,54.089648565416816,6.08614870282522,-1.604281826366305
GUIDED_NOGPS,0.9241197109222412,20.357141470422643,343.07415869069223,18.644442111985196,54.57538951349042,4.9905533339906425,328.1331887386563,-19.171371939777828,-11.394356865988525,2.050430045913821,-0.9845358036424897,3.986879602505762,1.6269621667087333,-0.6179220618775491,-0.349338733379345,0.30209076086156317,343.67522261816515,18.37679383585658,54.2343339744691,5.973474265314549,-0.9740282517223995
GUIDED_NOGPS,0.9629278182983398,25.771928207586008,343.32128270342184,18.860445212013712,54.92821267003728,4.947614135940735,327.8678478702459,-19.221730066847176,-11.437566252828711,2.034541745243902,-0.8690891715265838,3.9488038592038794,1.5713162631676763,-0.6820744915334103,-0.34633298951585145,0.300902663231402,343.70320391593845,19.758619745687856,56.46065547022592,5.955937563920386,-1.4896902673401404
GUIDED_NOGPS,1.0230860710144043,16.625590613603933,343.21130509641864,20.528023652995046,55.10676189310289,4.92974004537716,327.5829579438398,-19.27579834212147,-11.484360954785556,2.066933703939276,-0.955918911845723,3.885982340539041,1.7297092661171711,-0.6488963033263101,-0.3450818031764012,0.30022663145633466,342.69668057389896,23.448657377440696,54.62529623461363,6.434651169749856,-0.7448451336700702
GUIDED_NOGPS,1.0476162433624268,40.78713266040415,343.25910682388565,21.96378236729628,55.751834414806204,4.904839606050012,327.27822373471514,-19.333632795281325,-11.534853843645035,2.028726479495871,-0.9935418349499746,3.8483240925501754,1.9228715498935125,-0.7100396645315814,-0.34333877242350086,0.2981399352246463,342.98387473001696,22.68406997876027,56.16955153957903,6.1727793336399595,-0.9740282517223995
GUIDED_NOGPS,1.087205171585083,25.265826139861574,343.3903921925818,22.38579960498347,54.80582843930969,4.889299866809919,326.9533897133301,-19.395281922396,-11.589154428950314,2.0194760554821465,-1.0199777619673918,3.80628470509557,1.7455010996461562,-0.7164698875058652,-0.3422509906766944,0.30081505139522,343.89297912489064,21.02467145874942,53.62263754373639,5.653704717255471,-1.260507149287811
GUIDED_NOGPS,1.1239490509033203,27.22159916926272,343.3734322142973,21.802805591212717,54.473271743813164,4.848822976418003,326.6082392592813,-19.460786835103793,-11.647368884792527,2.0491133135078896,-0.8974431010403051,3.7503578355110365,1.6215336519103014,-0.7200298218175875,-0.3394176083492602,0.301638078114183,343.5904227267425,21.69967533612843,53.62762614812406,5.67819916840861,-1.6615776058793874
GUIDED_NOGPS,1.1705107688903809,21.48028044227529,343.19418632715025,22.22345672765677,53.083009503233605,4.820637265275338,326.24259387525996,-19.530181409792476,-11.709600076601564,2.189651712756895,-1.0338400577747557,3.6571628924939743,1.74140094973755,-0.7086591716390545,-0.3374446085692737,0.3056221712604945,342.8069744802032,23.946023388092424,51.99876481784037,5.966195285094703,-1.0313240312354819
GUIDED_NOGPS,1.2108781337738037,24.872379664715684,343.5235330866908,21.706088148751718,53.00160061041239,4.770055287211715,325.8563124010091,-19.603492436779728,-11.775947587936841,2.1818213277602982,-0.9802275551017984,3.6287433291311975,1.6385416215777309,-0.7938635550234696,-0.3339038701048201,0.3056673554049523,344.34341437160157,19.472565722034258,53.37841086527271,4.994566166952779,-1.1459155902616465
GUIDED_NOGPS,1.2559444904327393,22.124307017127425,343.7954410150078,20.963718277386995,52.91852884946194,4.749292983964691,325.44929022728047,-19.68073976949353,-11.846507747278082,2.1544941677779006,-1.0376640032146107,3.616081439070463,1.599943136107972,-0.8096277011794644,-0.33245050887752836,0.30570489020977987,344.34341437160157,19.472565722034258,53.37841086527271,4.994566166952779,0.0
GUIDED_NOGPS,1.3006553649902344,22.369979253001382,343.71992250328276,20.19137637754179,51.76136007497498,4.7249247341247065,325.0214585097909,-19.76193647365263,-11.9213736548161,2.1240272552114123,-1.0648060010374778,3.590188191926945,1.5707552084045862,-0.7963816958804738,-0.3307447313887295,0.30895179881062673,343.51538656626565,21.62899768855682,48.52725849437947,5.16281915663152,-0.8594366926962349
GUIDED_NOGPS,1.3352179527282715,28.941803176881358,343.87924822698244,19.91592562974245,49.09104608241737,4.69460665949483,324.57278338317934,-19.847088976446916,-12.000635209243574,2.1147868630380313,-1.2267710238779306,3.5498621147369547,1.6042848077614198,-0.8602289911974875,-0.3286224661646381,0.31672495612501717,344.3870513452409,18.646213478636245,45.36746888759991,4.55019288663437,-0.5729577951308232
GUIDED_NOGPS,1.3784525394439697,23.13294689294204,344.1952635999899,19.64047488194311,46.42073208985977,4.683143790108981,324.10326517496395,-19.936197215717883,-12.084379134545832,2.0911559026136683,-1.3919055746583868,3.5195471738794994,1.6033330640509869,-0.8948005544865681,-0.3278200653076287,0.3244846663267832,344.3870513452409,18.646213478636245,45.36746888759991,4.55019288663437,-0.057295779513082325
GUIDED_NOGPS,1.418837070465088,24.770877134960195,343.8637822838425,20.11860812133028,44.36069179715859,4.684181182732628,323.61293761949844,-20.029254789139035,-12.172689006791629,2.003784336194277,-1.1409472423574876,3.5503673352921243,1.7019224403967153,-0.8451533597837825,-0.327892682791284,0.3303998575881494,342.68600779086466,23.06339740671832,42.34713761627591,5.222508724379634,0.17188733853924698
GUIDED_NOGPS,1.4611635208129883,23.628550504196948,343.5536614660105,21.412269508902806,42.72168548393271,4.716177980508161,323.10186707192906,-20.12624910339631,-12.265645280923922,2.002050535362151,-1.186835014522572,3.6168097079907158,1.8329437246091125,-0.8571002642046918,-0.3301324586355713,0.33503800770543013,342.7928102824414,22.527197641353823,40.45044994792229,5.09613919204375,1.604281826366305
GUIDED_NOGPS,1.498457670211792,26.821744885756857,343.37355757250754,22.602561527771105,40.622686377863786,4.788962472770643,322.57015172215154,-20.22716152336851,-12.363325317550656,1.9919491124665256,-1.380410473006961,3.685409566693385,1.895303520031496,-0.8911022438735599,-0.335227373093945,0.3410419649137567,342.61486709875084,22.21708953524114,39.07047156939312,5.022934229827312,2.807493196141034
GUIDED_NOGPS,1.5333616733551025,28.686847684836877,342.98663105349584,22.36523318419628,38.86532935012189,4.88576644195928,322.0179208087676,-20.33196752130771,-12.465803409735535,1.9590890723695942,-1.2216817858943307,3.8181649653831613,1.7367523412883292,-0.8792549702070042,-0.34200365093714963,0.34600660172042774,342.4524187501824,22.351412375993842,37.07506653305022,5.051372693370416,3.380450991271857
GUIDED_NOGPS,1.5790197849273682,21.886827109728863,342.74007943079465,21.45939642237039,36.85160719053491,5.003758378327265,321.4453338330421,-20.4406368260197,-12.573150809788817,1.938195096811702,-1.15045550601238,4.057752206654753,1.652132941175867,-0.902962612965028,-0.3502630864829086,0.35172572599902885,343.1542932317351,19.809687355876147,34.409283469161345,4.658250397701019,4.469070802020421
GUIDED_NOGPS,1.630458116531372,19.446613780409212,342.8387085922401,20.276693761017242,34.789604850216975,5.167017353240521,320.85257977285966,-20.553133572044395,-12.685435756058071,1.9766620818869791,-1.1628453624450772,4.245701083366932,1.5964555593821945,-0.9579091278301866,-0.3616912147268365,0.35757487818117484,343.17915359809166,18.66898155118171,32.88446454843932,4.553606417632518,4.239887683968092
GUIDED_NOGPS,1.665506362915039,28.537533594148666,342.48001642551804,20.81507419377236,31.208941434942314,5.372189532322678,320.2398762966814,-20.669416448836262,-12.802723499718976,2.0032735661104066,-1.162692643684104,4.366253922217657,1.7819089557289904,-0.9425241635258883,-0.3760532672625875,0.36796500519601616,340.99934944883125,23.966553674259202,26.33307628722624,5.718142117131776,4.469070802020421
GUIDED_NOGPS,1.7072601318359375,24.111985559151716,342.17817241414684,21.73131447860888,28.436446730900922,5.540624199953661,319.60746897750187,-20.789438849944744,-12.925076331566089,1.9036179044687471,-1.1757932666773059,4.590832676561792,1.8539135518808032,-0.9608150946093315,-0.3878436939967563,0.3759154308125989,341.1056470418951,22.5584082103857,26.091799357037175,5.646158689473564,5.385803274229739
GUIDED_NOGPS,1.7504017353057861,23.12414682824095,341.50875067369395,24.238221519347775,25.252519654022922,5.761145879677616,318.95563050680573,-20.913149022194684,-13.05255360880363,1.725211975965839,-1.0205692136608324,4.86138372666199,2.097349665136062,-0.9270026035131035,-0.40328021157743316,0.3850847802115203,339.1053100479182,26.189702673398394,23.332683317805316,6.611381000875232,6.130648407899809
GUIDED_NOGPS,1.7910377979278564,24.613015668094594,340.6651212815389,24.80581762602735,24.304424761735266,6.01765072767911,318.2846599085249,-21.040490214866747,-13.185211781836255,1.6584037612598286,-1.1455409714611442,5.038268977579219,1.957209889186095,-0.9056190593559028,-0.42123555093753773,0.38753109036928546,338.93614627095957,25.669341994297923,23.48879161036326,6.719022021062748,6.245239966925974
GUIDED_NOGPS,1.8327841758728027,23.961837512354247,339.7404416871948,25.910922374690387,22.42781721136222,6.250449981030524,317.59488175299475,-21.17140082887784,-13.323104421059849,1.507310051700509,-0.9503069509472055,5.33020577685755,2.059034908754151,-0.8915532846058989,-0.43753149867213675,0.3927472351027338,338.55575562637114,25.8737224563748,20.461976705918026,6.967444967260236,5.443099053742821
GUIDED_NOGPS,1.8748416900634766,23.780064520152624,339.45281904095657,24.600355529015406,20.734932362579972,6.4674100352564325,316.8866453709116,-21.305814565961537,-13.466282243652287,1.535191310779324,-1.0202698592761155,5.536305454402216,1.78366255315001,-0.9717748240664964,-0.4527187024679503,0.3973963561813032,339.5612362176402,22.258002136373456,18.254028771458586,6.588612541342438,4.92743703812508
GUIDED_NOGPS,1.915381669998169,24.694310829030492,338.84427634050826,23.68505459266051,18.564583360014172,6.661640495252015,316.16032406728897,-21.44366057784851,-13.614793140364227,1.587646736718199,-0.9934125949642733,5.726400718061072,1.7889002359561803,-0.9491911118346886,-0.46631483466764106,0.40346187049886484,338.0629335396534,22.92343918523323,16.977744602665865,7.251237983334636,3.7815214478634336
GUIDED_NOGPS,1.9561827182769775,24.511895647905185,338.67637076110753,22.079146020838085,17.092252016611543,6.818669850011389,315.41631433541465,-21.58486361544694,-13.768682202309881,1.628710581060256,-0.9392895356508576,5.8726692191368945,1.6659728699558123,-1.0178143170834113,-0.4773068895007973,0.4074171973432357,338.26578215091456,21.05599674090752,16.044982675710134,7.188320740619203,3.323155211758775
GUIDED_NOGPS,2.00000262260437,22.839817033326074,338.2530303046635,22.22244316306933,16.45693494168112,6.94874283769502,314.6550350708075,-21.729344178022956,-13.927991747757801,1.5230592939877947,-0.9470323021270075,5.98005003817325,1.8491347177714612,-1.0073445134863925,-0.4864119986386515,0.4088452199316832,336.81944398873964,22.687893563067178,16.348077546667323,7.725434976817992,2.177239621497128
GUIDED_NOGPS,2.051173686981201,19.537924770001165,338.36507312914625,19.256361925550753,15.957626551043882,7.049323274358683,313.8769267851742,-21.87701866238103,-14.092761348921657,1.4206605643424346,-0.9909825417236298,6.067992565718573,1.4941877028269477,-1.0816939409364423,-0.49345262920510785,0.4098488363001034,339.1159697487848,14.025195472677508,15.47981943075416,6.452350517298019,2.0053522829578814
GUIDED_NOGPS,2.0927205085754395,24.074065145645,337.6910745313272,18.29298110930921,15.389298777295002,7.161914479257388,313.0824508203661,-22.02779951204443,-14.26302785875101,1.2892174157469474,-0.962147830925363,6.191746201969095,1.6026158412585931,-1.030404678451367,-0.5013340135480172,0.41104302009186194,336.191243228545,18.165854292182882,14.339999354463487,7.554415124745957,1.6615776058793874
GUIDED_NOGPS,2.1333651542663574,24.628479827131642,337.06035786036443,17.442257661802753,15.124649704955791,7.246648414045005,312.2720885623359,-22.18159536643564,-14.4388254377221,1.2722760920060827,-1.155440156724314,6.230488742488699,1.5861782817640864,-1.044653629073414,-0.5072653889831504,0.4113095745719663,334.9093501848398,20.1357232205478,15.554130329649688,8.07254232579644,1.8907607239317168
GUIDED_NOGPS,2.1750261783599854,23.990619512557842,336.26656894086364,19.354436434048235,14.43781945870906,7.306380954517981,311.44634065509473,-22.338311210056755,-14.620185580628618,1.2235501627974465,-1.040569928541334,6.273068568661382,1.9374582704041208,-1.0323440633858085,-0.5114466668162587,0.41282598488198696,334.2968375534106,19.76173178941395,13.419328692013968,8.16930033003697,0.6302535746439055
GUIDED_NOGPS,2.2175681591033936,23.510277293543272,335.7242179123732,19.41750446513097,14.21137204863067,7.320985386439495,310.6057262146686,-22.49784852166994,-14.807137143372493,1.2381699692724473,-0.9703352000277985,6.241538707905311,1.7709303173282793,-1.070363642999454,-0.5124689770507647,0.4129444724239905,334.1076888462877,18.355058385431096,13.660657124228313,8.085289304270821,-1.088619810748564
GUIDED_NOGPS,2.257463216781616,25.071305179473384,334.4109341987826,19.130993947282676,13.86784973242073,7.299020656485693,309.7507820430555,-22.660105423477834,-14.999706369754666,1.2928063599906718,-1.0903565647837319,6.174000089844932,1.734205362335524,-0.9789613083301614,-0.5109314459539985,0.4133973316934738,332.5495511808317,19.276191667002923,14.523563381019866,8.53849441626132,-1.8334649444186344
GUIDED_NOGPS,2.3030221462249756,21.952580837633857,333.8707399726154,17.25998184371783,14.257809464737848,7.217498531641188,308.882061842182,-22.82497683030397,-15.197916918265866,1.444499525371366,-1.0159774055478799,5.996399803498968,1.5309387995890569,-1.0679649160354099,-0.5052248972148832,0.41163282085098885,333.49027209770895,14.148695478719416,14.589207888965324,7.753732634234756,-3.6096341093241864
GUIDED_NOGPS,2.3459396362304688,23.31230894073967,333.43576914531087,15.337245259212187,15.117820950983463,7.087629794312829,308.0001354278603,-22.99235459877321,-15.401789888877403,1.4381136186625214,-0.8900869873042013,5.833333732819968,1.4469138362534064,-1.1001272936605708,-0.49613408560189803,0.40844116748041737,332.73449604831694,12.586848631914156,16.240691582965155,7.591809489428231,-4.1252961249419275
GUIDED_NOGPS,2.3856122493743896,25.20585089121525,333.16584999991574,12.069073504108047,15.86095600378412,6.932878260849251,307.1055879437447,-23.162127676492165,-15.611343849831927,1.3897937655443835,-0.9634314796025023,5.6840518376597,1.1772839260146108,-1.1470652881323535,-0.48530147825944764,0.40558310043915186,332.9472418264349,9.471676401690505,16.752968539421843,7.052603131034576,-4.297183463481175
GUIDED_NOGPS,2.4284989833831787,23.322290245272214,332.7925163646747,10.602686621326441,16.99326739036135,6.775265730868563,306.19901907528873,-23.334182251229613,-15.826594864434227,1.3173351701257743,-0.9594277080884055,5.496866234587269,1.3187516410468507,-1.1561409638818674,-0.47426860116079944,0.40154041323561324,332.24102067008243,9.749534830374598,17.986142048697026,7.085419171148095,-4.469070802020421
GUIDED_NOGPS,2.4797348976135254,19.520011914069773,332.7021254155335,9.129553940890895,17.249058991391568,6.57383752806916,305.28104226370175,-23.50840190009692,-16.047556517842004,1.1490345064999,-0.988528155934068,5.204184944689406,1.2871176892510168,-1.205802290219498,-0.46016862696484123,0.4001101534722993,332.09759643512575,8.167450590607524,17.008066386055805,6.7673247833530255,-5.729577951308232
GUIDED_NOGPS,2.525362730026245,21.94155619958359,332.0901585106914,8.835440847929016,16.514396612505674,6.29729334042233,304.3522839199058,-23.684667738728486,-16.274239943856635,1.093017883960804,-1.1659651580701864,4.937485694394272,1.3748448580840393,-1.1831965013926922,-0.44081053382956314,0.4016340903309131,330.43043757349864,8.589337122804867,14.54898140276415,6.769710190624704,-6.589014644004467
GUIDED_NOGPS,2.5679726600646973,23.452173669937654,331.5268166303964,8.366149435681558,16.05494542241741,6.0322267564076295,303.4133826384926,-23.862858570462134,-16.50665385171398,0.9845895913822036,-1.0062516430566049,4.774133609543778,1.3477636048975716,-1.2065012712303755,-0.4222558729485341,0.4023152021776058,329.9177866468419,8.341660593632232,16.607788478432234,6.6791046755744645,-6.589014644004467
GUIDED_NOGPS,2.6110122203826904,23.236755067782806,330.76173371042205,7.964242023171892,15.74984172099136,5.758818185752158,302.4649884116798,-24.042851035519558,-16.744804552875145,0.865248951026597,-1.1069620353165024,4.312814522151478,1.3471158701667405,-1.196761782366245,-0.4031172730026511,0.40251606117840044,329.12182722656314,6.961728353078519,16.092755281777652,6.266943891041564,-7.104676659622208
GUIDED_NOGPS,2.6538405418395996,23.355406323432785,330.02602539783845,7.447603652094544,16.138556438201867,5.486414151024336,301.5077618432687,-24.224519760186734,-16.988695987817245,0.7463911730287988,-1.1324160159190242,4.031539648167536,1.3239314191574507,-1.2108290993357502,-0.38404899057170355,0.4006182427219427,328.5624791071646,7.0394220095728235,15.71512555439567,6.162350189264437,-6.302535746439056
GUIDED_NOGPS,2.6947569847106934,24.462573924809575,329.1479980668833,7.157711802578767,16.37750817120298,5.22226336330598,300.54237336260013,-24.407737505994348,-17.238329752824235,0.7190766595685361,-0.9976665221567219,3.797182624252882,1.3421252471445273,-1.2031399378119476,-0.36555843543141864,0.3991524862279183,327.7074597803498,7.471985045084904,17.324643677435567,6.11542181091826,-6.703606203030632
GUIDED_NOGPS,2.7342724800109863,25.302406389691555,328.29081241565257,8.119480942331654,16.790948729919606,4.987723804102561,299.5695024385117,-24.59237531889823,-17.493705126777623,0.723151667821242,-1.0418688384224,3.4986860686069883,1.5154369745171599,-1.2120766246624346,-0.3491406662871793,0.3971460384299083,326.1445093173449,9.84703577233718,17.33307695792754,6.4237757623277165,-6.245239966925974
GUIDED_NOGPS,2.774862766265869,24.641067819711427,327.60422598150484,7.647018099666007,16.304674783094637,4.743731504964558,298.5898367932947,-24.77830267845975,-17.754819097947305,0.8362438056641974,-1.0557680599399641,3.2399442021383305,1.3613616960319452,-1.2421071688355594,-0.33206120534751904,0.3978215183568742,326.4848544761036,5.622033481575887,14.256303713920762,5.562478256238244,-6.760901982543714
GUIDED_NOGPS,2.8236448764801025,20.503025859119127,326.62347302721565,8.083254570192958,16.040244979999304,4.485226910730678,297.6040716166507,-24.96538764702627,-18.021666390782308,0.9056607791071825,-1.0734505659274811,3.0632457142062197,1.4672177274589087,-1.2153246263184962,-0.31396588375114753,0.39781426588765517,324.2180624551173,8.780694456665755,16.531354268149563,5.915578140767859,-7.104676659622208
GUIDED_NOGPS,2.8638415336608887,24.88285615975131,325.76399464640315,6.8275967531314565,15.424607449617895,4.1595466399209045,296.61290877964836,-25.153497018911537,-18.294239492701593,0.9673163631363586,-0.9128659883513112,2.77321432426291,1.2683234218770307,-1.2344675064106316,-0.29116826479446334,0.39884345917304154,324.26508720310227,6.0800623211526785,15.486164366783315,5.320164456850292,-7.62033867523995
GUIDED_NOGPS,2.907918930053711,22.69399415647657,324.872564397402,6.306682747532283,16.41693376997705,3.895638170674198,295.6170560486804,-25.34249646957615,-18.57252868088482,0.9411396631422848,-0.8002901701209264,2.4929204361985122,1.3323206827907452,-1.2363801282786582,-0.2726946719471939,0.3950316126474144,323.25030853534423,4.059291464778365,17.23328267499823,4.6970916137444565,-6.64631042351755
GUIDED_NOGPS,2.94462513923645,27.247240718485074,324.13901696713754,4.664064964821468,16.358854572149983,3.6518478900926254,294.6172262994202,-25.532250704807936,-18.856522049063127,0.9198502836644724,-0.9208152613281483,2.184426191155012,1.1489980151413646,-1.2672821164108612,-0.2556293523064838,0.3943538701363607,322.4767721660225,3.852841108533308,16.357116674668355,4.540640178950506,-5.156620156177409
GUIDED_NOGPS,2.9935619831085205,20.43928111964446,323.22045301208345,3.458553162654532,15.956594638644303,3.454431947369706,293.6141367307788,-25.722623609902406,-19.146205534309928,0.863976935015388,-0.945948009596268,1.8446227858429967,1.1835318211215837,-1.250294002878377,-0.24181023631587942,0.3946915994811373,321.89203470083294,2.463526914651872,14.279384566266272,4.1889677765360505,-5.213915935690491
GUIDED_NOGPS,3.045156955718994,19.386750112087416,322.6476525588655,2.4452562944174865,14.203145504893497,3.199020360293388,292.6085080788615,-25.913478398843154,-19.441562943831663,0.8343803379595476,-0.8119745960784084,1.6061760794410915,1.1714832039905307,-1.29575070794379,-0.2239314252205372,0.3990658746538245,321.3540601890274,1.0194008600672282,11.97293527374581,3.858177803928185,-5.213915935690491
GUIDED_NOGPS,3.089536190032959,22.539963349688044,321.84382511989634,1.1086784392458775,12.674204434276296,2.975418930825877,291.60106383092494,-26.104677763482307,-19.7425759817586,0.7708596320392819,-0.6578820065866299,1.4482054366046266,1.0873426023076957,-1.290077637789762,-0.20827932515781142,0.4027496587518953,320.24595000825633,-0.1568924569815195,11.770293462816754,3.535521996103469,-3.0939720937064457
GUIDED_NOGPS,3.139723777770996,19.926191969290993,321.13181778535056,-0.23417025726935736,11.191897722985745,2.843849404958129,290.59252943933353,-26.296084022720926,-20.04922427593561,0.7298310058601326,-0.40202280011283487,1.3286940948806227,1.0542079796989634,-1.308714689845267,-0.19906945834706904,0.40627663400323594,319.6902718626153,-1.5650191748938325,9.832464432394621,3.2271092051762538,-2.0053522829578814
GUIDED_NOGPS,3.190171480178833,19.829630715261658,320.36566036625027,-2.5213310880736133,8.338265970691277,2.7339981596788987,289.5836315355167,-26.48755927168943,-20.36148540471294,0.728821952131969,-0.4787911381760163,1.2558482063917327,0.8965613344926294,-1.3156850690782596,-0.19137987117752292,0.41390074587378733,318.64598507052125,-5.84208163234554,3.412040016862408,2.411878523154964,-1.088619810748564
GUIDED_NOGPS,3.2324793338775635,23.641869116735247,319.5696467288413,-4.344178059478451,5.774886360902738,2.6638494818132923,288.57509714392535,-26.678965530928046,-20.679334923736995,0.7453532510792213,-0.47886136105842053,1.2176088587148874,0.8444228988083942,-1.3263149342919907,-0.1864694637269305,0.4206373361460808,317.91196651378806,-5.625433371196033,4.080154633451135,2.480589475464041,-0.8021409131831525
GUIDED_NOGPS,3.276292085647583,22.82825621962304,318.63125332219784,-4.926820830822819,4.386232552344075,2.63505760714856,287.5676528959887,-26.870164895567203,-21.002746392741116,0.7059737954195128,-0.292487269836752,1.2122691448878185,0.948461224760374,-1.316619509967136,-0.1844540325003992,0.42383306316474445,316.66209315581017,-3.312947488926937,5.666503006718632,2.964237962456844,-0.2864788975654116
GUIDED_NOGPS,3.3286397457122803,19.105574105032044,317.79231416376166,-4.208966844801176,5.049015567317929,2.6442191681817406,286.56202424407144,-27.061019684507954,-21.33169140233637,0.7186249065879632,-0.2327801039900277,1.2607284832754126,1.0910560302016796,-1.3313458049920448,-0.18509534177272186,0.4208578790910371,316.0512542160754,-3.688519674280611,5.400389061783972,2.9765535948681,1.2032113697747289
GUIDED_NOGPS,3.3662326335906982,26.607019836461788,316.82411895156247,-3.927053242219687,4.929201146788154,2.6981385325374516,285.55893467543,-27.25139258960242,-21.666139600802317,0.6577795537490797,-0.2292380105751414,1.369654419168072,1.0917914865386187,-1.324912699295689,-0.18886969727762162,0.4202139777572286,314.8492958016194,-4.779692563451564,3.7207113718618094,2.9562409453048444,2.177239621497128
GUIDED_NOGPS,3.4115347862243652,22.07772438006306,315.9602851416862,-4.8310581150279335,3.208903312260927,2.763524127363544,284.5591049261698,-27.441146824834206,-22.006058720877785,0.714746746521571,-0.41453592011570983,1.473840310498448,0.9509493236044849,-1.3400523984440038,-0.1934466889154481,0.4243551139005839,314.32681602113985,-6.024962107351678,0.505609503136952,2.8527692642015823,2.0626480624709638
GUIDED_NOGPS,3.4500532150268555,25.969796974744128,314.89832208619157,-5.085068145457379,1.2752174148905062,2.8495179105815858,283.5632521952018,-27.630146275498817,-22.35141460655168,0.7524581952807684,-0.42520574281632756,1.5578079881119404,1.0054356785410339,-1.3197394713511417,-0.19946625374071103,0.42912010393567346,312.602151236315,-4.450549765568948,-0.40066863032729105,3.493988990615337,1.8907607239317168
GUIDED_NOGPS,3.496655225753784,21.460387630216328,314.03055838280346,-5.511510539679715,-0.526518024384818,2.9321263030737685,282.57208935819955,-27.818255647384092,-22.702171239853712,0.7018310722444885,-0.3218878191190718,1.6502226887380342,0.9832445368166008,-1.3436159621921422,-0.20524884121516382,0.4334730403535933,312.3232746388695,-6.05901974611857,-1.6844949459641627,3.414719961846899,2.4064227395494577
GUIDED_NOGPS,3.5495710372924805,18.906035609646157,313.1956224281545,-6.425581449878561,-1.768742778061167,3.0406704450054236,281.5863241815555,-28.005340615950608,-23.058290767645225,0.5954652299909675,-0.1559434640351461,1.7963741161026152,0.9207148329916726,-1.3521459151290807,-0.21284693115037967,0.4361313560312478,311.8765744428304,-8.767174837948222,-3.221064757892095,3.131230499908771,2.864788975654116
GUIDED_NOGPS,3.590484857559204,24.44518009091969,312.3298933363816,-8.13196703399588,-3.0755454001136306,3.1941858728471444,280.60665853633856,-28.191267975512126,-23.419733528409964,0.6519815235565323,-0.24148112466238925,1.9526808608242414,0.767261216172106,-1.3577092602274272,-0.22359301109930013,0.438967435615111,310.52065034275535,-9.569706517920897,-4.321076496484681,3.371101605904816,3.7815214478634336
GUIDED_NOGPS,3.6307177543640137,24.860733083598085,311.4245562942471,-8.882201953450219,-3.672655560963427,3.3317133515351345,279.6337876122501,-28.37590578841601,-23.786458079044827,0.6673377631622779,-0.33691039331169176,2.072754305772596,0.8365381321197274,-1.3573864849803774,-0.23321993460745943,0.4396585924457558,309.80013081046746,-8.309724504481588,-3.475825428513553,3.814658107395791,3.4377467707849396
GUIDED_NOGPS,3.671226978302002,24.689368565424438,310.7007428619912,-8.286472893554672,-3.079199599565255,3.451157038293153,278.6683991315815,-28.559123534223627,-24.15842122165067,0.6739294293198691,-0.09324275434125219,2.227981453718537,1.0010386540812715,-1.384825343033245,-0.24158099268052072,0.43676233513374374,308.9830840750355,-6.9799876582615825,-1.440696873697579,4.2887791596089375,2.635605857601787
GUIDED_NOGPS,3.7250092029571533,18.596554078619505,309.8412965595786,-7.076719278782463,-3.1623115159118274,3.568706064668671,277.71117256317035,-28.740792258890806,-24.5355780303231,0.6268373560658939,-0.0013549387766012796,2.3767357167654217,1.0863910121361866,-1.3744477122226142,-0.249809424526807,0.4358802004567662,308.02604312680614,-5.94044567360427,-4.570412245524399,4.7245009546257455,2.3491269600363753
GUIDED_NOGPS,3.762847900390625,26.435133363585944,308.9985156432002,-7.731640611198105,-3.255760429825044,3.7113611996527234,276.76277833635766,-28.920784723948227,-24.91788187794321,0.5513880982861712,-0.02189246383718337,2.473172651760713,0.9144616355011015,-1.3837472676152747,-0.2597952839756907,0.4350136356556455,307.6626698609385,-10.274488501728513,-3.756172170253203,4.412092748151125,2.5783100780887045
GUIDED_NOGPS,3.8045315742492676,23.99473687221469,308.290088313118,-9.157616562385948,-5.022185953361125,3.8128634973449667,275.82387705494443,-29.09897555568187,-25.30528446296839,0.5657928071631694,-0.14363439593372535,2.513485282015774,0.7954451986458283,-1.405347233778765,-0.2669004448141477,0.4391507044711782,306.97851369234445,-11.257915511825114,-6.739973444305821,4.458380480483745,2.635605857601787
GUIDED_NOGPS,3.8381989002227783,29.71206743881274,307.5500706629687,-10.953759766331379,-5.96170045017525,3.9346006261439146,274.8951187111485,-29.275241394313433,-25.697735836223114,0.5307892082447647,-0.3366030347990412,2.645038567411628,0.6566041739538682,-1.4144984562645924,-0.27542204383007407,0.4407918938418564,306.1000425597207,-11.32887528544056,-7.388955735966775,4.676354420172224,3.323155211758775
GUIDED_NOGPS,3.875110387802124,27.098313100445147,306.97044513883566,-11.947719153413132,-6.890044397154308,4.0560131793337835,273.9771418995615,-29.449461043180758,-26.095184427689684,0.43173246881595073,-0.20640938393484315,2.8143181892446356,0.73047648337877,-1.4431635090816868,-0.2839209225533649,0.44238457990839386,306.08495645437034,-13.256366662973774,-6.541204011190375,4.530832543373702,4.18259190445501
GUIDED_NOGPS,3.9150068759918213,25.06950695428165,306.5451807862123,-13.032981308706255,-6.008096277398955,4.190733792350144,273.07057303110554,-29.6215156179182,-26.497577073299045,0.36639333175087496,-0.4973376630935397,2.991452315179746,0.6924263268847792,-1.47504805640448,-0.2933513654645101,0.4385315576122997,305.8997213636893,-14.51370197770448,-4.094129085039761,4.524503844916508,3.896113006889598
GUIDED_NOGPS,3.959214448928833,22.626171955074607,305.8457126975598,-13.77700340010393,-6.614719870606425,4.337516221145031,272.17602554699,-29.79128869563715,-26.904859041721544,0.16661951661533886,-0.4340952340210991,3.1944062637247974,0.7089588845270443,-1.4541394275170834,-0.3036261354801522,0.4391295824866546,304.16532941767576,-13.560941559633584,-9.208826515589188,5.1991303208612445,3.495042550298022
GUIDED_NOGPS,3.9966390132904053,26.7238228735266,305.33407869093276,-14.515903462555691,-6.040330289668759,4.509416009571628,271.2940991326682,-29.958666464106393,-27.316974061157726,0.10302680022409712,-0.7455331838751689,3.3391898389863774,0.6778746908104796,-1.4919746126526727,-0.315659120670014,0.4361700686855331,304.4203436592093,-15.473066850329063,-4.8180352683773755,5.1046164784786665,4.354479242994256
GUIDED_NOGPS,4.040599346160889,22.75246955436817,305.02406280753274,-14.890232188479816,-5.530732574860848,4.681359123251352,270.42537893179474,-30.12353787093253,-27.733864346129085,0.05797171082815924,-0.8494340215294028,3.486995346068865,0.7119178452481953,-1.5273572616505084,-0.32769513862759464,0.4333906046861953,304.54996314272057,-15.636688155476852,-2.5653359406160257,5.326660475821013,5.156620156177409
GUIDED_NOGPS,4.080992937088013,24.761371753773858,304.36068009400316,-15.934136181227807,-4.374198406674327,4.907522699409743,269.57043476018157,-30.285794772740417,-28.155470624268872,0.07926479888524754,-0.7493766593871819,3.7478298117444853,0.60906376526606,-1.5044439637839302,-0.34352658895868204,0.42865618334721634,302.7680428867222,-16.692653537877554,-5.739224011029625,5.645367849445771,6.0733526283867265
GUIDED_NOGPS,4.119865417480469,25.72829600731185,303.6356923797824,-16.433372996779894,-5.161431582101462,5.121461729322525,268.7298203197555,-30.445332084353602,-28.58173216311286,0.16365505443299463,-1.0675000837782247,3.9764883234572337,0.6482255607256335,-1.5033945080177242,-0.3585023210525768,0.42973909825696577,302.2747827925859,-16.97077729698532,-7.17973479465878,5.85800491056551,5.328507494716656
GUIDED_NOGPS,4.161968231201172,23.756493763947574,303.18602923494416,-16.69170943816004,-6.297619520674769,5.309636888889446,267.9040724125143,-30.602047927974716,-29.012586796890133,0.1902482892447335,-0.9649121365485142,4.179861047975772,0.6701834007237063,-1.5436137548002271,-0.37167458222226124,0.4318550981713539,301.91701369348436,-16.411697479617292,-5.973899756335949,6.256513163885498,4.239887683968092
GUIDED_NOGPS,4.201282501220703,25.439142143186395,302.5312650987269,-16.461030210124243,-6.7197293267329,5.499941877913359,267.09371015448414,-30.755843782365922,-29.447970953313853,0.31252955282165523,-1.3847436944268052,4.342805882797004,0.7348117761506943,-1.5314219779512344,-0.3849959314539351,0.43181527512025714,301.14652297812285,-16.00061585377016,-7.0055534292040225,6.642290078287207,4.239887683968092
GUIDED_NOGPS,4.239962100982666,25.86075418649962,301.64670024849374,-16.596250778772532,-6.657372392408171,5.670596819742778,266.299234189676,-30.906624632029327,-29.887819680372033,0.3166437813012359,-1.3139783455921246,4.50394712079053,0.6985715326343596,-1.5036975936071806,-0.39694177738199454,0.4303086581361084,300.12713889155475,-17.376439002930194,-6.992663991684595,6.956576585964766,3.896113006889598
GUIDED_NOGPS,4.270900726318359,32.33177364773717,301.1185194494602,-16.917831286543503,-6.9969604708577195,5.835099748802657,265.5211259040427,-31.054299116387412,-30.33206667311835,0.28468116402822075,-1.3685309597713107,4.684850657373841,0.6687474145008365,-1.555597860024584,-0.408456982416186,0.4299946813932181,300.12713889155475,-17.376439002930194,-6.992663991684595,6.956576585964766,4.640958140559668
GUIDED_NOGPS,4.311660289764404,24.553508602471563,300.64676012038564,-18.376549504740158,-7.076644963197704,5.998311694179924,264.7598466394356,-31.19877967896342,-30.780644300462903,0.2901852826430461,-1.608939744734008,4.829906799871987,0.5087167756575015,-1.5660673157253617,-0.41988181859259477,0.4288880019882044,299.9159861472128,-20.376770508360124,-7.244606906223973,6.666536644674786,5.729577951308232
GUIDED_NOGPS,4.353089809417725,24.136684064843216,300.10265323503984,-19.200138465397185,-7.364911000066676,6.204839476652548,264.0158369075613,-31.33998271656185,-31.233483631962983,0.26503311102447413,-1.4788961445881386,5.109906136028428,0.5459584398683309,-1.5662253400686479,-0.43433876336567845,0.4283942821043111,299.19647926675543,-19.84720588490127,-7.857462102291511,7.017409239337114,5.213915935690491
GUIDED_NOGPS,4.3939948081970215,24.46043400418725,299.6178995168181,-20.000053356739794,-7.324145805175383,6.426081670652277,263.28951560393864,-31.47782872844882,-31.690514464613848,0.2733395815505617,-1.6294531506890833,5.337118782071249,0.5203553125956413,-1.581931441144811,-0.4498257169456594,0.42690089402168463,298.72275438701456,-19.77618367695803,-6.870368407010715,7.300682857764672,5.557690612768986
GUIDED_NOGPS,4.438395738601685,22.538631014433566,299.16878583275104,-20.10448309275071,-6.715387335469001,6.640860439613398,262.5812792218554,-31.612242465532525,-32.15166534963954,0.2952692379022099,-1.583036999358675,5.574856322738237,0.5899669908046558,-1.5935435088210217,-0.4648602307729379,0.42369116595748835,297.8815704712191,-20.690059716392863,-5.41833149710483,7.696410583861294,5.099324376664327
GUIDED_NOGPS,4.478518724441528,24.92751693807203,298.62080495552385,-20.82746762026483,-6.082424944597149,6.857563410254412,261.8915010663254,-31.743153079543603,-32.61686361928365,0.34850271843708436,-1.4445535265544913,5.741054035151688,0.5042719485579966,-1.5915632259055874,-0.48002943871780884,0.4203966839759405,297.3872345054189,-22.016159467443643,-5.958574929675956,7.747615549903218,4.984732817638163
GUIDED_NOGPS,4.51950740814209,24.400383955321562,297.8513296709436,-21.98796177684845,-5.967805634355572,7.048004107800846,261.22053046804444,-31.870494272215673,-33.08603541360004,0.35897307826959657,-1.5694342507397714,5.927742741962,0.4244208565831348,-1.5654430032119728,-0.49336028754605926,0.4186453106622666,296.06860972431144,-23.25766614670889,-6.526510476285986,8.073435887404825,4.583662361046586
GUIDED_NOGPS,4.560654878616333,24.30747832537438,297.11729742843045,-23.253041978799583,-6.158782104754606,7.245824256565849,260.5686919973484,-31.994204444465616,-33.55910570724372,0.33716257670245336,-1.5973380280985066,6.150601569295761,0.3665517429875992,-1.5650518664914164,-0.5072076979596095,0.41779902919253264,295.5263180541897,-24.48530032224626,-5.991260908301931,8.1010181277027,4.640958140559668
GUIDED_NOGPS,4.597089529037476,27.453406554565746,296.3164174537029,-23.92481749680381,-6.388369772776907,7.434390308521973,259.9362846781688,-32.1142268455741,-34.03599833626154,0.32262030354670285,-1.6947369525497116,6.306017828104347,0.3956240313508057,-1.549209628402331,-0.5204073215965381,0.41705711430954606,294.71835451337677,-24.031486021456324,-6.647337933742858,8.451812423608096,4.411775022507339
GUIDED_NOGPS,4.640299558639526,23.16360804758302,295.5831903737764,-24.579494675337102,-6.52319258864289,7.569602683343519,259.3235812019906,-32.23050972236597,-34.51663602488304,0.39360299113520747,-1.583120028845773,6.444566507870763,0.3848914984802069,-1.5532190387253975,-0.5298721878340464,0.41601966969127957,294.21543507158657,-25.22169768230876,-6.930978923883935,8.480286584306919,2.864788975654116
GUIDED_NOGPS,4.682676315307617,23.592930508836865,294.76380614294663,-25.036641017869854,-7.337989757722807,7.700785358151682,258.7308271418081,-32.34300646839066,-35.00094041231118,0.4564798450044937,-1.6641065423299661,6.5147104162126785,0.3888482800689762,-1.5354901092868238,-0.5390549750706178,0.41701114803623485,293.2903133512699,-25.856739349844517,-8.435652415541682,8.625256440588426,2.0626480624709638
GUIDED_NOGPS,4.723381042480469,24.573216315339277,293.92101479395944,-26.20671161263159,-8.196691559926956,7.767706881549909,258.1582401660826,-32.45167577310266,-35.48883207951313,0.47903745187295993,-1.4826765475720347,6.550250878672016,0.27466905399956454,-1.5209083738607871,-0.5437394817084937,0.4181235784412415,291.8546529793755,-27.541697805741524,-9.223443340355303,8.791575164925394,-0.17188733853924698
GUIDED_NOGPS,4.7678022384643555,22.515521915344767,292.9983559322674,-27.4028477184485,-9.42918970836777,7.775268552873925,257.60600925269875,-32.55648177104185,-35.98023057601105,0.5262913152328997,-1.5113530968023334,6.495641808710472,0.23762500251085789,-1.500966529029739,-0.5442687987011748,0.42034687739707016,290.91302374572945,-28.810105999759493,-10.62847336920638,8.751124082385138,-1.260507149287811
GUIDED_NOGPS,4.805390357971191,26.643527311765116,291.8664583188378,-29.652550944502277,-11.003647855605308,7.735173026207383,257.0742939029211,-32.65739419101406,-36.47505444667292,0.6242604003972422,-1.5277959234554928,6.403717707765855,0.02052465091086217,-1.4474973904400152,-0.5414621118345169,0.42358578022679716,289.0588664462291,-32.60584902800585,-13.159026857254295,8.2959364509833,-2.2345354010102105
GUIDED_NOGPS,4.852917671203613,21.04655095415155,290.68717850755644,-31.823711154160677,-12.047072576289372,7.645192177565639,256.5632233553518,-32.75438850527133,-36.97322125850321,0.5001784348188832,-1.4810827656178946,6.197369582090131,-0.0076406775005573024,-1.4302038551621656,-0.5351634524295948,0.4252215539533585,288.31903601517985,-34.05517843471672,-12.353717502407493,8.086015187425813,-3.7815214478634336
GUIDED_NOGPS,4.89596962928772,23.23353717982806,289.50274380692736,-34.01051833329154,-13.095058773981867,7.478650018209662,256.0728957998862,-32.84744607869249,-37.47464762743375,0.3027200671521947,-1.4096593707453655,5.999944671678205,-0.11115195914357932,-1.3957123763077544,-0.5235055012746764,0.4268612334396444,287.36813984812477,-35.37052753715208,-13.772431962283868,7.872670816015868,-5.328507494716656
GUIDED_NOGPS,4.94310450553894,21.21721535379697,288.47120078382665,-35.26300050416759,-13.36210393940631,7.2442074523664335,255.6033775916709,-32.936554317963434,-37.97924924511449,0.19068779590956797,-1.3712690118548394,5.619572717460664,-0.061924654202424795,-1.3916463318795378,-0.5070945216656504,0.4261485640828755,286.696937863872,-36.363295540634,-13.96016235352763,7.682532529048884,-7.563042895726867
GUIDED_NOGPS,4.984357118606567,24.24691443667875,287.42727342014405,-36.485501980404344,-14.484954299256893,6.911772025992181,255.15470246505936,-33.021706820757736,-38.4869409057043,0.10444621225120362,-1.2704529651062184,5.283631143794056,-0.12016849910743356,-1.35859575331376,-0.4838240418194527,0.4279940401806578,285.6933869273163,-37.722682863426975,-15.722268581959241,7.3896632038864265,-9.167324722093172
GUIDED_NOGPS,5.035609245300293,19.514381158867373,286.55192729052305,-38.094914983028566,-14.486368798351812,6.549549672979749,254.72687074756976,-33.10290352491682,-38.99763653266163,0.02375709214038363,-0.9015724840021067,4.7941166086211195,-0.18927098107338935,-1.3656734128801644,-0.45846847710858246,0.42646619679707054,284.6821357981242,-40.198766545024746,-13.776675459568619,6.696676483115322,-10.657014989433312
GUIDED_NOGPS,5.073145151138306,26.6480977915576,285.74482918053764,-39.55854602448477,-14.03625756359965,6.072859159134236,254.3198485738411,-33.18015085763064,-39.51124920553547,0.10552080644693025,-1.1337417129482414,4.3778929914501825,-0.27426303134995567,-1.3428986060168329,-0.42510014113939654,0.42357502507419253,284.2835454652527,-40.75418866500259,-12.609828649271147,6.400407536237641,-9.797578296737077
GUIDED_NOGPS,5.116274118423462,23.188964754664823,284.94235563835053,-41.22621437658206,-13.214641432344026,5.700958553225883,253.93356709959028,-33.253461884617884,-40.027691186755995,0.09545896396393622,-0.8861930324253536,3.8260388928357165,-0.33761375906991276,-1.3318710083780814,-0.39906709872581186,0.4195608507367641,283.3557721371892,-42.72568791971883,-13.25742018819237,5.777344436747538,-11.000789666511807
GUIDED_NOGPS,5.166101455688477,20.0721857188662,283.9593226082696,-42.47472683080927,-12.740376716584848,5.215823987994625,253.56792171556884,-33.32285645930657,-40.54687394842542,0.09577323270703614,-1.1239099758031255,3.2414218708765805,-0.3326092741348278,-1.297571082990548,-0.3651076791596238,0.4165805083044783,281.7817727134669,-43.94430390770638,-12.353881312291085,5.0009309175772225,-12.83425461093044
GUIDED_NOGPS,5.205743789672852,25.23177987258694,282.85512884958814,-44.244611262572256,-12.720892547483624,4.615468952961842,253.22277126152005,-33.388361372014366,-41.068708199108706,0.1369439188167937,-1.324533976067556,2.7550767569219414,-0.47909475490274234,-1.2411037251562496,-0.32308282670732896,0.41495655304512474,280.1724181339091,-46.06384196029155,-12.551376141967484,3.9925869506425067,-13.178029288008934
GUIDED_NOGPS,5.250523567199707,22.336265843007777,281.7216890523772,-45.959425878052095,-12.976570554798812,4.1197842574781065,252.89793724013504,-33.45001049912906,-41.593103910624436,0.15111824221143624,-1.353357801251833,2.09119987195645,-0.5207112995734468,-1.2147611138721062,-0.2883848980234675,0.4141503999325231,279.01493681206944,-47.87013176615835,-14.02445421013793,3.2859642413645584,-13.235325067522018
GUIDED_NOGPS,5.28718113899231,27.286592545848432,280.54618945240145,-47.41451019276729,-13.345245671610924,3.555092416954459,252.59320303101032,-33.5078449522889,-42.119970344835465,0.1146631213726981,-1.6209544743708835,1.7003873332623103,-0.5824323894692214,-1.1578631366774808,-0.24885646918681217,0.4136758259803264,278.4060474653737,-48.30955685185193,-13.45990666272742,2.8049195316125544,-12.891550390443523
GUIDED_NOGPS,5.329547166824341,23.611125809920008,279.3108489025951,-48.31568232324859,-14.114159648296217,3.095520712267603,252.30831310460434,-33.56191322756319,-42.64921608043987,-0.08380906247827455,-1.4932955707407005,1.0654883796242445,-0.5440167959216976,-1.126596443089672,-0.21668644985873226,0.41439483070356903,277.17906938815764,-48.76735835173544,-14.858118072023373,2.3244040299725794,-13.120733508495853
GUIDED_NOGPS,5.367532253265381,26.332071444266568,278.0563608637646,-48.98717206127051,-15.700218527051142,2.5630091639007504,252.04297223619386,-33.61227135463252,-43.180749039761544,-0.1855942223566706,-1.621417112965446,0.598993556305808,-0.5549983869593067,-1.0734457125963857,-0.17941064147305255,0.4175584084618688,275.5093325193145,-49.88460098022413,-18.782630846402704,1.7059096235461972,-12.719663051904275
GUIDED_NOGPS,5.410803318023682,23.11433436754308,276.9003107407154,-49.58265405497599,-16.309915022822942,2.081998302816576,251.7968447198316,-33.65898304596934,-43.71447651554115,-0.370665081468189,-1.667671794355007,-0.03072371167102474,-0.5629276095314154,-1.0582341741524288,-0.14573988119716033,0.41778631552184536,274.3921675186631,-50.09600283296836,-15.28899615004282,0.8860360856289244,-13.178029288008934
GUIDED_NOGPS,5.447736024856567,27.08693799000297,275.7273332257083,-49.90006624994004,-17.324222412008144,1.535468240548156,251.56955358230232,-33.70211984601833,-44.25030519772672,-0.5655826721244857,-1.3206732116392064,-0.5119414079518203,-0.5536016997838863,-1.0025593838542368,-0.10748277683837092,0.41922175164284425,273.1500492370343,-49.71959493662761,-17.90104023957898,0.5859707362697595,-12.719663051904275
GUIDED_NOGPS,5.487101078033447,25.407551444442426,274.4089603646139,-51.07361678187011,-17.392300850624004,1.0960119287046972,251.36067979708002,-33.74176128037667,-44.7881412002646,-0.7769165157292023,-1.239997365040543,-0.9957054040912819,-0.6844991139029504,-0.9497098156897381,-0.07672083500932882,0.4178124789510782,271.81418315990146,-53.40525257601433,-18.986866162250287,-0.5547210368751343,-11.3445643435903
GUIDED_NOGPS,5.525374412536621,26.15571311868994,273.2705345609169,-51.38591140238091,-18.049392145226975,0.6797570901622325,251.16976149828474,-33.77799500497476,-45.32789008789015,-0.9812801512859208,-1.075138156261003,-1.3563313881400216,-0.610400637441831,-0.9257959327371679,-0.04758299631135628,0.4181645061720105,271.4869403696724,-51.03288669450078,-17.26027003385173,-0.4849554438134397,-9.11002894258009
GUIDED_NOGPS,5.5671117305755615,23.96416491452601,272.2348175332482,-51.54576516456006,-17.976135588395078,0.3520544640422847,250.99629319463867,-33.810916955256424,-45.869456902918486,-1.2282331112471365,-0.8825589449000837,-1.6601145102035053,-0.5995357889944052,-0.9085006356335213,-0.02464381248295993,0.41632003605642975,270.330747380971,-50.199156223165026,-17.681270569083274,-0.7059942338842927,-6.703606203030632
GUIDED_NOGPS,5.6095871925354,23.548159626310945,271.16192304830685,-50.18589374969585,-18.024486641754045,0.07274126837857146,250.83972498342428,-33.840631495359496,-46.412746192035385,-1.2902236947107606,-0.8218145507948695,-1.7674530674443714,-0.40005400774305844,-0.8681516458204261,-0.005091888786500003,0.41483522134915596,269.0276950939564,-49.32563833142171,-19.13191932232719,-0.8775192757100876,-4.640958140559668
GUIDED_NOGPS,5.637842893600464,35.39975017723912,270.0510129834346,-49.20296120928408,-19.238544494756752,-0.10327644919657483,250.69946176444006,-33.86725156729593,-46.95766203308791,-1.3394123692356654,-0.6700202132370946,-1.8809600325576994,-0.3523297243844627,-0.7824089189399169,0.007229351443760239,0.41684264738500654,267.59549891267307,-48.084089073265446,-20.902443592859843,-0.9216278652094838,-1.8334649444186344
GUIDED_NOGPS,5.685173988342285,21.132230613818088,268.91095752558647,-48.15034712789978,-20.75461716235723,-0.14550423854657324,250.5748624539575,-33.89089884013263,-47.50410806187533,-1.329516278901963,-0.7257005556812732,-1.9149109819311285,-0.35883383113507283,-0.7912933674190397,0.010185296698260128,0.4197515273014457,266.1139058706609,-47.04131397901214,-22.22948857188472,-0.9449234971387663,0.11459155902616465
GUIDED_NOGPS,5.727802038192749,23.463718903315673,267.27391363978404,-46.55712299425338,-22.15153176177783,-0.17800519592914615,250.46523919867843,-33.91170385917163,-48.05198749893977,-1.299903887033667,-0.38288012774681635,-1.8347444113124542,-0.23504588163006943,-0.674095761102126,0.012460363715040232,0.42229863278851415,263.30172094066,-44.54596593048255,-23.32266312058898,-0.6756976383421704,1.8334649444186344
GUIDED_NOGPS,5.774080038070679,21.613439142533238,265.584557066894,-45.04290206246882,-23.354952423628152,-0.12303161624353004,250.3698565896908,-33.929806195130546,-48.60120317635713,-1.1566374675414761,-0.5931069470974619,-1.735613607019828,-0.1922213441043647,-0.6155320173382203,0.008612213137047103,0.42426124774181306,261.8839645165205,-43.54142627791177,-24.512705578410817,-0.49079974601965803,3.0366763141933633
GUIDED_NOGPS,5.813183069229126,25.58188782356242,263.8958534185641,-43.95473878106197,-24.359085580864,-0.01691781171378068,250.2879308764268,-33.945354593323096,-49.15165756452768,-0.9758722422888574,-0.31756857824268503,-1.6248461880939098,-0.16925168222521864,-0.5267380864610911,0.0011842468199646475,0.4256222840490089,260.58417685230705,-43.776824134791575,-25.241888043592258,-0.5232164623198775,3.666929888837269
GUIDED_NOGPS,5.858402967453003,22.11590764087719,262.05191452950567,-43.1331737086791,-25.341523533787395,0.15273617829672653,250.21862918061868,-33.958507122839315,-49.70325279896707,-0.6935354339715378,-0.11646390341541461,-1.2884679092072442,-0.17498299409487744,-0.46328839778195674,-0.010691532480770859,0.426914812204461,258.375804467381,-42.08127071333397,-26.269976979359175,-0.0410880993446894,6.245239966925974
GUIDED_NOGPS,5.899172782897949,24.53139311135416,260.3641478159745,-42.548878260051225,-25.36451582583072,0.40984908339989934,250.1610687102558,-33.96943132572621,-50.25589070709686,-0.511971823637968,-0.049729540129805024,-0.9578029768395887,-0.1667482213014237,-0.39507585874356194,-0.028689435837992956,0.4253258753562016,257.67507230300504,-41.788539932028144,-24.58168245454078,0.11100409350296529,7.906817572805361
GUIDED_NOGPS,5.937085866928101,26.380763691026537,258.8727934184331,-41.49649625592901,-25.11188685491979,0.6990736579019118,250.1143159735418,-33.978304366168096,-50.80947283503561,-0.5169340094308352,-0.13893650644522593,-0.6337228270795014,-0.07103649010484332,-0.3451878468733264,-0.04893515605313383,0.4229072420596525,255.84494895295313,-40.61967812242494,-24.484001130859465,0.6789247913820248,8.193296470370772
GUIDED_NOGPS,5.980609655380249,22.98135434416933,257.66499030571964,-41.009298725626,-24.516561572086555,0.9766099423456374,250.0773859928505,-33.98531317966694,-51.36390047438924,-0.612307996236543,-0.10697314212027033,-0.2942800610917481,-0.11796031545825926,-0.3431269402231331,-0.06836269596419463,0.4194579832930919,255.84494895295313,-40.61967812242494,-24.484001130859465,0.6789247913820248,7.792226013779196
GUIDED_NOGPS,6.024828672409058,22.61726531030429,256.26048435868444,-40.427891154105495,-24.5522609654154,1.30355665920508,250.04924151868408,-33.990654622222955,-51.919074689042255,-0.48997994853184923,-0.094541770944024,0.04958505895049678,-0.0873629091228462,-0.27202821404147187,-0.09124896614435561,0.41789955882911944,253.5616471171311,-40.04431721746662,-24.68878063452732,1.3023573868382226,8.078704911344607
GUIDED_NOGPS,6.064602851867676,25.14631046308065,255.02161672419794,-40.314585963282305,-25.01556741579235,1.6435486206468815,250.0287922436288,-33.99453561951477,-52.47489634194818,-0.3403591585948722,-0.06567952594566574,0.22380740987538622,-0.12409845708769021,-0.22505911971616463,-0.11504840344528171,0.4176220132215325,252.18146629494845,-40.27976254995538,-25.873920481990332,1.5090832257910358,7.964113352318443
