Mode,Time,Freq,North-Vision,East-Vision,Down-Vision,Yaw-Vision,North-Desired,East-Desired,Down-Desired,Roll-UAV,Pitch-UAV,Yaw-UAV,Roll-Control,Pitch-Control,Yaw-Control,Thrust-Control,northVraw,eastVraw,downVraw,N-Velocity,E-Velocity,D-Velocity,N-Acceleration,E-Acceleration,D-Acceleration,yawVraw,yawRate,Landing-State,Q-Size
GUIDED_NOGPS,0.0053157806396484375,188.76255625562555,-14.807350593218526,15.221963457068886,73.474362601952,3.0787916072332897,-15.075505998134721,15.55158177053861,73.10986392271215,0.2023877898958808,0.32392663058632065,72.70978160175191,3.7956513493996398,3.906728092476957,10.0,0.4992708750049684,-15.312059943394427,14.143793206799552,74.0196042565228,12.347006052732468,-11.129174381494522,8.33609327673912,76.2292206287384,-33.14027786254883,70.24883031845093,2.625240768179901,0.7298046455988046,False,2
GUIDED_NOGPS,0.028212308883666992,43.67428880836353,-14.008220908402,14.284367720858839,74.8628401638587,3.0298066114460718,-14.653782150829375,15.184530739931176,73.40528060712322,0.067172669331254,0.32000487470311684,72.7554072654076,1.9505732397442046,1.1346012176084688,0.9714200106607778,0.4970820540759094,-15.312059943394427,14.143793206799552,74.0196042565228,11.893919855356216,-11.647097021341324,7.168258726596832,19.945557415485382,-18.323327600955963,41.431957483291626,2.625240768179901,0.25234795563187956,False,2
GUIDED_NOGPS,0.05151176452636719,42.94362649738917,-13.803708805816573,14.124105184855559,74.91091051892033,3.0216124373622315,-14.210700534677805,14.784001397740711,73.72145204599776,0.12518050545682025,0.33441209154020096,72.84796315885045,-0.8022161513477257,-0.6524340244344986,1.6659962220297035,0.4976161341130249,-12.981885220158652,14.034152926035336,74.87624899607862,11.893919855356216,-11.647097021341324,7.168258726596832,19.945557415485382,-18.323327600955963,41.431957483291626,2.731289559857863,0.25234795563187956,False,2
GUIDED_NOGPS,0.05752992630004883,166.07816274005148,-13.708812872123724,14.00622150457558,74.95023964872055,3.0094397025632307,-13.748156258085233,14.353072114010333,74.05675510157847,0.12518050545682025,0.33441209154020096,72.84796315885045,-3.392106666870743,-3.3293709138426935,1.110383798954091,0.4982075813938766,-12.892302255045506,14.216722895306958,74.78540530023358,6.559595465660095,-11.294754594564438,7.97882080078125,-25.9303480386734,-20.42476236820221,72.78014421463013,2.7045032465891596,0.024686171290277257,False,1
GUIDED_NOGPS,0.0733790397644043,63.13109967187453,-13.649681785109156,13.939916979467332,74.9224042815085,2.9369949675650235,-13.267987870962887,13.894726027310154,74.40960421888562,0.12518050545682025,0.33441209154020096,72.84796315885045,-1.9077275229989223,-1.7352839178611192,-0.07859688731456216,0.4989683045604222,-12.892302255045506,14.216722895306958,74.78540530023358,7.412835210561752,-11.767437309026718,7.725001871585846,-33.466359972953796,-32.35122561454773,116.1874771118164,2.7045032465891596,-4.518801928461661,False,0
GUIDED_NOGPS,0.09334588050842285,50.093204347306816,-13.597214007367363,13.778130340427705,74.98744567499061,2.8699236187884893,-12.771978037435296,13.411852204197835,74.77845109273898,0.12518050545682025,0.33441209154020096,72.84796315885045,-1.2252298736853924,-1.4573914720182741,0.3829680983364212,0.4995755805202549,-13.100225706529127,13.452826604899311,74.91168554296337,3.161291778087616,-11.830170452594757,6.415820121765137,-63.96514177322388,-31.28410279750824,30.269277095794678,2.6346229000128485,-4.232576021103107,False,0
GUIDED_NOGPS,0.1224067211151123,34.414237304823715,-13.390344929556202,13.558177554623953,75.1514645160005,2.799742641952498,-12.261854208547584,12.907246798679125,75.1617843347799,0.2511757244155761,0.7134131520861261,73.10789966809362,-0.7716741587998907,-0.7533710532399186,0.7164353872690774,0.5000142333786939,-12.108417994117687,12.862352467324804,75.28440333852079,9.499479830265045,-11.926079541444778,8.735276758670807,-22.299428284168243,-34.49655473232269,51.13422870635986,2.6548664833948092,-4.597732448283975,False,0
GUIDED_NOGPS,0.1579570770263672,28.13250967529898,-13.061450532492199,13.247069775276616,75.44141146126205,2.7236223221343145,-11.739289294972759,12.383614211668409,75.5581291404932,0.1801582989118396,0.7446534768544123,73.27243209501006,-0.4915232560300398,-0.45658027581892585,0.777918500436739,0.5002273611348227,-10.56443510858079,12.434171579092771,76.02283186520424,9.499479830265045,-11.926079541444778,8.735276758670807,-22.299428284168243,-34.49655473232269,51.13422870635986,2.703598991244037,-4.597732448283975,False,0
GUIDED_NOGPS,0.18966102600097656,31.547980443775856,-12.721240205829172,12.891191090571905,75.74323706581006,2.6608146076312233,-11.205902339719007,11.843568250449259,75.9660469562292,-0.18993411388312614,0.6446955793419799,73.46724958070634,-0.4853633350517912,-0.511700607343366,0.8006978416516314,0.5004401082851045,-10.56443510858079,12.434171579092771,76.02283186520424,7.675713300704956,-11.875922977924347,5.721496045589447,-48.3881413936615,-8.50495994091034,-37.279269099235535,2.703598991244037,-2.9869416155631874,False,0
GUIDED_NOGPS,0.2234501838684082,29.60197614510551,-12.498773862746178,12.564305151119248,76.03775466151538,2.5735463179861444,-10.663259190836989,11.289633288134988,76.38413514622577,-0.5148890081046511,0.36859382660238266,73.61908468595571,-0.5565981838940726,-0.7423630157960596,0.5094659399107742,0.5006881843656404,-10.911586652111708,12.106946889609093,75.9634388689237,2.9679477214813232,-11.997342854738235,9.600396454334259,-34.09595787525177,-38.439783453941345,36.122241616249084,2.550079090952001,-4.705533323954286,False,0
GUIDED_NOGPS,0.25713491439819336,29.68767208612623,-12.28138734619481,12.229777232500615,76.3403882455139,2.475227231669483,-10.112873174127127,10.724245423129183,76.81102665963017,-0.7913584171206653,0.1082020959231966,73.82862122931337,-0.5741271870654793,-0.791909558455257,0.31913374614869605,0.5009379701424204,-11.083882229509728,12.135668229201544,75.96119734509023,2.9679477214813232,-11.997342854738235,9.600396454334259,-34.09595787525177,-38.439783453941345,36.122241616249084,2.3537231168227635,-4.705533323954286,False,0
GUIDED_NOGPS,0.290233850479126,30.21549854840685,-12.071047829519989,11.915688724050275,76.60925846851246,2.3583093824990913,-9.556205765846904,10.149753638586258,77.24538969752113,-0.9625586027709159,-0.12635753914988385,73.98878916535017,-0.6631167197275996,-0.8554189939739316,0.00714673522102216,0.5012706463087093,-11.083882229509728,12.135668229201544,75.96119734509023,3.520313650369644,-11.481442302465439,8.392628282308578,-18.886597454547882,-49.542754888534546,87.71082162857056,2.3537231168227635,-6.077040431934724,False,0
GUIDED_NOGPS,0.32660889625549316,27.49822330033436,-11.82009728470151,11.570433464265795,76.9151782346274,2.247047682387535,-8.994667265418148,9.56842096187201,77.68592737993086,-1.0303169608234986,-0.32638261720146916,74.08878996498832,-0.570786102893017,-0.7631710979861256,0.12241985234110975,0.5015421207902828,-10.503664498481104,12.122884340462686,76.35556761490949,5.597381666302681,-14.478699862957,10.928952693939209,9.026841074228287,-62.35900521278381,60.58563590049744,2.144838676459507,-5.118960405546926,False,0
GUIDED_NOGPS,0.3607957363128662,29.254285993276326,-11.560302099259456,11.131594389432243,77.27082722530179,2.0974451915443177,-8.429617468134332,8.982425624024149,78.13137741286695,-1.0727362775506857,-0.7692448259091028,74.3959640625313,-0.4047795017188508,-0.8085289027757033,-0.511133690949731,0.5017240509108447,-9.58825234411916,10.804112523040295,76.84872705561027,2.9596302658319473,-15.826332569122314,11.700347065925598,126.02440118789673,-41.22583866119385,115.78624248504639,2.1098990982018266,-7.2759486595889395,False,0
GUIDED_NOGPS,0.40566158294677734,22.289971833979912,-11.333240611636496,10.731268818248356,77.5808489259793,1.9552394796387316,-7.862366337867866,8.393862219212867,78.58051175533443,-0.9934955177296655,-0.9462762855632517,74.60132053011691,-0.400995256572277,-0.7440885924467695,-0.08338218994293278,0.5020058965324843,-10.323190256061576,10.930433422307788,76.02955880147636,5.176208913326263,-16.508154571056366,14.073127508163452,89.13791179656982,-30.092594027519226,89.38896656036377,1.7648619555320817,-6.352933116852695,False,0
GUIDED_NOGPS,0.42678356170654297,47.35741303194192,-11.00432789546699,10.264444041841418,77.95883219304014,1.78959513167896,-7.2941746797773845,7.804742864201362,79.0321362863577,-0.8612915500936623,-1.0357449335012487,74.80717560151193,-0.5328819893489175,-0.998481741983536,-2.0782022319752222,0.5021549840254017,-8.984712852089995,9.331172815194869,77.84886722186909,9.321580082178116,-17.78857260942459,14.821630716323853,66.6270911693573,-63.568514585494995,162.6338005065918,1.6770682084838495,-7.960630727653113,False,0
GUIDED_NOGPS,0.4656956195831299,25.701652041766753,-10.768927045194795,9.896321422755893,78.25025404200267,1.6891738366802678,-6.726254813015052,7.216998357806412,79.48509047200254,-0.7338276270199421,-1.2154753850946105,75.08056758342002,-0.5325684156460122,-0.8527053076858296,-0.015984773775833183,0.5024819031582672,-9.584714922116468,8.538442047142517,78.36488029417204,11.098556965589523,-18.747010827064514,17.130911350250244,69.56737041473389,-34.99932885169983,123.80342483520508,1.2408272910071139,-4.9112509377922535,False,0
GUIDED_NOGPS,0.4973456859588623,31.605033531760984,-10.428550218104153,9.366787439173844,78.68508972312809,1.5212949424474052,-6.159771243433834,6.632479340358898,79.93824703239814,-0.5773161900666272,-1.1444766358893859,75.26656729489781,-0.23291119271571603,-0.7960495238482213,-1.2945258537774018,0.5025215948459651,-9.404698607947708,8.536260534493028,78.6936806655552,11.503955721855164,-19.9294313788414,16.210459172725677,33.78985822200775,-53.49711775779724,50.675779581069946,0.9665673321767883,-6.162974030090416,False,0
GUIDED_NOGPS,0.5306763648986816,30.016774969226805,-10.186609940395268,8.900249691398303,79.09614040197053,1.3512707392818195,-5.5958413362948125,6.05295745316436,80.39051160875898,-0.5115242861647735,-1.1023162260204242,75.42133255130113,-0.3579707053769692,-0.9476756600805372,-1.1931524563500604,0.502607536952841,-9.47090738918776,8.268530676502541,78.20154438711467,8.132389932870865,-19.829434156417847,20.743761956691742,13.782769441604614,-55.0761342048645,137.31794357299805,0.7213749733039145,-6.98442594052904,False,0
GUIDED_NOGPS,0.5702462196350098,25.265826139861574,-10.001242198940604,8.398241955767569,79.48155757839524,1.196900203920139,-5.035535988974466,5.480126497963553,80.84082243040692,-0.5445631918405945,-1.1577169575954556,75.53928308807808,-0.2375447036330947,-0.9648177930501468,-0.817666688688656,0.5027416962607343,-11.103871598649482,8.263391876056865,78.15437830448994,7.864052802324295,-20.642317831516266,17.44857281446457,-7.3709651827812195,-37.42063641548157,25.106006860733032,0.4623720043938045,-4.770581911175372,False,0
GUIDED_NOGPS,0.5989594459533691,34.834097402165966,-9.785255876068412,7.8583914744552015,79.95245573671784,1.0509402538001484,-4.479880303671965,4.915603596392986,81.28814998179313,-0.5445631918405945,-1.1577169575954556,75.53928308807808,-0.1655667500576098,-1.140683051155547,-1.4030033167341935,0.5026976228829612,-9.741811899852781,8.195128098058303,79.04004748809021,5.199088901281357,-21.282772719860077,19.115525484085083,-7.481697201728821,-42.900994420051575,51.31492018699646,0.2671030994451988,-3.2443947107128284,False,0
GUIDED_NOGPS,0.6302030086517334,32.011723043106606,-9.631237913253143,7.450518262453379,80.2448156236938,0.936457958032765,-3.9298542601164677,4.360930349445464,81.73149666952006,-0.4410285697197497,-1.1420192618920622,75.79859805010679,-0.48002222132237066,-1.2293068282510065,-0.9060632916151353,0.50300330669351,-9.715493387909946,7.817129399391147,79.22349992058216,6.528104096651077,-21.06497436761856,15.650853514671326,-51.93365216255188,-31.886038184165955,-28.26521396636963,0.16293765796891913,-3.5558016045505156,False,0
GUIDED_NOGPS,0.6642065048217773,29.412452753448385,-9.299047055571313,6.897011137630061,80.61595956047532,0.806528178001067,-3.3863933882744064,3.8175739969306495,82.1698964893635,-0.34638893497152407,-1.0947906382155397,76.00543666874228,-0.08738460055353398,-0.850279341726659,-1.0413886878088663,0.5031420542572931,-8.410962152543185,5.708872871845833,79.98633748695028,13.134795427322388,-21.63591980934143,15.509842336177826,-24.092887341976166,-46.22944891452789,10.659720003604889,0.045973635974679586,-3.40543434964245,False,0
GUIDED_NOGPS,0.7014577388763428,26.847669402020152,-8.887765762180758,6.237645694717104,81.08873681299058,0.6743737541042716,-2.8503894410567856,3.2869285769355994,82.60241469329446,-0.3553326941636855,-1.1624790935508353,76.13889173493516,0.167437331007467,-0.687004825547721,-1.0192209774222922,0.5030660319123097,-6.07583617481375,3.780258172820324,82.49191412564466,11.496397107839584,-22.491595149040222,14.49810266494751,11.85721606016159,-43.893590569496155,-55.09481430053711,-0.29363207878286335,-2.4058233580063906,False,0
GUIDED_NOGPS,0.733121395111084,31.586230787188697,-8.552793770459985,5.567821537554977,81.56312430824788,0.5314902058250337,-2.3226910670264793,2.7703160852853195,83.02814745650129,-0.29264180286672353,-1.2625928047537087,76.20165434321841,0.2822789667512576,-0.8648948929174334,-1.4816753378240937,0.5029724426526926,-7.340573656465274,4.468359967286445,82.4960150167434,8.617045730352402,-22.691531479358673,12.588940560817719,45.14039754867554,-50.40256381034851,54.233455657958984,-0.30819298575846044,-2.5985589166662795,False,0
GUIDED_NOGPS,0.7676732540130615,28.94899438178982,-8.255359836824605,4.968279754616451,81.9319751126059,0.394534326510206,-1.8041044831054993,2.268987635003299,83.4462215444115,-0.24686913006132438,-1.2807948320049696,76.263747592963,0.12587015235246218,-0.9048565153043359,-1.35024681143067,0.5030750709808208,-8.086726692284198,3.9857550401661017,81.7205409346532,11.85469925403595,-23.244373500347137,13.469259440898895,18.695981800556183,-29.056254029273987,-135.03984212875366,-0.4977856984017476,-3.3507616735442602,False,0
GUIDED_NOGPS,0.800309419631958,30.643093018498494,-7.917585343805315,4.335522649760346,82.38974389469095,0.28885081683720504,-1.2953941472823356,1.7841246157720771,83.8557939797139,-0.06261271764747713,-1.2878649315695792,76.32537638984402,0.26427690012342187,-0.847945927540848,-1.1202911364413068,0.5029825109928467,-7.675307309369887,4.049256986301757,83.19757996166061,12.859998643398285,-24.632924795150757,14.494764804840088,-68.14899444580078,-53.03306579589844,-10.828330367803574,-0.6879165227878807,-0.5618123009809329,False,0
GUIDED_NOGPS,0.8342339992523193,29.48212503338816,-7.486032793090218,3.727856811703549,82.80850831332107,0.16114616608801405,-0.7972834313191921,1.3168398533937768,84.25605170938047,-0.02420117449835346,-1.3408610096699427,76.35816812804924,0.2374681710996815,-0.6586093307157955,-1.4136668217095163,0.5029494142164057,-5.61856185888468,3.5687523986452216,83.30199044939518,14.996671676635742,-24.481606483459473,14.036355912685394,67.94984340667725,-33.058544993400574,-115.6733512878418,-0.8476873151484623,-2.3439721530905167,False,0
GUIDED_NOGPS,0.8671514987945557,30.380298420976388,-7.05518070110379,3.115019748630163,83.27424626827673,0.035282097786985094,-0.310455293459329,0.8681787692506564,84.64621127168843,0.14657649991870833,-1.3402213197654886,76.38973043220388,0.3080078688696005,-0.6475737629425938,-1.5024637246134842,0.5028018841543181,-5.566871358565065,3.3893509631033325,84.50927481199265,14.996671676635742,-24.481606483459473,14.036355912685394,67.94984340667725,-33.058544993400574,-115.6733512878418,-0.849399739673178,-2.3439721530905167,False,0
GUIDED_NOGPS,0.9035642147064209,27.467789572950707,-6.57697346757617,2.482010742945711,83.79122538275972,-0.029531639180309183,0.16444704886568395,0.4391205397656499,85.02551846324216,0.10248378684486789,-1.3566985108079097,76.41819866066449,0.36654770295786887,-0.541085375337133,-0.7304324512494215,0.5025301321764708,-5.026707187354773,2.381617985823419,85.32251983552311,17.655208706855774,-24.662382900714874,16.638028621673584,94.60175037384033,-21.212537586688995,45.533591508865356,-0.9313802119064312,1.521089318020775,False,0
GUIDED_NOGPS,0.935060977935791,31.7550631042602,-6.099027845122748,1.8263790162900653,84.29261135302838,-0.1369193864681789,0.6268194463286445,0.030579255862926757,85.39324800599526,0.21011935059292366,-1.3241089035134286,76.42438681205252,0.5571822783303154,-0.5170649240016948,-1.4517097743518914,0.5022655809687085,-5.026707187354773,2.381617985823419,85.32251983552311,16.924577951431274,-24.865148961544037,14.72785621881485,75.33867955207825,-40.58810770511627,-21.41558527946472,-0.9313802119064312,-1.2063420347921283,False,0
GUIDED_NOGPS,0.9698941707611084,28.709232285620413,-5.6685261819567145,1.2432314787496064,84.75753823687985,-0.19872098041769537,1.0760961449994344,-0.35659491757155415,85.74870321427242,0.2545102441127175,-1.2519012108251117,76.418219151232,0.3825858945456923,-0.5810602237676769,-0.826565906236067,0.5020494088406385,-5.6389359308337825,1.861927254344621,85.52401302944132,19.068127870559692,-24.673263728618622,16.577807068824768,70.17075419425964,-24.16115254163742,25.84088146686554,-0.8504811866515276,0.39990309359260373,False,0
GUIDED_NOGPS,1.0025882720947266,30.59101882443895,-5.140205885601468,0.5980358503700238,85.25120138304959,-0.2761836653961482,1.5117491136377428,-0.7216145822295363,86.09121566179154,0.32546331642786774,-1.2536546484511009,76.35027242936872,0.630550182276404,-0.3736093361616395,-1.1128291406395987,0.5017493059342294,-3.074163016369119,1.732737193648064,87.1513786650568,16.415129601955414,-25.068220496177673,11.524443328380585,7.648536562919617,-28.957101702690125,-97.35110998153687,-1.0434191965765203,0.3658189555303592,False,0
GUIDED_NOGPS,1.0379903316497803,28.250939609068745,-4.739057821172507,-0.12768915254616292,85.72658154008815,-0.31886666999479285,1.933287370985754,-1.063753946919869,86.42014484868561,0.38716062864400447,-1.1746479293308594,76.29983831253735,0.8263231455551382,-0.5817950651223479,-0.67368648612716,0.5014583678694161,-5.186398260249749,-2.029649282988254,87.24661884752732,17.241819202899933,-25.2117782831192,14.293400943279266,-12.517762184143066,-25.55975317955017,7.338761538267136,-1.0510174217795005,1.7312634168487646,False,0
GUIDED_NOGPS,1.0698082447052002,31.433076531071077,-4.34044527137129,-0.9363604242458565,86.18740684772615,-0.37828832398895207,2.340256313060854,-1.3823476681079843,86.73487786852473,0.4461397390138877,-1.122194210939277,76.28206616031697,1.2122633637945242,-0.5675103188555404,-0.9749752484148391,0.5011675750172639,-4.581929443227846,-3.300402501528712,87.56357864311772,14.003869891166687,-25.03768503665924,10.974279791116714,-9.130357950925827,-27.223554253578186,-31.899571418762207,-1.0164747722116858,0.7467057352565896,False,0
GUIDED_NOGPS,1.1044678688049316,28.85519101247274,-3.863352004112729,-1.6679716374465179,86.63327045946079,-0.42003947155148197,2.7322370404483554,-1.676789690455367,87.03482907533814,0.4461397390138877,-1.122194210939277,76.28206616031697,1.003841449138585,-0.3976827388408581,-0.7329227896771288,0.5008768658199259,-1.4162640377571583,-3.7074531962355133,88.8293335272403,14.003869891166687,-25.03768503665924,10.974279791116714,-9.130357950925827,-27.223554253578186,-31.899571418762207,-0.9143372562843213,0.7467057352565896,False,0
GUIDED_NOGPS,1.138089656829834,29.74725882636633,-3.2099250821006957,-2.396464617451947,87.17479582485569,-0.4310204054462389,3.1088456855941846,-1.9465320873589693,87.31943975063612,0.6209619526366549,-0.9420705965818164,76.1235101489243,1.1109374299219787,-0.02929138233749218,-0.38944126237343213,0.5003634249346756,-1.2257999196508598,-3.771642687301463,89.07497278113652,24.610914289951324,-23.76801073551178,16.037343442440033,89.13204669952393,-15.578339993953705,84.35405492782593,-0.8865171612583598,2.7601870190815805,False,0
GUIDED_NOGPS,1.1712989807128906,30.12045873997314,-2.665346655254999,-3.0830106703934277,87.6294515342296,-0.4405064386876152,3.4697327400975997,-2.19108390149068,87.58817777043207,0.8031008996860924,-0.893154275850066,75.99221342250914,1.100931018253704,-0.177372441156681,-0.37875854043209484,0.4999914800905528,-1.1502824243284329,-3.7571335146767373,89.52469053437504,19.144141674041748,-24.047653377056122,11.254847794771194,-6.477346271276474,-16.137899458408356,-4.8026736825704575,-0.8983711690002407,2.504216715312067,False,0
GUIDED_NOGPS,1.206453800201416,28.447531199131852,-2.2233213146429667,-3.754995189069587,88.05407637309577,-0.39991877894297617,3.8145823820039073,-2.410009985336787,87.8405372722644,0.974698516968673,-0.8119066143518255,75.8379057887802,1.0862215603671808,-0.3351398998395202,0.22353716459647466,0.4996463510290031,-2.4136086931843366,-3.9676281315181727,89.93909467474649,17.1052023768425,-24.246840178966522,9.467601031064987,-0.5800247192382812,-14.220675826072693,-41.470980644226074,-0.7971123668833779,5.296113741389077,False,0
GUIDED_NOGPS,1.2392663955688477,30.478980910233773,-1.7729313903553412,-4.479262709921204,88.4690025963327,-0.3525315056341448,4.14311180309714,-2.6029298417374083,88.07603832221857,1.1351454235443847,-0.7214522847392311,75.71651283666156,1.360510022721336,-0.2716316729915101,0.3624204415226675,0.4992864624400171,-2.2150136943301217,-5.2221558647153685,89.79149961249993,17.1052023768425,-24.246840178966522,9.467601031064987,-0.5800247192382812,-14.220675826072693,-41.470980644226074,-0.6697103053184787,5.296113741389077,False,0
GUIDED_NOGPS,1.272536039352417,30.06238532110092,-1.2245807926968613,-5.203890573934224,88.80966697214335,-0.2774072889583965,4.455070536192791,-2.7695164644259957,88.29422658194909,1.2316843844904029,-0.66953612357967,75.5910490917976,1.4423494805652886,-0.045721898677172024,0.7390040924902567,0.49904014170835137,0.5634821339926505,-6.827286594430587,90.64263624975598,17.84888207912445,-23.092129826545715,4.512324929237366,-46.03422284126282,0.8360633626580238,-81.5523624420166,-0.6056717044289912,6.666063139351929,False,0
GUIDED_NOGPS,1.31510591506958,23.49500053215624,-0.6692050028362553,-5.953722690034819,89.15420088820379,-0.19051321313163933,4.750239782430514,-2.909495178568692,88.49467297570145,1.2106527379320526,-0.5732566031004066,75.47344006447916,1.268751507665516,-0.08285134981773296,0.7030139455881651,0.4987497228840817,1.1226195713594123,-7.996291455464473,91.14082183924884,17.84888207912445,-23.092129826545715,4.512324929237366,-46.03422284126282,0.8360633626580238,-81.5523624420166,-0.37291121360609114,6.666063139351929,False,0
GUIDED_NOGPS,1.3442180156707764,34.35447910950209,-0.1448682666499864,-6.697861964428022,89.53864870455482,-0.16581943319953088,5.028431738566832,-3.022642481303892,88.67697335733418,1.3300397488688211,-0.4264176745071817,75.3777900953423,1.8749970885483738,0.07369811221709399,0.23858793644845322,0.49834341400169657,0.6853927128709251,-8.397259914360369,91.18754599903693,18.08926612138748,-23.16424548625946,8.077948540449142,-58.88581871986389,-18.975134193897247,40.207692980766296,-0.2809487333306958,2.236403076965163,False,0
GUIDED_NOGPS,1.3735179901123047,34.13388889793128,0.24252777065263723,-7.29448491734565,89.79396136579753,-0.13584842371986522,5.289488924267827,-3.1087848822816095,88.84074817734074,1.3520850381886835,-0.33950116944124226,75.18879876100804,1.5667336642885283,-0.16046372513806814,0.3293770598078093,0.4981581133709065,0.8280702801880627,-9.956676326880322,91.12014969419269,18.08926612138748,-23.16424548625946,8.077948540449142,-58.88581871986389,-18.975134193897247,40.207692980766296,-0.20792850117649747,2.236403076965163,False,0
GUIDED_NOGPS,1.407226800918579,29.670451249619774,0.7827970241457984,-7.904485036108187,90.10321331087955,-0.05591628658616672,5.5332835094018815,-3.1677977442029874,88.98564214987161,1.4578274655978822,-0.14005548353034444,75.02729210789393,1.4925636122769943,0.13121050617763202,0.9115625177007686,0.4978263728590169,1.45951204070318,-9.200308583133058,91.59830695168125,23.566852509975433,-21.664100885391235,7.541143149137497,-52.462512254714966,-4.543693363666534,26.65514349937439,-0.20136721402145485,5.723650286259672,False,0
GUIDED_NOGPS,1.4401133060455322,30.410695900581487,1.3502437099461317,-8.595534793382335,90.51140415567872,0.010702598893418784,5.759716641332345,-3.199604123359725,89.11132391975616,1.5311860451613464,0.02242351104515186,74.9062406652338,1.81884305576949,0.2560941926536372,0.8163928843380583,0.4972576697674809,1.975009051790436,-9.332734781243754,91.80394427931697,20.490679144859314,-21.798887848854065,10.872793197631836,28.574499487876892,-19.747400283813477,81.17731213569641,-0.1205086727953632,4.56269101652087,False,0
GUIDED_NOGPS,1.4739599227905273,29.549837959701282,1.8140015174282522,-9.268883537406317,90.87723173994517,0.08303092256020626,5.968717772210281,-3.2041736101735037,89.21748572952477,1.5442163385504382,0.15975529656139503,74.77682907102955,1.823151759454543,0.10817968796683407,0.9045901217334174,0.4967338440438594,1.0933337810565793,-10.159082538456545,91.81669342852345,17.982572317123413,-21.200047433376312,9.719477593898773,-0.48778699710965157,-1.3115323148667812,46.752339601516724,-0.024425171829232973,4.665953231487708,False,0
GUIDED_NOGPS,1.5096330642700195,28.034917452041977,2.3872393844584208,-9.98788769120627,91.2144320816685,0.19821533549211792,6.1602439862671385,-3.181521169735513,89.30384308643067,1.5024695820130856,0.27596541576046135,74.56192399898427,1.9372438639181133,0.334041966754882,1.4127394324715832,0.4962267150485574,3.5715560265867694,-12.10743097562755,92.24609341808198,18.66992861032486,-19.377289712429047,6.968721002340317,43.82123947143555,6.763618439435959,-12.222687155008316,0.16852553858231126,6.9719134608564,False,0
GUIDED_NOGPS,1.5415759086608887,31.31082362250573,2.9211713752213173,-10.718976233554091,91.52035185147314,0.29055891274443285,6.334279327107472,-3.131705982345819,89.37013442947206,1.4224876399454132,0.3235132440589762,74.4231618758063,2.258015269687782,0.4005119151408426,1.3311530753112288,0.4957419656438331,3.9428563986040146,-13.488151383284382,92.106093901852,16.876855492591858,-19.047018885612488,6.822626292705536,-58.680808544158936,-20.737402141094208,-2.8112221509218216,0.4721793680997203,4.599890361174875,False,0
GUIDED_NOGPS,1.5769627094268799,28.26198048622716,3.39102703515787,-11.361578227458216,91.77127633801616,0.4248197636861607,6.490834125001696,-3.0548302840528923,89.41612079641402,1.5053988793933748,0.4590622434801403,74.27056178936988,1.9584528450948506,0.2839165294918954,1.774105784651594,0.4953254290088752,3.112752110619529,-13.293340507691429,92.94559403423015,18.43472123146057,-18.620094656944275,3.3945776522159576,-47.22650349140167,-2.73069404065609,-56.03938102722168,0.8144091805055655,6.704943137428581,False,0
GUIDED_NOGPS,1.6089024543762207,31.31362872820934,3.8803992229876307,-12.081737673790412,92.03025162350747,0.567863607321477,6.629944324178682,-2.9510382071929957,89.44158549081047,1.4979437279143057,0.5620987420392503,74.15752898879533,2.4191482135955953,0.4456742810961734,2.1273249733054773,0.49485177549546794,3.339886901753803,-14.897278027740951,93.01884853614936,18.43472123146057,-18.620094656944275,3.3945776522159576,-47.22650349140167,-2.73069404065609,-56.03938102722168,1.008573210992356,6.704943137428581,False,0
GUIDED_NOGPS,1.6429991722106934,29.3322330463729,4.353956774615986,-12.801490129138637,92.22380881808826,0.6821567939267504,6.751670810118577,-2.820514620929698,89.44633374902622,1.688692341855956,0.7074713143950381,74.00798882710707,2.388617961187912,0.440873681217829,1.749758867445103,0.49446657943992317,5.868240779063207,-16.756204158592876,92.5163863856097,13.419684767723083,-17.98938661813736,2.7560023590922356,52.90607810020447,13.615621626377106,94.66459155082703,1.0404048242894581,5.025509330435988,False,0
GUIDED_NOGPS,1.6841087341308594,24.328203938400858,4.9147034426811915,-13.479021720378164,92.42003335349499,0.7760884326163057,6.856098736845473,-2.6634839717932355,89.43019240725896,1.7586618669306244,0.8273010069673881,73.89444376234478,2.0515166725939435,0.5243444304719193,1.3805933131250283,0.49403202529436535,7.018224751638966,-15.574779287966702,92.9847239406746,15.436767041683197,-17.77872145175934,1.1631361208856106,0.06705336272716522,-4.102287441492081,52.787601947784424,0.9486774528664583,3.833482945257384,False,0
GUIDED_NOGPS,1.7111005783081055,37.05411947629733,5.4402355704914225,-14.166761210564331,92.60824348663134,0.8731743112439636,6.943336854220059,-2.480209124220112,89.39300956856115,1.8167743970495622,0.7987170921777078,73.77724454637654,3.039766795847275,0.8869573528226321,1.9648249220990386,0.4935743070299624,6.479211715140346,-16.21696322364365,93.0048336885061,15.436767041683197,-17.77872145175934,1.1631361208856106,0.06705336272716522,-4.102287441492081,52.787601947784424,1.0503546157113615,3.833482945257384,False,0
GUIDED_NOGPS,1.7463397979736328,28.38246559027731,5.773453218978086,-14.66729141656248,92.74017506109462,0.9708358034637126,7.013516835232421,-2.270990201092351,89.33465426986214,1.9168236483421437,0.8377305991082917,73.69165544588711,2.1020583605705485,0.36951013870569777,1.6916713754272532,0.49318413797834143,5.73806108682232,-16.663012466345307,93.22708573051901,13.754290342330933,-16.24854952096939,2.2900352254509926,-43.119606375694275,-1.6146881505846977,-66.43221378326416,1.4465831438266472,3.9915540132189893,False,0
GUIDED_NOGPS,1.7786099910736084,30.994760683697525,6.244654087906981,-15.287154624080149,92.95703990794601,1.0840123547411087,7.0667926032946955,-2.036163424277179,89.25501614899002,1.9499861377532597,0.9181020754020665,73.5906642688193,2.6345771924320296,0.7458957067482987,2.052834013123816,0.4925815718755285,6.989403395025118,-16.950499089683003,93.64846143891398,13.455656170845032,-15.532584488391876,3.2451290637254715,-50.64500570297241,-5.524495244026184,-3.7308767437934875,1.470790158228076,4.19458565516585,False,0
GUIDED_NOGPS,1.8223867416381836,22.84404649085542,6.649553469962052,-15.879885641959218,93.1123179504872,1.2026540597829494,7.103339659533765,-1.7760999551662788,89.15400511169372,1.9772449958439575,0.8254071235765904,73.49703603567676,2.112492281440793,0.49781096775296035,1.8055711057251016,0.4920551300929659,6.2101643778773665,-17.523546843551465,93.50210773670187,13.24390172958374,-14.923743903636932,0.7335898466408253,8.56398493051529,2.2056907415390015,-54.760587215423584,1.7707990137482168,4.023112048505387,False,0
GUIDED_NOGPS,1.844987392425537,44.256784704343055,7.160423057667169,-16.715144552102004,93.31244747081557,1.3551815422674733,7.123354410084014,-1.4912047352153674,89.03155099866493,2.165244245201266,0.8911235752324566,73.49924901696784,3.9683091638818944,1.3869153433138994,3.5162541814466337,0.4914022331123094,6.1514957965027115,-19.67345798981404,93.30933590822497,11.640596389770508,-13.482339680194855,-0.3662906587123871,4.023510217666626,2.896438352763653,-50.089406967163086,2.020133094265001,4.146166871026452,False,0
GUIDED_NOGPS,1.8816752433776855,27.265129945265677,7.407338433273717,-17.072462508835663,93.35280408309143,1.4243307026038443,7.127053493380002,-1.1819153264835638,88.88760325256008,2.250400055565223,0.8359895412001732,73.42223180388677,2.0787846352090877,0.45694511079020234,1.6086741321220335,0.491020521631087,7.889137952685093,-19.091210329072943,93.57819712052174,10.89063361287117,-12.474861741065979,-0.08308760588988662,-106.54852390289307,6.180215999484062,-26.24920904636383,2.034613516767333,2.148243690913693,False,0
GUIDED_NOGPS,1.9212143421173096,25.293098873531612,7.82328035630117,-17.59839617178387,93.52865468511177,1.5045169651518573,7.114673107449159,-0.8487007521729151,88.72213058502237,2.322150765909384,0.7080539081868991,73.31437628670311,2.387967796397384,0.7540284619158466,1.7132797079220623,0.4903226594317823,8.922764086818356,-18.754432904221453,93.99016646688875,9.318849444389343,-11.557095497846603,2.6447461917996407,-10.259333997964859,11.121626943349838,-10.215303301811218,1.8692390646025498,1.7204315905987706,False,0
GUIDED_NOGPS,1.9456496238708496,40.936413589826174,8.339605500061932,-18.22221305239831,93.76412618784457,1.6092576593519015,7.086468337204531,-0.4920603371678123,88.53512064370372,2.549226594725393,0.6765315179502324,73.2722408497133,3.8805701427724255,1.5331067275399863,2.6816931660475722,0.4894674840411675,9.897332909633718,-19.221743857478984,94.71704177264999,9.318849444389343,-11.557095497846603,2.6447461917996407,-10.259333997964859,11.121626943349838,-10.215303301811218,2.214201777747469,1.7204315905987706,False,0
GUIDED_NOGPS,1.9788286685943604,30.144487566479803,8.658921108842494,-18.501730376570194,93.9463093734537,1.6778833982427928,7.042712481737423,-0.11252254857438082,88.32657967928678,2.77073005639573,0.5444976647132448,73.18919940978428,2.301051498554835,0.8386762097055659,1.8340505371507572,0.4886711188385233,9.897332909633718,-19.221743857478984,94.71704177264999,11.861881613731384,-8.967244625091553,6.995787471532822,5.765977129340172,32.897382974624634,55.37668466567993,2.214201777747469,2.0262806314427717,False,0
GUIDED_NOGPS,2.013202667236328,29.09579272311054,9.034631999644054,-18.951033049953825,94.15301702693124,1.7448469400123343,6.983696381610249,0.2893561637398907,88.0965322125069,2.878967637286099,0.51219060313482,73.18454122077034,2.719264874387923,0.9904464291470323,1.825182120483969,0.48778093318769167,9.532016291261538,-20.269306671918798,94.45260712671673,9.079180657863617,-7.49254897236824,5.610417574644089,1.8412083387374878,32.42849111557007,103.24296951293945,2.441260641961412,-0.016395869102615607,False,0
GUIDED_NOGPS,2.0471415519714355,29.467625899280577,9.411002650759693,-19.412268489414643,94.29121318114403,1.7832526181637776,6.909727746149018,0.7129925266068664,87.84502070117408,2.901368950216448,0.3349374291369101,73.12313782013192,2.8590949171973743,1.0712304338796041,1.522647594317298,0.48698401769713767,10.225421981403525,-21.65944250551281,93.81417209079544,8.236408978700638,-5.853679031133652,3.295852243900299,-19.358240067958832,27.21478044986725,-41.134750843048096,2.348300800874308,-1.4435455400433854,False,0
GUIDED_NOGPS,2.080401659011841,30.070791003792632,9.75735249263388,-19.842719271861895,94.43623139755785,1.8243551247007161,6.821130480736253,1.1577776030182445,87.57210520719507,3.0346993654569743,0.3570075846142196,73.16136638891648,2.9131209180655877,1.0989501503359813,1.5892623659792722,0.4861298984573504,10.247001607813491,-21.91199981540284,94.32848037998107,8.236408978700638,-5.853679031133652,3.295852243900299,-19.358240067958832,27.21478044986725,-41.134750843048096,2.5558254952470114,-1.4435455400433854,False,0
GUIDED_NOGPS,2.114316940307617,29.49331983236295,10.16543795550354,-20.166749323498763,94.60256502128888,1.8681034881297485,6.718244014103567,1.6230779515862128,87.27786306359518,3.100233322995954,0.3194343404640092,73.16049895489189,2.707349786128303,1.2610723927962058,1.6405866035101608,0.4851890168562122,11.588309167224498,-20.622969472273894,94.6576330740985,9.99528095126152,-4.159897938370705,4.466487467288971,104.6696662902832,33.13343822956085,103.35967540740967,2.4250868746986596,-0.6112339489895584,False,0
GUIDED_NOGPS,2.1473066806793213,30.313111602561325,10.592787898682536,-20.44277300086889,94.81583876277713,1.903420012081703,6.601422625624414,2.10823678600366,86.96238854154045,3.1565051171335736,0.3952807630717976,73.22218922347544,2.6877156259948607,1.3765939250833314,1.5665642413246919,0.48411061301645403,12.61312854453437,-20.222197842393,94.97490186193431,9.242932498455048,-3.0527397990226746,7.107052206993103,-10.297133773565292,24.332746863365173,81.32728338241577,2.219063067474368,-0.43087885525225783,False,0
GUIDED_NOGPS,2.1811740398406982,29.53423229940499,10.907908300450542,-20.705140298713783,95.05504448392915,1.9173575830611813,6.471034772606808,2.612575134505226,86.62579251735949,3.1695657194871076,0.34791729652002024,73.26592975492021,2.7100282897445247,1.2244520762854223,1.3155454695344861,0.48293624295045684,11.690493655338923,-21.151544422543722,94.66360954944324,5.789312720298767,-1.1766640469431877,10.391242802143097,15.25387316942215,41.87004864215851,115.89655876159668,2.433258378803753,-2.2462428182382124,False,0
GUIDED_NOGPS,2.214221715927124,30.259968688901875,11.221836039479536,-20.883943588016805,95.24673749726432,1.8690451617993358,6.327462417586032,3.1353929993273635,86.26820213956555,3.2177228220039287,0.4163120361041776,73.34672406261228,2.612863306338514,1.2920520165188916,0.5385967967344718,0.4818138599852852,11.954607378543377,-20.519753042531605,95.14537657849891,6.08438104391098,1.353787537664175,6.288328766822815,-32.68757462501526,27.838748693466187,54.624807834625244,2.366644600161087,-6.040966787833302,False,0
GUIDED_NOGPS,2.2475178241729736,30.037841786384405,11.46090288798872,-21.119886492963865,95.41735285028675,1.8899918056989093,6.1711003556172646,3.675970516169256,85.88976049587848,3.0976562072447438,0.41778378178775666,73.42398716250347,2.819970288341583,1.2168720072997798,1.3857710448306095,0.48069038108148804,11.00216699020964,-22.939115098602734,94.34357710198023,5.042778328061104,2.8794461861252785,7.760842889547348,58.94137620925903,35.717952251434326,85.14662384986877,2.7130663386246425,-2.1321728961268875,False,0
GUIDED_NOGPS,2.291644811630249,22.663460655215083,11.738850357715293,-21.30433584859648,95.54604281014578,1.8897550854706309,6.002355541568443,4.233569113653148,85.49062628024669,3.095013350922772,0.43818742446843595,73.4688068638371,2.3289491138088443,1.130449961975529,1.1317101945395818,0.47959918660445733,11.85415537399793,-22.639912038023205,94.954686902119,6.147248670458794,4.25846241414547,3.6142300814390182,-9.189450740814209,31.435513496398926,5.663007497787476,2.5141157533870326,-2.818249389998801,False,0
GUIDED_NOGPS,2.316093921661377,40.91165712390632,12.027245441255197,-21.397909909985355,95.67340479214393,1.8497868727904885,5.8216464174127704,4.807432672784957,85.07097345986921,3.0485411706968284,0.4680108051490619,73.57651211685902,3.181180521524664,1.7410290698199369,0.4548986063819891,0.4784844533727421,12.916967419805436,-21.400454409697446,95.2783765144076,4.711503908038139,5.7500336319208145,3.0366845428943634,10.213614255189896,30.28300106525421,85.36732792854309,2.209126923692654,-4.466638066222981,False,0
GUIDED_NOGPS,2.3533880710601807,26.819343824133103,12.145306360058836,-21.292551939060484,95.72369371705007,1.8043469463436366,5.629402239521665,5.396788686414871,84.63099094221754,3.0079899107076393,0.5197556246099909,73.66333065139906,2.07339731323452,1.0748825979564298,0.5950470361794035,0.4774708281722087,13.214470460494947,-20.24464065575092,95.5250077822136,1.266646571457386,7.426571100950241,1.9576061517000198,-52.66298055648804,20.820268988609314,-26.34296417236328,2.0003648888348176,-3.7591901238815093,False,0
GUIDED_NOGPS,2.385474681854248,31.16819499145426,12.440345888195816,-21.392873127710228,95.82379853700574,1.758801168532992,5.426062405957184,6.000849418697777,84.17088224205784,2.956069373958141,0.5600248724916523,73.93372418026152,2.804957521706091,1.5686372238003627,0.4875500799797815,0.4763204860353936,12.553895412199669,-22.43707109744495,94.7764113347877,5.379916355013847,9.153750538825989,1.9908798858523369,11.491712927818298,31.247469782829285,-33.13332796096802,2.3311762740141884,-5.1473978981562745,False,0
GUIDED_NOGPS,2.416513681411743,32.23090223079465,12.585517217028773,-21.417102016735548,95.89755416804192,1.6973520700280254,5.212075783765004,6.618813064553942,83.69086514847265,2.9984024595470573,0.6043819885915662,74.06284207633145,2.759473921672509,1.3650064371285935,0.21595720569576682,0.47518302874065566,11.935330779171705,-22.539729229645598,94.99019817319223,1.8313020467758179,9.91869941353798,2.2053685039281845,-62.15825080871582,20.630747079849243,-7.891616970300674,2.324175736866871,-5.949626668062721,False,0
GUIDED_NOGPS,2.4515938758850098,28.506113350143064,12.672414557648743,-21.322494772982857,95.99587744055732,1.6393372446959478,4.9879000362669945,7.24986490912943,83.19117139188315,2.931302254254029,0.6434113970563117,74.25403956176761,2.32120609740379,1.1984256898850028,0.3284234241009797,0.47395071206056844,11.926786738631595,-20.72861170572991,95.61949685774127,-0.1716253813356161,11.130158603191376,3.121834807097912,-92.1669065952301,18.733739852905273,-71.73299193382263,2.0974691389121287,-5.031481050204696,False,0
GUIDED_NOGPS,2.4834039211273193,31.65655803281658,12.877384384950073,-21.18405800129466,96.11305139980163,1.5721777867536977,4.754000950353843,7.893178487256749,82.67204631107094,2.945710538308171,0.6515303041844883,74.40448813861548,2.400405081301231,1.5402570673531246,0.09285324808925943,0.47264414845230684,13.495558557421152,-19.65172311163412,95.61577361008871,2.298816107213497,11.92271113395691,3.7709616124629974,-0.5452960729598999,18.951202929019928,8.303144574165344,1.6569738083526933,-4.325373105601016,False,0
GUIDED_NOGPS,2.516489028930664,30.03203471262557,13.094661102065018,-20.990841857781202,96.24206026208422,1.4651994175644742,4.51085176377787,8.54791674291551,82.13374852020011,2.883472573930545,0.5472134119602653,74.53249271385069,2.2468939850118157,1.5620121853226334,-0.401023575508794,0.47127180726302065,14.339034301417204,-19.303339278921733,95.64843067809879,2.75171659886837,13.356402516365051,5.54782897233963,37.85938322544098,29.017820954322815,-61.556851863861084,1.4244260850398691,-6.45247074428776,False,0
GUIDED_NOGPS,2.562554359436035,21.710659399247376,13.299058944926129,-20.759808183441354,96.39107024166564,1.3559638105972036,4.258932492445902,9.213233188692522,81.57654957583927,2.712915920166157,0.527845556795048,74.80995548850412,1.9221507709484218,1.3556057578737124,-0.13566180800322314,0.469804835523737,13.950129300763242,-18.312474335054397,96.03780320182088,2.75171659886837,13.356402516365051,5.54782897233963,37.85938322544098,29.017820954322815,-61.556851863861084,1.3930519665297867,-6.45247074428776,False,0
GUIDED_NOGPS,2.5875885486602783,39.95031813159599,13.475431745677486,-20.527705721480025,96.49104157153776,1.2326104965269122,3.9987292577115543,9.888273065242894,81.00073364398335,2.677711844523442,0.5510003249682143,74.94089021489326,2.5920492351534974,1.8522843689181874,-1.2302656991837448,0.4684222202890463,14.143647377514105,-19.136424457405553,95.62370990984337,1.131383515894413,15.356168150901794,3.789929300546646,-16.45427942276001,23.74882847070694,-103.86425256729126,1.2295943390869577,-6.964430988620651,False,0
GUIDED_NOGPS,2.622488498687744,28.65607684792337,13.5108591428085,-20.252970480380597,96.49641595113597,1.1400068328040398,3.730733613668301,10.572174500750277,80.40659716707589,2.6354056528043825,0.4893412191227473,74.98916599194692,2.14578808270294,1.340517910238643,-0.3786133143236464,0.46717832895810013,13.92024610176904,-19.590946373945627,95.39391994608924,-0.3799073398113251,17.224417626857758,2.518243156373501,35.98461151123047,29.73424792289734,119.94038820266724,1.266198552853659,-6.330612058645094,False,0
GUIDED_NOGPS,2.6534619331359863,32.29343783925285,13.602215469233887,-20.011706509066535,96.62195270604983,1.0225268265931173,3.455441874442096,11.264069670387384,79.7944485310307,2.4526097269341545,0.5530495951626296,75.25466227517448,2.3920814737871825,1.5612590465937537,-0.9096698945710949,0.4656614263804373,13.421063011494088,-19.89827404363487,95.43169234168984,-2.328023314476013,18.290293216705322,6.10521025955677,-9.663145244121552,8.797553926706314,56.878238916397095,1.2838438880001326,-6.76435468415029,False,0
GUIDED_NOGPS,2.6857283115386963,30.999342217097922,13.670512251223878,-19.691252837850787,96.70790135296268,0.9470566195550848,3.1733544414839177,11.963085955776839,79.16460773225418,2.323340286042024,0.5851335550151183,75.41887368319992,2.1913837177469637,1.5299890343809674,-0.37892418347243084,0.46418511591828443,13.424950791750044,-18.467086256246148,95.8026410487575,-0.7706763688474894,18.977905809879303,4.244149476289749,-33.713167905807495,5.6525882333517075,161.7685317993164,1.0924395702705187,-3.961040143101957,False,0
GUIDED_NOGPS,2.7191274166107178,29.94370078459089,13.77082102662649,-19.305557339808495,96.80413540985805,0.8511638686351882,2.884975130862765,12.668347104451252,78.51740604466687,2.2628026118809084,0.5795062261909683,75.68514860799287,2.0115864962719807,1.5854516644840335,-0.6235148954634429,0.46264877042190183,14.210092023804608,-16.828579411198778,96.03190178142472,-0.7706763688474894,18.977905809879303,4.244149476289749,-33.713167905807495,5.6525882333517075,161.7685317993164,0.5938726133932792,-3.961040143101957,False,0
GUIDED_NOGPS,2.7565085887908936,26.752288194510886,13.806089592897797,-18.913602752336434,96.8548872801924,0.7535333263316482,2.5908105005581223,13.378974389314147,77.85318568672588,2.1176239528645255,0.5791538844793308,75.9207013418991,1.9532673164255991,1.4463398493723838,-0.5901630781826527,0.4611618695709874,13.529047951407717,-16.816596646506298,95.63286464596331,-3.3979125320911407,19.40123438835144,2.0622367039322853,-60.97121238708496,-7.612992823123932,18.904349207878113,0.46725680227471517,-3.6860635573064138,False,0
GUIDED_NOGPS,2.790621042251587,29.32095520384766,13.951454976600262,-18.500675617452973,96.85776469803481,0.6018921002724544,2.291369177752715,14.094087768100406,77.17229948844663,2.2328018597252735,0.6666956186585908,76.08386773098154,1.995449479871988,1.7339785043155174,-1.419711445772354,0.4597407026300374,13.529047951407717,-16.816596646506298,95.63286464596331,4.080888256430626,20.561644434928894,-1.4897165820002556,36.13820672035217,4.125469923019409,20.24766206741333,0.46725680227471517,-7.304357123894315,False,0
GUIDED_NOGPS,2.8210651874542236,32.853727695705985,13.974797952375535,-18.043858874338376,96.90508849670299,0.49175196932062226,1.9871611861252934,14.812807042836765,76.47511055842493,2.2276691860074207,0.5987490035170098,76.19070554997887,1.9885504959961589,1.6188610141679072,-1.1518217031156628,0.45820191113238146,13.536448266391766,-15.906166270104798,95.73061307340191,-3.2318755984306335,21.241937577724457,2.116393856704235,24.299468100070953,-1.7277128994464874,62.19189763069153,0.1587056593334136,-3.9150977294235125,False,0
GUIDED_NOGPS,2.8570101261138916,27.822912106135988,14.00691167588285,-17.573590252421045,96.96555755899007,0.39639023250074734,1.6786972731433583,15.5342530193024,75.76199195085871,2.218865285610686,0.6640008955876093,76.33128450347608,1.8724599960337047,1.565824801645002,-0.8231878559781307,0.4565937528128149,14.83635279889813,-15.408480036796153,95.41081845727125,-4.872413724660873,21.741269528865814,4.896834120154381,-19.18957233428955,-0.4417748190462589,37.267109751701355,0.06156278956771005,-3.2620437060847296,False,0
GUIDED_NOGPS,2.8911712169647217,29.279404681293673,14.042867627248844,-17.040783925234543,97.00421700575602,0.2816107739202717,1.3664882373556626,16.25754866648947,75.0333263325706,2.2368425569495707,0.6946817851741892,76.49785232676518,1.76916514474013,1.632191967322568,-1.1724098026913685,0.45499894221622567,15.048111029930121,-14.325359006494663,95.4974631924666,-5.561384558677673,22.52861261367798,2.6288937777280807,-40.52373170852661,13.027617335319519,39.542004466056824,-0.18765096353628696,-3.660409366783846,False,0
GUIDED_NOGPS,2.928403854370117,26.863144950555924,14.036224076703467,-16.457441763700206,96.99603009219011,0.18326869849415547,1.0510442556852428,16.98182027606361,74.28950565002916,2.1006481580126937,0.6048241366186188,76.54414051877036,1.6395617481882752,1.5484713331682975,-0.960954460202662,0.45346095026939665,14.140842291995828,-12.861482455382653,95.14581069280709,-4.647799953818321,23.295405507087708,1.2539313174784184,-8.928453922271729,-9.720581769943237,26.830872893333435,-0.439619832117392,-2.4716277483478204,False,0
GUIDED_NOGPS,2.9594335556030273,32.22941623955924,14.005056462557103,-15.861151168190357,96.94758822484992,0.11477363312971198,0.7328742107217483,17.706198621824726,73.53093079637145,2.209787537316916,0.7147706521836661,76.69773098263643,1.6651391230627066,1.6132366848422381,-0.8019068336505408,0.4519817415728992,13.909873593034916,-12.373029796251284,95.18147640491713,-5.1098935306072235,24.082882702350616,-1.2698819860816002,7.059064507484436,-6.2561094760894775,-51.930731534957886,-0.49227989221576784,-0.6844641423409675,False,0
GUIDED_NOGPS,2.989237070083618,33.557922023890484,13.934570259733965,-15.22540949659997,96.87979530129654,0.0019892333971557874,0.41248501801445947,18.429820119167147,72.75801127842479,2.0944572318603116,0.6934462679863573,76.85569276757131,1.582024523539411,1.586512868977109,-1.512379311231494,0.4505139702080071,14.275415140817813,-11.219436755920174,95.1919568638673,-8.489139378070831,24.90021586418152,-2.420380152761936,68.18349361419678,21.47465944290161,76.95039510726929,-0.7892579583183981,-3.275089794286277,False,0
GUIDED_NOGPS,3.023308515548706,29.353582151180287,13.890992010487999,-14.594923079235372,96.79500293850893,-0.08583401455254454,0.09038095336502217,19.151827984540247,71.97116488372866,2.0619608993366834,0.7921299616926123,77.04270334704627,1.566753300740392,1.5938542417936707,-1.0806329211457415,0.4490420734757105,14.194509617376852,-11.017957441957293,95.00719709928225,-6.121161580085754,25.356683135032654,-2.9795749112963676,-49.48155879974365,5.81185519695282,-158.0499768257141,-0.8620363374049316,-1.6706194478686907,False,0
GUIDED_NOGPS,3.0571439266204834,29.560459232216733,13.824759008005456,-13.942262391877922,96.70147108102344,-0.23250981556995115,-0.2329370198803158,19.87137339490949,71.17081734755686,1.8765850829508945,0.7497775061140971,77.12487735295069,1.5179330464582277,1.5802448595929404,-1.8825001561035857,0.4475596918458531,13.227742761936007,-11.004021471502618,94.73137687587217,-5.369436368346214,25.366109609603882,-3.410208970308304,-39.04394805431366,-6.6477760672569275,-5.786309391260147,-0.9547730963874219,-5.103940392675245,False,0
GUIDED_NOGPS,3.089646577835083,30.77078381312909,13.786927747625652,-13.227149978550893,96.61594027026261,-0.3443984029127693,-0.5569719235373878,20.587616647216485,70.35740201993941,1.9115370819245538,0.7765217521395167,77.23059502092414,1.365468733807736,1.6738188146035875,-1.588045187782533,0.44603586391122474,13.402233219001516,-9.643407763607936,94.54435043215925,-3.6054041236639023,26.839572191238403,-2.144891396164894,59.60738658905029,15.73828011751175,17.90262460708618,-1.1532664581440297,-2.409975686134935,False,0
GUIDED_NOGPS,3.133622407913208,22.742230030147265,13.714523782871908,-12.50030197613615,96.53629157553802,-0.4826998324314281,-0.8812314372918149,21.29972831783943,69.5313595326846,1.6630607763350138,0.747073284811301,77.34797182181082,1.3379848076618317,1.5049710026253267,-1.5445282311119837,0.44444783888167216,13.14958738163152,-8.931152315977434,94.71169742141552,-5.023232847452164,26.968389749526978,-2.076500281691551,51.76239013671875,13.186562061309814,60.15375852584839,-1.125119445721798,-4.685876893296635,False,0
GUIDED_NOGPS,3.1568081378936768,43.13529968324489,13.590608701285003,-11.58961703318115,96.52010177217956,-0.5675391857460282,-1.205228571406158,22.00689042205397,68.69313746640074,1.449589617128612,0.7068485932418034,77.41707284564383,0.6623814818277055,1.6985154150929416,-1.796044117494556,0.4427518710762035,14.121950362552655,-7.209471714222022,94.69519543108089,-11.79177388548851,27.395018935203552,1.4055677689611912,39.50881063938141,8.216600120067596,33.63087773323059,-1.2510417599740284,0.8527183820248269,False,0
GUIDED_NOGPS,3.192167043685913,28.289429666001187,13.413140258249234,-10.955466221189148,96.37399904801548,-0.6163275929155264,-1.5284823394270841,22.708297573493994,67.84319001751854,1.263690437497671,0.6892946869097533,77.42723616712881,1.5156569332978882,1.4362440867373412,-0.9268002544683753,0.441264212449913,12.969275865295259,-7.201253731485711,94.50204937344446,-10.771364718675613,26.90531313419342,-4.919769614934921,-66.3786232471466,-4.296773672103882,-74.57528710365295,-1.4303451120612394,-0.024638626770351623,False,0
GUIDED_NOGPS,3.224501609802246,30.925287737692347,13.240681743729553,-10.082549784782195,96.24096628478297,-0.698629996674872,-1.8505184308929028,23.403158143611314,66.98197766531284,1.0651319291269343,0.6368188237642213,77.43543239413283,0.9218742936452571,1.47911222258868,-1.4260434448798118,0.4397313199841499,12.947496331410479,-4.503402450119165,94.42821812114849,-10.771364718675613,26.90531313419342,-4.919769614934921,-66.3786232471466,-4.296773672103882,-74.57528710365295,-1.64666493852816,-0.024638626770351623,False,0
GUIDED_NOGPS,3.26975154876709,22.103553492097788,13.108372007125745,-9.256447775752388,96.06333040721587,-0.7703965564605878,-2.1708698840408385,24.090695421137035,66.10996683892432,0.9339491814935539,0.5998213965775547,77.44571865902287,1.1070124731816835,1.4685340436596694,-1.1011502696976054,0.43823490461884096,12.984541089100638,-4.66896379452768,94.0834019979211,-8.029414713382721,27.011391520500183,-6.876920163631439,-17.245635390281677,-13.437776267528534,-79.8404335975647,-1.438232124827962,-0.4435106497919617,False,0
GUIDED_NOGPS,3.292344808578491,44.271265872220056,12.988048875468744,-8.396073836677118,95.9155470569242,-0.8306345552314433,-2.4890777585140196,24.770148771542075,65.2276295843824,0.896144724767768,0.624794222369561,77.43854696039436,0.7109103624903063,1.7647371156022111,-1.566153868108835,0.4367103969153793,13.644802450748728,-3.4983205701322753,94.11402818112478,-9.011425077915192,26.88852548599243,-4.957151412963867,21.10353410243988,-16.94123148918152,-1.9557692110538483,-1.7254382121805847,0.9740225416842534,False,0
GUIDED_NOGPS,3.3254106044769287,30.244694582453004,12.784101440883589,-7.809371846965696,95.77037763443401,-0.816130345182762,-2.8046918080692276,25.440774796496918,64.33544323162606,0.8535949941161157,0.6520933145433383,77.38652823967554,1.551988003442423,1.4376470738968756,-0.3156884996928326,0.4351325072639335,11.64258391911362,-4.826213850347806,93.71901209407643,-10.177100449800491,26.478633284568787,-3.9459511637687683,27.783235907554626,-25.463590025901794,29.358121752738953,-1.4236939545222915,3.3296277875917712,False,0
GUIDED_NOGPS,3.359304189682007,29.507013915270214,12.68531325552964,-7.030781210247163,95.6477516967066,-0.8545986241778681,-3.1172711532836157,26.101848493332753,63.43389006152674,0.8170885934977496,0.5544517582940393,77.29272242161458,1.0729265301769804,1.6389010091226766,-0.9660338583540348,0.43348716770559487,11.153987601985232,-4.1555938873444855,93.70313317658628,-0.6311097647994757,26.249858736991882,-2.4427559226751328,9.07377004623413,-25.482818484306335,-43.80609691143036,-1.4340948584109467,1.1803840075732006,False,0
GUIDED_NOGPS,3.398353338241577,25.612506106497314,12.41350798295692,-6.21510601388152,95.45450250641908,-0.8872897491960877,-3.4263849542626925,26.752664414502647,62.52345697290986,0.7712466049444454,0.5442790452989514,77.23049939827577,1.0013042054594758,1.3230985099506496,-0.8675114359583591,0.4319500072200755,11.28612653255657,-2.5206359421369986,93.21506511527349,-13.203155994415283,25.27153193950653,-6.064015254378319,100.05106925964355,-14.19767141342163,63.980633020401,-1.4365423095808383,1.3761599609090975,False,0
GUIDED_NOGPS,3.4283204078674316,33.376335871788136,12.165272098072638,-5.296127807343745,95.24009234103522,-0.9027955074686008,-3.7316130833468915,27.39253782704042,61.60463514957688,0.7109118087460204,0.5325737018871364,77.12823097583316,0.54041730436444,1.3990623018573471,-0.7609097867472286,0.43046505748156605,12.057840464355206,0.823496994600986,92.67648947921052,-13.938669860363007,25.595471262931824,-6.167802959680557,-33.800894021987915,-25.298142433166504,-22.20447212457657,-1.5650527238395129,2.586650268404951,False,0
GUIDED_NOGPS,3.472179651260376,22.80231812201672,11.871726199369851,-4.4987230311453414,95.01561397942116,-0.8968026810428339,-4.0325467978197675,28.020805872023068,60.67791972732729,0.7515763004650434,0.5012018426164744,76.99875107973723,1.0239271890329003,1.2824356985509102,-0.48545620251245497,0.42893545454106513,10.500115108977745,1.1079744200005983,92.61921729763368,-13.910765945911407,25.068241357803345,-7.464838027954102,6.349670886993408,-31.155869364738464,-58.32818150520325,-1.6637044179277032,3.615538012144624,False,0
GUIDED_NOGPS,3.497600555419922,39.35209787585379,11.573968453943499,-3.545789935939651,94.76957697388367,-0.8615770848994837,-4.32878941261402,28.63682872402955,59.74380946098081,0.7445637238998501,0.46400095049773554,76.82710159570564,0.21764152739051587,1.2824387433426558,0.05233999267930678,0.42748995501161463,9.937218995415499,1.608871852148525,92.45960301277742,-10.925494879484177,24.997524917125702,-7.82388299703598,-60.51919460296631,-28.162914514541626,-95.48606872558594,-1.443236046823745,5.5999602561457955,False,0
GUIDED_NOGPS,3.5309746265411377,30.01763426084965,11.410053359390197,-2.8491999656465277,94.52683036062066,-0.8495323533879036,-4.619956973020136,29.23999075060324,58.802806391399166,0.8070512036255928,0.4645722317887836,76.69681573728765,1.0859866760664145,1.5093902745636685,-0.36785619308382383,0.4259963826851762,11.05164785045283,1.9080723233417474,91.87768304068848,-8.403513580560684,25.038671493530273,-8.01193192601204,65.35371541976929,-11.49197593331337,9.909188002347946,-1.379259325613007,2.756770857279516,False,0
GUIDED_NOGPS,3.5657808780670166,28.686455284108007,11.093877335193365,-1.9003757249446398,94.24141822136845,-0.8378034948484187,-4.905678927392755,29.82970167171044,57.855415512507975,0.6851321134974536,0.35332637945584716,76.54214610353272,0.46221696559863207,1.240077312686334,-0.36792968940753923,0.42457107992258886,9.181971215930373,4.569039968984474,90.47655324746091,-11.596306413412094,24.46834295988083,-6.031279265880585,49.35665428638458,-19.206342101097107,78.8348913192749,-1.3309612949069833,3.0762638413208525,False,0
GUIDED_NOGPS,3.597914218902588,31.124943416668522,10.806720174939352,-0.9705239750315086,93.96047214728193,-0.7944021826921859,-5.185598799858367,30.405397719202696,56.902144438318814,0.6116580610483339,0.3623403615304128,76.36370058127696,0.39224110827317354,1.280824688822572,0.06293526281467543,0.42313104371735893,9.546959928167814,5.290785791311597,90.85451937009712,-11.187387257814407,24.08820241689682,-7.330243289470673,66.52853488922119,-8.465805649757385,69.65527534484863,-0.8377570784617951,3.703943711893038,False,0
GUIDED_NOGPS,3.633103132247925,28.425360035241095,10.492334464479281,-0.09136589076611051,93.66363853588875,-0.728678069879479,-5.459374863022466,30.966542796275867,55.94350306995155,0.5965932250602245,0.3219607634049735,76.20004241857428,0.5339969504595947,1.2214861560119663,0.3108360848445489,0.4217013755756827,9.546959928167814,5.290785791311597,90.85451937009712,-13.768285512924194,23.872005939483643,-9.032750129699707,-36.118537187576294,-24.69809055328369,-21.400386095046997,-0.8377570784617951,5.138566463559448,False,0
GUIDED_NOGPS,3.678593635559082,21.982264522756335,10.15240016149481,0.8187428965576524,93.35139946126523,-0.6482282081753992,-5.726680810676795,31.51262963693201,54.98000326265583,0.45382028673556707,0.31797262662077364,75.94005809800692,0.6017532259717066,1.1907180015894756,0.31773262502694616,0.42025906720064093,9.107294147119642,5.96497416034019,90.49052531280155,-14.149893820285797,24.04843270778656,-9.125854074954987,-9.50944870710373,-28.740230202674866,5.74033185839653,-0.6565668773965274,5.572382513598223,False,0
