Mode,Time,Freq,North-Vision,East-Vision,Down-Vision,Yaw-Vision,North-Desired,East-Desired,Down-Desired,Roll-UAV,Pitch-UAV,Yaw-UAV,Roll-Control,Pitch-Control,Yaw-Control,Thrust-Control,northVraw,eastVraw,downVraw,yawVraw,zGyro
GUIDED_NOGPS,0.006229877471923828,161.24496386283255,288.710610054658,-33.78751182745282,12.123655852114783,-9.639887350318064,287.8162495658515,-37.3304818427303,14.885004205542955,-0.9514308372307899,-0.4234443544232576,92.1609172635193,0.5212665253978049,-0.1315845695681793,0.48199436751590324,0.5013806741767141,288.710610054658,-33.78751182745282,12.123655852114783,-12.135564312619891,-4.1252961249419275
GUIDED_NOGPS,0.023459196090698242,58.067920975758334,289.0665230948181,-33.461211186158195,11.912268456589821,-11.590088555370883,287.81613639430293,-37.330519758414844,14.885017276210455,-1.014188109428748,-0.24271749562386732,92.11077001463306,0.20316279300942885,-0.07303316726860692,0.5795044277685442,0.5014863744098104,289.42243613497817,-33.134910544863565,11.700881061064859,-11.86854362345882,-3.724225668350351
GUIDED_NOGPS,0.02749323844909668,248.22773273362137,288.3572505240939,-33.30795471484916,11.882346312357171,-11.609316391164697,287.8153533262389,-37.330782108467254,14.885108245782218,-1.014188109428748,-0.24271749562386732,92.11077001463306,0.21858218654419972,0.052896850307590094,0.5804658195582348,0.5015013809667125,286.93870538264554,-33.00144177223108,11.82250202389187,-9.810584603152336,-3.724225668350351
GUIDED_NOGPS,0.06595015525817871,26.01199417036187,289.0186812963813,-32.67376346565394,11.759193800743267,-11.67066656035955,287.8132554134403,-37.33148496886721,14.885353573896337,-1.0502666627286363,-0.16519551555488374,91.97889955232762,0.24152320656400933,-0.0690807949463969,0.5835333280179775,0.5015630798865766,291.00297361324346,-31.884938079867165,11.754198317273072,-14.544308450482035,-3.20856365273261
GUIDED_NOGPS,0.09746146202087402,31.73632160773602,289.2468667929639,-32.13750024504415,11.992028599834574,-11.814117493111212,287.809224586967,-37.33283541027211,14.885828159700159,-1.037332312153042,-0.21073321384457858,91.91345950988973,0.268554444902685,-0.07560552935938077,0.5907058746555606,0.5014468997799328,290.15960877929405,-31.526120883034206,12.399385458338788,-13.091822067018526,-2.9220847551671985
GUIDED_NOGPS,0.1407487392425537,23.105293890816945,289.5366665378911,-31.64572661531186,12.184323077983544,-11.914865272673023,287.80266928640947,-37.33503162222845,14.886605352429891,-1.000414179193771,-0.06194189168536138,91.83159286249796,0.2908659541953038,-0.09032001849427597,0.5957432636336512,0.5013511411372231,290.15960877929405,-31.526120883034206,12.399385458338788,-13.091822067018526,-1.5469860468532228
GUIDED_NOGPS,0.1843891143798828,22.91894254833175,289.70238435733734,-31.398820475747623,12.7406650467718,-11.999713558321767,287.7930240891397,-37.338263037383115,14.887756961990197,-0.7913613519675743,-0.035126782447302884,91.81722897467343,0.300801277800945,-0.09776464308940326,0.5999856779160884,0.5010735459576092,290.25102523220914,-31.144219661174454,13.423224223637837,-12.662348052879125,-0.2864788975654116
GUIDED_NOGPS,0.22003459930419922,28.057797281387135,290.29355585313266,-31.32727359441819,13.16067363761582,-12.034968324801527,287.77974933956284,-37.34271045569477,14.889353269533798,-0.5688997961835847,0.0718986799892268,91.84831999577531,0.30299734466600364,-0.13448640188975325,0.6017484162400764,0.500864339815959,289.89456286162215,-31.311480239045917,13.659411230870852,-12.226766026134456,0.0
GUIDED_NOGPS,0.2669789791107178,21.309163698807605,290.0950885619563,-31.28981189388188,13.699012220220828,-12.049940460904242,287.7623307783683,-37.34854616864517,14.891463038041064,-0.4643863225773123,0.03405953870906194,91.88294222467812,0.304848915570413,-0.1151796460421276,0.6024970230452121,0.5005962254089101,290.0106371573619,-31.413735781425277,14.014401206153812,-12.708376600434292,0.40107045659157625
GUIDED_NOGPS,0.31033873558044434,23.06628463953981,290.3507193876055,-31.34769016593724,14.029113242848664,-12.047889103558491,287.7402791717814,-37.355934083450514,14.894153522899616,-0.3974600203038548,-0.006235962712221641,91.94792464444161,0.30153997600772625,-0.1343139837372542,0.6023944551779246,0.5004325201400255,291.4377629075403,-31.317854477340532,14.413527291521351,-12.469523473426236,0.6875493541569879
GUIDED_NOGPS,0.35205817222595215,23.974712341451983,290.48132147635937,-31.59085075055005,14.252749126521378,-12.0331498553382,287.7131299408142,-37.36502984727277,14.89749048248393,-0.3325799466561979,-0.12958384303736284,91.99911008208169,0.28785466605082005,-0.14100633389342343,0.60165749276691,0.5003223706779812,290.8126192230634,-32.04096199288435,14.330318881888992,-12.324292720333489,0.6302535746439055
GUIDED_NOGPS,0.38914918899536133,26.971455028326336,290.58418683067646,-31.87232697005841,14.442130119441579,-12.012400206138485,287.68044279051725,-37.37598097143107,14.901538188734923,-0.32517852955598997,-0.2522693550955715,92.06521948305824,0.27367985185528526,-0.14783335540447246,0.6006200103069244,0.5002297040346467,290.7653520037946,-32.25816443995035,14.582544184914418,-12.622723474766559,1.088619810748564
GUIDED_NOGPS,0.43129825592041016,23.724646616626412,290.38135238981283,-32.46725977899221,14.42382413926101,-11.969649857727067,287.6418013392307,-37.38892695561296,14.906359437739564,-0.28650839971375786,-0.2633607018535995,92.12794111020646,0.24156418456843132,-0.13596557498557804,0.5984824928863534,0.5002412676492393,288.8803906573041,-33.10265290414191,14.358609350979643,-11.34031578414708,0.9740282517223995
GUIDED_NOGPS,0.47195863723754883,24.60146636166344,290.5372393409748,-32.784591416106444,14.474359318032468,-11.93972441279305,287.59681274783577,-37.40399941208584,14.912015560310461,-0.19003167086242362,-0.2447646313841671,92.1871520201213,0.22980089606959403,-0.15054228474802767,0.5969862206396525,0.500218828121139,290.7900719131715,-32.99295690422705,14.481924418203365,-12.37442950901226,0.9167324722093172
GUIDED_NOGPS,0.519700288772583,20.94732583865635,290.473976457515,-33.30208622527642,14.364745436658135,-11.899603691905334,287.5451073490058,-37.42132218990822,14.91856643256547,-0.16660204093601713,-0.3666813202739262,92.28377187612031,0.20348409381063529,-0.14751187314976363,0.5949801845952667,0.5002769104979536,291.1214484902411,-33.81064886746029,14.253702540791423,-12.019858632286656,1.260507149287811
GUIDED_NOGPS,0.5696253776550293,20.036515981713347,290.4110507932116,-33.71812864844234,14.380236628044942,-11.85574899450907,287.48633827645796,-37.44101149914113,14.926070486507284,-0.1073280851734862,-0.40685110352579923,92.34882942796469,0.18508891696036028,-0.1475283152892865,0.5927874497254536,0.5002729169292311,290.4979909015465,-34.350780173639656,14.40508292514006,-11.979364551411606,0.8021409131831525
GUIDED_NOGPS,0.6177246570587158,20.790538363545338,290.5483332616838,-34.25589736201774,14.309970385391102,-11.812369796441335,287.4201810942042,-37.463176035059426,14.934584720603034,-0.01638478338542756,-0.5363883091777356,92.44823600114505,0.15811840371828834,-0.1599975077951126,0.5906184898220668,0.500312307167606,291.4517643461557,-34.60626304495324,14.271125690241838,-12.17025455422241,1.3178029288008934
GUIDED_NOGPS,0.6662750244140625,20.601112006129785,290.96061693990544,-34.839957380672416,14.404767089882057,-11.753524182499076,287.34633342580287,-37.48791710236313,14.944164710363891,0.13272762436584634,-0.5171338991857638,92.5306080825354,0.1298351393133354,-0.18739707561355332,0.5876762091249538,0.500269698810241,290.94180904841204,-35.562828923424306,14.538092654264291,-11.666045669995952,1.3178029288008934
GUIDED_NOGPS,0.7042901515960693,26.312413741185917,291.1146903350081,-35.51045680443236,14.311436223990905,-11.707406731864209,287.2645145836099,-37.515328739388785,14.95486461892466,0.229433044492457,-0.6938787043381838,92.59255106811824,0.09484803057746236,-0.19749784872331724,0.5853703365932105,0.5003217141974668,291.5604388886851,-36.362278444919504,14.125090327466602,-12.12959258199804,0.9167324722093172
GUIDED_NOGPS,0.7442605495452881,25.025082933581537,291.2024884146969,-36.09579527108778,14.262757769732493,-11.67991014669481,287.1744651980301,-37.54549784232079,14.96673720762338,0.34372316016323573,-0.6871902415934488,92.65381103478408,0.06900701747759894,-0.2055550846416426,0.5839955073347406,0.5003519897189455,291.5604388886851,-36.362278444919504,14.125090327466602,-12.12959258199804,0.8594366926962349
GUIDED_NOGPS,0.7857460975646973,24.106580837979195,291.4310098842978,-36.72467902802309,13.899020215603516,-11.644997197975304,287.07594684676843,-37.57850428940276,14.97983384658092,0.43386103323776176,-0.7560453786163474,92.72578073806852,0.03890888849513621,-0.22383445262849858,0.5822498598987652,0.5005404068154887,291.6405982495508,-37.44948019423025,13.44687999187736,-12.00379254473215,1.1459155902616465
GUIDED_NOGPS,0.8271663188934326,24.162546734490487,291.44331915373533,-37.2319968602638,13.612694464178013,-11.615928431023239,286.96874168408164,-37.61442106514881,14.994204525280585,0.4999455146960152,-0.8417041683796525,92.79867251689089,0.016836594269935095,-0.2275036614681395,0.580796421551162,0.5006907550305513,291.5133106933434,-37.88423194164162,13.266113073190091,-12.369146201852388,0.9167324722093172
GUIDED_NOGPS,0.8718829154968262,22.359723429095386,291.59977953964983,-37.904611753050794,13.278919841203203,-11.584177691570076,286.8526520700292,-37.65331438455498,15.009897863147701,0.5991232231783324,-0.8139315519973228,92.85905821934297,-0.016252447443313042,-0.2429458841894651,0.5792088845785038,0.5008654890109723,291.7241109779846,-38.380123123280455,13.12376645854217,-11.764227383017271,0.6875493541569879
GUIDED_NOGPS,0.9130198955535889,24.31508771116187,291.65855830550834,-38.3998334324168,13.08121955061909,-11.549498600776477,286.7275001997248,-37.69524381731051,15.026961120129226,0.6415222094205684,-0.9377763285845824,92.9182964500145,-0.037375204158994285,-0.2515359689163547,0.5774749300388239,0.500972870784755,291.8543327179777,-38.93514523232826,12.853779120125028,-11.746136098773562,0.9167324722093172
GUIDED_NOGPS,0.9497911930084229,27.201473468487748,291.7331003436669,-39.05374577173864,12.913691795869953,-11.5223247893175,286.59312773258773,-37.74026241200922,15.045440207273339,0.6578766705013408,-0.8932650529806672,92.9617091323791,-0.07072976553371396,-0.26280572267236646,0.576116239465875,0.5010658742057017,291.9331490794777,-39.84596895960712,12.763529808942677,-11.969248868583037,0.8021409131831525
GUIDED_NOGPS,0.985283613204956,28.183928127456845,291.5293673459895,-39.76420931706669,12.926785808108635,-11.490003610143331,286.4493954215941,-37.78841682036082,15.065379697309044,0.6600083832134723,-0.929714464208146,92.99774521044009,-0.10476847073103425,-0.2562819334426947,0.5745001805071666,0.5010692969446002,290.62193326116386,-40.511513759264595,13.16304849525822,-11.098296734108828,0.7448451336700702
GUIDED_NOGPS,1.0201773643493652,28.667044856504294,291.57771714700345,-40.44751417769745,12.932762013149999,-11.480473723428663,286.29618274252823,-37.83974742140228,15.086822835225767,0.688581839275986,-0.9656766908487324,93.00643321106433,-0.13630210356322844,-0.2702702793500704,0.5740236861714332,0.5010770304110379,291.7550596984134,-40.98505981422054,12.87170773524912,-11.758537463327684,0.0
GUIDED_NOGPS,1.0638549327850342,22.896172238356225,291.7152543732484,-40.96747955350665,13.030211349243979,-11.490272794502335,286.13338752323386,-37.894288445709165,15.109811548852951,0.6221866909322028,-0.8747390719915067,93.0143220795557,-0.15595068916392257,-0.28606504624826595,0.5745136397251168,0.5010398000998045,292.41179710920903,-41.40586508703474,13.055877817224616,-11.783438480921646,-0.6875493541569879
GUIDED_NOGPS,1.1059718132019043,23.750574751695943,291.7303555496352,-41.45632084454217,12.982863934488336,-11.516954618110864,285.96092557286573,-37.952068099606954,15.134386459439662,0.5257394572923039,-0.7752710804694639,92.99469894607026,-0.17748058369004044,-0.2944959810734032,0.5758477309055432,0.5010757612624757,291.9298385999119,-41.97803763237114,13.021006250991293,-11.87243086526567,-1.088619810748564
GUIDED_NOGPS,1.1491329669952393,23.17359043067488,291.7462829985841,-42.10102914250515,13.149650722999256,-11.566551135194588,285.7787303111405,-38.01310868938242,15.160586892234175,0.38690769820130244,-0.5735966184550263,92.9430763763233,-0.20845594022455952,-0.3047169518764373,0.5783275567597295,0.5010054680846174,292.01278632422213,-42.919184708109476,13.372068100781881,-11.656366168236943,-1.8907607239317168
GUIDED_NOGPS,1.1917846202850342,23.450337975723894,292.02680243452073,-42.735063472438355,13.33322087554904,-11.637973578533702,285.58675239758855,-38.07742674549494,15.188450887063585,0.2528924764552029,-0.4477932851232655,92.87275274862886,-0.2370844401713085,-0.33187742945826576,0.5818986789266851,0.5009276150057572,292.0245304408469,-43.307968076834364,13.606588274873971,-11.662362236780496,-2.177239621497128
GUIDED_NOGPS,1.2250781059265137,30.04192959209254,291.87572064526046,-43.33292905537795,13.66577920225847,-11.716648295037267,285.3849593608049,-38.145033146787846,15.218015208913394,0.12319304047026555,-0.4962310657262919,92.82601376413845,-0.265022508942283,-0.32983622281389235,0.5858324147518633,0.5007761180033274,290.9996507521119,-43.77163438118991,14.018681231119581,-11.411979111869812,-2.3491269600363753
GUIDED_NOGPS,1.2642362117767334,25.545429076070405,291.6508176391092,-43.665452851196996,14.03299172229365,-11.80481681492814,285.1733352277006,-38.21593324469978,15.249315358507122,0.028426340191093927,-0.3910857462609404,92.72759073819857,-0.2737103589975523,-0.3284961525490355,0.590240840746407,0.5006081618181067,291.2872820784528,-43.91675609556661,14.473705660887417,-11.897134210037578,-3.20856365273261
GUIDED_NOGPS,1.3020901679992676,26.42014689393653,291.61393053662937,-43.91192303847803,14.426909366367349,-11.915338827695265,284.9518801527544,-38.29012698747601,15.282385582885892,-0.026468250354055565,-0.21649594583293882,92.64788243058452,-0.2814690837678187,-0.3405820822289998,0.5957669413847633,0.5004277381082592,291.7454030875126,-44.04737863867745,14.788341207095069,-11.68571067269228,-3.495042550298022
GUIDED_NOGPS,1.346482753753662,22.532455881167905,291.53904859070406,-44.09031727131909,14.766043864580437,-12.032183768217596,284.7206100472636,-38.36760904437979,15.317258885988036,-0.17428400272029806,-0.12472213573048893,92.43538841531625,-0.2856337347434289,-0.3480329328192228,0.6016091884108798,0.5002756075107038,291.6383765945956,-44.306817079713085,15.036084725758839,-11.621788915503771,-3.6096341093241864
GUIDED_NOGPS,1.3922340869903564,21.861273845512354,291.27657591597773,-44.28104270729413,15.06609748725485,-12.186845719076768,284.4795562085958,-38.44836892990371,15.353967039228692,-0.20889438551375097,-0.007071673709769725,92.29708391481266,-0.29146146809494256,-0.3452742598138369,0.6093422859538384,0.500143934775987,290.71216706721515,-44.488932403491724,15.373866528910659,-12.259884561573841,-3.896113006889598
GUIDED_NOGPS,1.4301271438598633,26.39238363715305,291.30159334179507,-44.4198154720164,15.339239346391304,-12.339995073646357,284.2287649494397,-38.532391127981,15.392540592079401,-0.2549933732747901,-0.09281920257143207,92.19118183173161,-0.2939412453632895,-0.36319256115014953,0.6169997536823179,0.500026650622844,291.1247378811985,-44.46369693284427,15.607766784504426,-12.065570002713514,-3.380450991271857
GUIDED_NOGPS,1.4701173305511475,25.009862497465804,291.439889404022,-44.38391734435299,15.539436132289017,-12.461724825940781,283.96829722705706,-38.61965521619692,15.433008882647707,-0.2690757292394754,0.024302346675434273,92.08958276782768,-0.28575542126308723,-0.38478724568247935,0.623086241297039,0.49994678637517936,291.9787623895874,-44.19912269672283,15.636675083451973,-12.696148760576335,-2.979380534680281
GUIDED_NOGPS,1.5152008533477783,22.185863223540487,291.3866780207521,-44.27316451728107,15.742945331249802,-12.57460349697585,283.6982282725335,-38.71013599000006,15.475400048256752,-0.26399759031327674,0.009054536322762607,92.02460717825335,-0.27524440064570865,-0.3934054799266657,0.6287301748487926,0.4998662273585035,291.4793461711629,-44.156673922276,15.984394125793019,-12.810709780482497,-2.3491269600363753
GUIDED_NOGPS,1.564363956451416,20.344502434954695,291.55324916062426,-44.153859070867206,15.978849945339975,-12.669018203236783,283.4186472200301,-38.80380358691372,15.519741036024879,-0.20852712944373056,0.0752843727442904,91.94974830495,-0.2649280079413125,-0.41824361620765765,0.6334509101618392,0.49977044554534245,292.47123229395686,-44.10578059360268,16.315480626774953,-12.872820932464236,-1.2032113697747289
GUIDED_NOGPS,1.6056571006774902,24.219192636605634,292.00821815707843,-44.11053722794552,16.294505069553576,-12.763666671789597,283.1296567360346,-38.90062361074722,15.566057613445224,-0.17289587349319877,0.049523513876793934,91.92553528434232,-0.25861229416917647,-0.46025314256421995,0.6381833335894799,0.49963577627194583,292.9870120494858,-44.06915716795779,16.583640456092777,-14.428393339791754,-1.088619810748564
GUIDED_NOGPS,1.6502485275268555,22.43087256936274,292.361155413579,-44.188468794101006,16.496099659240485,-12.819406605631682,282.83137264861284,-39.00055725580724,15.614374378965323,-0.18813575975921618,0.010492718029873416,91.91611645347686,-0.25918909230337683,-0.49156373150070254,0.6409703302815841,0.4995591373598624,292.88942416370156,-44.39046862074243,16.589177894853748,-13.640568735177084,-0.8594366926962349
GUIDED_NOGPS,1.6932826042175293,23.242291920647236,292.629819424482,-44.38397387417283,16.445709933044956,-12.858297579294995,282.5239235766599,-39.103561431109185,15.6647147725667,-0.21886654174324893,-0.08532525775231159,91.9158569062884,-0.2653622185276837,-0.520178563726925,0.6429148789647497,0.4996095024197609,293.32208244410236,-44.69229583381816,16.16431144818837,-13.335028972502826,-0.40107045659157625
GUIDED_NOGPS,1.7366106510162354,23.08456572350063,292.8702320831543,-44.76618979608728,16.146702960985056,-12.888512008862936,282.20745055915165,-39.209588884588534,15.717101086344476,-0.25783745337301284,-0.15780597124444398,91.90044799952085,-0.2815310148808265,-0.5482351291115114,0.6444256004431468,0.4997851990626797,292.6814094645243,-45.21580493370115,15.686619539913078,-12.691297708065775,-0.8594366926962349
GUIDED_NOGPS,1.7796993255615234,23.214505523699884,293.0917090659492,-45.322258977475094,15.543310909439107,-12.929441998656268,281.88210668439586,-39.31858832731214,15.771554475086955,-0.32873833877403597,-0.11502585511043603,91.8630595440042,-0.30613831552446624,-0.5759671189473866,0.6464720999328134,0.5001141217828239,293.5786172079313,-46.058676164905876,14.779001740215897,-13.040079658852562,-1.1459155902616465
GUIDED_NOGPS,1.8257992267608643,21.696621076372363,293.2700090875121,-45.902659287688266,15.00965355151977,-12.96844814273073,281.54805671928375,-39.4305045576896,15.828094966855232,-0.4459367009686385,-0.017496890260736375,91.8398983725287,-0.32985312991899873,-0.6014404500451839,0.6484224071365365,0.5004092207076677,293.8785121573004,-46.433496764457665,14.563339374430361,-13.17584189211469,-0.7448451336700702
GUIDED_NOGPS,1.8722617626190186,21.52967687293073,293.49746437107507,-46.447481284830936,14.56195896247137,-13.004799296891926,281.20547673854105,-39.5452785856846,15.88674147356279,-0.5521585222802075,-0.023368665151978822,91.83466644762446,-0.3510432449395591,-0.6308794241480781,0.6502399648445963,0.5006623912555457,294.02670058151625,-46.85027092512915,14.34353577276788,-12.730614169470286,-0.9740282517223995
GUIDED_NOGPS,1.9095821380615234,26.799123373096755,293.6795902090199,-46.9980351147809,14.415819546839598,-13.050263634370918,280.8545537539795,-39.66284775702624,15.947511801555093,-0.5998979160406,0.18360199491399543,91.80120535088056,-0.37421154356087977,-0.6591145045587227,0.6525131817185459,0.5007658461273577,294.2327116338266,-47.710337654755754,14.340583493320581,-13.10593861430685,-1.088619810748564
GUIDED_NOGPS,1.9487285614013672,25.55103134861167,293.9282086799004,-47.57602997377362,14.392730702411065,-13.08235629866708,280.49548534374816,-39.78314587742039,16.01042266218919,-0.6095796024673873,0.12921415904853592,91.79938169037217,-0.39745414054346184,-0.6906542236659984,0.654117814933354,0.5008088459798891,293.924501818927,-48.16748134143583,14.49407284114476,-13.220681481521538,-0.6875493541569879
GUIDED_NOGPS,1.9873759746551514,25.881020109711777,294.20549140915523,-48.16437382127848,14.459623668377851,-13.095797098791767,280.12847928158465,-39.906103336761014,16.07548968241331,-0.6091722457164195,0.2875500035621848,91.81105448366372,-0.4212266879121768,-0.7239988494417102,0.6547898549395884,0.5008079330070178,294.9650308542051,-48.61530246764372,14.54421467066824,-13.08997845653488,0.0
GUIDED_NOGPS,2.0211474895477295,29.618908402714517,294.31857940744584,-48.608161597445445,14.602058638514583,-13.110008868366329,279.75375316606664,-40.031647233341545,16.142727415346457,-0.6162696126768561,0.23434176271072762,91.82202376747077,-0.43609750088619553,-0.7477361821181314,0.6555004434183165,0.5007703343884159,294.44395214875334,-49.041700983256646,14.767888403730776,-13.096478399382136,-0.34377467707849396
GUIDED_NOGPS,2.069120407104492,20.84892830158667,294.5058146797037,-49.01889063017833,14.722358451593337,-13.13633896959356,279.3715340498629,-40.1597014980662,16.212149350858017,-0.61194909114,0.3192612912180846,91.80128731315061,-0.44890707358111187,-0.7756740152411385,0.656816948479678,0.5007448954496323,294.9628769428054,-49.3996684396345,14.854972280381025,-13.659971151937981,-0.8594366926962349
GUIDED_NOGPS,2.11342453956604,22.575266965208407,294.61789474143353,-49.53140975959329,14.832399141612731,-13.165644223070041,278.9820580689849,-40.29018701866129,16.283767926147352,-0.6366172264620001,0.43342192677932395,91.79458689757483,-0.469837204567871,-0.8012364015812985,0.658282211153502,0.5007256843922673,294.7931119424758,-50.15285985588857,14.87433674072642,-13.018547379804119,-0.7448451336700702
GUIDED_NOGPS,2.1543476581573486,24.43834339385182,294.9550940834032,-50.042589124758315,14.934549065715482,-13.201407456660615,278.58557007203797,-40.42302176388666,16.357594536323397,-0.7251680677302766,0.3767379734139766,91.76850240513456,-0.48932315246771124,-0.8416677355408319,0.6600703728330308,0.500711522735304,295.6104985287753,-50.57523907875174,15.074338176039033,-12.741344274962785,-1.3178029288008934
GUIDED_NOGPS,2.1985433101654053,22.632276445576395,295.0286078386007,-50.67976650888792,15.027274794672467,-13.274258177376744,278.1823232494727,-40.55812090774691,16.433639544984253,-0.7770854028286014,0.2890420797307152,91.68132187056851,-0.5160684864479259,-0.8628864734005054,0.6637129088688373,0.5007031823751559,295.3325996301929,-51.311200592023326,15.133149467251979,-13.940319570734331,-2.3491269600363753
GUIDED_NOGPS,2.2371110916137695,25.930140831138644,295.23552527336074,-51.350283156141636,14.997981706555654,-13.376269563627664,277.77257876283613,-40.69539695370284,16.511912294796804,-0.8673324788885683,0.14925249333032528,91.58989978852789,-0.5442406399624953,-0.8968539640367229,0.6688134781813833,0.5007569652941206,295.4785393225537,-52.16440979764972,14.78645747637598,-13.872880513985606,-3.0366763141933633
GUIDED_NOGPS,2.276320695877075,25.5117117884275,295.33865774931036,-51.88000672910763,14.902021473334635,-13.49114862705564,277.3566053740234,-40.83475985888272,16.592421118076288,-0.9284506657682821,-0.035089696654543825,91.49303404571876,-0.5623479540699399,-0.9222469762005662,0.674557431352782,0.5008451998223709,295.4785393225537,-52.16440979764972,14.78645747637598,-13.872880513985606,-3.4377467707849396
GUIDED_NOGPS,2.313680410385132,26.773805192235265,295.54500200229916,-52.258837332853695,14.446274502876426,-13.638988426495189,276.93467907452856,-40.97611715829367,16.675173347365916,-0.9232705008913563,-0.14850650860691295,91.31373474981676,-0.5728345258822944,-0.9561404740171432,0.6819494213247594,0.5011144494222447,295.8248332074198,-52.44769240326153,13.765908555877353,-14.164113935850523,-4.640958140559668
GUIDED_NOGPS,2.3542087078094482,24.681087442626808,295.5887980881502,-52.335955944089825,13.796776507910863,-13.81131785436895,276.50708271469637,-41.11937408903299,16.760175326016466,-0.9753898601787253,-0.3408549342790799,91.16385990885917,-0.5659845665045424,-0.977863875206766,0.6905658927184475,0.5014816994090529,295.8294789580307,-52.395765631358096,12.837963491479295,-14.403107214045264,-5.443099053742821
GUIDED_NOGPS,2.4043710231781006,19.938885138668365,295.94544409986094,-52.35242259162839,12.89654220067952,-14.02414808856029,276.07410563297344,-41.26443371449949,16.84743241876588,-1.137510269822796,-0.3095360890157649,90.8977489086063,-0.5596360608920355,-1.0204372892729738,0.7012074044280145,0.5019754451090431,297.11582968874643,-52.213809740265376,12.085754554681948,-14.786270101483012,-5.901465289847479
GUIDED_NOGPS,2.4443440437316895,25.020604411992792,296.4187171222297,-52.05199705509448,11.84922047066401,-14.308794691750261,275.6360432851595,-41.41119704860486,16.936949022318856,-1.3053664375440905,-0.31297572959310105,90.65110394748797,-0.5334273657051432,-1.070275044055202,0.7154397345875131,0.5025438642758274,297.84490443439756,-51.546415793659804,10.623943365830828,-14.523396219566038,-6.875493541569879
GUIDED_NOGPS,2.4840753078460693,25.175289909005787,297.09362363339267,-51.59385922718486,10.881049777886384,-14.58863799791967,275.19319687365874,-41.55956317998499,17.02872857592645,-1.5191367376917975,-0.2647985367151665,90.33439490586365,-0.5014200984028792,-1.1297802814911955,0.7294318998959836,0.5030738393990201,298.8530718783686,-51.02135214762925,9.933451413146413,-15.006040946448067,-7.849521793292278
GUIDED_NOGPS,2.5296072959899902,21.967872874209785,297.79381216376385,-50.99546452259049,10.09724172518323,-14.890297757459944,274.74587297673116,-41.70942939621132,17.122773571965684,-1.8361828064629766,-0.21142693161258444,89.95273759542168,-0.4638653555345867,-1.1867078214212492,0.7445148878729972,0.5035127659233912,299.32577585927544,-50.418625626482246,9.734330396572483,-15.112846321729691,-8.59436692696235
GUIDED_NOGPS,2.570012331008911,24.751873664829393,298.499524073959,-50.407531040129186,9.674188021067657,-15.256404209003772,274.29438317774395,-41.86069130800215,17.219085566519134,-2.00336961564561,-0.1679914908442255,89.64885564905865,-0.4263149169361391,-1.2472735910642938,0.7628202104501887,0.5037724487727258,299.35803850900663,-49.7826153462759,9.35478225348411,-14.728415064573284,-9.396507840145501
GUIDED_NOGPS,2.611471652984619,24.12529981881453,299.39841002805935,-49.169562298222125,9.466573800737502,-15.633213913125195,273.8390436944228,-42.01324297343406,17.317665189954525,-2.16600687851078,-0.0008865905707793895,89.23272637387562,-0.34944631302208257,-1.3180731420223786,0.7816606956562597,0.5039255456946086,301.61025945924837,-47.307445921908055,9.310608752155952,-16.365848509468492,-10.427831871380983
GUIDED_NOGPS,2.6482350826263428,27.208355226882034,300.33510193738647,-47.7980877129334,9.297919703791395,-16.04140674162063,273.3801750081031,-42.166977022153155,17.41851215750434,-2.239486693932012,0.18801653827364506,88.87903185789567,-0.26913399807404575,-1.3917337620673527,0.8020703370810316,0.5040602962268564,302.52836398103307,-46.304201870616076,9.228368105734162,-16.033612465135278,-10.828902327972559
GUIDED_NOGPS,2.680851697921753,30.664600087732126,301.76956615721565,-45.97256657135021,9.308101903603683,-16.406202262772403,272.91810149298135,-42.32178477958649,17.521625279845402,-2.3514390439572215,0.2941474326918882,88.45627046902857,-0.16140118715746737,-1.4968784812504985,0.8203101131386202,0.5041067616881209,306.02539297751434,-44.306051921526326,9.38532885292097,-17.271391856791,-10.828902327972559
GUIDED_NOGPS,2.7269511222839355,21.69852922156866,304.35656678591226,-43.76274320495485,9.507016234206368,-16.803224469131273,272.4531510453665,-42.477556391153335,17.627002473678505,-2.45912892905352,0.37672276557090273,88.03208840081409,-0.04737860556385377,-1.6554623635054664,0.8401612234565636,0.504059993119736,312.2607790027584,-40.677975822721976,9.907351743964009,-23.635533140006274,-10.542423430407148
GUIDED_NOGPS,2.766035795211792,25.591252989700784,305.6195753889309,-41.42118324199895,10.226922196194058,-17.295384459356022,271.9856547129313,-42.63418094647659,17.73464077230797,-2.5105077464244716,0.5207719354141477,87.65406475101057,0.08386246157302583,-1.7323134017567388,0.8647692229678011,0.5037538592880569,305.6730815240998,-39.2795219817484,11.388085991697228,-19.416558896168638,-10.427831871380983
GUIDED_NOGPS,2.8053932189941406,25.413555337429262,307.7515061238693,-38.71083187778328,10.799938902638472,-17.71358806648268,271.5159463239635,-42.791546603594085,17.844536336221267,-2.5576411743394374,0.4326312790220421,87.40491311046684,0.23222638502120596,-1.875036363390765,0.885679403324134,0.5035222987167914,312.2699131339406,-36.17499782887929,11.104378972254214,-20.684936110535602,-10.370536091867901
GUIDED_NOGPS,2.846937656402588,24.0787641152528,309.6998159544508,-37.209839213169055,11.198947978735207,-18.095165449804867,271.0443621166173,-42.949540713169924,17.95668446366862,-2.596485740809769,0.5005566031833197,86.87631794041039,0.2985305724121329,-1.9932974958751963,0.9047582724902434,0.5033788682424667,312.2699131339406,-36.17499782887929,11.104378972254214,-20.684936110535602,-9.396507840145501
GUIDED_NOGPS,2.883126735687256,27.63847228445663,312.1862542612641,-33.15982163360378,12.019759007689364,-18.305335000278152,270.5712403681646,-43.10804994270583,18.071079601242584,-2.6343094074425957,0.46697629829406945,86.56234097445407,0.5473698105273884,-2.0,0.9152667500139077,0.5030256602967766,318.4575845115808,-27.129469243052572,13.850519078559696,1.0213642809568597,-8.651662706475431
GUIDED_NOGPS,2.9238226413726807,24.704928847422487,311.42917878061587,-31.735781606369084,12.308534075137828,-18.618119628756496,270.09692102424634,-43.266960400752495,18.187715354457662,-2.6222201860550847,0.5358988834350219,86.25182691440695,0.588835879420619,-2.0,0.9309059814378249,0.5029395906396599,308.47540159951734,-31.902877747175225,11.9707041745996,-19.629029399517037,-8.193296470370772
GUIDED_NOGPS,2.970872163772583,21.20005661025859,312.03275120588734,-29.686570027623493,12.590965744195728,-18.948513241589808,269.6217453281239,-43.42615776112092,18.306584498329883,-2.5140370332346644,0.44869390959835515,85.89932768153176,0.7032054211904429,-2.0,0.9474256620794904,0.502857809377067,308.6909436504573,-30.027363092642528,11.95167397942791,-19.721216504013398,-8.021409131831525
GUIDED_NOGPS,3.0113439559936523,24.71351720805812,311.86847684481006,-29.29042008379946,11.97226402036012,-19.343122345296926,269.1460554499302,-43.58552738709373,18.427678987956433,-2.4271245835935447,0.6054979774689229,85.62536196373338,0.7153117327143321,-2.0,0.9671561172648464,0.5032277074837982,311.4485413285545,-25.94101941158047,11.994413907052865,-22.49288676752103,-7.276563998161455
GUIDED_NOGPS,3.055509567260742,22.646696111357084,311.70420248373284,-27.303133971934543,11.98016726451121,-19.63226104784851,268.67019411592133,-43.74495445563656,18.550989969095212,-2.2367949590687926,0.5871473936032142,85.3691410773987,0.8408470592451638,-2.0,0.9816130523924255,0.503285411352292,311.4485413285545,-25.94101941158047,11.994413907052865,-22.49288676752103,-5.67228217179515
GUIDED_NOGPS,3.097782850265503,23.665746963003087,310.8544524415927,-24.704396672984327,11.989232011880347,-19.892415174207272,268.19450423772764,-43.904324081609374,18.676507788744466,-2.1388622126452685,0.6415968078929096,85.18928853617392,0.9879426907913711,-2.0,0.9946207587103637,0.5033436378884321,314.20883430088,-22.23115119579188,11.978868221535324,-21.991912007559748,-4.469070802020421
GUIDED_NOGPS,3.139002799987793,24.261079811663446,315.1222297701185,-20.959721718628142,12.43137114104446,-20.18415009532178,267.71932854160514,-44.0635214419778,18.80422200572237,-2.0406293647850875,0.6314094740241298,85.0436552426909,1.1986570642775956,-2.0,1.0092075047660891,0.5031864254323389,329.8142882421465,-14.706994548511915,13.32083129454521,-31.718998416875976,-4.068000345428845
GUIDED_NOGPS,3.17777681350708,25.79300675218616,316.81982116823923,-18.078046452247165,12.609264576281829,-20.356150824990408,267.2450091976869,-44.22243190002446,18.93412140124662,-1.9337403193689728,0.5830888738540515,84.9286758382029,1.3434890835095805,-2.0,1.0178075412495204,0.5031624284124824,317.1789006410609,-17.29599361243754,12.528094212764973,-21.807016853807625,-3.20856365273261
GUIDED_NOGPS,3.2129592895507812,28.427479260424008,317.4744530067127,-16.25492055741633,12.888040888433812,-20.47988581258236,266.7718874492342,-44.38094112956037,19.06619398951406,-1.845977724619598,0.5675397347651059,84.88063228758104,1.4326332322267068,-2.0,1.023994290629118,0.5030890765505401,314.7217005209218,-16.761773511299374,12.815197157991271,-21.873214463003904,-2.0053522829578814
GUIDED_NOGPS,3.255263566970825,23.642002378684282,318.20107559681645,-16.53963384310813,12.665614127091956,-20.54346466005421,266.300303241888,-44.53893523913621,19.20042702828023,-1.700874411127497,0.3835184302690952,84.87742209867113,1.3978529600185852,-2.0,1.0271732330027106,0.5032674064505941,315.08165427907323,-15.561134405587309,12.653551010519644,-21.89339680208606,-0.40107045659157625
GUIDED_NOGPS,3.2930715084075928,26.457811869196608,318.4210979778776,-15.519185316370816,12.696275108168445,-20.593304346410818,265.8305948529202,-44.6963008962537,19.33680702943903,-1.541013513438231,0.48252479705278034,84.89464100556873,1.4749698785659051,-2.0,1.029665217320541,0.5033202659606353,315.30894620618574,-14.234648032225598,12.620077155994439,-22.54276767479321,0.2291831180523293
GUIDED_NOGPS,3.325408697128296,30.930761118854303,315.7495014336108,-14.330141074146283,12.523153304847684,-20.60374159167257,265.363098520485,-44.85292545157696,19.475319769602255,-1.387798816698211,0.47360830525644604,84.929884781686,1.5484193436539484,-2.0,1.0301870795836285,0.5034760832323772,316.4563055208126,-13.194640784625777,12.295831748028988,-22.654616365296164,0.9740282517223995
GUIDED_NOGPS,3.364497184753418,25.58766219901293,315.9426386954898,-13.208594700658699,12.376084249916628,-20.55487183553905,264.8981480728702,-45.00869706314381,19.615950300679227,-0.8511679824440869,0.31869102378324143,85.12322011633238,1.6090570701803546,-2.0,1.0277435917769526,0.5036199330253813,318.14458695045556,-12.196495285124554,12.212343845726469,-22.19436907739994,3.323155211758775
GUIDED_NOGPS,3.408262014389038,22.889424913502364,317.75963064013564,-11.406086500192247,12.074600137327147,-20.490495300360607,264.43607455774844,-45.16350482057713,19.758682960456394,-0.4161215912202106,0.12664061847446914,85.36708519045852,1.714692222194408,-2.0,1.0245247650180305,0.5038420414115646,323.80666024415103,-8.827123430826246,11.715624818225997,-27.407948741956062,4.8128454790989155
GUIDED_NOGPS,3.4469432830810547,25.83272153925747,318.7954736173012,-10.57362149843133,11.751335260329448,-20.32247564685186,263.9772058714287,-45.31723886929623,19.903501383176916,-0.18968370474072319,0.05538002756410964,85.58247520593487,1.755299257326621,-2.0,1.016123782342593,0.5040760830614237,320.2608691649012,-10.69724577934302,11.326037117035886,-21.81113230973675,5.729577951308232
GUIDED_NOGPS,3.4852399826049805,26.116463262764633,319.978551419648,-10.116906254135301,11.315932421065094,-20.108014937455607,263.5218663881075,-45.46979053472813,20.050388510120275,0.0916441298897122,-0.08962053960575048,85.87903518950765,1.7824839946654876,-2.0,1.0054007468727804,0.5043672280445276,321.2243352179197,-10.82634955223647,10.906135327933411,-19.598357782230494,6.589014644004467
GUIDED_NOGPS,3.530385732650757,22.154691288248934,321.11297723468385,-10.658619190502636,10.847433977763975,-19.88879941002473,263.0703765891204,-45.62105244651897,20.199326600181852,0.2407977055389913,-0.22356116287950875,86.12194403714999,1.752226781444039,-2.0,0.9944399705012366,0.5046759463112089,322.12843459599185,-10.452262239928254,10.310129488322637,-22.903575933663845,7.505747116213785
GUIDED_NOGPS,3.5643675327301025,29.44507704728141,321.93854327509314,-10.80074426887783,10.215907313734123,-19.584860641700377,262.6230526921928,-45.770918662745295,20.350297240452555,0.36966910114898366,-0.40076852658521195,86.40149684968944,1.7582589356048215,-2.0,0.979243032085019,0.5050671949633592,322.27241715250176,-11.123621014468606,9.431457124946334,-22.0016797142643,8.708958485988513
GUIDED_NOGPS,3.6091928482055664,22.311907864989227,321.84472409902264,-11.033090795280962,9.487113925016471,-19.30729127902001,262.180206280692,-45.919284794125424,20.503281356798396,0.6836471343223576,-0.739299782483886,87.09372286169189,1.754612978719734,-2.0,0.9653645639510006,0.505508083715891,323.33756436379866,-11.523389131445864,8.719755161780453,-21.723954432760607,10.370536091867901
GUIDED_NOGPS,3.647874593734741,25.858681512444438,323.9771687329904,-11.22690338850115,8.272430224397324,-18.899728206049087,261.74214393287804,-46.066048128230804,20.658259224440098,0.9723307892042058,-1.0238737445586492,87.53613470480113,1.7539174253686312,-2.0,0.9449864103024543,0.5061929145000214,330.9230923347397,-11.033700019588817,6.666078386465196,-24.29764991233479,11.802930579694959
GUIDED_NOGPS,3.689887762069702,23.8048979823491,325.3157347298187,-12.179941974738439,7.119703508655374,-18.478780806298623,261.3091668511551,-46.211107753697306,20.815210478532684,1.2074708302741788,-1.2393753909392486,88.12421399233922,1.705874260106572,-2.0,0.9239390403149312,0.5068477534849386,327.9171652020617,-13.982736773180468,5.973276977720489,-21.16258534407946,13.178029288008934
GUIDED_NOGPS,3.732067108154297,23.71351357463505,328.1763653537588,-12.12055230668391,5.773108412462887,-18.03082351124927,260.881570491323,-46.35436468443662,20.974114124745093,1.4650999095166533,-1.4693775289277853,88.70118056209772,1.729520328207663,-2.0,0.9015411755624636,0.5076005028561411,336.4315877156924,-11.345220127282277,4.679969873202992,-27.870986133772092,13.980170201192088
GUIDED_NOGPS,3.7732479572296143,24.28988226573313,330.07217032318596,-14.518551016690987,4.567341775343585,-17.48714879395813,260.45964419182815,-46.495721983847574,21.134948549839756,1.6879142338991033,-1.6359248616493762,89.31421736086304,1.5878547654334765,-2.0,0.8743574396979066,0.5082838033872481,331.7514419996374,-18.227696149610047,3.0487784751072873,-21.46420274384242,15.068790011940651
GUIDED_NOGPS,3.8146440982818604,24.161015679904146,334.1141796569218,-14.477637291616078,3.114444034781093,-17.021949717405374,260.04367080301535,-46.63508488902745,21.297691532252212,1.9466651717127526,-1.796246690385912,90.05938416912225,1.6281197554609035,-2.0,0.8510974858702687,0.5090916237487355,343.5476110324781,-13.859995597955749,1.6145837560330156,-33.58220945176093,16.329297161228464
GUIDED_NOGPS,3.8564488887786865,23.925342825199078,303.82927722643507,-26.842154863608233,2.3094869840262935,-16.24282673891814,259.63392631637885,-46.77236093498338,21.462320252670697,2.129250428935768,-1.9591866160086784,90.7778517679159,0.8693890327018943,-1.938167917890667,0.8121413369459071,0.5095764166343222,179.49858018230603,-48.43877284325874,2.2650987209385938,3.342193937463094,16.386592940741544
GUIDED_NOGPS,3.896810293197632,24.79958374722104,306.0294231081248,-28.59303126818178,1.4019978247224205,-15.631578807786227,259.23067949381357,-46.907460078843634,21.62881130461575,2.2766678958960345,-1.9641271906561248,91.38857996274176,0.9153190783108442,-2.0,0.7815789403893114,0.5101134067399467,338.91789461051,-23.480325363330692,0.326310997195668,-23.241228409972564,17.01684651538545
GUIDED_NOGPS,3.9332010746002197,27.468868906891608,304.9653460618247,-33.540196492527734,1.0894416697009248,-14.99988392463834,258.8341914968666,-47.040294824069,21.797140705019793,2.280621508208414,-2.1930644594643742,92.078668125534,0.6290788522408772,-2.0,0.749994196231917,0.5103538495176594,331.1112024841917,-28.701491270993618,0.6769152909685282,-18.181616208327284,17.1887338539247
GUIDED_NOGPS,3.9806270599365234,21.08760727806575,304.719885906219,-27.947343934700275,0.5144528903359512,-14.448777698229781,258.4447155159886,-47.170780344664095,21.967283904806763,2.212120046918475,-2.3486497654549177,92.89473229737796,1.0423255116128072,-2.0,0.7224388849114891,0.5107264155072354,330.52414122160894,-31.66021516977634,0.540132382843673,-18.92755385455139,17.131438074411616
GUIDED_NOGPS,4.01928973197937,25.87431447906578,303.3545082212138,-32.438632009350485,-0.010148487327566144,-13.683977330791272,258.0624963997849,-47.298834609388734,22.139215799471668,2.0305441635887402,-2.611083562613379,93.65002144598714,0.7079705888591945,-2.0,0.6841988665395636,0.5110746821433996,336.72072260745205,-36.95418958728133,-1.2474931357948842,-17.66632069409023,17.1887338539247
GUIDED_NOGPS,4.056400775909424,26.94684904048159,333.6537209065174,-36.67974635319835,-0.6010470383206911,-13.056423075219174,257.68777028426683,-47.424378505969266,22.312910739660218,1.8936264049300764,-2.802575599957503,94.27264100015799,0.5040622267141475,-2.0,0.6528211537609587,0.5114569788889904,330.99464360882405,-41.4248343025372,-1.0957803620108466,-14.147825298543594,17.131438074411616
GUIDED_NOGPS,4.096391677856445,25.01209963563936,333.71388954024565,-40.21352259914239,-1.5199093039687217,-12.49488335374288,257.3207642221033,-47.54733596530991,22.488342541748416,1.8544420365485363,-3.036806692259335,95.00711856236613,0.34633253247854456,-2.0,0.624744167687144,0.5120041259228586,339.2187377791513,-42.261543907608456,-2.2164544141004185,-19.61332298645145,16.844959176846203
GUIDED_NOGPS,4.143089056015015,21.418962118658783,334.909803542523,-43.5496993829592,-2.4223612404619,-11.874948242925175,256.961695811872,-47.66763408570405,22.665484498422142,1.89478775053239,-3.337799468603457,95.73735457709971,0.19389778860783657,-2.0,0.5937474121462588,0.5125439228694421,337.09077249557845,-46.96271993873172,-3.9548489452744193,-16.131333778129928,16.558480279280793
GUIDED_NOGPS,4.175124645233154,31.22086003736704,334.3057233663934,-47.81850161394482,-3.2978432894767864,-10.978601821467686,256.6107728273105,-47.785203257045694,22.84430938925677,1.9096410640996406,-3.5487934035752593,96.2437106512186,-0.04384897294786273,-2.0,0.5489300910733843,0.5130710763393668,327.5037403409609,-54.231240995494076,-3.7222265090555053,9.98288964045453,16.214705602202297
GUIDED_NOGPS,4.2102813720703125,28.445023159922144,333.09762646004185,-53.21389754412709,-4.6922102275780135,-10.5118786565551,256.26819284656773,-47.89997728504069,23.02478949129675,1.970495274840104,-3.560381246389009,96.88323492358523,-0.31817697897831543,-2.0,0.525593932827755,0.5138584998594374,330.68023807569415,-58.44773169815527,-6.399555228404101,-12.578244800268351,14.954198452914486
GUIDED_NOGPS,4.255404710769653,22.165462645394157,334.2811848182314,-60.25395255723239,-6.209584299689439,-10.086576611306029,255.93414288145564,-48.01189351541815,23.20689658963522,2.079237649398819,-3.6869723993528485,97.50208421333424,-0.6671635811336115,-2.0,0.5043288305653014,0.5147082404446623,336.912435399772,-68.0828849780476,-8.506971161608696,-22.5502931654745,14.209353319244416
GUIDED_NOGPS,4.300047159194946,22.409540194266054,332.38112036092264,-63.86009678592882,-7.338383346276693,-9.48064161963961,255.60879900669985,-48.12089295814176,23.3906019879936,2.084345990567754,-3.8615037963273613,98.03437451573167,-0.8050778432587423,-2.0,0.47403208098198046,0.5153644926671351,329.71841549260745,-65.0496736815834,-7.108623648817267,-12.286337925793376,13.120733508495853
GUIDED_NOGPS,4.3389904499053955,25.679779098885085,331.03760864553436,-68.27617862889828,-7.902502182885539,-8.93878198040181,255.29232598919162,-48.22692041162111,23.575876519301183,2.0499544939928587,-3.9155924912515156,98.6340651248588,-1.037475432896224,-2.0,0.44693909902009055,0.5157391893510933,330.37321391863736,-71.69597722706366,-8.091911738230639,-12.149000838214747,11.631043241155712
GUIDED_NOGPS,4.386997938156128,20.835774926354798,330.990623511543,-70.62250832956812,-7.9224152035181445,-8.523037662780716,254.9848769172387,-48.32992458692306,23.76269055627474,1.877836928559711,-3.780314191437066,99.1217884429219,-1.1188371609450503,-2.0,0.42615188313903585,0.5158425528798964,327.26881467100395,-75.1218740800571,-8.566710223506513,-7.824110115486306,9.052733163067007
GUIDED_NOGPS,4.4398791790008545,18.913026225605137,330.59136930494935,-74.71629721997847,-8.161454239250945,-8.117043866928926,254.68659282981687,-48.42985823198308,23.951014021998116,1.4523644882006355,-3.760482737181934,99.57055919214841,-1.3342124548570686,-2.0,0.4058521933464463,0.5160562341306245,328.6839670427261,-77.33104035281443,-7.82574075601567,-11.586101029733967,6.818197762056797
GUIDED_NOGPS,4.477815628051758,26.37462585205121,328.0232944752554,-78.47260655644351,-8.11820468241966,-7.723247742657684,254.39760234582138,-48.52667825581658,24.140816400501834,1.192837363420838,-3.693020104976072,99.7926359628222,-1.5290465103094797,-2.0,0.38616238713288425,0.5161295105414607,324.0720612513021,-82.9649052364588,-7.962163067736785,-6.299679005699829,5.67228217179515
GUIDED_NOGPS,4.516360282897949,25.943132124720886,326.83406889742594,-81.80889729970964,-7.914607132962442,-7.523071674320641,254.118021293318,-48.62034585273023,24.332066747342683,0.8768436773903697,-3.7714861719348245,99.9458371059056,-1.6858838529057274,-2.0,0.3761535837160321,0.5161233369401526,323.77228760346014,-85.13074630985551,-7.955917575134856,-6.6245205504791045,4.1252961249419275
GUIDED_NOGPS,4.56444525718689,20.79919863927362,325.2480032702715,-84.97072844782288,-7.9294596595874225,-7.379360252166783,253.8479523387944,-48.710826626533375,24.524733700183326,0.5107384942451048,-3.6700800608749375,100.12367474132522,-1.8312033484348358,-2.0,0.36896801260833917,0.5162270966798854,322.4428857828652,-86.81653379715414,-7.87029833589061,-5.979722223097525,1.8334649444186344
GUIDED_NOGPS,4.600984334945679,27.37474709237818,324.11206575908517,-87.2168662785288,-7.977025999001053,-7.254471307469654,253.58748461641179,-48.79809071474929,24.71878548937189,0.3049197082300561,-3.6110838750321297,100.16387040459074,-1.9382408161535378,-2.0,0.3627235653734827,0.5163479057441864,321.58912711507236,-89.70331872857652,-8.104862085977675,-5.5635343807114594,0.6875493541569879
GUIDED_NOGPS,4.642936706542969,23.84116139080414,322.6930977735544,-88.74105708476912,-8.026674169281991,-7.231232049722391,253.33669335725568,-48.88211291282659,24.914189948521567,-0.1227560684459434,-3.64210147160045,100.18694278360705,-1.999601959711549,-2.0,0.36156160248611957,0.5164704320589018,321.58912711507236,-89.70331872857652,-8.104862085977675,-5.5635343807114594,-1.0313240312354819
GUIDED_NOGPS,4.683440446853638,24.69183944991935,321.8485497217324,-90.35025380227218,-8.136288084073032,-7.262713829865388,253.09563951858786,-48.96287279835051,25.110914525090223,-0.34115583612853073,-3.494299166169136,100.10651047594098,-2.0,-2.0,0.3631356914932694,0.5166236013045816,319.8493209921922,-91.6441239496633,-8.19914008026373,-6.128503319076302,-2.5783100780887045
GUIDED_NOGPS,4.725001335144043,24.07309793838101,320.85955171458806,-91.16699966334126,-8.20234573933776,-7.345030635784311,252.86436941309708,-49.040354855254286,25.308926290959974,-0.624387932835651,-3.394569439663664,100.00950812934845,-2.0,-2.0,0.36725153178921555,0.5167556360151488,318.8272975677383,-92.15355631178376,-8.30303505177186,-6.00255400395325,-3.6096341093241864
GUIDED_NOGPS,4.762491703033447,26.678268391659987,320.04915364884147,-92.15821475167547,-8.338714816866693,-7.462823936429461,252.6429143381509,-49.11454859803052,25.50819195301681,-0.972678915408465,-3.3852833706002086,99.87593694993969,-2.0,-2.0,0.37314119682147306,0.5169234533849417,318.3908954541322,-92.67696399357911,-8.513969318564474,-5.9705158621811165,-4.1252961249419275
GUIDED_NOGPS,4.808999538421631,21.50450926206016,319.18418889188746,-92.4804729878252,-8.412884121117882,-7.616891351252263,252.43129020504662,-49.18544869594245,25.70867786373017,-1.3440132486936094,-3.2081505253255673,99.63761115923043,-2.0,-2.0,0.38084456756261315,0.517060780992424,317.2643033303024,-92.6108986581125,-8.421647993017299,-6.656672113853716,-5.443099053742821
GUIDED_NOGPS,4.855590581893921,21.46653837492579,318.36628854538486,-92.61017194396057,-8.50498245397737,-7.824329457813684,252.22949716826292,-49.25305509723536,25.91035003173254,-1.4742453193718887,-3.003999586128471,99.43133261610687,-2.0,-2.0,0.39121647289068423,0.517207666242855,317.4996253825593,-92.54265318018987,-8.579330050350324,-6.184622784486166,-5.385803274229739
GUIDED_NOGPS,4.9015889167785645,21.74183314844957,317.73485960271256,-92.41381279802299,-8.429120928338188,-8.042986510732256,252.03751925471093,-49.31737315334787,26.113174132399095,-1.6772332054193786,-2.920451431540406,99.23691811157163,-2.0,-2.0,0.4021493255366128,0.5172711475303686,316.69217627883063,-92.08788655576632,-8.286384741646925,-7.003737237744829,-5.213915935690491
GUIDED_NOGPS,4.947840690612793,21.625139852027534,317.1578338909996,-91.93189274094134,-8.284349612695857,-8.2570593071496,251.85532399298575,-49.378413743123346,26.317115518427233,-1.6595880520288855,-2.8296444934119096,99.04006522950269,-2.0,-2.0,0.41285296535748,0.5173007325655615,315.9421690091736,-91.16513848686753,-7.987334046090308,-7.263867937351648,-4.583662361046586
GUIDED_NOGPS,4.984624624252319,27.191950624967586,316.61659203429673,-91.28824431830022,-7.947238708673088,-8.43969268188387,251.68286204261761,-49.436193397021135,26.522139230416215,-1.6536673452355422,-2.755339719204987,98.9446269962301,-2.0,-2.0,0.4219846340941935,0.5172346889695446,315.6846861706179,-90.61170791226655,-7.567997338282018,-7.065333857892199,-3.495042550298022
GUIDED_NOGPS,5.02972674369812,22.176244481455047,316.29106921928076,-90.68122825287371,-7.593734968423337,-8.552363012395475,251.52006682332328,-49.490734421328014,26.728210007446748,-1.4675495995511607,-2.5020946609143087,98.8083988732342,-2.0,-2.0,0.42761815061977376,0.517160972487935,315.6366892552229,-90.26683835948675,-7.2258735208976725,-6.901553100589382,-2.9220847551671985
GUIDED_NOGPS,5.078354597091675,20.567270302210062,315.7729134852097,-90.25126978331072,-7.107486327209674,-8.68306643163119,251.3668541442574,-49.542065022369485,26.935292297660606,-1.3202595583075976,-2.3206259261771787,98.70305003547593,-2.0,-2.0,0.4341533215815595,0.5170213893124351,314.908846712204,-89.8752630781786,-6.528588122449319,-7.364594259100059,-2.807493196141034
GUIDED_NOGPS,5.116661548614502,26.110122697476953,315.2364030115488,-89.81589823171589,-6.250669489567538,-8.823697762708935,251.22312183326372,-49.590219430721085,27.143350268840173,-1.194511826984549,-2.211714717879917,98.60560372658735,-2.0,-2.0,0.44118488813544676,0.5166970098792039,314.00962391052633,-89.305593257482,-4.997546825355608,-7.600218665876426,-3.151267873219528
GUIDED_NOGPS,5.153990983963013,26.79638396422297,314.38983326265037,-89.46136623479231,-5.12243736377388,-8.91624410609099,251.0887493661267,-49.63523802541979,27.35234781898812,-1.0945533958635874,-2.07544113143735,98.53079949479738,-1.9967741780265544,-2.0,0.44581220530454946,0.516237392591381,311.7093202646813,-89.20324236871599,-3.841177143516699,-7.261403879638863,-2.4064227395494577
GUIDED_NOGPS,5.195553302764893,24.07005865001664,313.58911636417946,-89.13573525645086,-3.8856208508491323,-8.997590110496695,250.9635974958223,-49.677167458175326,27.562248586906925,-1.0250378649253133,-1.9684630801186136,98.46226537666547,-1.9808303548124173,-2.0,0.4498795055248348,0.515723934718878,311.6811016782632,-88.89837014315421,-2.818138583675076,-7.798313627664115,-2.177239621497128
GUIDED_NOGPS,5.238449335098267,23.31217936960521,312.60229445291117,-88.96625489057358,-2.8239235068767994,-9.081410028603845,250.84750788176987,-49.71606077758148,27.773015962778544,-0.9119117895799193,-1.8962295607774975,98.39631307003982,-1.974283716107464,-2.0,0.45407050143019223,0.5152984697348276,310.70257969888144,-88.79715215985014,-1.812454793438609,-7.919691156691243,-2.2345354010102105
GUIDED_NOGPS,5.282585859298706,22.66223612619476,311.42084562255786,-88.67556427467571,-1.604000145421674,-9.18542621998499,250.74030271908302,-49.75197755332754,27.984613098743928,-0.7655257345451779,-1.650032830823449,98.2971250629129,-1.9583124878457758,-2.0,0.4592713109992495,0.5147943066220828,309.00160256043745,-88.33117052102241,-0.18140705915132183,-8.289641698061885,-2.864788975654116
GUIDED_NOGPS,5.321192026138306,25.90899768973228,310.0435549568227,-88.5128495991554,-0.3945057153111014,-9.30262307781457,250.64178436782137,-49.7849840004095,28.197002919482706,-0.7253482139696358,-1.6019520343262617,98.22040154796615,-1.951210135748057,-2.0,0.4651311538907285,0.5142957543173969,307.12317058185045,-88.41022611659328,0.8103447066566415,-7.431324204764067,-3.6096341093241864
GUIDED_NOGPS,5.366235017776489,22.204067803788288,309.04795819255366,-88.27236983861364,0.8058018656484297,-9.442151883180351,250.55173498224158,-49.81515310334152,28.41014813279272,-0.5639646643431332,-1.4658529378726473,98.02820002472198,-1.9389501818642936,-2.0,0.4721075941590176,0.5138021731335721,306.7313364433361,-88.07571287822489,1.7884679494399844,-8.707320247362944,-4.640958140559668
GUIDED_NOGPS,5.405120134353638,25.724035571910456,307.717056812843,-88.03898027355699,2.1468754283230194,-9.649193033370972,250.46991614004855,-49.84256474036717,28.62401124016966,-0.6308714365444327,-1.4217676953182115,97.84081378484268,-1.9270419027621095,-2.0,0.48245965166854865,0.5132385679059234,305.02659477971025,-87.6310018258525,3.841813628872447,-8.69350725832966,-6.41712730546522
GUIDED_NOGPS,5.451604604721069,21.51653380118399,306.58185982900875,-87.77923884331005,3.1573650690616213,-9.877341226169488,250.39606847164728,-49.86730580767088,28.83855454738664,-0.7007250084857696,-1.4748625977181287,97.54977942430844,-1.914826682946358,-2.0,0.4938670613084744,0.5128405947391625,305.02659477971025,-87.6310018258525,3.841813628872447,-8.69350725832966,-7.16197243913529
GUIDED_NOGPS,5.489539861679077,26.392051496636736,305.4339899543146,-87.2928666899068,4.341559958232668,-10.183371023994107,250.32991128939352,-49.88947034358919,29.0537401750738,-0.8746284015826113,-1.478318673438155,97.23762611886052,-1.887202416943127,-2.0,0.5091685511997054,0.5123560901084205,303.2622531869665,-86.61659641801512,5.3410526169531245,-8.929065165323976,-8.193296470370772
GUIDED_NOGPS,5.529566287994385,24.973081755014796,304.39944592536995,-86.66902084051941,5.0615188137480365,-10.488111220718004,250.27114221684565,-49.909159652822076,29.269530069297925,-1.0776834689438906,-1.604856892435927,96.92778141735207,-1.8552628981406871,-2.0,0.5244055610359002,0.5121040056277749,301.9504504371273,-85.7594642776903,6.001690195418551,-8.994343255384663,-9.740282517223996
GUIDED_NOGPS,5.572085618972778,23.52333094041637,303.3441701651967,-85.76878761525514,5.794834584562293,-10.86911553662666,250.2194368180157,-49.92648243064448,29.485886012142018,-1.325530223191026,-1.6733710536088537,96.43093296655782,-1.8080776473296212,-2.0,0.5434557768313331,0.5118455257137898,301.4549576424703,-84.93030215005969,6.041760941315219,-9.164909794328793,-11.573747461642629
GUIDED_NOGPS,5.611450672149658,25.416635357709882,302.38314355598106,-84.40385103696563,5.929637346425899,-11.322371406619387,250.17444822662077,-49.941554887117356,29.70276963228491,-1.5351402978039606,-1.673340744644412,96.01969410682052,-1.7332638438408166,-2.0,0.5661185703309694,0.5118865661429295,300.2214617336318,-82.5217866831466,5.745460902543943,-9.712578275727367,-12.605071492878112
GUIDED_NOGPS,5.650887966156006,25.360848928258307,301.33442826173194,-82.76835375079479,5.62510108321942,-11.777543970098757,250.13580677533412,-49.95450087129925,29.92014241558084,-1.8319882165389425,-1.8440680464163448,95.4899992763077,-1.6496150586453429,-2.0,0.5888771985049378,0.5121475206661807,299.7830183084649,-80.85297241917775,5.0880814057991115,-11.003504550070275,-13.178029288008934
GUIDED_NOGPS,5.696903467178345,21.735185751374544,300.4936420032876,-80.82988981106064,5.265458937789313,-12.296006167718792,250.10311962503727,-49.965451995457535,30.13796571563911,-2.0996466815256403,-1.7337808751664432,94.83454017260742,-1.5528981299404705,-2.0,0.6148003083859397,0.5124362533889248,299.0583218947447,-79.11491033085723,4.962834505024898,-11.388516561755665,-14.610423775835994
GUIDED_NOGPS,5.7319557666778564,28.551714748607914,299.85460477700116,-78.36553571216899,4.57824868039159,-12.915490997077011,250.07597039407005,-49.97454775927978,30.356200764403575,-2.25863747714767,-1.6916306038595308,94.34706274135445,-1.416083935169445,-2.0,0.6457745498538506,0.512888976042006,298.75526430569516,-75.12872438647166,3.683830130350774,-12.107845939485955,-15.183381570966816
GUIDED_NOGPS,5.779269456863403,21.137022889222614,299.31466610964617,-76.4574530346003,4.110164921908811,-13.416021232314906,250.0539187874831,-49.98193567408514,30.57480868273239,-2.5412873535888996,-1.5517245307172804,93.7379259806052,-1.336168489765433,-2.0,0.6708010616157454,0.5132323218804118,298.75526430569516,-75.12872438647166,3.683830130350774,-12.107845939485955,-15.52715624804531
GUIDED_NOGPS,5.816336154937744,26.97891500392369,298.6985860457324,-73.5082854187021,3.751185886751808,-14.08630071156978,250.03650022628864,-49.987771387035544,30.79375049097746,-2.8249604777451616,-1.3906978051140582,93.16022858060552,-1.1710955376521837,-2.0,0.7043150355784891,0.5135212823021128,297.141061414063,-70.26740748316264,3.8858973995538917,-13.523113117860618,-14.896902673401405
GUIDED_NOGPS,5.856455087661743,24.928554022810886,298.1441227373481,-71.1658474994996,3.855814717633457,-14.625172113838259,250.02322547671173,-49.9922188053472,31.012987119564148,-3.0513596909465166,-1.112659800466468,92.52955623340321,-1.0642668488290028,-2.0,0.731258605691913,0.5135785862009653,297.01070176654343,-68.10141062886422,3.9977166229957204,-12.839461536582519,-14.896902673401405
GUIDED_NOGPS,5.896314859390259,25.117548072604453,297.856775321741,-67.85971281928158,4.293288039182678,-15.1717939923411,250.013580279442,-49.99545022050186,31.232479419570794,-3.192980248292146,-0.8074426588423991,91.95110068240567,-0.886638010601633,-2.0,0.758589699617055,0.513469595690194,297.6215848167093,-65.2103203458176,4.996250094998437,-14.174202624157815,-13.80828286265284
GUIDED_NOGPS,5.9331910610198975,27.105317918328044,297.261545196378,-65.37137415278333,4.883913871508854,-15.661674397881505,250.0070249788845,-49.997646432458176,31.452188173308386,-3.2846567548793493,-0.5876427957614517,91.54337937009093,-0.7713862387082077,-2.0,0.7830837198940753,0.5132841371508998,295.7791136788801,-62.80239148366784,5.657774896532421,-14.483125739527907,-11.802930579694959
GUIDED_NOGPS,5.972973108291626,25.144501462759578,297.2811988428492,-62.51525443263579,5.843187642325659,-16.088543354740285,250.00299415241125,-49.99899687386311,31.67207410490008,-3.2994947005209676,-0.33505735765378203,91.14243360543284,-0.6263956360411437,-2.0,0.8044271677370143,0.5129144432312872,298.8535325380512,-59.5330514684216,6.875537935446133,-17.68782713365202,-10.198648753328653
GUIDED_NOGPS,6.016341924667358,23.06032416265312,296.93199606194423,-59.20400674379658,7.305942562754943,-16.48255219410668,250.00089623961247,-49.99969973426307,31.892097890860892,-3.361818682593453,-0.12690782294531947,90.81273354400716,-0.45909929984435077,-2.0,0.824127609705334,0.512293077664053,295.39504750953796,-55.2765772793,9.384514856286293,-15.773183693118838,-8.995437383553925
