Mode,Time,Freq,North-Vision,East-Vision,Down-Vision,Yaw-Vision,North-Desired,East-Desired,Down-Desired,Roll-UAV,Pitch-UAV,Yaw-UAV,Roll-Control,Pitch-Control,Yaw-Control,Thrust-Control,northVraw,eastVraw,downVraw,N-Velocity,E-Velocity,D-Velocity,N-Acceleration,E-Acceleration,D-Acceleration,yawVraw,yawRate,Landing-State,Q-Size
GUIDED_NOGPS,0.028616905212402344,34.96856059027054,-17.554974493387938,49.78303324951619,55.16788490898848,-14.012464965316552,-17.325239011824685,49.772214889398235,55.676904160448196,-0.3008108158357645,0.2824904342127921,-59.751683312187126,-0.1442433266272025,-0.4948254980530393,-10.0,0.5010191687301633,-19.671972088513666,52.38036831276372,52.50700127123629,-7.122473418712616,-5.901738628745079,-25.764814019203186,-8.388178050518036,-32.54701495170593,-131.72011375427246,-14.492867396785865,6.636531108928087,False,3
GUIDED_NOGPS,0.03423023223876953,178.2004503547606,-18.29735828950148,49.71620923531988,54.148961478571884,-13.998390734615164,-17.568892610410142,49.562968999258075,54.90056171442395,-0.3008108158357645,0.2824904342127921,-59.751683312187126,-2.158962297800495,-3.5842003001405773,-7.43560709362718,0.5015046820510708,-19.721997982345698,52.63734838028081,51.8017417953523,-7.441936433315277,-4.051030799746513,-25.178828835487366,19.293278455734253,-3.692375123500824,5.339990556240082,-14.343831965753456,4.403899790488652,False,2
GUIDED_NOGPS,0.04072093963623047,154.21369218324878,-18.412053742825638,49.840853766451524,53.66869691557268,-13.983164426336971,-17.819790011431277,49.27688704872534,54.07899873292016,-0.3008108158357645,0.2824904342127921,-59.751683312187126,-2.850553530398666,1.9773798681714114,-7.437880384025552,0.5008222952060635,-20.017116787028712,52.84414674054181,50.90333658611585,-7.8828513622283936,-2.366148494184017,-28.7175714969635,-2.9129114001989365,25.74596405029297,-111.19240522384644,-14.145302160656877,1.4140316523095258,False,1
GUIDED_NOGPS,0.060523271560668945,50.515524509213535,-18.52960004985,49.97695865034327,53.22919262825361,-13.925186738742072,-18.07696013162295,48.918805691274414,53.21444881674725,-0.31978385405044346,0.32061873795477175,-59.78386716355623,-1.1785481040992938,0.6902980717238834,-7.185110494043144,0.4999721805689106,-20.30352329444886,53.203062113796236,49.58460917163984,-7.8809089958667755,-1.6600187867879868,-27.25318968296051,-6.670019030570984,46.713173389434814,30.777961015701294,-13.876278403556558,4.06218073055786,False,1
GUIDED_NOGPS,0.08760690689086914,36.93014246218325,-18.64884394581723,50.14111289409373,52.85009736910832,-13.903754821713262,-18.339463726538696,48.49342928606396,52.30910180009959,-0.48800783813071386,0.44742135997861715,-59.86850686775102,-1.0801409607366825,0.5681536011174134,-8.026321443544226,0.49891850266525495,-20.71362358290027,53.67731478962265,48.261215618622145,-8.378060162067413,0.060324184596538544,-24.360807240009308,8.222488313913345,81.97003602981567,144.4632887840271,-13.66355027965294,1.2493303916545424,False,1
GUIDED_NOGPS,0.10021853446960449,79.30540009075783,-18.905095871487475,50.32594649312753,52.251665799331555,-13.879169238259113,-18.60639299412092,48.00533140931289,51.36510410424372,-0.48800783813071386,0.44742135997861715,-59.86850686775102,-2.731086976871029,0.7027137214256847,-7.543934277713004,0.4982264802631373,-20.707975086764943,54.256569513947746,47.517526073956134,-8.794672787189484,2.7405044063925743,-22.06343710422516,0.7273024879395962,55.52796125411987,92.7611231803894,-13.389570477757509,-0.02893012000323526,False,0
GUIDED_NOGPS,0.11915898323059082,52.81767009608241,-19.07537406209385,50.46773928570468,51.83755274046625,-13.839295412047647,-18.87687117827111,47.4589563656764,50.38455909120656,-0.6832193403647326,0.6799908486822851,-59.88382698205936,-1.8730909183410045,0.7731259789441731,-7.458350270721306,0.4970914229021806,-20.929664670810237,54.50885071095192,47.07675500212054,-9.653199464082718,-1.7952987924218178,-21.658246219158173,-3.3346574753522873,-13.257813453674316,111.44887208938599,-13.29436754642843,1.6149606632090798,False,0
GUIDED_NOGPS,0.15244555473327637,30.048171020016333,-19.275389720117246,50.596860096421544,51.37437539768035,-13.799044578258032,-19.150052172420015,46.8586206996219,49.36952741746364,-1.5915147582225417,0.9718075326807594,-59.88670932188911,-1.2547686068569328,0.43388694464485883,-7.79459569359769,0.49598238805979084,-20.929664670810237,54.50885071095192,47.07675500212054,-9.653199464082718,-1.7952987924218178,-21.658246219158173,-3.3346574753522873,-13.257813453674316,111.44887208938599,-13.29436754642843,1.6149606632090798,False,0
GUIDED_NOGPS,0.18995237350463867,26.666056329073687,-19.57217171561733,50.7270429139835,50.655628983867494,-13.758886789412534,-19.425120123097862,46.208514706805055,48.32202738762728,-2.2745949334829354,1.3050584387012052,-59.86916939610052,-1.2790024205496022,0.2653767661636656,-7.8291138722195015,0.49531784501145354,-21.059403573771213,54.61675824349445,45.90648456308953,-9.326642006635666,-0.8983430452644825,-24.17934089899063,41.671743988990784,-25.208455324172974,-3.909943997859955,-13.217775419786683,0.7061527677201083,False,0
GUIDED_NOGPS,0.22751164436340332,26.626951327124637,-19.869892895644448,50.83706293497226,49.90975191432464,-13.703059468925323,-19.70128903350453,45.512703945445736,47.244035308134876,-2.8169629665573113,1.5844314251664153,-59.864142376871385,-1.3613338512272082,0.2825449820754953,-7.628052904416604,0.494645594829511,-21.250913830668367,55.03123637783524,44.60837699546251,-7.091567665338516,-3.491280972957611,-18.471018970012665,56.75031542778015,-9.444639831781387,73.44117760658264,-13.213501318891797,1.8274837067813192,False,0
GUIDED_NOGPS,0.2574889659881592,33.36545009068635,-20.1421276534126,50.965598378233075,49.16846662361483,-13.651040909129437,-19.977802367079775,44.77513074770402,46.13748584093706,-3.1659277899804295,1.8138762624073612,-59.905417210025774,-1.7650767296923442,0.42384756132943396,-7.496093708592726,0.4939078020731496,-21.549053263455463,55.603877999428065,42.881124835581474,-7.091567665338516,-3.491280972957611,-18.471018970012665,56.75031542778015,-9.444639831781387,73.44117760658264,-13.251702317411693,1.8274837067813192,False,0
GUIDED_NOGPS,0.3002293109893799,23.40009930652801,-20.349645320178137,51.05431151367639,48.46713650765495,-13.633677289222106,-20.2539326510734,43.99961573105618,45.004272357185954,-3.1659277899804295,1.8138762624073612,-59.905417210025774,-1.3726541507486112,0.4242261881184899,-8.01739062045249,0.49303221773770733,-21.665024925651565,55.6653071368697,42.3776152551456,-4.753796383738518,-6.433112919330597,-20.102643966674805,84.14298892021179,-25.59443712234497,45.44678330421448,-13.25978896844245,-0.5277294435791577,False,0
GUIDED_NOGPS,0.32577991485595703,39.14495837533132,-20.64120238900885,51.13414801671833,47.55084797129938,-13.613362683059643,-20.52898108011547,43.189859309670666,43.84624729092335,-3.298634096685546,2.015414867690339,-59.94455419396995,-2.1561395324959096,0.4730755004175674,-7.851432806812659,0.4925411377425668,-21.710474496433243,55.80572577168928,41.665004202738814,-4.753796383738518,-6.433112919330597,-20.102643966674805,84.14298892021179,-25.59443712234497,45.44678330421448,-13.368788262263916,-0.5277294435791577,False,0
GUIDED_NOGPS,0.36017537117004395,29.076429279519726,-20.709822089656342,51.14707050784459,47.021690878571235,-13.54141613363025,-20.80227711978651,42.34944320578411,42.66522249276898,-3.4548599463541896,2.171909229170729,-60.073596957959,-1.631913415138307,0.7681643770977129,-7.287234019431894,0.49122542804297087,-21.710474496433243,55.80572577168928,41.665004202738814,1.8562190234661102,-11.773696541786194,-13.376088440418243,79.69011068344116,-9.702274203300476,169.34666633605957,-13.368788262263916,4.217036060080858,False,0
GUIDED_NOGPS,0.400524377822876,24.786247407206048,-20.8295104490553,51.15491179288517,46.30327904494193,-13.428806092343892,-21.07317811018769,41.48183196107729,41.4629695836087,-3.381906482385872,2.0647858228887186,-60.26415923580235,-1.5575528508103207,0.6226569432928419,-6.942563776697224,0.49024209876954383,-22.685234680378425,56.51265662359199,39.587819606060776,4.492608085274696,-12.905040383338928,-12.348724156618118,85.29781103134155,-62.850409746170044,119.27378177642822,-13.101984876856164,5.851042705790519,False,0
GUIDED_NOGPS,0.4552328586578369,18.28069334332873,-20.967529013793072,51.14321201805026,45.51242343020849,-13.306132117354585,-21.341068869511027,40.59037444805113,40.24122030828269,-2.9849625682511762,1.7776415752519148,-60.447754720692295,-1.3546087943771399,0.4975080078801375,-7.0859057779616865,0.4893572628038485,-22.685234680378425,56.51265662359199,39.587819606060776,4.492608085274696,-12.905040383338928,-12.348724156618118,85.29781103134155,-62.850409746170044,119.27378177642822,-13.101984876856164,5.851042705790519,False,0
GUIDED_NOGPS,0.4622340202331543,143.03314691038057,-21.008155905914812,51.15667345891405,44.965316296572325,-13.23005535932506,-21.605361297609587,39.678305381402694,39.00166688927375,-2.9973168863558484,1.7383744975483941,-60.50563374371899,-3.4376184686612707,2.855960011011452,-3.526003065776308,0.4879690796292039,-22.868563369285418,56.39296724087109,38.97140270047505,5.560241639614105,-12.183982878923416,-10.802950710058212,44.499292969703674,-17.36915558576584,174.69637393951416,-12.908781805196703,3.3715120016861704,False,0
GUIDED_NOGPS,0.507011890411377,22.33269793940685,-20.94176120976642,51.20102392731559,44.676747159499435,-13.16914160086665,-21.865493979567688,38.748746829401156,37.74596238039542,-2.6447531935703683,1.2657472849331968,-60.68223511489884,-1.660274654693513,0.9122124526576282,-7.359188404370872,0.4860098967509951,-22.889626088550102,56.293709872159596,38.78963024573642,6.288403272628784,-13.205233216285706,-17.334336042404175,24.51300024986267,-62.074726819992065,-203.46999168395996,-12.934896195726608,5.016586968945837,False,0
GUIDED_NOGPS,0.5404806137084961,29.886306308874037,-20.99937236680545,51.119920744347446,44.09470779073284,-13.047058828219507,-22.120931789271076,37.80470972526379,36.475721020480265,-2.3231168107901174,0.8612071865852421,-60.84053840929222,-1.9307297503236338,0.9049308765044368,-6.3640888925311225,0.4846131637190482,-23.400820438042757,56.204891933251915,38.271342540046845,7.772154361009598,-16.718541085720062,-6.22098445892334,26.926779747009277,-21.951577067375183,161.1454725265503,-12.780387990285577,5.930153798739014,False,0
GUIDED_NOGPS,0.5636696815490723,43.12953346563975,-20.999133116399527,51.10236762425575,43.692053934155616,-12.922720565874872,-22.371165492977145,36.84909537853201,35.19251858706808,-2.2288187922220986,0.7592950545573925,-60.882496261363606,-2.630479669284138,1.3823147479933067,-5.60545723096476,0.48283632382706493,-23.552325814682607,56.16434429034706,38.15870817911063,8.272772282361984,-14.648720622062683,-9.463037550449371,33.09908211231232,-5.811209976673126,-0.6207864731550217,-12.678434763698093,7.8575520740202185,False,0
GUIDED_NOGPS,0.5955924987792969,31.330001867413632,-21.01284442769743,51.19569393169949,43.36377970221367,-12.839543530999238,-22.61571135288512,35.88469698644726,33.89789275009409,-1.7634752293047793,0.2861714259277529,-61.21481228524141,-2.3754210455275615,1.1176655766977193,-6.662712257840091,0.48087941822926866,-24.288308197970927,55.711663505966015,37.47019066697264,9.681953489780426,-4.287637025117874,-1.0418614372611046,42.70588159561157,60.88302135467529,95.08339166641235,-12.339766636187537,3.81598656192475,False,0
GUIDED_NOGPS,0.6303682327270508,28.759035401081984,-21.04754344506557,51.254726081674924,42.913374339514654,-12.737335441669266,-22.85411073070626,34.91420114532709,32.59334342557719,-1.681057471024351,0.33312929663670793,-61.83739085827724,-2.2788529262784993,1.0235106144596617,-6.468417811422146,0.4791423792185317,-24.288308197970927,55.711663505966015,37.47019066697264,9.681953489780426,-4.287637025117874,-1.0418614372611046,42.70588159561157,60.88302135467529,95.08339166641235,-12.339766636187537,3.81598656192475,False,0
GUIDED_NOGPS,0.6621711254119873,31.44957485416073,-21.105174211385535,51.14233748121728,42.389762780807786,-12.527798717505346,-23.085929691234057,33.940189361941094,31.280333129308147,-1.7117493529466266,0.5141019355245129,-62.10428050009549,-2.215374277187433,0.9923522097694476,-4.876605572167181,0.4775353663670473,-24.985338705282405,55.160503759664124,37.003922279270085,9.731675684452057,-14.764527976512909,-3.3549219369888306,29.37740683555603,-87.31226325035095,19.697627425193787,-12.035224063485146,10.500095061063853,False,0
GUIDED_NOGPS,0.6958866119384766,29.67066113948586,-21.144753626765894,51.05261500771871,41.974247359126814,-12.34208292107203,-23.310758605914426,32.96513956488691,29.960287330537845,-1.8788057482047948,0.8675452286090436,-62.44554407178601,-2.225705605734751,1.0032937966472872,-5.196876351712062,0.4756939751071078,-25.228254910769895,55.04110734808937,36.852019475737364,10.469445586204529,-13.421577215194702,-0.3913304302841425,34.82972979545593,-24.15662705898285,4.63162362575531,-11.891138944493811,8.987846782593426,False,0
GUIDED_NOGPS,0.7299489974975586,29.36015736015736,-21.203487509503667,50.821297606497176,41.5634195787059,-12.143438539854266,-23.52821175641591,31.991427615966238,28.634594805665465,-1.9191192322335027,1.0724800387351046,-62.771890510329214,-2.0551290917009006,0.9183565580760455,-4.960756166287626,0.4738289024870833,-25.71774020313139,54.521282246594545,36.66954757981674,9.956970065832138,-21.62887156009674,0.5097893066704273,15.493836998939514,-58.21920037269592,2.9457315802574158,-11.52074167950505,8.588701626555281,False,0
GUIDED_NOGPS,0.7688322067260742,25.7210383334662,-21.243295326671632,50.66099948759912,41.24011477967096,-11.915205040997856,-23.737926938199877,31.02132882156076,27.304607991926723,-2.007768044027687,1.1847638663784714,-62.953887730953376,-2.06262790372155,0.9085389636323334,-4.79819397461023,0.47177224596311035,-26.108842014563212,54.24920893523907,36.57573174671923,11.750005185604095,-15.411005914211273,5.403812602162361,29.685574769973755,-57.6909601688385,34.4569206237793,-11.191357755051143,9.8966768761972,False,0
GUIDED_NOGPS,0.7996580600738525,32.44481918391027,-21.25641890960332,50.508346236647135,40.91146749055272,-11.685168223700638,-23.93956506409071,30.0570194440082,25.971643341082117,-2.1042702927069157,1.1442534808025968,-63.35287323131967,-2.3552501638076815,1.0817747529720216,-4.0295513817196715,0.4697267261551706,-26.163832622902863,54.01786275977252,36.3878240808162,13.252180814743042,-12.721559405326843,7.08204060792923,38.3707195520401,49.063462018966675,86.31022572517395,-11.175920839522732,8.983726470976615,False,0
GUIDED_NOGPS,0.8296771049499512,33.317478095782796,-21.262499010097834,50.384893649208024,40.692184839289176,-11.481698216945047,-24.132809767846016,29.100578212978267,24.636981673105083,-2.1241879781003195,1.0232167657378586,-63.66409763104047,-2.47107720483208,1.1187016344701997,-4.1824069300877325,0.4674573456396549,-26.267490667393158,53.779484007866856,36.41609043950593,13.252180814743042,-12.721559405326843,7.08204060792923,38.3707195520401,49.063462018966675,86.31022572517395,-11.066800588019474,8.983726470976615,False,0
GUIDED_NOGPS,0.8643515110015869,28.8446736813149,-21.26510992557046,50.18408771124804,40.518143184954916,-11.276748720756819,-24.31736700772681,28.153987836848668,23.30186852987027,-2.0536931687897946,0.7894308096708408,-64.0034009384392,-2.222387495539558,1.0147739883438827,-4.4016451213598184,0.4650874481610019,-26.507646950603384,53.13685979044625,36.934693143667715,13.731910288333893,-16.645142436027527,7.30806291103363,41.23733341693878,-57.862263917922974,129.0870189666748,-10.618847208109436,8.284920425482502,False,0
GUIDED_NOGPS,0.9037678241729736,25.372661940135988,-21.272883467321073,49.94017794523305,40.391787767783626,-11.060356574058659,-24.492964670067714,27.219136514081047,21.967514528841726,-1.9264424756842258,0.6441919596123972,-64.24092759701556,-2.080003975372913,0.9316701748876295,-4.436443112348815,0.4626134541440975,-27.067492954620885,53.064822342880646,36.67200105815782,14.280954003334045,-18.121546506881714,12.466902285814285,37.07357048988342,-2.7223512530326843,184.3730092048645,-10.412504155498077,7.756773486590327,False,0
GUIDED_NOGPS,0.9318134784698486,35.80682448756584,-21.27885315047132,49.69066699418536,40.247039269746814,-10.882229639754106,-24.65935217284718,26.297819444597067,20.635095716761136,-1.7592772242861603,0.5086002181480677,-64.42345074220582,-2.4186979247176144,1.0926833188501015,-3.9831385402252257,0.46019420913874376,-27.63019308951865,52.582249358120755,36.9584729376992,15.538424253463745,-17.821139097213745,8.270297944545746,25.454065203666687,-21.96449339389801,47.11199998855591,-9.932075603304654,4.5424006589308785,False,0
GUIDED_NOGPS,0.9657905101776123,29.337772617265642,-21.290615969578838,49.45806169758454,40.19554859936529,-10.722497949118065,-24.816300069257636,25.391740341154303,19.30575392333605,-1.6266607772573118,0.37058952250049576,-64.6063495478004,-2.2653510345966343,0.9784348600725001,-4.558951290563419,0.45758154573682464,-27.689522089884058,51.91542497509609,37.7984374931248,15.538424253463745,-17.821139097213745,8.270297944545746,25.454065203666687,-21.96449339389801,47.11199998855591,-9.562932371917325,4.5424006589308785,False,0
GUIDED_NOGPS,1.0019545555114746,27.655602589969803,-21.309314776758644,49.141957792133844,40.129936726263004,-10.518915298895346,-24.96359965127575,24.502512940722255,17.980597114928017,-1.3424476412697954,0.01730097588934808,-64.8155582420779,-2.1151227282402862,0.9098579998402778,-4.057321886810261,0.45499843930316675,-28.46312666129378,50.92153592496237,38.435012842613126,16.05525314807892,-18.351508677005768,7.834021747112274,26.193848252296448,47.259870171546936,27.661967277526855,-9.044920283241673,4.717678254072215,False,0
GUIDED_NOGPS,1.037158727645874,28.411688997873004,-21.3205239471506,48.79946539566015,40.07020796742871,-10.308519435238765,-25.10106255323256,23.631662515858395,16.660699748240944,-1.1421607748739284,-0.16656654262863158,-64.8848710017752,-2.105623741502862,0.91252505670643,-3.7878927854552966,0.4524123557177892,-28.55867722513387,50.548532947925644,38.57139641344442,16.05525314807892,-18.351508677005768,7.834021747112274,26.193848252296448,47.259870171546936,27.661967277526855,-8.9537741375284,4.717678254072215,False,0
GUIDED_NOGPS,1.0657730102539062,34.95282460687172,-21.335593860097323,48.48246296342334,40.028455792471405,-10.117719372903375,-25.228520355383715,22.78062738608406,15.347103124009223,-1.0654595647636835,-0.22012408362311142,-64.92357768380165,-2.3061592938893822,0.9688620525726055,-3.4195783072363306,0.44981182355805543,-28.906174108113014,50.16256986304987,38.88801005516251,16.498537361621857,-16.456954181194305,6.822412461042404,13.114947080612183,3.863980248570442,2.854090929031372,-8.731747424269017,3.568143756380729,False,0
GUIDED_NOGPS,1.0996181964874268,29.552128176764437,-21.41137217412378,48.18345680687866,40.08454496314357,-9.975859330490746,-25.345824187479664,21.95076042926051,14.040815740685936,-0.8236123846504638,-0.2975036168953032,-65.01012984096405,-2.232056957535652,0.791013876670535,-4.291818829585033,0.44701726688946813,-29.448078528808175,49.765061087355434,39.28197943557505,14.755041897296906,-18.196479976177216,9.536419063806534,0.4700617864727974,-1.3213783502578735,83.88566970825195,-8.445118138925878,1.9329352108205575,False,0
GUIDED_NOGPS,1.1325278282165527,30.390644359589313,-21.475302495862646,47.907760933127015,40.07885153444009,-9.869109184367392,-25.452844332335843,21.143330592964894,12.742813648131133,-0.9517454528194337,-0.19232030450269358,-65.02072346436674,-2.270184187935946,0.8005358422393567,-4.6356618092656445,0.4443600256976849,-29.448078528808175,49.765061087355434,39.28197943557505,14.170341193675995,-14.367534220218658,6.4502038061618805,-10.752686113119125,52.90344953536987,33.46930742263794,-8.445118138925878,-1.4782493043293972,False,0
GUIDED_NOGPS,1.172712802886963,24.889943862231032,-21.543111531732617,47.62634162626816,40.08451126833977,-9.768672745344103,-25.54946982940288,20.35952440586623,11.454040801300017,-1.0216046276503241,0.1917729822345934,-64.93032591070163,-2.1333488650059778,0.7402036226862225,-4.858666829916543,0.4416793760167386,-29.666864358939105,49.43424647100302,39.37113191935313,14.170341193675995,-14.367534220218658,6.4502038061618805,-10.752686113119125,52.90344953536987,33.46930742263794,-8.415594725748168,-1.4782493043293972,False,0
GUIDED_NOGPS,1.1994516849517822,37.40572549719076,-21.622789753395285,47.32609987286955,40.11468719446907,-9.654282338989688,-25.635608078336794,19.60044748910139,10.175409413931177,-1.0281071811835878,0.3137311325070486,-64.90469904093574,-2.392473638601608,0.7514425269183012,-4.082536741839494,0.43899767342270835,-30.22987030109411,48.55315920169092,39.66069870755105,14.546501636505127,-13.686969876289368,6.868526339530945,2.471982128918171,44.271647930145264,121.43601179122925,-8.365421904852447,-0.225389305699545,False,0
GUIDED_NOGPS,1.2341582775115967,28.81613696634926,-21.739506461757497,47.0422119957651,40.111952813029795,-9.591838494183612,-25.711184442569184,18.86712606765115,8.907800312234762,-1.1979824168565616,0.47536403739910954,-64.81545578924035,-2.2236209209110815,0.6305161021354488,-5.037756922998248,0.4363810032812878,-30.22987030109411,48.55315920169092,39.66069870755105,13.36079090833664,-17.457805573940277,2.8981827199459076,-11.12407073378563,-70.20279169082642,112.41751909255981,-8.365421904852447,-1.5503761019647317,False,0
GUIDED_NOGPS,1.2669339179992676,30.514459487970434,-21.842546944254767,46.660519710593974,40.143583405233485,-9.500699965787254,-25.77614185287744,18.160508481716057,7.652063288580798,-1.1717012363125276,0.5089893788481996,-64.74170340658256,-2.094657640070162,0.6035891155293442,-4.588083731298049,0.4337210785768057,-31.032591760713153,46.5894376811467,40.14861048815504,14.152830839157104,-14.453035593032837,5.162760242819786,10.489976406097412,60.46221852302551,-8.14252644777298,-8.12097738511402,-1.840789342171327,False,0
GUIDED_NOGPS,1.2999324798583984,30.309825770878952,-21.947818400949703,46.22671317118061,40.14553953105962,-9.411071268298123,-25.830440410954917,17.481466698092504,6.409017455187282,-1.1648171526810953,0.5339482774576014,-64.65698857030688,-1.990573944434075,0.5556554624170965,-4.559039681582227,0.4311421080685873,-31.24971142927358,46.061211812180936,40.41378664778901,14.707471430301666,-18.416021764278412,1.795007660984993,25.937730073928833,-91.84056520462036,-124.97235536575317,-8.139636722234119,-1.0240212339560393,False,0
GUIDED_NOGPS,1.3338122367858887,29.519889642746545,-22.063678275815608,45.76917344809471,40.15017594777057,-9.329416550473297,-25.87405699298117,16.83079782154872,5.179451597808487,-1.038805498579649,0.3930828295412287,-64.54388746784065,-1.921747019451321,0.5001135844819116,-4.633298159622592,0.42857894889776327,-31.696616639933552,45.339085787063084,40.43059494176997,14.707471430301666,-18.416021764278412,1.795007660984993,25.937730073928833,-91.84056520462036,-124.97235536575317,-8.23285355766457,-1.0240212339560393,False,0
GUIDED_NOGPS,1.3818070888519287,20.836810023200012,-22.214850978288705,45.252538362623994,40.06910073774152,-9.268700924433226,-25.906984853192103,16.20922560620074,3.9641245294231595,-0.9681610654376188,0.23045783967222336,-64.43066342196934,-1.7567105628109472,0.4419472837083578,-5.055943187274269,0.4261716137906012,-32.039274615633985,44.64312025011859,40.406635612654746,12.756693363189697,-20.90369313955307,-4.058224335312843,-13.803082704544067,-84.40728187561035,-182.4507474899292,-8.356871649950376,-1.8153882955348728,False,0
GUIDED_NOGPS,1.402082920074463,49.33430567644499,-22.339401693706137,44.818374529907246,39.994265271060684,-9.249692656520873,-25.929233227450215,15.61740196688833,2.7637654439227433,-0.8315089904654976,0.2272612577798045,-64.32946733922644,-2.0687152686753136,0.32579489023882346,-5.173547743577537,0.4238603807197397,-32.039274615633985,44.64312025011859,40.406635612654746,14.300486445426941,-16.457359492778778,-3.822934627532959,-0.603558961302042,-37.980762124061584,-101.4767050743103,-8.356871649950376,-4.167502247559456,False,0
GUIDED_NOGPS,1.4460349082946777,22.754567944099648,-22.510312709381523,44.56720200811417,39.96068873629169,-9.246308644962207,-25.94082693681476,15.05590849055114,1.5790742697995697,-0.8616254289501996,-0.10512813727072064,-64.26645884413307,-2.0358502100359095,0.3952537662143271,-5.517006539646613,0.4214231135877048,-32.039274615633985,44.64312025011859,40.406635612654746,14.709825813770294,-15.88788777589798,-3.2711420208215714,9.858561307191849,-46.004265546798706,38.679149746894836,-8.356871649950376,-2.5204798226126903,False,0
GUIDED_NOGPS,1.4810447692871094,28.567271934723678,-22.590298564022582,44.10523558690731,39.90245130129381,-9.182196467234883,-25.941805991111963,14.525257947604452,0.41072202383509904,-0.7848073052112711,-0.4455480738770354,-64.16061140256538,-1.7748171345337282,0.4274929923449087,-4.776444328911662,0.4190923317097101,-32.046770586642225,44.65426965294152,40.997911566202525,13.877655565738678,-13.619579374790192,-3.343670070171356,-6.14999420940876,45.09539306163788,-56.96811079978943,-8.429939217289732,-1.685677026780807,False,0
GUIDED_NOGPS,1.5019164085388184,47.92121108254784,-22.6915235375426,43.81620740769335,39.907399251788625,-9.129606575189523,-25.932225192505207,14.025895803315443,-0.7406488352118501,-0.6669853680897875,-0.5628532644991251,-64.14051015583803,-2.2170145436278723,0.3028743974230327,-4.470719433663855,0.41671176695735074,-32.046770586642225,44.65426965294152,40.997911566202525,14.589303731918335,-9.135973453521729,-0.39891735650599003,-1.1444367468357086,35.31717658042908,35.06430983543396,-8.429939217289732,-0.8369747959879476,False,0
GUIDED_NOGPS,1.5430574417114258,24.31128242283727,-22.853178833633976,43.63247731842033,39.889282428428864,-9.123799355852448,-25.912153739065253,13.558201729178919,-1.8744240529169076,-0.7145286073549537,-0.4810130840903861,-64.0977873225796,-2.0706198254731705,0.31739017176395645,-5.417565947965839,0.414343604982424,-32.046770586642225,44.65426965294152,40.997911566202525,14.102323353290558,-13.153545558452606,-3.9497092366218567,27.80565917491913,32.24206566810608,-15.204940736293793,-8.429939217289732,-1.9314050350030632,False,0
GUIDED_NOGPS,1.581310510635376,26.146256319467387,-22.923829996509145,43.20457592631763,39.76521289926656,-9.055721035479438,-25.881674828340405,13.122491114293467,-2.9900172255019513,-0.646408516080625,-0.7134048277930751,-64.11298449348288,-1.7211851057626149,0.3603917303769957,-4.722578608021638,0.4122295286313944,-32.046770586642225,44.65426965294152,40.997911566202525,13.412757217884064,-14.45493996143341,-8.245152235031128,10.693270713090897,12.90448009967804,-55.04658222198486,-8.429939217289732,-0.27967276773675026,False,0
GUIDED_NOGPS,1.6135447025299072,31.03122133112367,-23.007326931567736,42.8789473250347,39.61321757648642,-9.048412646518585,-25.840885260926733,12.719016576737388,-4.086869446146778,-0.4364052253427386,-1.0023939735577228,-64.06206543322044,-1.8465982664802238,0.2956642121631179,-5.338077212714915,0.41022746978429353,-32.046770586642225,44.65426965294152,40.997911566202525,13.72620314359665,-11.762863397598267,-10.672840476036072,7.800918072462082,18.4542179107666,-75.74607729911804,-8.429939217289732,-3.5164673988940587,False,0
GUIDED_NOGPS,1.6372888088226318,42.11909782892491,-23.114120284837547,42.63327994819151,39.47685568816866,-9.054984238778527,-25.789895044038246,12.347969474944676,-5.164448951301033,-0.3854823230988854,-1.2499966552637358,-64.0884504539842,-2.0207011201966862,0.1436926293745437,-5.543293202272637,0.4082599263351886,-32.046770586642225,44.65426965294152,40.997911566202525,13.72620314359665,-11.762863397598267,-10.672840476036072,7.800918072462082,18.4542179107666,-75.74607729911804,-8.429939217289732,-3.5164673988940587,False,0
GUIDED_NOGPS,1.6707119941711426,29.9229792394949,-23.360709024827454,42.410956513047026,39.4004525075013,-9.04706386398885,-25.728826995077117,12.009481419081027,-6.222250766995927,-0.22660459912413125,-1.538566598168074,-64.1750026111466,-1.9647541204366916,-0.045324132266094885,-5.333776137826199,0.4061747185404786,-33.945942840661495,41.716014092224675,40.61742805018231,11.871005594730377,-9.514439105987549,-7.58495032787323,-5.360232293605804,65.59756398200989,-52.46148109436035,-8.859476702769527,-0.3979119333669864,False,0
GUIDED_NOGPS,1.7048940658569336,29.26000027904511,-23.59893555829166,41.991420504902486,39.27285041588442,-9.038243984347643,-25.657816345203877,11.703625782419806,-7.259796355155963,-0.25803857042755796,-1.425034340010476,-64.20237800934001,-1.623351543085676,-0.11742156677379026,-5.319686822818513,0.4042276453186862,-35.21491509795733,39.52844923236552,40.13490877477332,11.871005594730377,-9.514439105987549,-7.58495032787323,-5.360232293605804,65.59756398200989,-52.46148109436035,-9.151987510499314,-0.3979119333669864,False,0
GUIDED_NOGPS,1.739708662033081,28.727716058684127,-23.84607973349775,41.56063268322225,39.08264024830174,-9.012129199039324,-25.57701034290757,11.430419212718064,-8.276633259910824,-0.43369764230621033,-1.2554753207517324,-64.26951876888123,-1.5601564888520594,-0.17736630767467754,-5.107054549141208,0.40244256691341274,-35.267670975924936,39.39527162009567,40.287007201140234,10.926593840122223,-11.045461148023605,-12.46863603591919,11.062920093536377,21.172432601451874,-54.28035259246826,-9.084009304392389,0.7148143013613307,False,0
GUIDED_NOGPS,1.77083420753479,32.13287366888838,-24.094354280410535,41.11487190610629,38.86909938410607,-8.986740722836888,-25.486567857576002,11.189823143592477,-9.272334753907082,-0.43896089003108696,-1.189756094331516,-64.28974978920282,-1.4622947666953607,-0.3087530672802732,-5.066072175984894,0.40075826119491087,-35.577175383503416,38.968015337863626,39.79440791137239,10.926593840122223,-11.045461148023605,-12.46863603591919,11.062920093536377,21.172432601451874,-54.28035259246826,-9.098955646290158,0.7148143013613307,False,0
GUIDED_NOGPS,1.8114824295043945,24.60406401051199,-24.34748284845764,40.798442392192634,38.66959939925333,-8.945598152787621,-25.386658983065942,10.981745305895444,-10.246499484619967,-0.521862204360411,-0.7429079366346509,-64.33343567913421,-1.63072407899278,-0.18017806994401012,-4.961527816321022,0.3990502423057856,-35.577175383503416,38.968015337863626,39.79440791137239,11.05969175696373,-6.0281772166490555,-12.682445347309113,7.298922538757324,28.38923931121826,-46.93079888820648,-9.098955646290158,2.1554634143098075,False,0
GUIDED_NOGPS,1.8387577533721924,36.670227926455034,-24.57187178049409,40.428561059689,38.45242174969342,-8.893081941803821,-25.27746464127325,10.806041239090845,-11.198751120665229,-0.6580156221622683,-0.5989888071899008,-64.40970840159575,-1.4351759249890328,-0.4513570429364533,-4.567645512569249,0.39747147765705615,-35.93179958534358,38.68138071028635,39.09540543951289,11.12448200583458,-3.0958009883761406,-9.279094636440277,26.56897008419037,65.63161611557007,80.42261600494385,-9.188106907989855,2.5048634488491026,False,0
GUIDED_NOGPS,1.8723235130310059,29.80052008582837,-24.858407820185747,40.16938514293567,38.30388272092387,-8.823933494053138,-25.159176185703153,10.662515802630296,-12.128737998110829,-0.7663935954565927,0.003262695989150466,-64.5057476915153,-1.6100228313543408,-0.45145400683468717,-4.4689232686474405,0.39577338712191307,-36.341117214435315,38.01340412716881,38.367932757963615,11.093782633543015,-4.790157824754715,-7.1821510791778564,16.713637113571167,55.30422925949097,124.53497648239136,-9.09100357288532,4.549583883503616,False,0
GUIDED_NOGPS,1.906121015548706,29.5915337942712,-25.119028191210436,39.79074242072269,37.995709633472224,-8.739303649593408,-25.031995005040415,10.550924687329058,-13.036132766788803,-0.9730063376018024,0.4934320755487618,-64.73559721746456,-1.371152734337542,-0.484188024049596,-4.243143092113452,0.3944368022767453,-36.5305490508634,36.85659177355859,37.08624971623565,11.002569645643234,-6.014323979616165,-12.68966943025589,6.291061639785767,-4.483086243271828,-38.40331435203552,-8.87359587579796,4.500663507347046,False,0
GUIDED_NOGPS,1.9386019706726074,30.790888202086347,-25.375707118460284,39.3986963376849,37.667037367194865,-8.723482485408661,-24.896132126719486,10.470975926741872,-13.920632036606953,-0.9561359837952824,0.8643918690074662,-64.8356253378594,-1.2764427645275873,-0.5684524267339044,-5.039341926075782,0.39319103792235977,-36.61754517314182,36.57002544940832,36.587177747454334,11.030318588018417,-7.4947550892829895,-13.215383887290955,17.739728093147278,-65.65970182418823,0.34211277961730957,-8.74361904378103,-0.38920637702212907,False,0
GUIDED_NOGPS,1.9799799919128418,24.170622777748964,-25.636781584462277,38.98843503284802,37.22434393021648,-8.655212547729121,-24.751807820494797,10.422331408539144,-14.78195602386068,-1.025625901524169,0.8244377703229775,-64.97957840480659,-1.278968920392861,-0.46392497798912935,-4.533076764352435,0.3921816462137324,-36.64810090516873,36.41410468988094,36.3126673064085,10.36505401134491,-9.788241982460022,-20.844663679599762,6.751120090484619,-34.473684430122375,-70.97935676574707,-8.667861136463749,3.1284191658230696,False,0
GUIDED_NOGPS,2.0232248306274414,23.12822718500138,-25.876837742710805,38.614227424721186,36.79802744771023,-8.647507134461604,-24.59925120201087,10.404608385882732,-15.619848197544833,-0.9778722070552018,0.7588742508714963,-65.02086689833932,-1.2781656233775802,-0.4524006114129295,-5.117231837568821,0.39117715062513336,-36.84599491842749,35.83787513398222,35.443779804273255,11.542026698589325,-6.1288148164749146,-17.353378236293793,19.475018978118896,18.740937113761902,-20.817390084266663,-8.52463418270957,-1.3358168082461825,False,0
GUIDED_NOGPS,2.039938449859619,59.8425430524048,-26.111415415123943,38.214258983704845,36.328631727712185,-8.603177568570525,-24.438699836372574,10.417380988802243,-16.434074925665364,-0.7678104861834001,0.5226301203943614,-65.0711849019548,-0.5707073106903795,-1.4815210749604901,-4.09696001975556,0.3904172068335177,-36.84599491842749,35.83787513398222,35.443779804273255,11.192606389522552,-8.423934876918793,-20.38806974887848,13.242733478546143,-23.281489312648773,-53.04329991340637,-8.52463418270957,1.208838468933768,False,0
GUIDED_NOGPS,2.076063871383667,27.68554040317364,-26.406398649008747,37.98295516481881,35.98128973821337,-8.614307803674773,-24.270399341715255,10.460181735570636,-17.22442512155113,-0.5639919850998132,0.21243798637273142,-65.1308602647332,-1.3097268840772849,-0.7481423899609615,-5.29227767166922,0.3893779873348536,-37.044228133247444,35.347316003256935,35.015465369750444,10.761986672878265,-9.467416256666183,-21.690209209918976,8.411552011966705,20.05539834499359,-35.26282608509064,-8.306826048931203,-1.4425726649734818,False,0
GUIDED_NOGPS,2.1085939407348633,30.7477750898028,-26.637837573804095,37.56965226676939,35.48158511560672,-8.600050091210422,-24.094602992775016,10.53250304408055,-17.990709890165796,-0.42575354533210374,-0.08828734537670216,-65.17195068278,-0.9206994598285962,-0.8171441563909052,-4.985138283923307,0.3887053318378201,-37.19487990765182,34.9875298527225,34.45707760072582,10.761986672878265,-9.467416256666183,-21.690209209918976,8.411552011966705,20.05539834499359,-35.26282608509064,-8.217133358516158,-1.4425726649734818,False,0
GUIDED_NOGPS,2.1441874504089355,28.096891747052517,-26.862465298724487,37.21259737353709,35.049721268818324,-8.568157492304879,-23.911571324458855,10.633798743220119,-18.732762174419427,-0.23926259384260448,-0.2858747929465334,-65.24439166911715,-0.9882551539676068,-0.7754182287189468,-4.783710331860639,0.3879312851557461,-37.338154366450354,34.698070481348765,34.17265197681266,11.30717322230339,-6.526560336351395,-17.43326634168625,15.060433745384216,-29.412859678268433,-30.19219934940338,-8.272422935916879,0.1835715792278477,False,0
GUIDED_NOGPS,2.1754002571105957,32.042781729145815,-27.083279362112993,36.818060642026516,34.49193440529823,-8.455213410203383,-23.72157173541488,10.763485584248905,-19.450436401480466,-0.09583486449212493,-0.35976367266602555,-65.38726556617547,-0.7762353022512559,-0.9504706883342662,-3.621429755827511,0.3874772131775534,-37.31592387022858,34.46640737683973,33.2143538186053,10.752782970666885,-8.899646997451782,-23.58689457178116,13.834553956985474,-28.3130019903183,140.3869390487671,-8.291273166925137,5.907979589598568,False,0
GUIDED_NOGPS,2.2109508514404297,28.13383059214939,-27.30988336505729,36.43467873226269,33.97843890813602,-8.318069022333335,-23.524878091602528,10.920944752173959,-20.143608129087347,-0.1776184290359469,-0.33488300106696156,-65.56263067311555,-0.7945278398371827,-0.9276033799388752,-3.400195574777943,0.3869685370177042,-37.605458066906394,34.203071015946506,33.26727938662704,11.029068380594254,-9.8834790289402,-22.889742255210876,17.62658655643463,-32.340043783187866,-52.666038274765015,-8.032408998382559,7.110576973178237,False,0
GUIDED_NOGPS,2.2464871406555176,28.141569882517125,-27.539976785921485,36.06578070977226,33.45032875557366,-8.163783709695336,-23.321770329862705,11.105523377125984,-20.812173691860487,-0.45285498890677384,-0.13255273417049698,-65.8122331061445,-0.7877015862637425,-0.9375795905515023,-3.215779705462542,0.38652839734831923,-37.778022918151066,33.85063233829007,32.69538912202712,10.249432921409607,-7.327289134263992,-21.44220620393753,-35.897159576416016,-119.01236772537231,-81.41490817070007,-7.9356885840527225,7.865180541549477,False,0
GUIDED_NOGPS,2.2805283069610596,29.38195879538497,-27.757655511318735,35.736052726259686,33.01689520148775,-8.036953890662561,-23.112534061488056,11.31653604573497,-21.45604984761372,-0.7503289371678699,-0.10112340526127175,-66.11834852436613,-0.7234438693211349,-1.027165498320357,-3.3319343074524763,0.38595915906553624,-37.778022918151066,33.85063233829007,32.69538912202712,10.679695755243301,-6.063218787312508,-16.177625954151154,16.029179096221924,-10.192921757698059,111.5788221359253,-7.9356885840527225,6.123134817322201,False,0
GUIDED_NOGPS,2.313319444656372,30.500036358876656,-27.990921776291728,35.38815687724465,32.51123243044976,-7.812353824615685,-22.89746017579311,11.553266312506445,-22.07517342366645,-1.1368989678920798,0.09849484964787465,-66.52023002494052,-0.598146949632733,-1.1547285264568057,-1.9377305801731564,0.385589557839375,-38.35799474399977,32.95932332320058,31.133983545119342,10.725896805524826,-5.90655691921711,-17.735134065151215,39.8711621761322,4.307973384857178,52.36387848854065,-7.662928207831886,12.185559498206743,False,0
GUIDED_NOGPS,2.347482204437256,29.280631086599882,-28.212263921503617,35.05403344897855,32.04361448724769,-7.585641999847932,-22.67684444368449,11.814968211197474,-22.66950096315521,-1.3159012572868947,0.30219958539309855,-66.92776009195849,-0.5776266528247249,-1.1475869465636772,-1.8973760216073003,0.3851865794323856,-38.35799474399977,32.95932332320058,31.133983545119342,11.117959022521973,-6.601378321647644,-16.84824377298355,36.843159794807434,-7.537761330604553,44.24105882644653,-7.662928207831886,12.5956346644642,False,0
GUIDED_NOGPS,2.3799421787261963,30.811471556182415,-28.415734952285014,34.64878527825342,31.546310494681208,-7.362076911071737,-22.450987121231105,12.100867766192373,-23.239008371345584,-1.5183461432953687,0.465935921745259,-67.45671726204097,-0.34849558128160946,-1.229541746249565,-1.6691658872375261,0.3848995498708563,-38.36172099776992,32.88084685284536,30.788602423953673,11.631011962890625,-11.740978062152863,-18.32045614719391,58.739447593688965,-29.104021191596985,96.49485349655151,-7.479009624233264,11.858331965260604,False,0
GUIDED_NOGPS,2.4160022735595703,27.733869367999258,-28.612296552949747,34.26228802548386,31.07015949018363,-7.142937442723593,-22.220192553234387,12.410164503879024,-23.78369056194372,-1.5781916204727857,0.4852484417060287,-67.98111869594703,-0.39140333271398753,-1.1787661679530168,-1.8545836297260827,0.3846042677134582,-38.36172099776992,32.88084685284536,30.788602423953673,11.631011962890625,-11.740978062152863,-18.32045614719391,58.739447593688965,-29.104021191596985,96.49485349655151,-7.479009624233264,11.858331965260604,False,0
GUIDED_NOGPS,2.450146198272705,29.292082492370223,-28.753673433275818,33.909976342815064,30.519130798828094,-6.8739045088538955,-21.984768776798447,12.742032964024553,-24.30356110340859,-1.3567886906492952,0.43608980934130154,-68.57258575731346,-0.30480139879197243,-1.1717522390408301,-0.9728110458753676,0.3845168246074504,-38.36172099776992,32.88084685284536,30.788602423953673,14.24010694026947,-8.177979290485382,-21.62020206451416,36.586275696754456,-27.35283076763153,-80.08103370666504,-7.479009624233264,14.539054855990962,False,0
GUIDED_NOGPS,2.4822731018066406,31.132105161587223,-28.921869120912664,33.52427958791823,29.974805926145375,-6.636904646304254,-21.745027124900258,13.09562421115168,-24.79865186526319,-1.2634577841790675,0.2553822138098048,-69.01930744978897,-0.12266352012320422,-1.327056696840679,-1.032638017355025,0.38447445506300476,-38.36172099776992,32.88084685284536,30.788602423953673,12.864913046360016,-14.737038314342499,-26.495113968849182,6.036604195833206,-106.09843730926514,-58.10227394104004,-7.479009624233264,14.004207501523005,False,0
GUIDED_NOGPS,2.521160125732422,25.717884100092586,-29.08084512890378,33.14856990419318,29.44167340456828,-6.403135657502624,-21.501281829959876,13.47006734591465,-25.269012664406794,-0.9322550811359791,0.01211600853566215,-69.51441420234485,-0.24292728823901563,-1.205759853405003,-1.4359722332424671,0.38442988852081245,-38.36172099776992,32.88084685284536,30.788602423953673,12.864913046360016,-14.737038314342499,-26.495113968849182,6.036604195833206,-106.09843730926514,-58.10227394104004,-7.479009624233264,14.004207501523005,False,0
GUIDED_NOGPS,2.5545027256011963,29.99616671911205,-29.189362548809356,32.74502682744922,28.89640351040375,-6.206463330211353,-21.253849627410723,13.864471016474504,-25.714710911426558,-0.6297090770859141,-0.18626993083682586,-69.95909366825853,0.03242315501728421,-1.2826682058145014,-1.3700371390967447,0.38448301691451964,-38.36172099776992,32.88084685284536,30.788602423953673,14.339253306388855,-12.619882822036743,-21.690820157527924,-1.510125771164894,-72.94241189956665,-29.32870388031006,-7.479009624233264,9.365121672909188,False,0
GUIDED_NOGPS,2.588451623916626,29.46120940948394,-29.31600046688499,32.45245830292116,28.450547599279567,-6.041462156820989,-21.00304935926959,14.277924929876228,-26.135831256909135,-0.524723733457529,-0.3768708419376745,-70.37456724528124,-0.07792597305623827,-1.3309404515344223,-1.6769894234632612,0.38438452360989117,-38.36172099776992,32.88084685284536,30.788602423953673,13.876746594905853,-9.971979260444641,-21.361300349235535,-5.658449605107307,-74.97833967208862,-28.780043125152588,-7.479009624233264,9.507759074667502,False,0
GUIDED_NOGPS,2.634960889816284,21.503847751077934,-29.433997423336482,32.17185681843625,28.042292877509272,-5.818440589090864,-20.74920157770699,14.709501363423861,-26.53247523775287,-0.3269874624689855,-0.2722345850089006,-70.96089800439181,-0.2867083562456329,-1.150965161213757,-1.5711508572582713,0.38420488011279286,-38.36172099776992,32.88084685284536,30.788602423953673,13.993033766746521,-10.07291004061699,-19.92475390434265,-6.7692771553993225,-41.41807556152344,-141.1921739578247,-7.479009624233264,13.702217517560062,False,0
GUIDED_NOGPS,2.658665418624878,42.192397066663986,-29.49387220873728,31.81226743044913,27.502459702127855,-5.521809818191183,-20.49262814861734,15.158256676056816,-26.904760923479067,-0.28297014828027967,-0.22880226585043573,-71.24086745847063,0.6642930862868514,-1.589488218494072,1.6769258561980065,0.3844364796673094,-38.36172099776992,32.88084685284536,30.788602423953673,14.550536870956421,-7.81850665807724,-17.681017518043518,25.417545437812805,32.26403892040253,80.86137771606445,-7.479009624233264,13.980312938485362,False,0
GUIDED_NOGPS,2.692922830581665,29.194623678367336,-29.647508160311528,31.715289336617186,27.346362206674247,-5.411306588747158,-20.233651855189034,15.623232819726063,-27.25282256254429,-0.376097109570759,-0.22974034964425466,-71.6450097516603,-0.1679740786624707,-1.4683398658779523,-1.9535984863323967,0.38390325465143926,-38.36172099776992,32.88084685284536,30.788602423953673,13.666045665740967,-6.957989931106567,-15.966859459877014,8.913612365722656,104.83222007751465,-95.36044001579285,-7.479009624233264,11.312515326985604,False,0
GUIDED_NOGPS,2.729661464691162,27.223012617477544,-29.756002320569376,31.538864419102023,27.062319072363795,-5.23008415420867,-19.972596001474844,16.103458850769492,-27.576810228651688,-0.280961058808091,-0.08591374791841695,-72.16432952482387,-0.04310134703359439,-1.389210348575077,-1.1642851129846339,0.38366283042174093,-38.36172099776992,32.88084685284536,30.788602423953673,13.438652455806732,-5.843072757124901,-15.010856091976166,3.710288926959038,33.78424942493439,90.12542963027954,-7.479009624233264,12.002483961467368,False,0
GUIDED_NOGPS,2.7739038467407227,22.605319464280903,-29.851353019571057,31.336846175844478,26.72967680597353,-5.027931468192311,-19.709784015962,16.59795244128852,-27.87688946706313,-0.13929818630611926,0.051012975363532734,-72.34700976436503,-0.09460269197177977,-1.2951504803677567,-1.1907284942997844,0.3835345075339852,-38.36172099776992,32.88084685284536,30.788602423953673,12.923812866210938,-5.899703875184059,-15.546871721744537,10.176751017570496,25.932306051254272,33.340984582901,-7.479009624233264,12.055772243598161,False,0
GUIDED_NOGPS,2.7939412593841553,49.91495793119042,-29.95470526786673,31.124338708559637,26.410692094050393,-4.797628582960846,-19.44553905514229,17.10572139052399,-28.1532409409107,0.04095637558433521,0.16560551366806964,-72.58314989453989,0.9147078992414432,-2.0319547010587433,1.7381067436811284,0.3835326726603535,-38.36172099776992,32.88084685284536,30.788602423953673,12.311748415231705,-7.935246825218201,-16.452737152576447,-29.723188281059265,-61.60252094268799,-44.33388710021973,-7.479009624233264,14.546769554658491,False,0
GUIDED_NOGPS,2.8401126861572266,21.661101155278285,-30.120183802850192,31.13176319760624,26.408879613640806,-4.704762051363841,-19.180183607082437,17.625765136231756,-28.406060077508762,0.5255706769146106,0.6183705361768698,-73.29493073813607,-0.254692353265367,-1.4212376303780574,-2.0197677079304635,0.38282782374636604,-38.36172099776992,32.88084685284536,30.788602423953673,12.380242347717285,-4.124024137854576,-11.970602720975876,4.995856434106827,-2.129478380084038,54.13697957992554,-7.479009624233264,13.610396723226641,False,0
GUIDED_NOGPS,2.8608250617980957,48.28698395155534,-30.18891496824341,30.897225371887583,25.931143726661627,-4.434260045341221,-18.914039094994244,18.15707626605879,-28.63555671466529,0.6591033297875928,0.7098615604394252,-73.39230874513295,1.0551673543148723,-1.96323014463308,2.563232298214884,0.3832338826439178,-38.36172099776992,32.88084685284536,30.788602423953673,10.823037475347519,-4.609180614352226,-18.922437727451324,-16.455619037151337,1.8534209579229355,-74.69345331192017,-7.479009624233264,12.815372095347266,False,0
GUIDED_NOGPS,2.894836664199829,29.411834004179347,-30.362925115946634,30.896850609480538,25.829786919983224,-4.359182994693377,-18.64742548080472,18.698642028920087,-28.84195474699444,1.2961820742662449,0.9938296633904672,-73.83283545603126,0.05382542271977264,-1.7280612999133094,-1.7326816439649435,0.3828750204110062,-38.36172099776992,32.88084685284536,30.788602423953673,10.823037475347519,-4.609180614352226,-18.922437727451324,-16.455619037151337,1.8534209579229355,-74.69345331192017,-7.479009624233264,12.815372095347266,False,0
GUIDED_NOGPS,2.928919792175293,29.342493161609873,-30.529382001762286,30.732317201962193,25.554336420423994,-4.2288221873111205,-18.380660868726395,19.249445846372936,-29.02549177222742,1.4740316625169143,1.1495259599550236,-74.32427439700285,0.354641371531716,-1.7729766673277945,-1.0031813182040494,0.38291043429991944,-38.36172099776992,32.88084685284536,30.788602423953673,7.065139710903168,-8.580604940652847,-18.8087597489357,-53.87725830078125,-83.18439722061157,20.80918252468109,-7.479009624233264,10.262790383635515,False,0
GUIDED_NOGPS,2.962063789367676,30.17701992949133,-30.740385004654218,30.549033053012852,25.26959001035402,-4.146715782894285,-18.114061108827304,19.808468823994616,-29.186418737524953,1.3593478771539342,1.1598850090484056,-74.53410463849481,0.45881697733027554,-1.9184331344085928,-1.4978934170895766,0.38301356982945917,-38.36172099776992,32.88084685284536,30.788602423953673,4.012187197804451,-10.838259011507034,-20.968058705329895,-83.79785418510437,-88.994300365448,-16.198138892650604,-7.479009624233264,7.79078355978876,False,0
GUIDED_NOGPS,2.9970829486846924,28.5596856891891,-30.952652858139338,30.39584586892749,24.956253735767465,-4.081526638357341,-17.847939400601483,20.374691262756954,-29.324999585788582,1.012910650610544,0.9863238191011521,-74.79203307212201,0.41143795113469694,-1.9074656984664782,-1.7059436935191292,0.4,-38.36172099776992,32.88084685284536,30.788602423953673,3.5804633051156998,-9.157868474721909,-23.33757132291794,-105.32857179641724,-151.43520832061768,-119.06071901321411,-7.479009624233264,6.879177421174198,False,0
GUIDED_NOGPS,3.0301685333251953,30.22900015135026,-31.17669442006061,30.256235162744655,24.68919011299381,-4.005733844559812,-17.582605896538997,20.94709417040346,-29.441510901972855,0.7186400610701841,0.8667455628676233,-74.948512706007,0.505267926581465,-2.027435447678459,-1.482810665705046,0.4,-38.36172099776992,32.88084685284536,30.788602423953673,2.502540498971939,-8.716444671154022,-20.87121456861496,3.994150459766388,69.34303045272827,116.74319505691528,-7.479009624233264,7.921159918213255,False,0
GUIDED_NOGPS,3.0712432861328125,24.349247631432288,-31.39171672455937,30.124264619743517,24.4447689339858,-3.948558826465902,-17.318367305696,21.52466077282466,-29.53624155939685,0.004944096463737199,0.6069751659594969,-75.23501865112152,0.34075380801625615,-1.860130602480102,-1.8146338314302768,0.4,-38.36172099776992,32.88084685284536,30.788602423953673,2.8631655499339104,-8.800654858350754,-20.25827020406723,50.812143087387085,-71.41839861869812,-11.248929798603058,-7.479009624233264,7.098970774231093,False,0
GUIDED_NOGPS,3.106847047805786,28.091998981956518,-31.61393012254334,30.01086141379302,24.18772471767887,-3.9010579894413135,-17.055526497265294,22.106378025434452,-29.609492366055925,-0.5491017458223623,0.13086124849471392,-75.57268271311945,0.49118244752393625,-2.0320772811434655,-1.8058996659130013,0.4,-38.36172099776992,32.88084685284536,30.788602423953673,2.0609596744179726,-7.983089238405228,-21.730680763721466,11.479339748620987,67.34133958816528,115.89603424072266,-7.479009624233264,6.733123644170408,False,0
GUIDED_NOGPS,3.1300394535064697,43.125542371835735,-31.846987070764698,29.96127602685808,23.987363409604047,-3.936187513033694,-16.79438210414617,22.69123812454555,-29.66157571093394,-0.829163994424362,-0.31738896561185487,-75.75105310329432,0.8836595870723241,-2.561345820408867,-2.968066011201352,0.4,-38.36172099776992,32.88084685284536,30.788602423953673,2.0629078149795532,-8.170664310455322,-26.220998167991638,2.659972757101059,-42.072874307632446,-104.93972301483154,-7.479009624233264,4.846889638356401,False,0
GUIDED_NOGPS,3.1651015281677246,28.52530638338389,-32.07237253989707,29.9299505107904,23.826514794739676,-3.9827906329490257,-16.53522812651482,23.278240018746008,-29.6928152103142,-0.7035782666506895,-0.5979204161933226,-75.87024673450021,0.46248332025980377,-2.122234210289467,-2.921881368417931,0.4,-38.36172099776992,32.88084685284536,30.788602423953673,2.0629078149795532,-8.170664310455322,-26.220998167991638,2.659972757101059,-42.072874307632446,-104.93972301483154,-7.479009624233264,4.846889638356401,False,0
GUIDED_NOGPS,3.1984336376190186,30.006467305766204,-32.24808553653637,29.8537775196269,23.54951756644758,-3.991772374802501,-16.278353535394444,23.866390920275112,-29.703545354092178,-0.6454060790982198,-1.0989271715316287,-76.07528901338401,0.6165228917829619,-2.1169993499537174,-2.5027951142104667,0.4,-38.36172099776992,32.88084685284536,30.788602423953673,3.4401219338178635,-5.259595066308975,-22.496089339256287,56.13883137702942,60.82206964492798,141.26574993133545,-7.479009624233264,2.3751940150037028,False,0
GUIDED_NOGPS,3.231788158416748,29.98544445874262,-32.42286941469032,29.79796663535365,23.30992175333242,-4.016562907908077,-16.024041876225457,24.45470781639907,-29.694111152086727,-0.40091625610643994,-1.3248572361143682,-76.16119913276442,0.6257780341789438,-2.1501744413995296,-2.7084364304164597,0.4,-38.36172099776992,32.88084685284536,30.788602423953673,3.4401219338178635,-5.259595066308975,-22.496089339256287,56.13883137702942,60.82206964492798,141.26574993133545,-7.479009624233264,2.3751940150037028,False,0
GUIDED_NOGPS,3.2700018882751465,26.170401013296395,-32.60502641428366,29.680131329133243,23.017512290428957,-4.00856842271904,-15.77257087243575,25.042218980787514,-29.66486778035172,0.07708199315647311,-1.7588440408823933,-76.24635110114697,0.6210183031725136,-2.0873316820773473,-2.321960568642474,0.4,-38.36172099776992,32.88084685284536,30.788602423953673,2.5834601372480392,-9.865386039018631,-26.5785813331604,22.19468504190445,-75.79619884490967,17.258822917938232,-7.479009624233264,4.831315526388302,False,0
GUIDED_NOGPS,3.3002431392669678,33.073151499381005,-32.77173447714815,29.609422001259578,22.73522323838507,-4.051918738023694,-15.524212029010815,25.62796548488885,-29.616180227488563,-0.18709339551863552,0.10858677431168584,-76.13712271594012,0.8139742653827083,-2.2832027907523047,-3.004666472626616,0.4,-38.36172099776992,32.88084685284536,30.788602423953673,2.9679840430617332,-4.550321027636528,-21.194300055503845,5.567943677306175,8.8931605219841,75.40242671966553,-7.479009624233264,-0.2423385268466374,False,0
GUIDED_NOGPS,3.3340723514556885,29.56671060701119,-33.00421906939081,29.55160812555954,22.919226970008317,-4.807475872001969,-15.279230236063885,26.21100270930683,-29.54842294095713,0.2105034420120311,0.5314016841142445,-76.16356237821725,0.6814966042976349,-2.3501671127834016,-10.0,0.4,-38.36172099776992,32.88084685284536,30.788602423953673,-1.1510716751217842,-8.073776960372925,1.3549042865633965,-521.6175079345703,-625.127649307251,1124.1582870483398,-7.479009624233264,-46.022402023814536,False,0
GUIDED_NOGPS,3.372006893157959,26.36368436270381,-33.246325328290496,29.24457527660164,22.13067270087766,-4.427505440461003,-15.037883372406355,26.790401855175876,-29.461979473388205,0.749209639917634,0.013601147793316797,-76.3976056403169,0.9700974457857228,-2.321108399291868,1.3442284973279945,0.4,-38.36172099776992,32.88084685284536,30.788602423953673,-2.4010207504034042,-23.867572844028473,-62.575191259384155,-392.3840284347534,-103.91256809234619,-469.7019577026367,-7.479009624233264,31.30853530620627,False,0
GUIDED_NOGPS,3.405642509460449,29.733973245617143,-33.48398978509055,28.904512747451925,21.266060222370964,-4.023142178813552,-14.800421909117755,27.365251455538132,-29.357242128894704,0.2502668823691413,-0.2481822872901122,-76.57183693585476,1.2271856098072045,-2.4557612833851223,2.4008723136993577,0.4,-38.36172099776992,32.88084685284536,30.788602423953673,-2.4010207504034042,-23.867572844028473,-62.575191259384155,-392.3840284347534,-103.91256809234619,-469.7019577026367,-7.479009624233264,31.30853530620627,False,0
GUIDED_NOGPS,3.439112901687622,29.880557672990474,-33.705032604677974,29.042230339167475,21.16407846194738,-4.606160288851114,-14.567088513116008,27.934658886718328,-29.23461160938414,0.19608790088189607,-0.4626317643734124,-76.74174472164799,0.5125962127082412,-2.415279923841368,-9.723926698533878,0.4,-38.36172099776992,32.88084685284536,30.788602423953673,-1.4088734053075314,5.967296659946442,-16.103671491146088,-27.50372886657715,53.34244966506958,177.0726442337036,-7.479009624233264,-34.303177106285,False,0
GUIDED_NOGPS,3.472705364227295,29.772808904221414,-33.895913942580854,29.02357404188215,21.122171414550525,-4.899524248645718,-14.338117650727625,28.497751879700534,-29.09449666086949,0.6348879613023704,-0.9678487977265023,-76.95563892569612,0.7570944694112904,-2.4097141879451742,-6.427307389589764,0.4,-38.36172099776992,32.88084685284536,30.788602423953673,0.2865917980670929,-5.168543756008148,-13.192658126354218,159.60131883621216,-55.505335330963135,-175.4006266593933,-7.479009624233264,-14.300372187897574,False,0
GUIDED_NOGPS,3.507573366165161,28.693912734138767,-34.21507310894721,28.80636355912865,21.088995919338913,-4.884868409951125,-14.113735191258122,29.05368003150304,-28.937313719781848,0.548347970414428,-0.898047679503557,-77.07562485884573,1.0359098612180162,-2.6733496060723856,-2.7614088839893793,0.4,-38.36172099776992,32.88084685284536,30.788602423953673,-8.680073916912079,-18.88020634651184,-13.537226617336273,-119.563889503479,-49.317896366119385,89.14681077003479,-7.479009624233264,6.511764043359464,False,0
GUIDED_NOGPS,3.5412981510162354,29.654298642533938,-34.49716768428808,28.63882879872169,21.13137040553704,-5.236639684322909,-13.894158010561707,29.601616316556633,-28.76348655928188,0.03382693875131128,-0.6454402834049228,-77.4370579791553,0.999243437771828,-2.662443608259504,-7.2845460027874545,0.4,-38.36172099776992,32.88084685284536,30.788602423953673,-6.488201767206192,-15.665510296821594,-8.963995426893234,-250.97472667694092,-283.9310646057129,42.33123958110809,-7.479009624233264,-18.117384131971473,False,0
GUIDED_NOGPS,3.5727150440216064,31.832666722322994,-34.77209459418495,28.48366765125622,21.200250039689227,-5.58982972732008,-13.679593594612037,30.140758598077614,-28.573445935571364,-0.06182201652934237,-0.02968208114217135,-77.69379112967773,1.0666645661532015,-2.765991156605211,-7.849111455379312,0.4,-38.36172099776992,32.88084685284536,30.788602423953673,-6.488201767206192,-15.665510296821594,-8.963995426893234,-250.97472667694092,-283.9310646057129,42.33123958110809,-7.479009624233264,-18.117384131971473,False,0
STABILIZE,3.6074230670928955,28.816334943285263,-34.980062609128225,28.431493334083303,21.152046533798742,-5.408293367709596,-13.470239643072059,30.670331139446407,-28.367629234205232,0.023047512858855996,0.38871182863753784,-78.04624255122873,0.8628334595075897,-2.5647718333776814,-1.149092733027771,0.4,-38.36172099776992,32.88084685284536,30.788602423953673,-2.4835681542754173,-9.242646396160126,-17.707011103630066,-35.58529615402222,119.58156824111938,4.492243379354477,-7.479009624233264,17.682400119584624,False,0
STABILIZE,3.651190757751465,22.849522232270296,-35.24592457043701,28.293802028587006,21.356080487015333,-5.8907910979782985,-13.266283672864333,31.18958611558148,-28.14648011640353,0.17099143799374203,0.13303100749495655,-78.24925626392903,0.7942639845171515,-2.526496944471151,-7.935516690520146,0.4,-38.36172099776992,32.88084685284536,30.788602423953673,-6.511323153972626,-14.177946746349335,0.7961745373904705,-208.2066535949707,-8.91595184803009,524.7030735015869,-7.479009624233264,-27.12639681702912,False,0
STABILIZE,3.6781954765319824,37.041684329518155,-35.42625052705468,28.26929694511871,21.48458106047816,-5.440782999946206,-13.06790262174129,31.697805124317064,-27.91044816536266,0.3805347048188574,0.1864813998968318,-78.33973577986418,1.1900407630948207,-2.908660697698322,4.360596415348883,0.4,-38.36172099776992,32.88084685284536,30.788602423953673,-1.2560490518808365,-7.205575704574585,-5.458838865160942,164.39857482910156,37.597087025642395,-104.89426851272583,-7.479009624233264,35.384484844357225,False,0
