Mode,Time,Freq,time2delay,actualDelay,North-Vision,East-Vision,Down-Vision,Yaw-Vision,North-Desired,East-Desired,Down-Desired,Roll-UAV,Pitch-UAV,Yaw-UAV,Roll-Control,Pitch-Control,Yaw-Control,Thrust-Control,northVraw,eastVraw,downVraw,N-Velocity,E-Velocity,D-Velocity,N-Acceleration,E-Acceleration,D-Acceleration,yawVraw,yawRate,Landing-State,Q-Size,N-diff,E-diff,D-diff,Y-diff
GUIDED_NOGPS,0.035576820373535156,28.13005687305505,0.033281596501668294,1599852654.8980908,0.04845757400334995,-0.010618688516503164,0.6059799119900483,0.007707789391123092,0,0,0.5,1.0427880324742955,-0.12610914437967755,0.285044097869157,0,0,0.0,0.5,0.0,0.0,0.0,-0.2631773706525564,-0.07069609127938747,1.189327146857977,0.6452635861933231,4.251622781157494,17.669542133808136,0.0,-0.07870499017757096,False,0,0,0,0,0
GUIDED_NOGPS,0.0682063102722168,30.642421408689426,0.03116300900777181,1599852654.933676,0.048765372997969784,-0.007789500529122478,0.6039407487719574,0.012756949680010374,0,0,0.5,1.043142882146019,-0.12483435360411813,0.28399152836546104,0,0,2.0928640278329307,0.5,0.0,0.0,0.0,0.10827177902683616,0.16221983823925257,1.0607625357806683,0.979870930314064,4.109234735369682,14.934344589710236,0.0,0.2882016196172599,False,0,0,0,0,0
GUIDED_NOGPS,0.1023721694946289,29.26796318393379,0.032042535146077473,1599852654.967013,0.04822568602831663,-0.0033895234909611677,0.6014270218064052,0.01973485223389953,0,0,0.5,1.0445602531205023,-0.12601586960882455,0.28693800794038105,0,0,4.093032540812346,0.5,0.0,0.0,0.0,0.06060010055080056,0.24801113177090883,1.030766498297453,-4.907150939106941,4.01681549847126,13.756617903709412,0.0,0.39785280954198343,False,0,0,0,0,0
GUIDED_NOGPS,0.13924384117126465,27.134777742555297,0.032099040349324544,1599852655.0036266,0.03756751978060882,-0.0014857446205864783,0.6014617851827531,0.012182813741475304,0,0,0.5,1.0428261321232595,-0.1273596026063188,0.2897913995074332,0,0,5.911915622135862,0.5,0.0,0.0,0.0,-0.20716299768537283,0.05101471906527877,1.2410535477101803,-1.822308637201786,-5.650649592280388,16.462552547454834,0.0,-0.2018795677927363,False,0,0,0,0,0
GUIDED_NOGPS,0.17351102828979492,29.170055915653602,0.03188160260518392,1599852655.038304,0.041506554277308504,-0.0029899412278336385,0.5977627377896678,0.01139803010736505,0,0,0.5,1.0425932653612444,-0.12642898933190455,0.28812056448171885,0,0,7.468952709129846,0.5,0.0,0.0,0.0,0.31681032851338387,-0.0892861804459244,0.9342608042061329,12.514841556549072,-5.747023224830627,11.46395429968834,0.0,-0.03329970684432447,False,0,0,0,0,0
GUIDED_NOGPS,0.20694398880004883,29.909109708703248,0.03208497365315755,1599852655.0715406,0.03847486055303046,-0.0010416692521646874,0.5937346627000335,0.008852352948569934,0,0,0.5,1.043445544903615,-0.12583422926558452,0.2823853933738767,0,0,8.695180719384028,0.5,0.0,0.0,0.0,-0.08613421814516187,0.10907385731115937,0.9149386547505856,-2.497672475874424,3.9043329656124115,9.584331512451172,0.0,-0.13282255332313894,False,0,0,0,0,0
GUIDED_NOGPS,0.2405712604522705,29.73966561254733,0.03209641774495443,1599852655.1050415,0.035831651400598505,0.00415665117847323,0.6116101165590293,0.01398902389453265,0,0,0.5,1.0442644205520761,-0.12604788612055898,0.2815048592599004,0,0,9.536288510260055,0.5,0.0,0.0,0.0,-0.09016028488986194,0.2727626357227564,1.2211325578391552,-0.443162489682436,2.280663698911667,17.83198118209839,0.0,0.2719654061864933,False,0,0,0,0,0
GUIDED_NOGPS,0.27419257164001465,29.7483137460725,0.031972440083821614,1599852655.1386943,0.03700899104602095,0.0026703492811345235,0.6050544580038423,0.010856139268794723,0,0,0.5,1.043392397494136,-0.12778777008991396,0.2901607633311428,0,0,9.95502238601579,0.5,0.0,0.0,0.0,0.1523245358839631,-0.08300064946524799,0.8913343772292137,3.8876470178365707,-3.7702884525060654,13.349863886833191,0.0,-0.1508447144795184,False,0,0,0,0,0
GUIDED_NOGPS,0.3077526092529297,29.790995163043092,0.03187611897786458,1599852655.1725686,0.0406614191837425,-0.012897312803247594,0.6007986156912438,-0.0044511977592851994,0,0,0.5,1.0432930395860534,-0.12707913796352513,0.2913583676329958,0,0,9.932836109684285,0.5,0.0,0.0,0.0,0.18859609263017774,-0.42542023584246635,1.1849012225866318,3.237658739089966,-3.6947976797819138,15.919899940490723,0.0,-0.39792799498370646,False,0,0,0,0,0
GUIDED_NOGPS,0.3412947654724121,29.81577263744544,0.032110007603963216,1599852655.2057922,0.034566439800701995,-0.011030697303948884,0.5929864901360783,-0.0030758550617980282,0,0,0.5,1.0446719907464554,-0.12497650691621902,0.28575566484245485,0,0,9.470712338657458,0.5,0.0,0.0,0.0,-0.2466969657689333,0.09263401152566075,0.9156615473330021,-3.778795152902603,2.1474873647093773,14.568547904491425,0.0,0.08583426692803621,False,0,0,0,0,0
GUIDED_NOGPS,0.3747849464416504,29.85737268469084,0.03200844128926595,1599852655.2394416,0.035639034489820844,-0.013841819834152214,0.5953000392043203,0.0005959907530654384,0,0,0.5,1.0447236440520535,-0.12550403230789672,0.28683040578052693,0,0,8.589119101584899,0.5,0.0,0.0,0.0,0.14148362679407,-0.15894827665761113,1.3001359067857265,7.765005528926849,4.331124573945999,20.528841018676758,0.0,0.2211532543928148,False,0,0,0,0,0
GUIDED_NOGPS,0.40842199325561523,29.73291934271901,0.032076152165730794,1599852655.272825,0.03674683181564613,-0.01661725479768816,0.5977308624331872,0.0043166199905526744,0,0,0.5,1.0454586364397704,-0.12618854532877893,0.28682901839835173,0,0,7.327103244279351,0.5,0.0,0.0,0.0,0.14148362679407,-0.15894827665761113,1.3001359067857265,7.765005528926849,4.331124573945999,20.528841018676758,0.0,0.2211532543928148,False,0,0,0,0,0
GUIDED_NOGPS,0.4418942928314209,29.874598460081057,0.03188136418660482,1599852655.3065302,0.03804642164253794,-0.0116922759964167,0.5996029055901624,0.0014721012674852488,0,0,0.5,1.0474060941268704,-0.1253586773446224,0.2853594071488883,0,0,5.740560997021648,0.5,0.0,0.0,0.0,0.1507448498159647,0.26979795657098293,1.2637925334274769,8.985758572816849,6.184380874037743,14.899899065494537,0.0,-0.14799785961694534,False,0,0,0,0,0
GUIDED_NOGPS,0.4755256175994873,29.736081275566992,0.031919272740681966,1599852655.3399754,0.03402254345885329,-0.017035992692384823,0.5957124684197012,0.005290624079017415,0,0,0.5,1.0465938352241677,-0.1259332670085497,0.2897530597346312,0,0,3.8997622619605226,0.5,0.0,0.0,0.0,-0.14268266968429089,-0.3205103101208806,1.0984539985656738,-10.698611289262772,-5.474979057908058,18.480204045772552,0.0,0.22661946012166131,False,0,0,0,0,0
GUIDED_NOGPS,0.5114283561706543,27.84766558665746,0.0317724068959554,1599852655.3763359,0.033949707629875946,-0.022529754958022633,0.6150214810271227,0.006081069228704487,0,0,0.5,1.0458369648867658,-0.1273656857435483,0.29195374134912405,0,0,1.8862382729548939,0.5,0.0,0.0,0.0,0.03796570817939937,-0.23752558045089245,1.2526905164122581,6.861425191164017,0.3231632523238659,14.931745827198029,0.0,0.043255267848573406,False,1,0,0,0,0
GUIDED_NOGPS,0.5450403690338135,29.759922802934625,0.03209379514058431,1599852655.4094896,0.035575745756327264,-0.012378731578193768,0.6050269601880872,0.002799658379642421,0,0,0.5,1.0468595722715635,-0.12761989684671973,0.28874056423145616,0,0,-0.21082952277810635,0.5,0.0,0.0,0.0,0.1204931759275496,0.2487911144271493,0.9668966755270958,2.9463807120919228,0.19520542118698359,8.938530087471008,0.0,-0.07642095891086283,False,0,0,0,0,0
GUIDED_NOGPS,0.5814039707183838,27.493356581474465,0.0319402535756429,1599852655.446026,0.03107456248453779,-0.009520148932357366,0.6008937033970849,0.0055240274017814405,0,0,0.5,1.0484916673180793,-0.1273530925822661,0.28819780431627817,0,0,-2.298559420348432,0.5,0.0,0.0,0.0,-0.16606665449216962,0.12949762167409062,0.9964947588741779,-0.4418691620230675,4.136628657579422,9.992881119251251,0.0,0.15659167833584942,False,0,0,0,0,0
GUIDED_NOGPS,0.6147992610931396,29.941563216093318,0.0319698174794515,1599852655.479544,0.03226424031649208,-0.007925245021207505,0.5995295320545337,0.009818002331205451,0,0,0.5,1.048157735100689,-0.12734135319463014,0.2910868142526349,0,0,-4.284483301829301,0.5,0.0,0.0,0.0,0.1382431946694851,0.06226511322893202,1.1354542337357998,-0.6170026957988739,-1.632693037390709,11.646473407745361,0.0,0.24124673711606673,False,0,0,0,0,0
GUIDED_NOGPS,0.64853835105896,29.64172438162544,0.03213051160176595,1599852655.512849,0.03441153718433488,-0.013513094574519909,0.5987520474950733,0.0085727514642884,0,0,0.5,1.048180786989138,-0.12740069046304464,0.29185523721468776,0,0,-6.080642162619563,0.5,0.0,0.0,0.0,0.1886637881398201,-0.32535826321691275,1.1583896353840828,1.3187444768846035,-5.56088425219059,11.825208365917206,0.0,-0.05730101826817572,False,0,0,0,0,0
GUIDED_NOGPS,0.6817171573638916,30.136906772049578,0.03185633023579915,1599852655.5465662,0.030399874281178373,-0.013237552011960025,0.5942677650313676,0.003466522093771183,0,0,0.5,1.047601608291862,-0.12757037797523713,0.2900880058082263,0,0,-7.607481923646012,0.5,0.0,0.0,0.0,-0.14187461929395795,-0.01182348860311322,1.10103664919734,-0.08980357088148594,-1.5183537267148495,15.538705885410309,0.0,-0.26658625868913804,False,0,0,0,0,0
GUIDED_NOGPS,0.7153441905975342,29.739454745275996,0.032122166951497395,1599852655.5797863,0.030903201789419455,-0.01511989168310626,0.5942683739849858,-0.00028648434488632007,0,0,0.5,1.0478415186864587,-0.12756696288065214,0.29096685905533654,0,0,-8.79737697910487,0.5,0.0,0.0,0.0,0.09784653084352612,-0.12606900418177247,1.1698910035192966,0.5543138366192579,2.512754499912262,19.49613243341446,0.0,-0.19624768995587735,False,0,0,0,0,0
GUIDED_NOGPS,0.7512197494506836,27.878020897030282,0.03197482426961263,1599852655.6159413,0.03131687722767473,-0.01685642749503045,0.5915341859745709,-0.003909986413248899,0,0,0.5,1.0467642697883006,-0.1278737877847738,0.2916811207517053,0,0,-9.597625417490859,0.5,0.0,0.0,0.0,0.09784653084352612,-0.12606900418177247,1.1698910035192966,0.5543138366192579,2.512754499912262,19.49613243341446,0.0,-0.19624768995587735,False,1,0,0,0,0
GUIDED_NOGPS,0.7847957611083984,29.781687790677033,0.03210953076680501,1599852655.649314,0.027850047957433427,-0.011348897768758737,0.5855482350765223,-0.00035043353124260593,0,0,0.5,1.0461519006405267,-0.1286061121298461,0.28972320433743887,0,0,-9.972783253900806,0.5,0.0,0.0,0.0,-0.09924238547682762,0.16893702559173107,1.0595276951789856,0.07471756543964148,0.24762116372585297,10.209625214338303,0.0,0.04796349266726708,False,0,0,0,0,0
GUIDED_NOGPS,0.8183083534240723,29.83698265682132,0.032006057103474934,1599852655.6829991,0.02908054107313971,-0.01261273651324292,0.5884226912398738,0.00026469517711602097,0,0,0.5,1.0477861301211582,-0.12961559274483284,0.2931285072059398,0,0,-9.9062342875998,0.5,0.0,0.0,0.0,0.13054849114269018,-0.09280875092372298,1.1280104517936707,2.750381827354431,0.46142907813191414,16.473260521888733,0.0,0.044877864663274564,False,0,0,0,0,0
GUIDED_NOGPS,0.8518576622009277,29.81132236397882,0.03211096127827962,1599852655.7163463,0.031482024939951024,-0.015151694914548737,0.5807487420265804,-0.0020912183358308056,0,0,0.5,1.0471133564879118,-0.12947514698002444,0.2974686121758069,0,0,-9.4009260539328,0.5,0.0,0.0,0.0,0.21560024470090866,-0.178935332223773,1.0170016437768936,4.063214734196663,-1.4916092157363892,16.04951173067093,0.0,-0.13406812903174067,False,0,0,0,0,0
GUIDED_NOGPS,0.8852834701538086,29.914015918751605,0.03200891812642415,1599852655.749915,0.02811954351082882,-0.012517482242019158,0.5792424644919664,-0.002795524502719598,0,0,0.5,1.0470554066016726,-0.12919148068605735,0.2987922814926142,0,0,-8.479239274368842,0.5,0.0,0.0,0.0,-0.13477022293955088,0.131442176643759,1.0126331821084023,-12.611743807792664,0.4466703627258539,17.041870951652527,0.0,-0.03406450126838078,False,0,0,0,0,0
GUIDED_NOGPS,0.9242181777954102,25.682294951474145,0.03204992612202962,1599852655.78884,0.02473796116566326,-0.009852081304880024,0.5777423921958508,-0.0034824609221648754,0,0,0.5,1.049516302415287,-0.12829683262649147,0.29232339865752455,0,0,-7.181996586895462,0.5,0.0,0.0,0.0,-0.13477022293955088,0.131442176643759,1.0126331821084023,-12.611743807792664,0.4466703627258539,17.041870951652527,0.0,-0.03406450126838078,False,1,0,0,0,0
GUIDED_NOGPS,0.9672605991363525,23.23572524666087,0.03208640416463216,1599852655.831764,0.01995107566706168,-0.0062968004810940725,0.57589705859092,-0.004116763264962939,0,0,0.5,1.0490730871711766,-0.12885701486013829,0.2924353497268893,0,0,-5.566654461310076,0.5,0.0,0.0,0.0,0.16134317265823483,-0.05918382084928453,1.487426832318306,9.579891711473465,2.2515911608934402,12.13807538151741,0.0,-0.01481017131768839,False,0,0,0,0,0
GUIDED_NOGPS,1.000666856765747,29.928530654184268,0.03199580510457357,1599852655.865365,0.02740556835777913,-0.00758299846174504,0.5786121810042223,-0.00011587111332041385,0,0,0.5,1.0488943283139927,-0.12997545833672788,0.2979990457339671,0,0,-3.7047583816978453,0.5,0.0,0.0,0.0,0.49679805524647236,-0.09918399155139923,1.2375407852232456,4.059235379099846,-1.5736047178506851,16.277846693992615,0.0,0.2379848682201361,False,0,0,0,0,0
GUIDED_NOGPS,1.0341618061065674,29.856522543813444,0.03210905392964681,1599852655.8987234,0.02490108162363642,-0.008310540707272393,0.5800545979241891,-0.002450876033964834,0,0,0.5,1.0487137551878105,-0.12901763102733937,0.2997560318566736,0,0,-1.6787740091854046,0.5,0.0,0.0,0.0,-0.09345336584374309,-0.06435979157686234,1.162045355886221,-5.493484437465668,-3.493395820260048,17.284691333770752,0.0,-0.13680466033096214,False,1,0,0,0,0
GUIDED_NOGPS,1.0676205158233643,29.886732221747184,0.032086881001790364,1599852655.9322178,0.018543959233229667,-0.009426697573729657,0.5730589193293469,-0.0027493953813279228,0,0,0.5,1.0493056337680744,-0.12988773309457552,0.296483624192297,0,0,0.42156532334096364,0.5,0.0,0.0,0.0,-0.025952767464332283,0.09522593463771045,1.0005179792642593,-0.513947568833828,2.5068797171115875,18.73319447040558,0.0,-0.0019033549421857018,False,0,0,0,0,0
GUIDED_NOGPS,1.1012909412384033,29.70280931102125,0.03210047086079915,1599852655.9657764,0.02057220232051474,-0.005919540156165955,0.5739267071945571,-0.006230456564126378,0,0,0.5,1.0504345359718306,-0.12969371303346486,0.2969879109325408,0,0,2.5032330106138545,0.5,0.0,0.0,0.0,0.17321128398180008,0.18728349823504686,1.1169726960361004,1.9163642078638077,2.1550145000219345,9.597714245319366,0.0,-0.20540158418672247,False,0,0,0,0,0
GUIDED_NOGPS,1.1347134113311768,29.918710321706257,0.03199652036031087,1599852655.999366,0.022586632088264474,-0.0024464823125510096,0.5720299193000844,-0.009601701067774887,0,0,0.5,1.0492678542842278,-0.1290053580311745,0.29776260379480834,0,0,4.474029437436339,0.5,0.0,0.0,0.0,0.17321128398180008,0.18728349823504686,1.1169726960361004,1.9163642078638077,2.1550145000219345,9.597714245319366,0.0,-0.20540158418672247,False,0,0,0,0,0
GUIDED_NOGPS,1.1681580543518066,29.899088977915913,0.03205993970235189,1599852656.0327494,0.020702462094511914,-0.0025124218049557582,0.5750453845829735,-0.008807237278085243,0,0,0.5,1.0490072398787094,-0.1282368550278423,0.2970472215205288,0,0,6.246665612729069,0.5,0.0,0.0,0.0,-0.06098950398154557,-0.021875189850106835,1.3981295749545097,-5.432651191949844,2.2954151034355164,14.902934432029724,0.0,0.04180081775143754,False,0,0,0,0,0
GUIDED_NOGPS,1.206920862197876,25.801257366420195,0.03206375439961751,1599852656.0714667,0.020466999473507164,-0.0056221219122089446,0.5807811196345603,-0.01124236689523259,0,0,0.5,1.0493343419069296,-0.1289311864456564,0.2980644661396112,0,0,7.742629306011935,0.5,0.0,0.0,0.0,0.03036949783563614,-0.20782232750207186,1.206155028194189,6.168830394744873,-1.7194036394357681,13.609349727630615,0.0,-0.1376752960067272,False,0,0,0,0,0
GUIDED_NOGPS,1.2404634952545166,29.812593735117883,0.032013924916585286,1599852656.1050434,0.02352092634854993,-0.0011963505047387513,0.574021776801651,-0.009402968060557786,0,0,0.5,1.0477839956870425,-0.12689098759623244,0.3027718538599251,0,0,8.895662450393434,0.5,0.0,0.0,0.0,0.23208940401673317,0.3030796302482486,0.8609398268163204,-0.3880052827298641,0.5455454811453819,20.186860859394073,0.0,0.04354338310365027,False,0,0,0,0,0
GUIDED_NOGPS,1.2747340202331543,29.39307764003448,0.03197673161824544,1599852656.1390111,0.019008024339246133,0.00015022856423742195,0.5756184113633916,-0.00939527143170412,0,0,0.5,1.0477540068877178,-0.12709984197444674,0.2996315943477324,0,0,9.654695793623906,0.5,0.0,0.0,0.0,-0.22907028906047344,0.0632832758128643,1.1255968362092972,-5.3949180990457535,2.469547465443611,19.091705977916718,0.0,-0.004520998261166643,False,0,0,0,0,0
GUIDED_NOGPS,1.3080077171325684,29.826798082803545,0.03162434895833333,1599852656.172916,0.019354743224202338,9.827800951647445e-05,0.5786587238727974,-0.007624726998795744,0,0,0.5,1.047587414304993,-0.12792106550043497,0.2966975211711095,0,0,9.986110817918139,0.5,0.0,0.0,0.0,0.06613507284782827,-0.0197135639609769,1.2165187858045101,0.46752835623919964,2.268877439200878,14.114518463611603,0.0,0.09953011689502082,False,0,0,0,0,0
GUIDED_NOGPS,1.3414843082427979,29.872257990997664,0.031945021947224934,1599852656.2060862,0.020495617260502006,-0.004818560477373474,0.5764812039254386,-0.00892357058547388,0,0,0.5,1.046938012725313,-0.12862041283842082,0.30063584559913586,0,0,9.875228745343794,0.5,0.0,0.0,0.0,0.11627535568550229,-0.30805813148617744,1.0776999406516552,-6.216727197170258,-1.591305434703827,15.711067616939545,0.0,-0.09101677968248917,False,0,0,0,0,0
GUIDED_NOGPS,1.3754322528839111,29.46038167885314,0.031961711247762044,1599852656.2397966,0.01587432215744069,-0.0038765231727786505,0.5774911285586354,-0.005287182885954511,0,0,0.5,1.0470319278264006,-0.12895274423022426,0.3018012466262693,0,0,9.32696067890069,0.5,0.0,0.0,0.0,-0.23617064580321312,0.046399785787798464,1.0863159783184528,-8.049464225769043,-1.708219014108181,9.567561745643616,0.0,0.21054557040538832,False,0,0,0,0,0
GUIDED_NOGPS,1.4140188694000244,25.916041571409153,0.03173354466756185,1599852656.278886,0.011193946574274784,-0.002923581011096337,0.5784016239971104,-0.0015807906142185834,0,0,0.5,1.0465291618704642,-0.1295542277640085,0.30017278011775017,0,0,8.365590083745087,0.5,0.0,0.0,0.0,-0.23617064580321312,0.046399785787798464,1.0863159783184528,-8.049464225769043,-1.708219014108181,9.567561745643616,0.0,0.21054557040538832,False,0,0,0,0,0
GUIDED_NOGPS,1.4496471881866455,28.06286589812727,0.032012017567952473,1599852656.3143575,0.012280000662360926,-0.0020340410305145825,0.5832048688061996,-0.004046413975513694,0,0,0.5,1.0455382508322835,-0.12935871359901688,0.29928560257758896,0,0,7.033697242732391,0.5,0.0,0.0,0.0,0.07573123439215124,0.0158860013470985,1.1828714050352573,-3.631803020834923,2.577323094010353,19.276627898216248,0.0,-0.08579307234960458,False,0,0,0,0,0
GUIDED_NOGPS,1.4832828044891357,29.739243880994923,0.032139094670613606,1599852656.3477128,0.012223285069199376,0.0002248153849910724,0.5846321385230278,-0.0022890541123607674,0,0,0.5,1.0457923552137491,-0.1294771746924343,0.2995264734675377,0,0,5.390273323461356,0.5,0.0,0.0,0.0,0.0356469361577183,0.12375486548990011,1.1314183473587036,1.8149659037590027,2.5093205273151398,15.699125826358795,0.0,0.09396429979404057,False,0,0,0,0,0
GUIDED_NOGPS,1.5166866779327393,29.929171334584453,0.031971009572347005,1599852656.3813531,0.014940869143828136,0.0020592714705966676,0.5865322359928299,-0.004232738478917827,0,0,0.5,1.0459355757429079,-0.1301478138915649,0.29925265225092895,0,0,3.508107587104019,0.5,0.0,0.0,0.0,0.19726220052689314,0.0978760770522058,1.16426981985569,4.898111522197723,-1.3947181403636932,14.989885687828064,0.0,-0.12517949160061534,False,0,0,0,0,0
GUIDED_NOGPS,1.5538215637207031,26.930239426762633,0.03204825719197591,1599852656.41838,0.017798104248370868,0.003988077634928926,0.5912340377558785,-0.006253949234283652,0,0,0.5,1.0464387685856673,-0.1321539685168446,0.3007117514123729,0,0,1.4705634627465556,0.5,0.0,0.0,0.0,0.19726220052689314,0.0978760770522058,1.16426981985569,4.898111522197723,-1.3947181403636932,14.989885687828064,0.0,-0.12517949160061534,False,0,0,0,0,0
GUIDED_NOGPS,1.589801549911499,27.796544571318748,0.03201416333516439,1599852656.454473,0.017946764285367192,0.002834643252595953,0.5889222282868838,-0.00551409028701521,0,0,0.5,1.046269507960298,-0.13083072608686042,0.3020896353557172,0,0,-0.6321137211366181,0.5,0.0,0.0,0.0,-0.058917910791933537,-0.08686831570230424,1.3233905658125877,-5.074331909418106,2.433222346007824,14.793331921100616,0.0,0.04649193708172642,True,0,0,0,0,0
GUIDED_NOGPS,1.623483419418335,29.68851263829215,0.03209355672200521,1599852656.4878798,0.01495688957097626,0.006124827928416097,0.5868239120377711,-0.002448653943745656,0,0,0.5,1.0472579643992457,-0.13040960223584683,0.30004284644096124,0,0,-2.706793812973938,0.5,0.0,0.0,0.0,-0.14271821128204465,0.18756422214210033,0.9453622624278069,-7.284722477197647,0.5553187802433968,14.755591750144958,0.0,0.17036510164272392,True,0,0,0,0,0
GUIDED_NOGPS,1.6569197177886963,29.902499536594757,0.03187158902486165,1599852656.5216434,0.012456618012310057,0.006501007237105515,0.5883055888598636,-0.0034258334423863334,0,0,0.5,1.0471296849088965,-0.13100809756186918,0.298676408400562,0,0,-4.661586686741114,0.5,0.0,0.0,0.0,-0.11216710554435849,0.016880649491213262,1.160359662026167,-3.7344612181186676,2.536298707127571,14.495834708213806,0.0,-0.06744324887604963,True,0,0,0,0,0
GUIDED_NOGPS,1.690366268157959,29.899088977915913,0.03200510342915853,1599852656.5549877,0.00996995533490057,0.006740845561494363,0.5868855454541322,-0.0044083868878078076,0,0,0.5,1.0465379130503383,-0.1296997961706944,0.3050127428770711,0,0,-6.409912168353249,0.5,0.0,0.0,0.0,-0.11216710554435849,0.016880649491213262,1.160359662026167,-3.7344612181186676,2.536298707127571,14.495834708213806,0.0,-0.06744324887604963,True,0,0,0,0,0
GUIDED_NOGPS,1.7239887714385986,29.74493826635179,0.03203562100728353,1599852656.5884438,0.006646887053033691,0.006097195151857004,0.5805354437732372,-0.003372607695247356,0,0,0.5,1.046916988549274,-0.13006072897964727,0.3065320864414287,0,0,-7.874334777772317,0.5,0.0,0.0,0.0,-0.16556066693738103,-0.03485167108010501,0.8533226326107979,-5.288650095462799,-1.5978021547198296,8.035332709550858,0.0,0.05212130695849953,True,0,0,0,0,0
GUIDED_NOGPS,1.7573692798614502,29.95567681067299,0.03190282185872396,1599852656.6221306,0.011943130298421655,0.011304930479889556,0.5895140909157447,-0.00664065296119044,0,0,0.5,1.0464649154035837,-0.12938944945028194,0.30191202375687043,0,0,-8.989993441398719,0.5,0.0,0.0,0.0,0.3485319670289755,0.2521173795685172,0.49676927737891674,2.0434293895959854,2.271590568125248,8.01098719239235,0.0,-0.18588989484253812,True,0,0,0,0,0
GUIDED_NOGPS,1.791290044784546,29.480052855014197,0.03207424481709798,1599852656.6558738,0.01455104610732096,0.015854345391356037,0.5732222502065948,-0.008670879678581747,0,0,0.5,1.046607922489331,-0.12881987570652634,0.3036638872376994,0,0,-9.707474268578167,0.5,0.0,0.0,0.0,-0.14800502685829997,0.026463600806891918,1.223105564713478,0.3873109817504883,0.6430544890463352,16.852441430091858,0.0,0.05084213058784316,True,0,0,0,0,0
GUIDED_NOGPS,1.8288764953613281,26.610227128536987,0.03207376797993978,1599852656.6933918,0.013500930872553782,0.012358770112922439,0.5759035860033538,-0.007610435640820845,0,0,0.5,1.046389142992479,-0.13062219187376345,0.3064632242607732,0,0,-9.994999153428735,0.5,0.0,0.0,0.0,-0.03468218492344022,-0.19141050288453698,1.2838919647037983,2.8063859790563583,0.533685740083456,14.957763254642487,0.0,0.05178866874179198,True,0,0,0,0,0
GUIDED_NOGPS,1.862236499786377,29.969803717015242,0.03199318250020345,1599852656.7269425,0.012436946029039898,0.008782887311254733,0.578750653891629,-0.006523584883505609,0,0,0.5,1.0468524219172761,-0.13021771660885176,0.30545120900527417,0,0,-9.839833266128725,0.5,0.0,0.0,0.0,-0.03468218492344022,-0.19141050288453698,1.2838919647037983,2.8063859790563583,0.533685740083456,14.957763254642487,0.0,0.05178866874179198,True,0,0,0,0,0
GUIDED_NOGPS,1.8990528583526611,27.165885126557683,0.03211024602254232,1599852656.7635705,0.017309199100136265,0.0064040485522792075,0.5789113943889352,-0.005692152182271747,0,0,0.5,1.046999484427843,-0.1309165303383087,0.30625092810754745,0,0,-9.248849094149707,0.5,0.0,0.0,0.0,0.29779626056551933,-0.12154985452070832,1.1269676499068737,3.47195565700531,0.6703429389744997,20.075039565563202,0.0,0.03651910050135412,True,0,0,0,0,0
GUIDED_NOGPS,1.9355902671813965,27.36653095312663,0.032035144170125325,1599852656.8000488,0.018129829947109016,0.004808029644194954,0.5759456715487111,-0.007069297242408279,0,0,0.5,1.0471177320778489,-0.13195514597897376,0.30852575462713194,0,0,-8.24822205135675,0.5,0.0,0.0,0.0,-0.2047284273430705,0.058302999241277575,0.9325394406914711,-0.4440097603946924,2.3549212142825127,12.537586688995361,0.0,-0.13484358228616192,True,0,0,0,0,0
GUIDED_NOGPS,1.9815831184387207,21.741269652030127,0.031905444463094075,1599852656.8463626,0.02111252246681043,0.008025037680180864,0.5700512197905789,-0.01036360562603373,0,0,0.5,1.0467638429014776,-0.13089774731809117,0.30691270940509824,0,0,-6.882271136822208,0.5,0.0,0.0,0.0,0.2032221294939518,0.19557978957891464,0.9259785525500774,1.48251848295331,0.49759005196392536,14.696478843688965,0.0,-0.20008349484528742,True,0,0,0,0,0
GUIDED_NOGPS,2.0151515007019043,29.790360384675484,0.0320923646291097,1599852656.8796597,0.02423500853158067,0.011271744825692709,0.5671201153067512,-0.013724543488961058,0,0,0.5,1.0470670392676027,-0.13024386342676822,0.307297601236999,0,0,-5.211495991996031,0.5,0.0,0.0,0.0,0.2032221294939518,0.19557978957891464,0.9259785525500774,1.48251848295331,0.49759005196392536,14.696478843688965,0.0,-0.20008349484528742,True,0,0,0,0,0
GUIDED_NOGPS,2.0486865043640137,29.823404769692402,0.031948121388753255,1599852656.9133084,0.023287625998274563,0.011063154042603676,0.5702964408448762,-0.005341955891778518,0,0,0.5,1.047220291637105,-0.13148119488359836,0.3105237984027722,0,0,-3.309897297378446,0.5,0.0,0.0,0.0,-0.027209369000047445,-0.0011459119377832394,1.27206239849329,1.7209062352776527,0.5271619651466608,15.422128140926361,0.0,0.4668633333684998,True,1,0,0,0,0
GUIDED_NOGPS,2.0822155475616455,29.82425302558414,0.031981499989827473,1599852656.9467506,0.031087254402366787,0.005761255272975783,0.5615114418829665,-0.007598763711596429,0,0,0.5,1.046954127702886,-0.1314723369820185,0.3110742422807665,0,0,-1.2616991916130784,0.5,0.0,0.0,0.0,0.2593968063592911,-0.1374239567667246,0.9116432629525661,8.419959247112274,0.503566674888134,12.623876333236694,0.0,-0.07862771699247857,True,0,0,0,0,0
GUIDED_NOGPS,2.1206181049346924,26.03863918549789,0.031923564275105794,1599852656.9853303,0.034721672538063006,0.0022359919142800797,0.5613271804273017,-0.009859112124844043,0,0,0.5,1.0455786983587747,-0.13297188366995363,0.3095470813514604,0,0,0.8423811189212129,0.5,0.0,0.0,0.0,0.25820203591138124,-0.19084273371845484,1.2113086879253387,-0.33443388529121876,-1.2335936538875103,20.426276326179504,0.0,-0.14696700798037587,True,0,0,0,0,0
GUIDED_NOGPS,2.15402889251709,29.9274629144696,0.032048734029134114,1599852657.0186574,0.03153923508966682,0.005692444912238042,0.5656481196994333,-0.015443388281163605,0,0,0.5,1.0451735827636282,-0.1325479850545897,0.30902780021155435,0,0,2.909151336452391,0.5,0.0,0.0,0.0,-0.17252934630960226,0.2166228136047721,1.1530972085893154,6.232759729027748,0.31686294823884964,9.863759577274323,0.0,-0.32824355026560675,True,0,0,0,0,0
GUIDED_NOGPS,2.1891160011291504,28.501464382547006,0.03209093411763509,1599852657.0537221,0.03996508372131788,0.004957600588200358,0.5892338572030373,-0.01446810066260315,0,0,0.5,1.0439282471788645,-0.13256335298022223,0.3115305576142615,0,0,4.847071672991346,0.5,0.0,0.0,0.0,0.40643238462507725,-0.032425878453068435,1.4948043040931225,6.7579954862594604,0.6940614897757769,21.113304793834686,0.0,0.09127408571512825,True,0,0,0,0,0
GUIDED_NOGPS,2.222992420196533,29.52051294684018,0.03211167653401693,1599852657.0874395,0.037501538556152625,0.006084095369806934,0.5858206405797645,-0.015523236739634358,0,0,0.5,1.0446660143309316,-0.132991733907229,0.31288186785286626,0,0,6.570309259822431,0.5,0.0,0.0,0.0,-0.06528858211822808,0.07452118443325162,1.1314264498651028,-2.9455387964844704,0.4206607583910227,12.224394083023071,0.0,-0.0837445758875561,True,1,0,0,0,0
GUIDED_NOGPS,2.2639007568359375,24.448172348871235,0.03196886380513509,1599852657.128029,0.03867173156053668,0.0036819320258852494,0.5793605536317541,-0.02405635249090467,0,0,0.5,1.0443589759833984,-0.1333631254433484,0.3127768270139509,0,0,8.002539790539762,0.5,0.0,0.0,0.0,0.09175416198559105,-0.053306412883102894,1.038514543324709,-1.3052748516201973,-1.6068218275904655,12.001961469650269,0.0,-0.25967346691885046,True,0,0,0,0,0
GUIDED_NOGPS,2.2971534729003906,30.066048758808055,0.03150227864583333,1599852657.1622953,0.03851224484268533,0.00229853521714796,0.572890744602249,-0.025764433462478316,0,0,0.5,1.0441700785641652,-0.13323196446694302,0.31179816229150853,0,0,9.080328018195505,0.5,0.0,0.0,0.0,0.06032467354089022,-0.06600321503356099,0.9082803502678871,-5.337691307067871,2.4556856602430344,17.1273872256279,0.0,-0.13019737278368718,True,0,0,0,0,0
GUIDED_NOGPS,2.333801031112671,27.286415030511208,0.03205731709798177,1599852657.1984782,0.03864412598800763,0.0009099624670328842,0.5695298976405493,-0.027708373820108014,0,0,0.5,1.0454042083698218,-0.13404433009135142,0.3108344386078756,0,0,9.755937380195567,0.5,0.0,0.0,0.0,0.06032467354089022,-0.06600321503356099,0.9082803502678871,-5.337691307067871,2.4556856602430344,17.1273872256279,0.0,-0.13019737278368718,True,0,0,0,0,0
GUIDED_NOGPS,2.367555856704712,29.627277158134902,0.032146485646565755,1599852657.232071,0.03899211928861337,0.0013821941139282405,0.5653810291430803,-0.0253484572888414,0,0,0.5,1.0448639830951563,-0.1343527558210598,0.31264913449298337,0,0,9.999444309209432,0.5,0.0,0.0,0.0,0.07477024337276816,0.03811033966485411,0.8623389527201653,2.7786238119006157,0.35642937291413546,12.241493165493011,0.0,0.10922187518279125,True,1,0,0,0,0
GUIDED_NOGPS,2.4021406173706055,28.913074049053535,0.03207519849141439,1599852657.266708,0.03915022723642781,0.002440765901394743,0.5759629392067446,-0.02530243732532023,0,0,0.5,1.0444881092473939,-0.1337429479942246,0.3140127444081794,0,0,9.800063584670868,0.5,0.0,0.0,0.0,-0.031498787575401366,0.07619145908392966,0.7084034383296967,0.3261792939156294,-1.6400378197431564,12.226036190986633,0.0,0.054967548171264334,True,1,0,0,0,0
GUIDED_NOGPS,2.4358487129211426,29.668352514270758,0.032055171330769856,1599852657.300362,0.032992777523631986,0.0006470356254603812,0.573728443876837,-0.02356612235467606,0,0,0.5,1.0441613273842911,-0.13414582243354958,0.3148109427261453,0,0,9.166626023425668,0.5,0.0,0.0,0.0,-0.11673185508698225,-0.15831341734156013,1.259690523147583,-5.979873239994049,0.39464416913688183,16.111257672309875,0.0,-0.0007815764122904435,True,0,0,0,0,0
GUIDED_NOGPS,2.46925687789917,29.933229614193344,0.031977208455403645,1599852657.3339126,0.029560312234848136,-0.002540729353760024,0.5782626613599273,-0.02294904760332175,0,0,0.5,1.0436356162616118,-0.13439576466848974,0.3150720907401925,0,0,8.127187352021913,0.5,0.0,0.0,0.0,-0.11673185508698225,-0.15831341734156013,1.259690523147583,-5.979873239994049,0.39464416913688183,16.111257672309875,0.0,-0.0007815764122904435,True,0,0,0,0,0
GUIDED_NOGPS,2.5027358531951904,29.865451438336656,0.03204158147176107,1599852657.3674598,0.03266947816770747,-0.006879417524370596,0.5765252473505371,-0.021261950800714094,0,0,0.5,1.0429697795392412,-0.13468231244851292,0.31448984379387535,0,0,6.7277855841685845,0.5,0.0,0.0,0.0,0.22733607329428196,-0.21560622844845057,0.9349467232823372,4.446149244904518,0.3063288051635027,13.354305922985077,0.0,0.05250041247291499,True,0,0,0,0,0
GUIDED_NOGPS,2.536653757095337,29.49228291976346,0.03218534787495931,1599852657.4009595,0.024733942671758026,-0.0015756275659731247,0.569634522214263,-0.01953218850424501,0,0,0.5,1.0426468396575466,-0.13409342207601088,0.3142142083082683,0,0,5.030401940639225,0.5,0.0,0.0,0.0,-0.34454832784831524,0.27552121318876743,1.0887380689382553,-2.362307161092758,0.34802015870809555,13.945293426513672,0.0,0.039658646312139396,True,0,0,0,0,0
GUIDED_NOGPS,2.574338674545288,26.53396848291612,0.03189829190572103,1599852657.4350777,0.02350163444679532,-0.0021629605803944354,0.5658471910844765,-0.021093977328296546,0,0,0.5,1.041487415045937,-0.13433738789542726,0.3150054163545055,0,0,3.1102156249790487,0.5,0.0,0.0,0.0,0.0001049309503287077,-0.027827831218019128,0.9279203601181507,1.5435216948390007,0.3770961193367839,14.227806031703949,0.0,-0.12603051716294306,True,1,0,0,0,0
GUIDED_NOGPS,2.6040706634521484,33.62814489360679,0.028046878178914388,1599852657.4727023,0.02604637572376978,0.001264788558014855,0.5522112496888304,-0.02813404829653978,0,0,0.5,1.0411321384873906,-0.13353654821524327,0.31643177863270106,0,0,1.0522740443667222,0.5,0.0,0.0,0.0,0.27274314779788256,0.22121935617178679,0.8364172652363777,5.567111819982529,-1.4313716441392899,16.449889540672302,0.0,-0.3618388228740929,True,0,0,0,0,0
GUIDED_NOGPS,2.6375694274902344,29.850572912959933,0.03208878835042318,1599852657.5021648,0.02223766803645557,0.0007274634563480465,0.5531419758566426,-0.0242641971625951,0,0,0.5,1.0407605335078596,-0.13392586899793402,0.31861599842407706,0,0,-1.0522740443666747,0.5,0.0,0.0,0.0,-0.15435564564540982,-0.028452693368308246,1.1379475705325603,-2.9458561912178993,0.6452255416661501,21.199055016040802,0.0,0.17933564798303653,True,0,0,0,0,0
GUIDED_NOGPS,2.671128511428833,29.80009662659505,0.03209522565205892,1599852657.5356324,0.0219068488967804,0.0013309291016722121,0.555532707587227,-0.019478625971479206,0,0,0.5,1.0403888218066226,-0.1340707970743852,0.3153800095417984,0,0,-3.110215624979003,0.5,0.0,0.0,0.0,0.04078610800206661,0.035978996311314404,1.215344201773405,3.6304906010627747,2.4947576224803925,16.964463889598846,0.0,0.22904759237160083,True,0,0,0,0,0
GUIDED_NOGPS,2.7047934532165527,29.70449217781744,0.03193500836690267,1599852657.5695415,0.022166860819425482,-0.003688368154533411,0.5507397494817742,-0.016610502208010764,0,0,0.5,1.0391870286778178,-0.13368905353280497,0.317599367454803,0,0,-5.030401940639183,0.5,0.0,0.0,0.0,0.0741266121622175,-0.28512233402580023,0.9520717896521091,-0.42580761946737766,0.551001587882638,16.26538187265396,0.0,0.11803041797372761,True,0,0,0,0,0
GUIDED_NOGPS,2.7425458431243896,26.487720162426033,0.03209355672200521,1599852657.6070611,0.017144934535221076,-0.0036854380952646855,0.5480472472735521,-0.0161854134136213,0,0,0.5,1.0386108381883037,-0.1346327935770303,0.31759739310324603,0,0,-6.727785584168561,0.5,0.0,0.0,0.0,-0.23218216374516487,0.0031885530916042626,0.9034588001668453,-5.533879995346069,0.5341669544577599,15.726207196712494,0.0,-0.017566246029281096,True,0,0,0,0,0
GUIDED_NOGPS,2.777045249938965,28.986606587513304,0.03199771245320638,1599852657.6417105,0.01233164672444363,-0.00586061641935034,0.5456626268947308,-0.015146916342516603,0,0,0.5,1.0380302721088528,-0.1341381384707333,0.31769384284484603,0,0,-8.127187352021895,0.5,0.0,0.0,0.0,0.06543222116306424,-0.125252571888268,1.0707476176321507,-6.709562987089157,-1.5527154318988323,12.482079863548279,0.0,-0.003421271103728477,True,0,0,0,0,0
GUIDED_NOGPS,2.810842990875244,29.589028726226086,0.03207257588704427,1599852657.6754348,0.012122900270612792,-0.0065560745499642905,0.5406546711941523,-0.01357961049921112,0,0,0.5,1.0386408269876284,-0.13338329584574113,0.319988466240853,0,0,-9.16662602342566,0.5,0.0,0.0,0.0,0.03420134889893234,-0.044782066834159195,0.9084389545023441,-1.6333512961864471,0.4517957102507353,13.611146807670593,0.0,0.05094940924752666,True,0,0,0,0,0
GUIDED_NOGPS,2.848517417907715,26.543875859101092,0.03207448323567708,1599852657.713059,0.01348831498448306,-0.0075067406721487,0.536234176884364,-0.015152954538318636,0,0,0.5,1.0393904402490373,-0.13436705652963452,0.31932036168223465,0,0,-9.800063584670857,0.5,0.0,0.0,0.0,0.12736993376165628,-0.05515700322575867,0.776571873575449,0.33041639253497124,0.33978710416704416,10.099399834871292,0.0,-0.12949019474053963,True,0,0,0,0,0
GUIDED_NOGPS,2.886228561401367,26.515516838092587,0.03202107747395833,1599852657.750866,0.014913852016616177,-0.0084377848674356,0.5318001366063744,-0.016761625927414776,0,0,0.5,1.0403934108399713,-0.13574280603886318,0.31757756954639715,0,0,-9.999444309209434,0.5,0.0,0.0,0.0,0.12736993376165628,-0.05515700322575867,0.776571873575449,0.33041639253497124,0.33978710416704416,10.099399834871292,0.0,-0.12949019474053963,True,0,0,0,0,0
GUIDED_NOGPS,2.9197492599487305,29.834435861323318,0.03207114537556966,1599852657.7843425,0.01006618576410252,-0.005014241180314852,0.5309795128954431,-0.015337505104952891,0,0,0.5,1.0412460105474592,-0.13605432669803924,0.3177395730957734,0,0,-9.755937380195574,0.5,0.0,0.0,0.0,-0.23951157927513123,0.19638468511402607,0.9852100163698196,-1.6831442713737488,0.5173877812922001,14.07921016216278,0.0,0.04801981171243993,True,1,0,0,0,0
GUIDED_NOGPS,2.9540212154388428,29.178984861976847,0.03207972844441732,1599852657.818088,0.013896476564930023,-0.003480592272359911,0.5387143492108158,-0.01669418790507616,0,0,0.5,1.0398120977085799,-0.13610832788116464,0.31872530813122374,0,0,-9.080328018195518,0.5,0.0,0.0,0.0,0.15021306462585926,0.04240039852447808,0.8464580401778221,6.381545960903168,0.5290677770972252,13.075554370880127,0.0,-0.0627494548330096,True,0,0,0,0,0
GUIDED_NOGPS,2.987042188644409,30.28181562208954,0.03155401547749837,1599852657.8521216,0.017384650843598963,-0.009802485227316273,0.5539280289275779,-0.018195683108663936,0,0,0.5,1.0397206372067251,-0.136828912838601,0.31757161981129983,0,0,-8.00253979053977,0.5,0.0,0.0,0.0,0.19672350026667118,-0.3131893463432789,1.061113178730011,3.198496997356415,-1.3245145790278912,17.622508108615875,0.0,-0.08573195416272486,True,0,0,0,0,0
GUIDED_NOGPS,3.02055287361145,29.841865230414584,0.03204348882039388,1599852657.8850822,0.015964393271913194,-0.012393204221929407,0.5484304343003434,-0.01876747647807263,0,0,0.5,1.038810941386644,-0.1372966740750411,0.3154029813889679,0,0,-6.5703092598224675,0.5,0.0,0.0,0.0,-0.03206022083759308,-0.14553620712831616,1.0313511826097965,-6.961198151111603,2.632739394903183,19.189700484275818,0.0,-0.07071822453147159,True,0,0,0,0,0
GUIDED_NOGPS,3.054166555404663,29.74915773570988,0.03197983105977376,1599852657.9187021,0.01466515367812765,-0.015075761183777852,0.5459696792677872,-0.019439846147045463,0,0,0.5,1.0374044560261502,-0.1374894134756824,0.319747461948772,0,0,-4.847071672991403,0.5,0.0,0.0,0.0,-0.03206022083759308,-0.14553620712831616,1.0313511826097965,-6.961198151111603,2.632739394903183,19.189700484275818,0.0,-0.07071822453147159,True,0,0,0,0,0
GUIDED_NOGPS,3.087759494781494,29.774499712498848,0.031924041112264,1599852657.9522362,0.019761497717882576,-0.01361434435481182,0.54381787017087,-0.016320156302458425,0,0,0.5,1.036520266693751,-0.13752025604865323,0.31979428609718363,0,0,-2.9091513364524535,0.5,0.0,0.0,0.0,0.2936126897111535,0.06327145965769887,1.0307839140295982,1.4174671843647957,0.3445042995736003,11.755425482988358,0.0,0.12289265888913044,True,0,0,0,0,0
GUIDED_NOGPS,3.1275758743286133,25.11514164416208,0.03177955945332845,1599852657.9922993,0.01760432914205646,-0.01593713728671239,0.5435272524096116,-0.015490294082331674,0,0,0.5,1.0378622921439526,-0.1372332813818069,0.3183983128247094,0,0,-0.8423811189212783,0.5,0.0,0.0,0.0,0.17117284005507827,-0.20843110978603363,0.6782431621104479,4.430237412452698,-3.6140233278274536,12.301436066627502,0.0,0.04609849417314989,True,0,0,0,0,0
GUIDED_NOGPS,3.1609315872192383,29.97344462389412,0.03190282185872396,1599852658.025646,0.02048028327083718,-0.0199738509120031,0.5355592784287727,-0.013830862763093216,0,0,0.5,1.0369667903107405,-0.13756849425966644,0.3208931995016152,0,0,1.261699191613031,0.5,0.0,0.0,0.0,0.17117284005507827,-0.20843110978603363,0.6782431621104479,4.430237412452698,-3.6140233278274536,12.301436066627502,0.0,0.04609849417314989,True,0,0,0,0,0
GUIDED_NOGPS,3.194490909576416,29.797344434893187,0.032026084264119466,1599852658.058987,0.021706296066716625,-0.014866836351960917,0.531192149119651,-0.013013243275230114,0,0,0.5,1.0359088580413292,-0.13698440636392456,0.3244502339553109,0,0,3.3098972973784346,0.5,0.0,0.0,0.0,0.09096281719394028,0.231632636860013,0.848818477243185,0.7970605045557022,0.25403404142707586,8.616845309734344,0.0,0.0057321295392274195,True,0,0,0,0,0
GUIDED_NOGPS,3.2282838821411133,29.59466572587758,0.03193047841389974,1599852658.0929196,0.01733524351399841,-0.01340330428058963,0.5272283963358385,-0.011016550187103537,0,0,0.5,1.0374824695930764,-0.13644898356601903,0.3205952324990734,0,0,5.211495991996021,0.5,0.0,0.0,0.0,-0.17064891289919615,0.04224895965307951,1.077492069453001,2.1878039464354515,-1.2892981991171837,19.10470724105835,0.0,0.064611695238043,True,0,0,0,0,0
GUIDED_NOGPS,3.2616798877716064,29.9439145582272,0.03194168408711751,1599852658.1263964,0.01596957161827587,-0.01748784153542524,0.5198875322215457,-0.016534924405642235,0,0,0.5,1.0375714754956982,-0.13595112680854857,0.3205464873599577,0,0,6.882271136822187,0.5,0.0,0.0,0.0,-0.028902088524773717,-0.23729184176772833,0.8783263154327869,1.7242426052689552,0.315229338593781,11.75440326333046,0.0,-0.31408139314542327,True,0,0,0,0,0
GUIDED_NOGPS,3.299509048461914,26.431635000157545,0.03202775319417318,1599852658.1640828,0.019989825132451275,-0.012796044579086898,0.5135732987570378,-0.018373183239211728,0,0,0.5,1.0353136710881858,-0.13698675424145176,0.32447451314337616,0,0,8.248222051356745,0.5,0.0,0.0,0.0,0.24361263494938612,0.2179642440751195,0.7831419818103313,5.539786070585251,0.40919799357652664,12.907631695270538,0.0,-0.12813832421297958,True,1,0,0,0,0
GUIDED_NOGPS,3.336432695388794,27.084839013806196,0.03201249440511068,1599852658.2007504,0.014106212272770556,-0.01650542162624369,0.5181446177416246,-0.005811180681129017,0,0,0.5,1.0353765301728912,-0.13558144281972162,0.3244622134667849,0,0,9.248849094149701,0.5,0.0,0.0,0.0,-0.11744071962311864,-0.12510386295616627,1.272725872695446,-4.328352212905884,0.45291129499673843,14.824363589286804,0.0,0.2989543917636962,True,0,0,0,0,0
GUIDED_NOGPS,3.369560480117798,30.185489848939554,0.03173425992329915,1599852658.2344856,0.01735866987475437,-0.017217458358608335,0.5129131526107419,-0.004594169305572913,0,0,0.5,1.0351746127055528,-0.13752004260524164,0.32478950225799014,0,0,9.83983326612872,0.5,0.0,0.0,0.0,0.21425345912575722,-0.07043960504233837,0.9081428870558739,-2.8691353276371956,0.2222870709374547,6.424106657505035,0.0,0.04036284948773829,True,0,0,0,0,0
GUIDED_NOGPS,3.403160810470581,29.763512890200893,0.03206327756245931,1599852658.2676346,0.014114847539969179,-0.018624044363389616,0.516758111972524,0.004744201776155928,0,0,0.5,1.035337576750281,-0.1361314864913192,0.32664557948451467,0,0,9.994999153428735,0.5,0.0,0.0,0.0,-0.14459154335781932,-0.10176075156778097,1.2507065199315548,-5.107756331562996,-1.330687664449215,19.011902809143066,0.0,0.48484775506167227,True,0,0,0,0,0
GUIDED_NOGPS,3.436842679977417,29.685570913929407,0.03164199193318685,1599852658.3018565,0.016294168921044887,-0.017075014393033675,0.5200925246836244,0.009363796346118463,0,0,0.5,1.036767327442635,-0.13750403434937444,0.32457464478382564,0,0,9.707474268578174,0.5,0.0,0.0,0.0,0.15411024214699864,0.060357811162248254,1.2165170162916183,8.655662834644318,0.8661778643727303,23.30745756626129,0.0,0.22912296457630899,True,0,0,0,0,0
STABILIZE,3.4702391624450684,29.942631962192493,0.03206756909688314,1599852658.3349037,0.01857778625392177,-0.015265803582347574,0.5154094694912106,0.007972959937602525,0,0,0.5,1.036631043824352,-0.13675933028643147,0.3237376798062346,0,0,8.989993441398749,0.5,0.0,0.0,0.0,0.040605408139526844,0.04263050213921815,0.8973723277449608,3.1546611338853836,0.6574064958840609,19.077011942863464,0.0,0.1397381465382033,True,0,0,0,0,0
STABILIZE,3.5039639472961426,29.655346979177715,0.03214839299519857,1599852658.368309,0.01248202536610972,-0.016691160695869834,0.5126613619579377,0.012533139527959173,0,0,0.5,1.0368284789800477,-0.13673819938868675,0.3254908239475329,0,0,7.874334777772347,0.5,0.0,0.0,0.0,-0.31330082565546036,-0.1076712622307241,0.8473373018205166,0.17060325480997562,-1.2965367175638676,19.15772706270218,0.0,0.24147952383680252,True,0,0,0,0,0
STABILIZE,3.537221908569336,30.066048758808055,0.03190019925435384,1599852658.4020138,0.011437117981752848,-0.020736943387692695,0.5072024810414674,0.004065232750475526,0,0,0.5,1.0362433238672482,-0.1378931416886536,0.32831313281777624,0,0,6.409912168353272,0.5,0.0,0.0,0.0,-0.02584141620900482,-0.2662468235939741,0.8283598348498344,0.2562736626714468,-3.2312918454408646,20.38787603378296,0.0,-0.48784722196351277,True,0,0,0,0,0
STABILIZE,3.570763111114502,29.813653293906913,0.03210309346516927,1599852658.435291,0.017499184107034466,-0.01781733233086923,0.5066638710932622,0.008582962695286312,0,0,0.5,1.0367410739030127,-0.1370519612036842,0.3283817281941673,0,0,4.661586686741125,0.5,0.0,0.0,0.0,0.3822684520855546,0.14265889767557383,0.9507102891802788,3.260858729481697,2.275608852505684,9.31071937084198,0.0,0.25050156340015467,True,0,0,0,0,0
STABILIZE,3.604616641998291,29.54317752796326,0.032038005193074544,1599852658.4691815,0.013776199036267629,-0.013071534364922362,0.5048673533399073,0.003441607522687044,0,0,0.5,1.0367567619937628,-0.13538678242837626,0.32614983048073337,0,0,2.706793812973967,0.5,0.0,0.0,0.0,-0.1850917818956077,0.24606201332062483,0.875023752450943,-4.997479170560837,4.32291179895401,12.007928639650345,0.0,-0.30602270373973384,True,0,0,0,0,0
STABILIZE,3.6381850242614746,29.787186898564723,0.03201106389363607,1599852658.502682,0.015705085188121196,-0.016302551202780343,0.5012283369225315,0.007802482437112406,0,0,0.5,1.0366739459500762,-0.14130076575425526,0.32738348003871404,0,0,0.6321137211366836,0.5,0.0,0.0,0.0,0.14675604179501534,-0.22146247792989016,0.9043759666383266,8.870962262153625,-3.497515246272087,13.390877842903137,0.0,0.25459711558122355,True,0,0,0,0,0
STABILIZE,3.6714749336242676,30.03547567045007,0.03191641171773275,1599852658.5362406,0.02021556472570357,-0.020677775600626547,0.5014049917407246,0.004900508937474964,0,0,0.5,1.0368707407755373,-0.14117590135849098,0.3291199222330575,0,0,-1.4705634627465083,0.5,0.0,0.0,0.0,0.17586235189810395,-0.089685880811885,1.0216453112661839,1.9694944843649864,0.662360992282629,21.239598095417023,0.0,-0.4345424513291763,True,0,0,0,0,0
STABILIZE,3.7062394618988037,28.774621991712632,0.03209546407063802,1599852658.5707052,0.01807360486948998,-0.023437185420933555,0.5010744376402831,0.016382951800860416,0,0,0.5,1.035870331505542,-0.13904477561574122,0.3315507492060681,0,0,-3.5081075871039906,0.5,0.0,0.0,0.0,-0.09652657900005579,-0.1891794498078525,0.9351783432066441,6.605834513902664,-1.3583389110863209,18.527060747146606,0.0,0.6720477122035305,True,0,0,0,0,0
STABILIZE,3.73992657661438,29.68094938186862,0.03195789655049642,1599852658.6044352,0.01983507779334882,-0.016450133145783336,0.4977823567664284,0.03046310783570875,0,0,0.5,1.0355449370246144,-0.13969588474271383,0.33093899370810237,0,0,-5.390273323461346,0.5,0.0,0.0,0.0,0.1333192689344287,0.37964240182191133,0.7607866544276476,5.386431515216827,3.7736836820840836,-2.4003125727176666,0.0,0.8200115409365448,False,0,0,0,0,0
STABILIZE,3.7752907276153564,28.274745350240323,0.03186848958333333,1599852658.6401,0.02144897011848366,-0.00940625858012755,0.49218761983988946,0.04395817464296563,0,0,0.5,1.0357487754826569,-0.139994171910373,0.3277892359640951,0,0,-7.033697242732356,0.5,0.0,0.0,0.0,0.1333192689344287,0.37964240182191133,0.7607866544276476,5.386431515216827,3.7736836820840836,-2.4003125727176666,0.0,0.8200115409365448,False,0,0,0,0,0
STABILIZE,3.8089003562927246,29.754644835878917,0.032091410954793294,1599852658.6733515,0.018999657918371,-0.007612369957439829,0.4921184085893772,0.0283637380250021,0,0,0.5,1.0371849294773579,-0.14123779994784422,0.33267159392103773,0,0,-8.36559008374508,0.5,0.0,0.0,0.0,-0.10799668962135911,0.07439617766067386,1.071177702397108,2.9546622186899185,2.2198664024472237,7.7466800808906555,0.0,-0.9019572157514488,False,0,0,0,0,0
GUIDED_NOGPS,3.842371702194214,29.873960113960113,0.031954320271809895,1599852658.707043,0.024948322840365425,-0.00898460766843404,0.49145609457185024,0.04333469088309743,0,0,0.5,1.0363423616102132,-0.14085050687756334,0.336373636492464,0,0,-9.326960678900685,0.5,0.0,0.0,0.0,0.38564475253224373,-0.11583544546738267,0.8809169754385948,8.844543993473053,-5.652971938252449,7.021661102771759,0.0,0.9008992834820373,False,1,0,0,0,0
GUIDED_NOGPS,3.8758974075317383,29.828919295650444,0.0313444455464681,1599852658.7411256,0.018947869788755786,-0.008396932018789011,0.48892239710697066,0.038203136157244494,0,0,0.5,1.0376806518007127,-0.14107942493646455,0.3299432001518821,0,0,0.0,0.5,0.0,0.0,0.0,-0.1351216807961464,0.19184394041076303,0.9117553010582924,-3.1545020639896393,2.35880259424448,12.040488421916962,0.0,0.002942504191379673,False,0,0,0,0,0
GUIDED_NOGPS,3.9093246459960938,29.913589227894505,0.031980069478352864,1599852658.773969,0.023865049230146138,-0.009089897076952956,0.48965281568477576,0.03791302606220095,0,0,0.5,1.0375531193623038,-0.1410348152634479,0.3288331610096228,0,0,2.0928640278329307,0.5,0.0,0.0,0.0,0.32828119583427906,-0.07039048941805959,0.9502079337835312,11.88553124666214,-1.4521261677145958,14.712271094322205,0.0,0.003772702762695147,False,0,0,0,0,0
GUIDED_NOGPS,3.943135976791382,29.5752584298185,0.032030375798543294,1599852658.807668,0.027968738415638905,-0.006045833004946393,0.4825700143558412,0.03413399608132556,0,0,0.5,1.0375910055678563,-0.14154473157367167,0.3349363619198523,0,0,4.093032540812346,0.5,0.0,0.0,0.0,0.28997461777180433,0.1573063200339675,0.6195821799337864,-0.7567943073809147,0.17586343456059694,5.556268244981766,0.0,-0.17896983265604416,False,0,0,0,0,0
GUIDED_NOGPS,3.9783406257629395,28.40668599138515,0.031948359807332356,1599852658.843019,0.02689376478324364,-0.006150594808950941,0.49108192262054595,0.03500702591241042,0,0,0.5,1.0387234295879033,-0.14109959533885724,0.3342967253762512,0,0,5.911915622135862,0.5,0.0,0.0,0.0,-0.047867646208032966,-0.03621798241510987,1.2688782066106796,3.546519950032234,-1.256385538727045,21.499842405319214,0.0,0.0664990485944681,False,0,0,0,0,0
GUIDED_NOGPS,4.01264500617981,29.152822280761505,0.0320318063100179,1599852658.8772242,0.025847385594635734,-0.005469801282791342,0.4963294220757048,0.03713729740201104,0,0,0.5,1.0390720894006913,-0.14195379587193196,0.33440782267196967,0,0,7.468952709129846,0.5,0.0,0.0,0.0,-0.016474933363497257,0.017738014867063612,1.364157348871231,0.7101260125637054,-1.6191640868782997,9.731299430131912,0.0,0.18297092278728325,False,0,0,0,0,0
GUIDED_NOGPS,4.046292543411255,29.71733031033017,0.03202250798543294,1599852658.910912,0.029404910401803052,-0.004562114271448776,0.4911941275989824,0.04195634518948265,0,0,0.5,1.038142970230158,-0.14324064620024468,0.3347346312154989,0,0,8.695180719384028,0.5,0.0,0.0,0.0,0.25710398331284523,0.1184221706353128,0.5372450686991215,-0.9020782075822353,0.5855063442140818,16.850627958774567,0.0,-0.003543213992797005,False,0,0,0,0,0
GUIDED_NOGPS,4.079799175262451,29.845262745935177,0.03205302556355794,1599852658.9443443,0.03285207359740957,-0.0022692383618861467,0.48277745342813355,0.040815999289610785,0,0,0.5,1.0385576907788245,-0.14317800055895097,0.33364417550625053,0,0,9.536288510260055,0.5,0.0,0.0,0.0,0.25710398331284523,0.1184221706353128,0.5372450686991215,-0.9020782075822353,0.5855063442140818,16.850627958774567,0.0,-0.003543213992797005,False,0,0,0,0,0
GUIDED_NOGPS,4.116589307785034,27.183315294529383,0.03200653394063314,1599852658.9811513,0.03096294851115704,0.0008384674911739679,0.48449988160442814,0.035478609278664516,0,0,0.5,1.0386958953878116,-0.14151911836428413,0.3326417385238454,0,0,9.95502238601579,0.5,0.0,0.0,0.0,-0.06336545338854194,0.1708707306534052,1.1343595571815968,-9.67685580253601,0.6087645888328552,17.518505454063416,0.0,-0.2584173257613763,False,0,0,0,0,0
GUIDED_NOGPS,4.15003776550293,29.89631847179158,0.03197291692097982,1599852659.0146651,0.02719525716579519,-0.00493333297167442,0.48995562364208284,0.04177635626228097,0,0,0.5,1.037562297429001,-0.1426122687966035,0.33417735714833463,0,0,9.932836109684285,0.5,0.0,0.0,0.0,-0.1898590475320816,-0.37075586151331663,1.2077403254806995,-3.7958722561597824,0.47607789747416973,13.928806781768799,0.0,0.43137404396708373,False,0,0,0,0,0
GUIDED_NOGPS,4.183617115020752,29.786340749788728,0.032006057103474934,1599852659.0481043,0.02876190157100953,-0.006239394727720513,0.4954941029549269,0.03660337779991525,0,0,0.5,1.0367302950107289,-0.1432963549306626,0.3379693394373082,0,0,9.470712338657458,0.5,0.0,0.0,0.0,0.14765092637389898,-0.09498003055341542,1.361000631004572,5.032997950911522,-3.428366035223007,13.841144740581512,0.0,-0.24698620377256664,False,0,0,0,0,0
GUIDED_NOGPS,4.216890096664429,30.046233747627063,0.031863005956014,1599852659.0817003,0.03517824965287304,-0.0018171600763228313,0.4967489697644669,0.04061350602941107,0,0,0.5,1.0374199306734886,-0.14244973163869837,0.3361345798715135,0,0,8.589119101584899,0.5,0.0,0.0,0.0,0.2350776456296444,0.1189279486425221,0.9050104767084122,3.959721326828003,0.32651617657393217,8.252101391553879,0.0,0.17515885390344152,False,0,0,0,0,0
GUIDED_NOGPS,4.250822305679321,29.473009626870915,0.032085450490315755,1599852659.1152222,0.03771549491028354,-0.0030089200352541447,0.49438383537586067,0.03665538133611948,0,0,0.5,1.0383774378177597,-0.14165572214768438,0.33297086826447536,0,0,7.327103244279351,0.5,0.0,0.0,0.0,0.19360737642273307,-0.08707008673809469,0.7360468618571758,-6.207291781902313,8.108139783143997,10.577873140573502,0.0,-0.18202750290817524,False,0,0,0,0,0
GUIDED_NOGPS,4.284163236618042,29.987588297537677,0.031893523534139,1599852659.148913,0.03406466201213344,5.7232576059664756e-05,0.49140906841000004,0.03944456167084415,0,0,0.5,1.0377938835305467,-0.14255335841501215,0.33538485988839883,0,0,5.740560997021648,0.5,0.0,0.0,0.0,-0.1604229211807251,0.17344137886539102,0.8508537895977497,-0.40742475539445877,0.2262831898406148,8.612622320652008,0.0,0.24126768125082634,False,0,0,0,0,0
GUIDED_NOGPS,4.317614316940308,29.896957773786102,0.03205374081929525,1599852659.1822202,0.035288034620034194,0.004140658324485867,0.4929527918931412,0.038633244542479676,0,0,0.5,1.03805311055389,-0.14221270273015776,0.3377763865932553,0,0,3.8997622619605226,0.5,0.0,0.0,0.0,0.12014046078547835,0.23134432267397642,0.9690642356872559,8.187659829854965,-3.4915175288915634,12.185201793909073,0.0,0.00928412139232495,False,0,0,0,0,0
GUIDED_NOGPS,4.351064920425415,29.894826873458683,0.03206947644551595,1599852659.2156627,0.03341409779816825,0.004859228946038625,0.49242958266300785,0.035482390216210136,0,0,0.5,1.03922011240661,-0.14340072875891685,0.33561855374363375,0,0,1.8862382729548939,0.5,0.0,0.0,0.0,-0.06431984365917742,0.027947346097789705,0.8495013229548931,-5.030114576220512,-3.428388759493828,15.977904200553894,0.0,-0.12815342533434765,False,0,0,0,0,0
GUIDED_NOGPS,4.384885549545288,29.57296462641632,0.032079251607259114,1599852659.249412,0.03655947543684529,0.00022571517130475557,0.4936795370473144,0.04124050415317914,0,0,0.5,1.0391789178281785,-0.14346625588626666,0.3351373455722652,0,0,-0.21082952277810635,0.5,0.0,0.0,0.0,0.25370896328240633,-0.2857181476429105,1.106820721179247,1.3927708379924297,0.5364975892007351,17.113302648067474,0.0,0.4225502132917942,False,0,0,0,0,0
GUIDED_NOGPS,4.419054746627808,29.260204401967282,0.032007726033528645,1599852659.2829366,0.03498386132237534,-0.0014685348976631114,0.49767540408379984,0.035173454493698714,0,0,0.5,1.0392647220796267,-0.14256413730729606,0.33657040463749854,0,0,-2.298559420348432,0.5,0.0,0.0,0.0,-0.01151746982941404,-0.20368082914501429,0.9655913338065147,-6.178382784128189,2.409069240093231,15.82452803850174,0.0,-0.12042126432770975,False,0,0,0,0,0
GUIDED_NOGPS,4.45175838470459,30.57897537965778,0.031304152806599934,1599852659.3171108,0.03605999849354156,0.0021900521940393025,0.4992064297528708,0.03490953375986679,0,0,0.5,1.039342202038024,-0.14175540022088426,0.3341871488648401,0,0,-4.284483301829301,0.5,0.0,0.0,0.0,0.1319207949563861,0.2164661418646574,1.123687531799078,2.0096005871891975,-1.5491006895899773,14.669622480869293,0.0,0.05972995093090862,False,0,0,0,0,0
GUIDED_NOGPS,4.485267877578735,29.842926870917708,0.03206780751546224,1599852659.3498435,0.037359245070297,0.005903403543373497,0.5033773013846642,0.03481512231927339,0,0,0.5,1.0407321455341216,-0.14157130527841125,0.3334880683311187,0,0,-6.080642162619563,0.5,0.0,0.0,0.0,0.1319207949563861,0.2164661418646574,1.123687531799078,2.0096005871891975,-1.5491006895899773,14.669622480869293,0.0,0.05972995093090862,False,0,0,0,0,0
GUIDED_NOGPS,4.518637657165527,29.96316669286051,0.03205159505208333,1599852659.3833156,0.030044937365772434,0.005379047533412944,0.5034930357855923,0.03776984332548085,0,0,0.5,1.0418998944387823,-0.14163907356158248,0.3352294997652075,0,0,-7.607481923646012,0.5,0.0,0.0,0.0,-0.3826289204880595,-0.038892216980457306,0.8855495601892471,0.3515101969242096,-3.7025615572929382,10.937333106994629,0.0,0.24218738223082442,False,0,0,0,0,0
GUIDED_NOGPS,4.552239656448364,29.76309048203629,0.03214433987935384,1599852659.4166806,0.029309320839158305,0.0038762838205909553,0.5022282006210295,0.034573268464147724,0,0,0.5,1.0410655441429828,-0.14244236784099942,0.3397344630900805,0,0,-8.79737697910487,0.5,0.0,0.0,0.0,0.017091649351641536,-0.09435845422558486,0.8116842247545719,6.24065175652504,0.23961833212524652,11.673058569431305,0.0,-0.126506896177125,False,0,0,0,0,0
GUIDED_NOGPS,4.5857460498809814,29.84738658601672,0.03199628194173177,1599852659.4503655,0.03302265439658704,-0.0008195496023392437,0.5016951346256903,0.031930872330560106,0,0,0.5,1.0410794179647345,-0.14318429713959208,0.3356564132687597,0,0,-9.597625417490859,0.5,0.0,0.0,0.0,0.29025955591350794,-0.28092702850699425,1.0098102502524853,-1.244558859616518,0.3946649841964245,15.683823823928833,0.0,-0.08357628242764537,False,0,0,0,0,0
GUIDED_NOGPS,4.619403839111328,29.708489750818092,0.03202656110127767,1599852659.4840665,0.033512813302929365,0.0026118439757040696,0.5002071345506867,0.0315961260511094,0,0,0.5,1.0415369339174196,-0.14223340674107934,0.3345034186399234,0,0,-9.972783253900806,0.5,0.0,0.0,0.0,0.08654574048705399,0.2064794534817338,0.7954911328852177,4.159821197390556,2.180165983736515,10.755029320716858,0.0,0.04679963243476087,False,0,0,0,0,0
GUIDED_NOGPS,4.652992248535156,29.778938998068842,0.03210190137227376,1599852659.5174584,0.029053180382859214,0.0029574303188261196,0.4980364014912877,0.030949636868963747,0,0,0.5,1.042018675697317,-0.14201654823493146,0.3375131575059454,0,0,-9.9062342875998,0.5,0.0,0.0,0.0,-0.16196485375985503,-0.0720574869774282,1.069805957376957,-1.023581437766552,-1.605808362364769,14.731259644031525,0.0,-0.00659071233234579,False,0,0,0,0,0
GUIDED_NOGPS,4.686364412307739,29.958244348416127,0.031973870595296223,1599852659.551049,0.030171261765246298,-0.0017082614529311505,0.5007201212304491,0.028687414345271847,0,0,0.5,1.0407312917604754,-0.14400018458029126,0.33796437687798936,0,0,-9.4009260539328,0.5,0.0,0.0,0.0,0.12701296946033835,-0.2790236147120595,1.0486683808267117,3.9623912423849106,-1.660451665520668,13.576972484588623,0.0,-0.07095863518406413,False,0,0,0,0,0
GUIDED_NOGPS,4.719942092895508,29.7835910982347,0.032070191701253255,1599852659.5844045,0.02807460976326292,-0.00528396333604478,0.5020809887523051,0.03212815302451861,0,0,0.5,1.0409642652441964,-0.14316498051084564,0.3359180682109094,0,0,-8.479239274368842,0.5,0.0,0.0,0.0,-0.06610436830669641,-0.20953656639903784,0.9736998006701469,-0.030739279463887215,-1.7927417531609535,11.046550422906876,0.0,0.2698722466905753,False,0,0,0,0,0
