Mode,Time,Freq,North-Vision,East-Vision,Down-Vision,Yaw-Vision,North-Desired,East-Desired,Down-Desired,Roll-UAV,Pitch-UAV,Yaw-UAV,Roll-Control,Pitch-Control,Yaw-Control,Thrust-Control,northVraw,eastVraw,downVraw,yawVraw,zGyro
GUIDED_NOGPS,0.004343271255493164,231.58875821324057,206.4301948326729,-15.977966957253964,-21.445828468985916,0.0022514539796650024,206.68706595851222,-15.668465722980695,-33.729927905777785,-2.2572601268128545,0.9652186412875184,102.38966513055782,-0.8100999893939761,0.8404960896783471,-9.00581591866001e-05,0.49692897514080203,206.4301948326729,-15.977966957253964,-21.445828468985916,5.630886403142171,3.724225668350351
GUIDED_NOGPS,0.008676528930664062,231.02748554117323,206.86830498687692,-16.04597664399585,-20.50089946245877,0.008116009926962679,206.68719557982246,-15.6684188324363,-33.729896739433535,-2.2572601268128545,0.9652186412875184,102.38966513055782,-0.13255166771358473,-0.9527455027913578,-0.0003246403970785072,0.4966927506807563,207.30641514108092,-16.113986330737735,-19.555970455931625,5.070398665245946,3.724225668350351
GUIDED_NOGPS,0.044585466384887695,27.854508264764675,206.93822277339987,-16.05808614640642,-19.607851792913625,0.019241188946973017,206.6880924687471,-15.668094382622773,-33.72967982709984,-2.1763473580273565,0.9204065171950053,102.5166520076067,-0.018411492532968667,-0.031853302613057285,-0.0007696475578789207,0.49646954299145346,207.07805834644577,-16.082305151227562,-17.821756453823333,6.239869276191669,3.7815214478634336
GUIDED_NOGPS,0.07964587211608887,28.529963132762866,206.58005453783477,-16.052440441622643,-18.737640541609558,0.13983765291320066,206.69049531830822,-15.667225151137563,-33.72909485464452,-1.886641255843269,0.6751172419052166,102.73082624941078,-0.014083727760644461,0.10798285596134478,-0.005593506116528027,0.49625213642174126,205.5055498311394,-16.03550332727131,-16.127006787697358,4.864494017585471,2.521014298575622
GUIDED_NOGPS,0.12093734741210938,24.22422824800023,206.4614125664437,-16.029260784079952,-18.083745221916097,0.2386558077132885,206.69511203527972,-15.665555052511792,-33.72796322884648,-1.3825052066480394,0.13464458632551918,102.92470799919077,-0.010268326257179126,0.04141356412070514,-0.00954623230853154,0.49608894549826743,205.98684468087944,-15.93654215390918,-15.468163943142248,6.672356308320545,2.0626480624709638
GUIDED_NOGPS,0.1600806713104248,25.54963055012396,206.2856538982306,-16.008364477335416,-16.740022775813934,0.3330234489889674,206.7026201648254,-15.66283898459736,-33.72611005216919,-0.8379057827883319,-0.31443896422064405,103.06107955615924,-0.009763421472620104,0.06769075883137342,-0.013320937959558696,0.4957534781809112,205.40686055716506,-15.8734854235313,-14.727216238475124,3.752616930722823,1.4896902673401404
GUIDED_NOGPS,0.2023019790649414,23.690609731989042,206.14970610270328,-15.931303120788064,-15.638558784081368,0.38895217337981264,206.71366731513666,-15.658842674954078,-33.72336409753418,-0.388416796481905,-0.6207375702502493,103.11628797522046,0.0033464570248018994,0.06310547378090715,-0.015558086935192506,0.4954787986716368,205.33401932953944,-15.728679548000969,-14.048650497268792,5.887884337008174,0.4583662361046586
GUIDED_NOGPS,0.24138975143432617,25.587350003965323,206.02121977074037,-15.78911937988713,-14.769104794819247,0.42965205187880795,206.7288715820706,-15.653342527236784,-33.71955778309452,-0.15835504108047632,-0.8168104233716302,103.15539763840795,0.023045933967989367,0.07206961784767088,-0.017186082075152317,0.49526238675293116,205.12181544700007,-15.371386446722878,-13.474486507512717,6.244476007037221,0.2291831180523293
GUIDED_NOGPS,0.27768731117248535,27.558569213382743,205.82379832960248,-15.513335933936625,-13.95970306014919,0.4636925428358704,206.7488219737878,-15.646125467582467,-33.7145271470083,0.10834186133713064,-1.048923036452848,103.17600431913388,0.0655262943773711,0.10593157388865403,-0.018547701713434818,0.49506129397828524,204.85082330356988,-14.656586097518794,-12.079998114347056,7.9615556897931015,0.5156620156177409
GUIDED_NOGPS,0.3194699287414551,23.937222136616043,205.3396042336008,-15.180452313486779,-13.09302132799725,0.46888465975876376,206.77407883539027,-15.636988790997385,-33.70811182221211,0.22991494635491314,-1.1480000530057604,103.17548522475695,0.08144487302889579,0.1924766720937592,-0.01875538639035055,0.4948462273764463,203.4328623730673,-14.27212405165994,-11.134755282382548,3.930770190565596,-0.2864788975654116
GUIDED_NOGPS,0.36549997329711914,21.728542417837456,205.0604148730591,-14.76736348010424,-12.2171592086728,0.4485179789788912,206.8051742735593,-15.625740007744197,-33.700155011194546,0.28207341914745104,-1.27242390156859,103.13311756133537,0.1060640568753627,0.15471882139760898,-0.017940719159155648,0.49462925104936956,204.84454346211217,-13.808041256618592,-10.347905641852876,3.969946862081173,-1.3178029288008934
GUIDED_NOGPS,0.40268659591674805,26.898288997768258,204.90754951640042,-14.12141992661303,-11.064106294869712,0.41662265063097703,206.84261258119344,-15.612196689729071,-33.69050346076967,0.33584226911937815,-1.2149973785744155,103.08844812416348,0.19572961584594062,0.14642260131526974,-0.016664906025239082,0.494343400708525,204.28262697787002,-12.498961780544919,-8.283385928253356,6.713573714791579,-1.3750987083139758
GUIDED_NOGPS,0.4539511203765869,19.50920736216865,204.76897497698525,-13.426089103475334,-9.84749737853291,0.3711144637447739,206.8868706620464,-15.596186316888817,-33.679007436850505,0.3470187797986197,-1.2473901910434355,103.02233189299776,0.19404679384221366,0.1407909740505853,-0.014844578549790956,0.4940421224854206,204.87824836555805,-11.894732331034412,-7.391441925828716,4.406350494142714,-1.6615776058793874
GUIDED_NOGPS,0.4941115379333496,24.90546229714564,204.60206782481137,-12.721951028873729,-8.646434770176713,0.28991802315665904,206.93839845536488,-15.577546123578006,-33.665520699222526,0.3750349084331162,-1.1286207786180242,102.9413941513331,0.25436813390949276,0.1714354536026737,-0.011596720926266362,0.49374522851773855,204.07160333977419,-11.13589572451078,-6.074685072566063,7.341250567331272,-2.46371851906254
GUIDED_NOGPS,0.525890588760376,31.47364629607396,204.409035163324,-11.949133904590415,-7.366312435403016,0.20246054752419262,206.99761936052658,-15.556122944956089,-33.649900476317114,0.40016899072255824,-1.077947925330817,102.8680789007822,0.3288725386138461,0.20589684495996813,-0.008098421900967705,0.4934291029897715,203.78975803764047,-10.40803843024337,-4.73414360851407,6.04983443538363,-2.7501974166279517
GUIDED_NOGPS,0.5663866996765137,24.699400520569565,204.1658595293628,-11.126214564042389,-6.003381364414819,0.12280056447513475,207.06493066167803,-15.531773063374521,-33.632007439985095,0.3669774196466168,-1.0468199785187187,102.78373972491087,0.33497592671464144,0.22166054358584797,-0.00491202257900539,0.49309284348110743,203.17641037531035,-9.693444553878468,-3.5332502869118927,7.169653594978001,-2.807493196141034
GUIDED_NOGPS,0.6087329387664795,23.620699559044652,203.93270919261602,-10.413880141831504,-4.804660377317794,0.029174559203276024,207.14070395237246,-15.504362054763881,-33.611705680270155,0.3825046807858772,-0.926673215758492,102.67059764130961,0.3339687470506036,0.23415761201897922,-0.001166982368131041,0.4927982386742619,202.98562060959574,-8.937289669490493,-2.289780992768229,8.883674183182677,-2.635605857601787
GUIDED_NOGPS,0.6471052169799805,26.066958764488362,203.73179091647492,-9.517408620334091,-3.3172974066482808,-0.07347820937795659,207.22528556020785,-15.473764635020999,-33.588862680182395,0.4202978250108503,-0.8745463325908653,102.56176540707463,0.4198349774004616,0.2508430453067996,0.0029391283751182633,0.49243210868161646,201.82551616393854,-7.412374723547342,0.04537292751885007,7.211772681430119,-2.7501974166279517
GUIDED_NOGPS,0.7068290710449219,16.747138139900738,203.22691467111684,-8.63935151983655,-1.8222017519161,-0.18298238313718357,207.31899697146466,-15.439864506396072,-33.56334929047175,0.3818409784976224,-0.7984124017077018,102.44359630424424,0.38532450832445,0.30736334546744515,0.007319295325487343,0.4920647131153611,200.80553349924762,-6.7456102220230845,1.4007932010948416,8.842494114293416,-3.323155211758775
GUIDED_NOGPS,0.7492368221282959,23.581390380344644,202.85662664659108,-7.761071710086654,-0.42504181715476486,-0.35609401134226,207.42213525574385,-15.40255420387979,-33.53503970440153,0.343004949763753,-0.703047699690397,102.35783644902556,0.4628064192966894,0.3436754107222397,0.014243760453690399,0.49172250052818833,201.320322781664,-6.016639381493889,2.251656065292605,6.7968894078844215,-3.380450991271857
GUIDED_NOGPS,0.7936732769012451,22.50730602673421,202.6249297776666,-6.9115307990576555,0.9572912403153726,-0.4709904246316374,207.53497349060478,-15.361734941590454,-33.50381143252185,0.26935827495553183,-0.5313746835226818,102.17547722837539,0.48252046673696375,0.328591287696056,0.018839616985265498,0.4913847243317907,203.02467341416227,-5.445739998733469,3.378415000438795,3.0829692940406517,-2.9220847551671985
GUIDED_NOGPS,0.8262350559234619,30.717600187485353,202.2951920173268,-5.923591957884049,2.4666105111540872,-0.6001746378795209,207.65776118620306,-15.317316459161102,-33.469545277443174,0.23444397542443982,-0.47616589093549844,102.12125235655465,0.6057255066096653,0.4155770940980409,0.024006985515180834,0.49101596105285067,201.4337012570556,-3.997595463622459,5.256815361425344,5.111654641981218,-3.0939720937064457
GUIDED_NOGPS,0.857534646987915,31.962690036197372,201.5189214238302,-5.091692561890863,3.728537220652899,-0.6945328802936331,207.7907247099285,-15.269216868126627,-33.43212530860974,0.23813131708089466,-0.3696729698108182,102.03248721810117,0.6026285985374967,0.6139446881841807,0.027781315211745327,0.49070983436768434,197.57959328966763,-3.252877743581411,6.355006475012911,10.264616188731864,-3.20856365273261
GUIDED_NOGPS,0.8961474895477295,25.89891879542325,200.89214628310768,-4.275230295518673,4.900809597783325,-0.799040699539077,207.93406771104299,-15.217362498310903,-33.39143883707309,0.12588393490005223,-0.10504334687547727,101.82424158049665,0.5901182137341756,0.5610730628870317,0.03196162798156308,0.4904269378912859,198.16220924953024,-2.663298890162139,7.262155086746974,6.285566800571914,-3.666929888837269
GUIDED_NOGPS,0.9342727661132812,26.238834915014607,200.43132412646546,-3.486323354706773,6.120783642417253,-0.9226398816583896,208.08797154531837,-15.161687744213905,-33.347376390265524,0.07458969448093249,0.035413890516281424,101.69573157126285,0.6157002392610186,0.5573778574308385,0.036905595266335585,0.4901329599918293,199.29904335645807,-2.0721046774343845,8.351526288462246,2.3387589846524293,-3.380450991271857
GUIDED_NOGPS,0.9680099487304688,29.65283109574611,199.8083760260605,-2.669160433294716,7.290802127333109,-1.0434302795642547,208.2525956996745,-15.102134911398828,-33.2998316867736,0.06050113531709859,0.13118536231517217,101.60083975312388,0.6677681284013249,0.6701517109141177,0.04173721118257019,0.48985234154647334,196.84193136069882,-1.3599253916731833,9.228507425018067,5.298994629055883,-3.4377467707849396
GUIDED_NOGPS,1.0042076110839844,27.63228144146518,199.375975741131,-2.0408999113534088,8.319666741823976,-1.1644367099166817,208.42807821681686,-15.038654062879214,-33.24870161111162,-0.014374533314688515,0.33334962359829373,101.458546422145,0.6356183842090621,0.6366605131965146,0.046577468396667265,0.4896079079117661,197.34633121981153,-0.8562928539159227,10.40113843387968,2.7041652625805312,-4.010704565915763
GUIDED_NOGPS,1.0436561107635498,25.353337282541677,198.77901523607312,-1.4368476290775356,9.273259473224442,-1.2794436424064468,208.6145361198748,-14.97120286550607,-33.193886188495085,-0.031847211088425725,0.43407042122450495,101.33447603587172,0.6384269075931682,0.7077800896947012,0.051177745696257874,0.4893832135845701,196.54463874120114,-0.23261633220204533,11.122970132015245,4.721857120197001,-3.323155211758775
GUIDED_NOGPS,1.0877747535705566,22.670810609213607,197.811359235538,-0.7238289325167407,10.393714126362841,-1.4064833052066812,208.81206583703923,-14.899746436354993,-33.13528855961424,-0.1525814501585528,0.5461120439566007,101.21562391412432,0.668367136907861,0.8362042334291622,0.056259332208267246,0.4891177493285057,195.28342540988112,0.9017945926418345,12.864428352438964,5.508301978453943,-3.380450991271857
GUIDED_NOGPS,1.1272711753845215,25.323182254529648,196.81675218779387,-0.0139479809891907,11.502980880940388,-1.546529133602088,209.02074362620056,-14.824257189113288,-33.07281495540749,-0.25995849391456627,0.7039196160266314,101.09214775430884,0.7001462267996317,0.9362568925831989,0.06186116534408353,0.488856051040913,193.47684487510264,1.4773000802033658,13.897860061349991,5.242672126717878,-3.2658594322456924
GUIDED_NOGPS,1.1568117141723633,33.862991579270314,196.26549335545332,0.6473622421130327,12.582585419186367,-1.6717156893650271,209.2406259995866,-14.744714680467093,-33.00637467183491,-0.2502099996999598,0.7407717949717295,100.989387558246,0.7514740230578166,0.9360967734937686,0.06686862757460109,0.48860275997724467,193.16952263094313,1.9466257238379336,14.626530116247954,4.948617410194018,-3.323155211758775
GUIDED_NOGPS,1.1962244510650635,25.378035129755013,195.45058700303625,1.2956248031347424,13.513507257169968,-1.7515270207005886,209.4717501484006,-14.661105456488501,-32.93588004465177,-0.2503638923996966,0.813627715300963,100.88308932419308,0.7287088448977321,0.9938430817726243,0.07006108082802355,0.4883876531745446,191.64295843019352,2.3850199511926253,15.05574762379769,7.382550170631177,-2.9220847551671985
GUIDED_NOGPS,1.2368102073669434,24.643963430397893,194.40834752193032,1.899824933704712,14.415716970133426,-1.851394620661681,209.71413436745885,-14.57342289902268,-32.86124642418195,-0.3527645963966136,0.9415540635258342,100.8084695075107,0.7315563468298136,1.1108770985656067,0.07405578482646724,0.4881807591514212,190.9611275076105,2.788384320647803,15.634018696832527,6.820926749752161,-2.46371851906254
GUIDED_NOGPS,1.2739312648773193,26.945637230338306,193.48893284591878,2.454764639216667,15.22428785915767,-1.952547654719683,209.96777847982898,-14.481667072074995,-32.78239215009147,-0.30435381638514997,1.0221809248615439,100.70231470743036,0.7446088097891039,1.1712277906758533,0.07810190618878732,0.4879983299976877,189.48661395260643,3.6764931202016102,16.907282797560185,4.864419912947639,-2.46371851906254
GUIDED_NOGPS,1.3104372024536133,27.40014110637853,192.48334155121785,2.958826991090822,15.966751840876544,-2.0293991790680956,210.23266426146753,-14.385844568198133,-32.69923852616195,-0.38296993406223145,1.1000084758546063,100.65225625100334,0.7462048263491529,1.2687736218130174,0.08117596716272382,0.48783350240824036,189.3016008622039,3.997611839574142,17.610179969944355,2.0599099712950704,-1.8907607239317168
GUIDED_NOGPS,1.3500840663909912,25.232387037003615,191.33465598486927,3.4321782405689634,16.60794114167998,-2.0732619725820562,210.50875586585806,-14.28596835487922,-32.61170979506412,-0.33303580842244335,1.14180251010762,100.60715651191374,0.7437938364128441,1.3536334702474524,0.08293047890328226,0.48769508726581395,187.35515421041268,4.313381971228638,17.832476620265123,5.5552491444449,-0.8594366926962349
GUIDED_NOGPS,1.3813936710357666,31.94102685166852,190.35613406585702,3.871467855307478,17.277039795146425,-2.12193286444433,210.79600024864894,-14.182057620926946,-32.51973311313129,-0.3905497364936531,1.2642657742135388,100.59091432206745,0.7620057813720452,1.4591062859383852,0.0848773145777732,0.48755080677293056,187.45525005778302,4.581468024885201,18.401240891129916,6.27845535608688,-1.0313240312354819
GUIDED_NOGPS,1.4189858436584473,26.609214215928844,189.6213989195122,4.292873679088882,17.976431355179585,-2.1464846401183366,211.09432759229128,-14.074137622858688,-32.42323852513282,-0.4033549538052518,1.370429325473751,100.56718624489082,0.7591809493756644,1.3867391951023758,0.08585938560473347,0.4874000825299219,187.598963704344,4.8954134395548214,19.13097649699833,2.738417032554551,-0.6875493541569879
GUIDED_NOGPS,1.4585106372833252,25.305001508295625,188.70266720554145,4.555259538093197,18.47957533270627,-2.162493802566001,211.4036517306769,-13.96223953128763,-32.32215893904761,-0.3174588683291417,1.4432387151392638,100.56056096139591,0.7252235380447498,1.4828223808434882,0.08649975210264005,0.4872995664320615,185.81966891917725,4.988422415223184,19.42300268519359,5.394809045188694,-0.11459155902616465
GUIDED_NOGPS,1.4931795597076416,28.849832168601772,187.98904748565138,4.7999656288382875,18.958851625840076,-2.174020890058602,211.72387057377617,-13.846400277309883,-32.216430100837634,-0.24393300249186514,1.595724395907091,100.54750846989202,0.7282361482947088,1.5211273917907364,0.08696083560234408,0.48720617956833057,185.93400067107325,5.221142293299594,20.006561435613392,7.306580166685862,-0.11459155902616465
GUIDED_NOGPS,1.5312156677246094,26.297895819226042,187.30609008060526,4.986475974189763,19.494328975116026,-2.170307424162261,212.0548665322759,-13.726662398891609,-32.10599056922134,-0.2910431117141174,1.7088681870556448,100.58027288734057,0.7153010205456267,1.5472764858406647,0.08681229696649044,0.4870999201139157,185.49746826724171,5.245933697986013,20.50986336664488,6.356503762931311,0.2864788975654116
GUIDED_NOGPS,1.5597093105316162,35.10671030274623,186.6775264934106,5.117959307069922,20.020419324136913,-2.168305786848172,212.39650694221734,-13.603073887256146,-31.990781690447196,-0.23193337397635766,1.7197715168485124,100.58379043476313,0.6997567341450349,1.6581647589101318,0.08673223147392689,0.48699719974635397,184.45810525504902,5.238884689285998,21.03169263623435,4.348208444635276,0.17188733853924698
GUIDED_NOGPS,1.605330467224121,21.92653001479437,186.02768273925963,5.201157078663745,20.522180150472423,-2.1521940866611464,212.74864448963396,-13.475688033271126,-31.870747573067145,-0.2438366861523974,1.7969117800563421,100.62499013583664,0.6914463391658542,1.5965919440257623,0.08608776346644585,0.4869017680691151,184.1028508289962,5.311402297523939,21.63978062867588,6.665992127641886,0.5729577951308232
GUIDED_NOGPS,1.6453001499176025,25.02314204406474,185.69988086759938,5.258823554369252,21.12347535277521,-2.1340563615792862,213.11111763518946,-13.344563273835593,-31.745835062710107,-0.17387637916506582,1.79852028960588,100.6531988171088,0.683325489242804,1.582056011199611,0.08536225446317146,0.48678267239612866,184.73273923713066,5.276754793750721,22.42947869670753,-0.36133159452639063,0.7448451336700702
GUIDED_NOGPS,1.6788475513458252,29.81174614230985,185.23838503006726,5.241214039702742,21.793267428137554,-2.10258749659608,213.48375103881557,-13.209763038267136,-31.615993716855446,-0.15140545700212057,1.9301734665183452,100.70482138685576,0.6529313719243808,1.6977218748027512,0.0841034998638432,0.48664768471375175,183.7632833575261,5.1330947199670405,23.355521812425103,5.623340114385783,1.0313240312354819
GUIDED_NOGPS,1.7111303806304932,30.987661982652895,184.6381654228207,5.208666320464301,22.432918429852613,-2.0767732775174332,213.8663559843501,-13.071355594689003,-31.48117577960647,-0.12429384818497476,1.896255173986885,100.73693010614399,0.6368064461301111,1.8064346250701322,0.08307093110069733,0.4865214764476352,182.79720684637147,5.083195101793812,23.708118375220163,4.10011450461225,0.8021409131831525
GUIDED_NOGPS,1.745199203491211,29.362212717102913,184.29024947912913,5.1549761158920715,23.047368061026297,-2.0447951329134986,214.25873080417472,-12.929413896417218,-31.34133615646391,-0.12245359245133233,1.975451644300006,100.79531456316926,0.628812962917852,1.7557190484477787,0.08179180531653994,0.48640282394562745,183.03634136964482,4.970433666424847,24.10394079210276,6.302562376735764,1.0313240312354819
GUIDED_NOGPS,1.7807347774505615,28.14591330022816,184.03624572571601,5.022554523271799,23.629848727375002,-2.008168644561277,214.66066130385286,-12.784015428347718,-31.196432389099392,-0.06324190880412488,1.8567058173715725,100.8331128300361,0.6031269504908435,1.7543352299239119,0.0803267457824511,0.4862934297208814,183.90197064376832,4.649294334422578,24.552183960419416,-0.11495430478355217,1.260507149287811
GUIDED_NOGPS,1.8168118000030518,27.725986104959777,183.60275171395554,4.874727438320745,24.0717289909951,-1.963272309822241,215.07192118676772,-12.635242053343463,-31.04642463012894,-0.055579743896266395,1.9273957139602658,100.88664785275066,0.5862038123831865,1.8477681268857291,0.07853089239288964,0.486220461594719,182.02951617315773,4.53761936899545,24.63888001480803,2.4088305292463446,1.432394487827058
GUIDED_NOGPS,1.8517699241638184,28.61365496916444,183.45574884078695,4.730776042179746,24.411493968806173,-1.9205450302230593,215.49227247876016,-12.483179858621558,-30.89127561788645,-0.004692660124916104,1.9774648425578674,100.9506398950845,0.5759400527444581,1.8038914416847969,0.07682180120892237,0.48617430760332686,183.28208226970045,4.41333773926204,25.054346701480473,2.0383154330864386,1.260507149287811
GUIDED_NOGPS,1.8820207118988037,33.063765716763236,183.36905054841822,4.5715232828753605,24.73073326237546,-1.877932425159189,215.9214659527664,-12.32791900214038,-30.730950651197176,0.07171824026517681,1.8985962213249068,100.9744226137745,0.54885598063336,1.837040758956383,0.07511729700636756,0.48613457902160684,183.40926449004627,4.28693130527189,25.304314843066596,3.5841332409741398,1.260507149287811
GUIDED_NOGPS,1.9199376106262207,26.375952710350898,182.95038059099608,4.380834697992624,24.977156636723556,-1.8459378097664465,216.35924155345626,-12.1695535589867,-30.56541756415121,0.10114052075483645,1.9804684182453804,101.0456205056827,0.5424904102533092,1.9363719644902526,0.07383751239065786,0.4861143564497813,181.38337957775371,4.016990742011162,25.336057663843235,5.4418024119304675,0.9740282517223995
GUIDED_NOGPS,1.9572184085845947,26.829808737926182,182.86704431901035,4.215312007555785,25.22799652482129,-1.8068829072591237,216.8053288218708,-12.008181367762802,-30.394646700876972,0.18457684433545607,1.8729672171249034,101.08741443321402,0.5362170975525942,1.8803331626236375,0.07227531629036495,0.4860943391935754,183.09659318164015,3.8216808822383816,25.806383400908068,3.1496335912940197,0.9740282517223995
GUIDED_NOGPS,1.9977021217346191,24.7062385504839,182.39534542128513,4.023852675259542,25.4066525138104,-1.759405129891993,217.2594473200603,-11.843903876973602,-30.218610890314697,0.18592172459128745,1.9586749921511621,101.15330526813713,0.5198993893246531,2.01364041016806,0.07037620519567972,0.48609368414896875,179.02361566456975,3.5803227075142394,25.532159959753585,9.30351490790153,1.3178029288008934
GUIDED_NOGPS,2.031158208847046,29.898236459803545,181.7507043930589,3.7641772627859376,25.587557564610055,-1.7123060292220458,217.72130705572224,-11.676825991413775,-30.03728542098991,0.22938712747854453,1.884262215577989,101.19399953521206,0.4687541741884999,2.1692960387896294,0.06849224116888183,0.48609378925360003,177.87921314383502,3.1149606768940132,25.958871955478756,12.583703013244488,1.0313240312354819
GUIDED_NOGPS,2.062490463256836,31.93081397119279,180.99785970556724,3.5297831371103627,25.718468987092486,-1.6745679109820861,218.1906089068391,-11.507055918554878,-29.85064801578691,0.26861685258504164,1.9569247561763463,101.22574625447429,0.44913352522768474,2.2918203693609627,0.06698271643928344,0.48610772074928016,177.87921314383502,3.1149606768940132,25.958871955478756,12.583703013244488,0.9740282517223995
GUIDED_NOGPS,2.098097801208496,28.0856033212803,180.5181855588374,3.2730419224706537,25.907880732161118,-1.6459815758072895,218.66704504631633,-11.334705014932469,-29.658678806722268,0.3306695747618571,1.9498798429343014,101.25892048327303,0.44328370866782096,2.2165721470869064,0.06583926303229158,0.48610836011527914,178.192122999319,2.7332846688126162,26.283116389186407,9.3624709038275,0.7448451336700702
GUIDED_NOGPS,2.135115623474121,27.020453915878036,180.05594203814553,3.0201217621426375,26.075453460505543,-1.6159762608215427,219.15029936662023,-11.159887632533223,-29.461360309718295,0.3203101521425047,2.0697244765454608,101.30078271269605,0.42897122061931897,2.25604935547724,0.06463905043286171,0.486115796557444,179.5841341041654,2.557080080598302,26.64424704263017,6.0526806452739095,0.6875493541569879
GUIDED_NOGPS,2.165879487991333,32.52709619381456,179.6121713618042,2.6903211138557803,26.387988579705542,-1.5834335113860498,219.64004790441587,-10.982720965182068,-29.258677399376538,0.34580642122094246,2.0528957442041955,101.32834935618621,0.37090354552394345,2.3440120995031504,0.063337340455442,0.48608833350522945,179.85909907931577,1.9313194660799549,27.09483555575357,6.995117743856056,0.8021409131831525
GUIDED_NOGPS,2.2039146423339844,26.295917343765673,179.53117505879032,2.4032057473973487,26.693443070726175,-1.5589387771314103,220.13595926520495,-10.803324894929297,-29.050617283751254,0.3453067235140473,2.110262929929956,101.36460400030064,0.38728750603484546,2.228913893072077,0.06235755108525641,0.48606398491138064,180.73540915364262,1.6793838446018545,27.486144410581925,6.263790293732072,0.6875493541569879
GUIDED_NOGPS,2.2392914295196533,28.27341116833392,179.23602705529063,2.116090380938917,26.99889756174681,-1.5433097479250357,220.63769504796377,-10.621821838437686,-28.837169479122906,0.33580545013088353,2.0894193270171924,101.38045003917507,0.36239656258260733,2.3363841342073566,0.06173238991700143,0.48604098323978256,180.73540915364262,1.6793838446018545,27.486144410581925,6.263790293732072,0.17188733853924698
GUIDED_NOGPS,2.2726287841796875,30.00238914441448,179.3458718434928,1.775572043311096,27.346304269118246,-1.5361127919389952,221.1449102697811,-10.43833659336963,-28.618325784771628,0.3521053497395752,2.1198576381665313,101.38133796376718,0.32313813355210846,2.2538800450605745,0.06144451167755981,0.48600884248652754,179.90237397018694,1.0306929806735083,28.02014992604359,6.290438730216678,-0.11459155902616465
GUIDED_NOGPS,2.311558246612549,25.693937184898402,179.81048456482708,1.3841055819097985,27.776097128566892,-1.5307352254744426,221.6572537904961,-10.25299618477425,-28.39408025775074,0.2982456529156016,2.187305329333584,101.39739573850588,0.3076905927527537,2.151179124304999,0.06122940901897771,0.4859574556534206,181.59611491450917,0.5997477735918156,28.793211339873377,3.2991895288088244,0.0
GUIDED_NOGPS,2.34942889213562,26.40800367695669,180.34846073237017,1.0465392798629884,28.172896714570648,-1.5239209885767486,222.17436873733618,-10.065929711474526,-28.1644291876602,0.22257429392593447,2.17752919419718,101.40879532423062,0.3005426673553506,2.133647782726592,0.06095683954306995,0.4859156685244423,182.1830224841797,0.24348795584590444,29.07883348577236,2.777511506170626,0.057295779513082325
GUIDED_NOGPS,2.38044810295105,32.243538690979534,180.65843893993988,0.7069141913549094,28.4960437988658,-1.5166003590619117,222.69589292955493,-9.877268192454412,-27.929371071420107,0.23697621469836916,2.1167883219082566,101.42348706113532,0.2496280025032896,2.2177277965073454,0.06066401436247647,0.48589364628242854,180.67194865987668,-0.018741597938540407,29.101879832057662,2.142927036027558,0.11459155902616465
GUIDED_NOGPS,2.412775993347168,30.94262676040752,181.06282176476435,0.26953638805645996,28.868191291849264,-1.5161246339957597,223.22145930307013,-9.68714441324596,-27.688906588044173,0.23390265625228987,2.159085122117207,101.43016015595443,0.20562879797191347,2.193441528720946,0.060644985359830386,0.4858607255300266,182.8191967027612,-0.5075051718903926,29.346881875499236,0.3714530124420463,-0.057295779513082325
GUIDED_NOGPS,2.4535977840423584,24.503017379874397,181.2070094559344,-0.08396087478813288,29.157350146808408,-1.5159107924647415,223.75069633510145,-9.495692772316442,-27.443038573413226,0.23746529359553908,2.171295365919074,101.42924491060565,0.23129157399410408,2.2718097886134174,0.06063643169858966,0.4858499028199446,181.0126006086761,-0.736793333549456,29.465944200839306,7.296086997608242,-0.17188733853924698
GUIDED_NOGPS,2.4857029914855957,31.15546146703807,181.35637572430326,-0.4409723241728033,29.361522248298918,-1.5171086673317509,224.28322846880852,-9.303049127455475,-27.19177199504868,0.27279775545030926,2.123227055861463,101.42967521252335,0.17880332963221213,2.315398046732418,0.06068434669327004,0.4858616764391631,181.93033930059343,-1.1853094733315364,29.814071847325913,4.356168748028168,-0.17188733853924698
GUIDED_NOGPS,2.5185887813568115,30.41510637989297,181.51236278115232,-0.7961175321422802,29.53696602666575,-1.516306308640475,224.81867653792872,-9.109350642162141,-26.93511392688601,0.25635575589036963,2.174155507634017,101.42878728793126,0.1596953474115561,2.331687607201571,0.060652252345619,0.48588198001161204,181.98330560843522,-1.5322380840014798,29.956052377606504,4.441614874581845,-0.057295779513082325
GUIDED_NOGPS,2.5515666007995605,30.331306089685643,181.55754437503853,-1.1710424431452933,29.686821747192766,-1.5150560059679898,225.35665819141525,-8.914735632032098,-26.673073524048263,0.24653722555634408,2.1711805333636534,101.43576091107384,0.13049014716663082,2.3914634810682247,0.060602240238719594,0.48591002618218976,180.26382672127664,-1.893366152953607,29.851158434692735,9.288920956567281,-0.11459155902616465
GUIDED_NOGPS,2.587038516998291,28.20117261040288,181.65534397085372,-1.5269270517751605,29.88845961138123,-1.5199145607123354,225.8967883180748,-8.719343411144722,-26.40566199761951,0.2335690175195906,2.1346915283833297,101.43007819368438,0.12210846158859362,2.390359801165625,0.060796582428493416,0.4859264695977498,182.37851168103066,-2.2869282150397283,30.355071196441536,4.471960145789609,-0.2864788975654116
GUIDED_NOGPS,2.628445863723755,24.157815010856982,181.43792869335223,-1.8941614538507234,29.99501100253658,-1.5300263062688824,226.43867947120575,-8.523314138450214,-26.132892589418372,0.15948717161583237,2.2705316112570126,101.41449853218758,0.11195407824310055,2.489355532782864,0.0612010522507553,0.4859680241020113,180.44370026416786,-2.5729653439272706,29.99870115661609,10.44587089998177,-0.5729577951308232
GUIDED_NOGPS,2.6631979942321777,28.779557976931365,181.52793816876834,-2.2617426679235066,30.07141003372255,-1.5342900988098376,226.98194229323568,-8.32678866415673,-25.854780546771455,0.14883478457389668,2.2549041384360233,101.4098471733628,0.07166417842978409,2.4566119086723157,0.0613716039523935,0.4860184523548765,181.39202446320564,-3.0232155436954513,30.196067003255763,11.431836725158448,-0.2291831180523293
GUIDED_NOGPS,2.7011680603027344,26.34414491369997,181.4966332569176,-2.627709592677511,30.195647451887403,-1.5390195241533229,227.52618594035968,-8.129908376117495,-25.57134309728687,0.09582552634286905,2.2647801650890385,101.40340630497549,0.05704175491126075,2.5098507801047387,0.06156078096613292,0.48605825236270644,182.5687574079553,-3.3620727077714996,30.577239468430783,10.332780235318126,-0.2864788975654116
GUIDED_NOGPS,2.741502046585083,24.79474583385059,181.64815911396875,-3.0178526677430844,30.374341889075435,-1.5414334618714967,228.07101850717805,-7.932815046217925,-25.2825994236277,0.07445495832738341,2.3804020342458374,101.39555841761914,0.03712885144028641,2.476278056483921,0.061657338474859866,0.48608576467182424,182.2248074650855,-3.8440815282814778,30.744630620632897,11.102480148880588,-0.17188733853924698
GUIDED_NOGPS,2.7751927375793457,29.692505911169633,181.91928562429416,-3.531032202191137,30.630269968615316,-1.5556719860296095,228.61604745133417,-7.735650676762777,-24.988570638285495,0.026342732287843357,2.4386797695653253,101.38237615252102,-0.045086838117616004,2.4737413970146345,0.062226879441184386,0.48609528984827477,184.09935138319668,-4.85282588727999,31.634711594140942,7.1170704523999575,-0.5729577951308232
GUIDED_NOGPS,2.8129189014434814,26.50914859595123,182.40914102841526,-4.091034514324548,31.043367306587122,-1.5730009870853896,229.1608800181525,-7.5385573468632145,-24.689279758353756,-0.0460795644105869,2.520978426422101,101.3678688307239,-0.06464000589182553,2.4105229918933975,0.06292003948341558,0.4860668382337648,185.902148841404,-5.372976904594323,32.06418784647511,6.306168893203889,-0.7448451336700702
GUIDED_NOGPS,2.85013484954834,26.87932736058241,183.03854996429314,-4.644969834092956,31.423770079189506,-1.5961187323110955,229.70512366527652,-7.341677058823972,-24.3847516803014,-0.06846481572421612,2.5322247597773506,101.34657913108099,-0.09679012682308605,2.369548752104507,0.06384474929244383,0.4860478695601273,185.29909820829968,-5.79289214253749,32.098080866267686,7.815519642928095,-0.8594366926962349
GUIDED_NOGPS,2.891343116760254,24.27189028095252,183.37404321971502,-5.242274579051228,31.79442258758875,-1.6157906118518328,230.24838648730645,-7.145151584530492,-24.075013154746266,-0.2085746739636562,2.512503442322585,101.33009105442457,-0.12363265381304328,2.454452054808526,0.06463162447407331,0.48603264106441624,185.06245772440562,-6.348596432562862,32.430502010426984,3.8657599412456847,-0.6302535746439055
GUIDED_NOGPS,2.9270403385162354,28.019185805710315,184.21656725609003,-5.828028919819912,32.25388860289233,-1.6307450413821194,230.79027764043735,-6.9491223118359855,-23.76009276122859,-0.2509085999860051,2.509161345384333,101.31765327994597,-0.17218369870837447,2.3051396479113575,0.06522980165528477,0.48599650465896976,187.18389255516786,-6.772853232124897,33.04196069715083,4.485832141023579,-0.34377467707849396
GUIDED_NOGPS,2.9631667137145996,27.686819679056843,184.83143662932974,-6.325301969935488,32.51254892495063,-1.649448937127961,231.33040776709694,-6.753730090948604,-23.4400208829845,-0.304693671657211,2.5258833560198166,101.29757252378614,-0.1803423776342683,2.366256033620215,0.06597795748511845,0.48601185754801624,186.3109794491234,-7.339191137857876,32.928013204432425,2.0858897325932446,-0.6302535746439055
GUIDED_NOGPS,2.997081756591797,29.490209313280882,185.54038846658875,-6.807089373933804,32.75292130311054,-1.6676811129893674,231.86838942058347,-6.559115080818568,-23.114829681719467,-0.3768215365096035,2.521740846288204,101.28182893774925,-0.21369239888161395,2.3284494742914186,0.0667072445195747,0.4860330622537925,188.2403721060272,-7.7819139245859095,33.26604973727464,5.367587070399168,-0.6302535746439055
GUIDED_NOGPS,3.0326597690582275,28.116479862712502,186.27688046692595,-7.435302890985353,32.955215677712275,-1.6883225756393476,232.40383748970368,-6.365416595525229,-22.78455307238184,-0.3603075798395407,2.477523909148834,101.25784814357334,-0.27249666279380536,2.3120348932178953,0.06753290302557391,0.4860650578124765,188.1167434677829,-8.933959727795237,33.109552739276374,3.912255525209531,-0.7448451336700702
GUIDED_NOGPS,3.0697145462036133,26.990199548265455,186.77905447749924,-7.952375550031827,33.091025823482155,-1.7020176496768746,232.93636962341074,-6.17277295066426,-22.449226697936282,-0.36690308797854004,2.471527856831209,101.25199467145464,-0.27148891625623994,2.3799713120793564,0.06808070598707498,0.4861149368696454,188.1167434677829,-8.933959727795237,33.109552739276374,3.912255525209531,-0.40107045659157625
GUIDED_NOGPS,3.1053709983825684,28.05498217427075,187.32443906275103,-8.575421363018107,33.20106478212576,-1.7008303876433344,233.46560665544203,-5.981321309734749,-22.10888790413729,-0.42640481454163504,2.506738335776271,101.25347682250454,-0.3333817667872066,2.3662690583916457,0.06803321550573338,0.48617251182843424,190.26522552341822,-9.888082297056293,33.59215549036888,6.560951741997627,0.17188733853924698
GUIDED_NOGPS,3.147822380065918,23.55741774597576,187.94520497714083,-9.08519959485779,33.333893239313056,-1.701048874052547,233.99117302895723,-5.79119753052629,-21.763575714302657,-0.4719328278365302,2.4943880730964185,101.25517753960787,-0.3102141952286529,2.3462275546356293,0.06804195496210187,0.4862256327615961,190.26522552341822,-9.888082297056293,33.59215549036888,6.560951741997627,0.0
GUIDED_NOGPS,3.182900905609131,28.513089645889558,188.79768274836633,-9.707218317445154,33.41794992310038,-1.6922920289333632,234.51269722117604,-5.602536011506178,-21.413330804086968,-0.5596190632054183,2.497750233715357,101.28582459841371,-0.3919833398989892,2.257397060416724,0.06769168115733452,0.48629217981820316,191.8822798942097,-10.892007537522723,33.686333156211255,8.816480127142881,0.34377467707849396
GUIDED_NOGPS,3.2190794944763184,27.64812825059491,189.7074312083028,-10.27403067264263,33.61298973043826,-1.6811797775006596,235.0298121680161,-5.415469538206452,-21.05819547625507,-0.5575441264407625,2.416496595801593,101.29173954223495,-0.4044021274470302,2.223917535605348,0.06724719110002639,0.4863322036983267,194.46188023465973,-11.768021503782618,34.08475177596581,2.5392974022880566,0.40107045659157625
GUIDED_NOGPS,3.2539074420928955,28.726142045065405,190.65898585030723,-10.928218295266948,33.75675342580172,-1.6641717277094692,235.5421556887311,-5.230129129611072,-20.698213635455573,-0.5914028148995437,2.4559123368412674,101.3072850527859,-0.4606650836094016,2.185680181096663,0.06656686910837877,0.4863862582346857,193.9234165851588,-12.204897840916821,33.828371216093664,7.125009112317429,0.5156620156177409
GUIDED_NOGPS,3.2952802181243896,24.172015744673494,191.64235324667573,-11.533651055870779,33.87602321159106,-1.6427918463277105,236.04937091054842,-5.046643884543013,-20.333430762994336,-0.6819541011818406,2.4965942241983328,101.36202218879438,-0.45144142443610497,2.174950381920425,0.06571167385310842,0.48644763650635364,196.1073112769751,-12.915246100075455,34.188504419315635,4.756690656686942,0.6875493541569879
GUIDED_NOGPS,3.3323493003845215,26.98828919259774,192.44367902800445,-12.219773928278212,33.92519825467089,-1.62418466039453,236.55110669330725,-4.865140828051409,-19.963893891607917,-0.680658446312801,2.4754757061714763,101.38937026623111,-0.5273920289868008,2.190888958912107,0.0649673864157812,0.4865277269634303,194.52734971841286,-13.318696659093453,33.83803070576798,10.632625149422992,0.34377467707849396
GUIDED_NOGPS,3.361649513244629,34.138334065862516,193.47728107774975,-12.850128247501782,33.99426936928028,-1.6183376740054427,237.04701805409633,-4.685744757798627,-19.58965158023711,-0.6374529641399747,2.4581009855834335,101.39083875690267,-0.5757567858292467,2.070906846700875,0.06473350696021771,0.48660401976262063,196.38555986574536,-14.043779133640584,34.03168872925822,6.40744224187948,0.0
GUIDED_NOGPS,3.3953230381011963,29.701757616100387,194.33777886855992,-13.444477312589125,33.98390684368737,-1.6140435844871817,237.53676659189196,-4.508578090447482,-19.210753888800387,-0.5653567422733464,2.3875630607037728,101.40229981432995,-0.5815451822646032,2.1183970944391963,0.06456174337948727,0.48670133481687805,197.14920784989948,-14.73976682921933,34.03293914800123,7.069917777739917,0.0
GUIDED_NOGPS,3.4333786964416504,26.284546884498003,195.2949103252114,-14.065826593031147,34.03337303392664,-1.602902663823959,238.02002091219586,-4.333760708048242,-18.8272523529674,-0.5547919337312176,2.326531905375124,101.42300211770426,-0.5917534859845176,2.0848034437562144,0.06411610655295837,0.4867848436532765,197.92227717662985,-15.311644243126931,34.075702167289975,9.378345488772851,0.2291831180523293
GUIDED_NOGPS,3.47064471244812,26.83598858561429,196.1928444509013,-14.71368286055106,34.02655017467595,-1.5992828769694605,238.4964570516731,-4.161409804425819,-18.43919995893245,-0.5538344799477993,2.2693474272096616,101.4532393651599,-0.6336242526819835,2.075174316451444,0.06397131507877842,0.4868835624665979,199.06575289972906,-16.154527437675014,34.1543901230622,-1.8913765500194017,0.057295779513082325
GUIDED_NOGPS,3.5122201442718506,24.05708123981921,197.03758269777202,-15.513131177810962,34.08725572256418,-1.5959693185085326,238.96575890278996,-3.9916397315669307,-18.046651118188002,-0.5938291862413378,2.228821353543037,101.46174978086573,-0.6846827914857517,2.07865596252747,0.0638387727403413,0.48696652328981194,201.21978620962557,-17.315938245392964,34.14155844520914,-1.3210796862512666,0.057295779513082325
GUIDED_NOGPS,3.5472776889801025,28.53035126384241,198.1327383314982,-16.269806485807848,34.13862120113902,-1.5921833595539865,239.4276186384519,-3.8245618460071036,-17.649661642298135,-0.6643892025140951,2.262745195603198,101.48275261256353,-0.7426507870139347,1.95656031113762,0.06368733438215946,0.48705292928914073,202.68466165496812,-17.827155673625015,34.288516122132435,3.2180367654334106,0.0
GUIDED_NOGPS,3.5889651775360107,23.995835073486923,199.21230144819816,-17.042019768989924,34.1992266044677,-1.598915380321039,239.8817371366414,-3.6602843552179003,-17.24828871767206,-0.6152516476862597,2.257145294257434,101.47748653671344,-0.7500859374221658,1.9569906989809807,0.06395661521284156,0.4871381211694651,204.7438162105748,-18.600833245129728,34.3359661646446,1.024021376769781,-0.34377467707849396
GUIDED_NOGPS,3.626513957977295,26.63489845942822,200.68205109527295,-17.793505914066394,34.27433116452589,-1.5979455101415592,240.3278244050559,-3.49891216399401,-16.84259088033756,-0.6334766734651165,2.2268922519893315,101.47933068778934,-0.7951550041900433,1.7858203908354122,0.06391782040566237,0.4872207694887841,206.28534689501114,-19.069074968509266,34.45122496758094,6.1994206473058,-0.057295779513082325
GUIDED_NOGPS,3.662587881088257,27.725069737311774,201.93447831033933,-18.47379730526675,34.32953445444883,-1.5889144219657712,240.7656000057458,-3.340546720840333,-16.43262799071453,-0.6909258214609169,2.1980880635989184,101.4961739342826,-0.8218546149553553,1.7907817683461518,0.06355657687863085,0.4873094593887092,206.40497758627643,-19.555984393676795,34.430406572676894,4.469777710582562,0.2864788975654116
GUIDED_NOGPS,3.704519033432007,23.85458516277271,203.321455920176,-19.021517406181054,34.41835845220665,-1.5753657311881415,241.19479347975204,-3.185285864359148,-16.018461208388402,-0.7461477408179114,2.182948522416762,101.5252568797685,-0.79713635499905,1.7422954433666724,0.06301462924752566,0.4873907950848512,208.2450287285928,-20.05453874996451,34.585678433998204,6.077796005019152,0.40107045659157625
GUIDED_NOGPS,3.7354743480682373,32.307118758954296,205.07224825393817,-19.722321442788278,34.52109054487384,-1.5550751100796258,241.61514477174447,-3.033223669637234,-15.600152966883677,-0.7500606921603882,2.096543641208339,101.54164250358737,-0.9097545929488231,1.4733975162824215,0.06220300440318503,0.4874696891220606,211.92861584672735,-21.331175856661115,34.802176585468416,7.098431460613469,0.5729577951308232
GUIDED_NOGPS,3.774449348449707,25.673963077224425,206.85061099872982,-20.403882681381226,34.661935272888726,-1.533670991920525,242.02640465465936,-2.8844502946329804,-15.177766948437366,-0.7390812697912984,2.0803176730613275,101.57389465684817,-0.8935818086607443,1.4856346709428039,0.061346839676820995,0.48754007444466846,213.29265485806218,-22.00863943809447,35.04018980471905,6.054641076563385,0.6875493541569879
GUIDED_NOGPS,3.807753324508667,30.0178490914426,208.81671458855118,-21.15802833697021,34.80251684734627,-1.4992122634037943,242.42833515433747,-2.739051826563493,-14.751368058772528,-0.7269143550019785,1.945802646886627,101.60618096105482,-0.9681450846124717,1.2917671526791619,0.059968490536151775,0.4876115287734703,216.94861492819663,-22.839803246454206,35.15413283986865,8.193848821989292,1.0313240312354819
GUIDED_NOGPS,3.849503517150879,23.956773552359518,210.4454856562353,-21.87761737357419,34.84436418437928,-1.4566096996752733,242.82070997416207,-2.597110128291707,-14.321022401871708,-0.7532383309500308,1.807987358682341,101.66699013523545,-0.9556006775787338,1.4026456694143858,0.05826438798701093,0.48770865335343727,215.71483019644106,-23.153929576696687,34.63964325784195,5.697207482229601,1.432394487827058
GUIDED_NOGPS,3.8920788764953613,23.493158127629066,212.450407942581,-22.70005983069721,34.95317404735358,-1.40870653537958,243.20331491969662,-2.4587026847135682,-13.886797254750448,-0.8182137070809505,1.5989512334030989,101.75832342481685,-1.0049744536202465,1.2374587018812528,0.056348261415183204,0.487790007174474,220.78319450134032,-24.166751035579622,35.12972774886967,7.3762966799811664,1.260507149287811
GUIDED_NOGPS,3.9264564514160156,29.12043767747669,213.75990324542036,-23.245325353070804,34.77252471170671,-1.3479755931417097,243.57594832332273,-2.3239024491451126,-13.448761042230743,-0.8462840770224105,1.472213871702339,101.82225399544818,-1.0103255357688892,1.301762667905108,0.05391902372566839,0.48794467856151563,216.76130931772607,-24.057503468529088,33.89892990723407,14.209590674425456,1.5469860468532228
GUIDED_NOGPS,3.961672067642212,28.39457062586738,215.37510497400763,-23.819785415902526,34.531699609253735,-1.2959650384132577,243.93842146887823,-2.192777689709576,-13.006983311714556,-0.8587029617590803,1.2841319130230497,101.88011252790736,-1.0365951789444474,1.1576409808578676,0.05183860153653031,0.4881153292697579,219.32659141497442,-24.880939752253056,33.83606429245418,9.781920380956919,1.5469860468532228
GUIDED_NOGPS,3.993762969970703,31.16935310073199,217.23337057063245,-24.553763666712847,34.05122189600704,-1.2340828152173602,244.29055901629485,-2.065391835724551,-12.561534707957293,-0.9371705761825669,1.1162412741907877,101.96626170390873,-1.1216804462206234,0.9668044456642964,0.04936331260869441,0.48834681084900894,223.11115350159147,-26.509694500505823,32.751744273635175,7.111592972188234,1.8907607239317168
GUIDED_NOGPS,4.029842853546143,27.724703207212926,218.63118777749045,-25.224916651474675,33.67364209916569,-1.1745105557246993,244.6321994262363,-1.94180332408909,-12.112486947841273,-0.970400833876854,0.9037182306185485,102.04810103054382,-1.1182897810338068,1.0912619911434516,0.046980422228987975,0.48855346773824826,223.11115350159147,-26.509694500505823,32.751744273635175,7.111592972188234,1.948056503444799
GUIDED_NOGPS,4.0710790157318115,24.254485945098857,219.83822427737286,-25.787958621839028,33.09038459127005,-1.1144089697025044,244.96319538473603,-1.8220654456708196,-11.659912795149221,-0.9831974067302846,0.8165905232968675,102.10682016683842,-1.0993391127771233,1.1352490644137039,0.04457635878810017,0.48881242565339517,222.9489468571214,-26.981960887401392,32.213440209391486,12.151024920314313,1.604281826366305
GUIDED_NOGPS,4.107744932174683,27.277719607447825,221.15231958693295,-26.60893595804115,32.64324871196551,-1.0597419963540615,245.2834142278353,-1.70622619169308,-11.203886035337757,-0.9967917243344313,0.5848161646621243,102.18207519111363,-1.2063731937879671,1.02666548811389,0.04238967985416246,0.4890382163131742,227.46137740467714,-28.16239014953971,31.66325051071139,6.4580971806266945,1.088619810748564
GUIDED_NOGPS,4.148144245147705,24.758010058319364,222.41060652081515,-27.321530762783034,32.03167058059293,-1.0169327557629932,245.59273836622089,-1.5943281001220164,-10.74448145031089,-0.9960934442135033,0.4679412759577453,102.24481730882935,-1.1995660641352854,1.0153150693904613,0.04067731023051973,0.48930596199227405,225.7811256674986,-28.44391377596248,30.778173635591276,6.884792159502368,0.9740282517223995
GUIDED_NOGPS,4.193277835845947,22.16019273849275,223.76225873097923,-27.994999571057427,31.57608989076844,-0.9629943417786573,245.89106570986326,-1.486408102053769,-10.281774793193467,-1.004351036198343,0.3729863852906413,102.27686455641505,-1.204748425727119,0.9669237092343098,0.03851977367114629,0.4895355338290095,231.59641218265295,-29.877038541877795,30.47384082451274,7.299314861193864,1.3178029288008934
GUIDED_NOGPS,4.219297409057617,38.443525842552454,225.30485707973725,-28.694817536389206,30.958380226068886,-0.9106720861859423,246.17831009265416,-1.3824973681014718,-9.815842763104683,-1.0613103315646064,0.32725704149778945,102.3236172012838,-1.3408110886328826,0.6534395420993446,0.03642688344743769,0.4898064442527066,229.1020961077903,-30.008784327164697,29.663195950137396,0.5048567042769889,1.088619810748564
GUIDED_NOGPS,4.264885425567627,21.95223615000131,227.11937072297445,-29.588726694393426,30.322586358886078,-0.8905017847386032,246.45440169704466,-1.2826211547825643,-9.346762979931583,-1.043247789582802,0.32303966648957105,102.38048535631332,-1.3091244577052377,0.7245607979245764,0.03562007138954413,0.4900826626652956,233.84270056087212,-31.451506677422497,29.034470873477424,7.236188630399894,0.6875493541569879
GUIDED_NOGPS,4.297405481338501,30.77055807026682,228.7997799575547,-30.397715610108282,29.724246160809336,-0.8563949074291113,246.71928747868324,-1.186798650905704,-8.874613959102511,-1.057628219271735,0.2881328107974573,102.39956890485433,-1.3942527543083814,0.5501413868819086,0.03425579629716445,0.49035028497002203,236.55442737823338,-32.20733472811397,28.671549520327677,7.299154829784044,0.40107045659157625
GUIDED_NOGPS,4.337641716003418,24.847036521430052,230.7748346773055,-31.319414674575814,29.317231412372074,-0.8467007275563737,246.9729315910533,-1.0950428239580212,-8.399475086360585,-1.1538226825514903,0.3122462600536584,102.408072490371,-1.4093430243348308,0.4806598347061656,0.03386802910225495,0.4905708233753168,238.91159125959797,-33.052409098300124,28.743099893404967,7.543739655776761,0.057295779513082325
GUIDED_NOGPS,4.378558874130249,24.446177428849527,232.56398854908463,-31.970945990195002,28.90511447922723,-0.8357486679252784,247.2153158101116,-1.0073602664921957,-7.921426592537234,-1.2684511860708756,0.2203388076951437,102.41292192468171,-1.3832096374229264,0.45301200311382267,0.03342994671701113,0.49079336473205887,237.26217783135422,-33.13469511997375,28.413256158788496,3.0020347794801694,0.057295779513082325
GUIDED_NOGPS,4.411449670791626,30.40937300620614,234.3772342916539,-32.84415089315263,28.695737126188636,-0.8228643943268498,247.4464399589256,-0.9237510425135973,-7.44054952832564,-1.3048380583787667,0.15568839915832847,102.42341992543602,-1.5081877528805787,0.26876524474398383,0.03291457577307399,0.4909659283363714,241.9673433452314,-34.374808841952834,28.61630918494444,4.539324497061415,0.17188733853924698
GUIDED_NOGPS,4.4499640464782715,25.969796974744128,236.66879970350794,-33.490978566696256,28.61865711172707,-0.8062117809789502,247.6663223323116,-0.8442085338674268,-6.956925739054242,-1.3926110051336023,0.04251056378563046,102.44841841779827,-1.453961153763553,0.1104960577823613,0.03224847123915801,0.49110610428730467,244.11364896233098,-34.6856450451406,28.64907080116963,10.263588117844094,0.40107045659157625
GUIDED_NOGPS,4.495965480804443,21.743411093831,238.22756971180698,-34.041999918877664,28.46674721804443,-0.801756108369389,247.87500012147297,-0.7687192866257213,-6.4706378394601956,-1.372467069723942,-8.014800104186838e-05,102.45565841831848,-1.440923491912576,0.2875970234427256,0.03207024433477556,0.49126565373562386,244.0665722490452,-34.96244148902105,27.912000051914468,2.547885088528872,-0.057295779513082325
GUIDED_NOGPS,4.533731937408447,26.483204525938273,240.13067753810975,-34.48515463502878,28.264510411412864,-0.7963593998238259,248.0725298386374,-0.6972628574746231,-5.981769188462881,-1.3596886395604943,-0.03197302263932883,102.45727717315177,-1.4594488705191402,0.0432796389445661,0.031854375992953037,0.4914384301000311,244.32695871821218,-35.268182679055684,27.73191586024714,8.79852640559929,-0.11459155902616465
GUIDED_NOGPS,4.574068546295166,24.795038986988573,241.77226559090323,-35.023369247473696,28.073850420779344,-0.8051787220633015,248.25898774169534,-0.6298116601014776,-5.490403863937399,-1.292375097577609,-0.05473155979935511,102.44175215316834,-1.495755878392613,0.062457980029942725,0.03220714888253206,0.4916089364288208,246.97540498321976,-35.8257681821983,27.459956205620905,11.579181854023162,-0.5729577951308232
GUIDED_NOGPS,4.618239402770996,22.643395075391535,242.97546991539286,-35.32581505673373,27.750427555774156,-0.8209492494940103,248.43447025883773,-0.5663308115818602,-4.996626637487999,-1.284021882944389,-0.05578922526450216,102.40758754693994,-1.459127568927361,0.1387456017566714,0.03283796997976041,0.49181323645168445,246.18006197415065,-35.887037888253026,26.999194859918514,7.680536345779714,-0.6875493541569879
GUIDED_NOGPS,4.656186819076538,26.359045260869017,244.15346880208347,-35.62973085883526,27.437683455257535,-0.8419823840291826,248.59909441319382,-0.5067779787667881,-4.500522949221647,-1.362156792450102,-0.08038556355893788,102.39938448974675,-1.4847333297512595,0.04979695897205668,0.0336792953611673,0.49201544839888023,248.33558235312273,-36.205224055648245,27.085350298586544,7.489062839648611,-0.7448451336700702
GUIDED_NOGPS,4.692521333694458,27.529627976581164,245.72367321879716,-35.90423662472188,27.28521897057946,-0.8436683078957459,248.75299824746918,-0.45110322466979014,-4.002178882521392,-1.3765437321630876,-0.18261644664153018,102.40877599985551,-1.490469231250875,-0.13557848383897847,0.033746732315829836,0.4921781505367248,249.8238131650636,-36.33497031845416,27.149677628524106,9.33412374052331,-0.057295779513082325
GUIDED_NOGPS,4.733926057815552,24.157258459323256,247.10502567883847,-36.19294553494247,27.176201448108685,-0.8391004876699685,248.89634124858367,-0.3992488548540756,-3.5016811388200253,-1.43356706055282,-0.25384205951281985,102.42145283095506,-1.4997865994997328,-0.1121683782852709,0.03356401950679874,0.4923305293532678,253.0181630255619,-36.711727230158594,27.18682824789327,11.319119841608085,0.11459155902616465
GUIDED_NOGPS,4.7742018699646,24.834678398237894,248.14479326564032,-36.343056273329275,27.05366345217437,-0.8318232721824107,249.0293047723091,-0.3511492638196039,-2.999117012373347,-1.3890094677285956,-0.3053693000960869,102.4461098138588,-1.4827050343388979,-0.08231330865232123,0.03327293088729643,0.4924868048838631,252.43178965674554,-36.576321874132326,26.847266225949326,9.42171840099914,0.2291831180523293
GUIDED_NOGPS,4.810925245285034,27.23520970370707,249.57440393097943,-36.6023115721603,26.880486388950562,-0.817379964993409,249.15209246790744,-0.30673078139022536,-2.4945743650338272,-1.341538585779949,-0.37814437873319096,102.46812351355375,-1.5200109684413325,-0.27905797453136516,0.03269519859973636,0.4926562348115039,255.50345757175833,-37.18331438240819,26.133309543799456,7.562293401648802,0.4583662361046586
GUIDED_NOGPS,4.852218151092529,24.223668632218494,251.07091773368427,-36.80733982245873,26.640469102398082,-0.786839995863453,249.2649307027683,-0.26591151910089295,-1.98814160102404,-1.287718082502424,-0.38710182498411894,102.51568895093372,-1.5119154805705979,-0.3259846324699148,0.03147359983453812,0.49284284732414446,256.2990691398511,-37.230365307140346,25.88526386582417,14.311803233282319,0.9167324722093172
GUIDED_NOGPS,4.88956356048584,26.781669231407754,252.47554409558663,-37.05884402959275,26.379428087912334,-0.737476872740203,249.36806898704754,-0.22860121658463228,-1.479907641710092,-1.2617976213239313,-0.47552502709228084,102.57243416255818,-1.5380859273195113,-0.4037540161850735,0.02949907490960812,0.4930351660675944,258.2124158784385,-37.59249135412426,25.844472556095358,6.248647461105691,1.604281826366305
GUIDED_NOGPS,4.932453632354736,23.320345165020907,254.3411839494314,-37.31314181171415,26.10387197224366,-0.6741269051993274,249.46178039830437,-0.19470108795969665,-0.9699619003752034,-1.3049533178210104,-0.5399182896790157,102.66380843327462,-1.5422408912771919,-0.5626287196643857,0.026965076207973095,0.4932315415318453,261.105180804909,-37.98321614076559,25.809047669549894,9.38105056389658,2.0053522829578814
GUIDED_NOGPS,4.97221040725708,25.158226215682863,256.1058339781699,-37.68056638944071,25.89945248768555,-0.6062618789147916,249.54636200613982,-0.1641036682168071,-0.4583942569930386,-1.3713330448783083,-0.5906095524604702,102.75635066633912,-1.5832544086046845,-0.6407637496526256,0.024250475156591664,0.49341053831383036,262.4527825830308,-38.413444762765174,25.82516880315879,7.714925113235225,1.8907607239317168
GUIDED_NOGPS,5.010894060134888,25.856609170601796,258.07785637934984,-38.10615901862194,25.75344611587377,-0.5357793367918874,249.6221352968342,-0.1366926596061795,0.0547049669985924,-1.330848485955233,-0.6791378754488269,102.83179693591109,-1.6166146907939716,-0.8085830498397202,0.021431173471675495,0.4935753147127812,265.59999237450313,-39.31127752831433,25.40327768474056,7.937424896178371,1.8907607239317168
GUIDED_NOGPS,5.052669286727905,23.943234557048015,259.0259586272926,-38.45248719704192,25.4819922203919,-0.4771665646979591,249.68944659798558,-0.11234277802459403,0.5692450339244672,-1.2714792010290128,-0.7040612357302034,102.91619075329577,-1.6130561314642586,-0.5730014215600406,0.019086662587918364,0.49377181320338315,260.60298100910404,-38.96200619924023,24.52799438841481,-2.567982189351511,1.604281826366305
GUIDED_NOGPS,5.091026306152344,26.074899288804893,260.9205389599573,-38.98994727480673,25.286298000957412,-0.40602174010510683,249.74866750314726,-0.09091959940269234,1.085134815098293,-1.2728780024266901,-0.7937146723017611,102.97870747476888,-1.6799932517636273,-0.9300118295465534,0.016240869604204275,0.4939497092035352,267.5884323180631,-40.27979174294834,24.866001458922934,6.747921363590962,1.776169164905552
GUIDED_NOGPS,5.131596326828003,24.65540774878466,262.07238520528404,-39.43274669274262,24.948979484812043,-0.34542807160410127,249.8001952964658,-0.07227940609187655,1.6022828160493532,-1.3055252394422934,-0.8417119590641745,103.06930310391994,-1.6764139261101612,-0.7777971917183119,0.01381712286416405,0.4941633258328093,264.7182275343723,-40.19721323044505,24.122455088823042,0.7410923105275344,1.6615776058793874
GUIDED_NOGPS,5.17059588432312,25.646490525427563,263.3544567145358,-39.87326340568672,24.538710833501124,-0.2877958791474151,249.8444533773188,-0.05626903325162047,2.1205972017489145,-1.3373757989242379,-0.8512146198295134,103.13505733505964,-1.69860140202792,-0.8841686333480335,0.011511835165896605,0.49439547159206193,266.5556412138652,-40.61602832748569,23.77382554660421,8.841657048537144,1.260507149287811
GUIDED_NOGPS,5.212580680847168,23.822204047322895,264.5261597033238,-40.20568896245197,24.248053628422674,-0.25368000659189327,249.8818916849529,-0.0427257152364966,2.6399858218368593,-1.3593601501500991,-0.8089490357195043,103.17235016792792,-1.686507233347244,-0.8930008550985861,0.010147200263675731,0.49459798304835356,267.58603978874277,-40.973405312140585,23.94999165934832,3.3978892245076224,0.5729577951308232
GUIDED_NOGPS,5.2566916942596436,22.674732534315076,265.7220550277722,-40.77126948203921,24.067414196107165,-0.22752053413123913,249.91298712312192,-0.03147693198330259,3.160356235848063,-1.4151435857620627,-0.8416134549297382,103.2011667360362,-1.7500752644561943,-0.9458962638116423,0.009100821365249565,0.49477323550993524,270.6723434004967,-41.78990879717638,23.624797226837273,6.300450159420322,0.2291831180523293
GUIDED_NOGPS,5.296605825424194,25.05887273118331,266.8058036585241,-41.14617967696596,23.81019945752924,-0.20755665178689536,249.93824398472435,-0.022340255398216158,3.6816157384390635,-1.4446675053362659,-0.9497033329793056,103.2289314550123,-1.739212016031232,-0.9999519477643751,0.008302266071475814,0.4949678540702275,271.1227716290458,-42.154342717582104,23.57992776603331,6.599243114292534,0.11459155902616465
GUIDED_NOGPS,5.339185476303101,23.48802723831284,267.4526274029984,-41.516043392977835,23.707912145880186,-0.20302521444424382,249.9581943764416,-0.015123195743907303,4.203671384614424,-1.4576632208926845,-0.9617451699294497,103.23186843635541,-1.7498080191916323,-0.9135678061096782,0.008121008577769753,0.49512393980968356,270.77458233029773,-42.0465318105044,23.61101853057779,12.110089466143378,-0.2864788975654116
GUIDED_NOGPS,5.382438898086548,23.12580429952197,268.94610911234383,-41.85445694949846,23.584653440395638,-0.22656592275907683,249.97339864337562,-0.00962304802659375,4.726430014953394,-1.4128632630746305,-0.9706262301194645,103.18272522527717,-1.7565411880855724,-1.184380744683138,0.009062636910363074,0.49528544414363945,272.55083468386755,-42.308096110088826,23.157532019181485,5.93194378784375,-1.1459155902616465
