Mode,Time,Freq,North-Vision,East-Vision,Down-Vision,Yaw-Vision,North-Desired,East-Desired,Down-Desired,Roll-UAV,Pitch-UAV,Yaw-UAV,Roll-Control,Pitch-Control,Yaw-Control,Thrust-Control,northVraw,eastVraw,downVraw,yawVraw,zGyro
GUIDED_NOGPS,0.003674745559692383,274.28093120585925,307.32795372661803,-44.806665146828955,0.9903072274239,1.6224199453888197,309.2743931805406,-47.0813015028976,2.400599200810209,-0.24425172686618146,0.14619785130659574,-0.8743482037440822,2.7814921728611144,2.380163357360074,-0.1135693961772174,0.5028205839467726,307.32795372661803,-44.806665146828955,0.9903072274239,0.5193673015177992,-0.057295779513082325
GUIDED_NOGPS,0.00680851936340332,319.61472224338945,307.358963546058,-44.85279661449128,2.5581892750704833,1.584919708923504,309.2742157918534,-47.081262354881474,2.4005610847816143,-0.24425172686618146,0.14619785130659574,-0.8743482037440822,0.0503076810535001,0.050383162771365834,-0.1109443796246453,0.4996847436194223,307.38997336549795,-44.8989280821536,4.126071322717067,0.40048722501171413,-0.057295779513082325
GUIDED_NOGPS,0.03310799598693848,38.033569401245934,307.1288950770194,-44.172402042012834,2.12043413431146,1.5624950425494823,309.27298838604645,-47.08099147795527,2.400295803853995,-0.2845066206784152,0.16976883413230975,-0.8986727485343189,0.19412645107558418,0.11197307612224294,-0.10937465297846377,0.500559723339085,306.6687581389423,-42.81161289705595,1.2449238527934134,0.5859720382516516,0.0
GUIDED_NOGPS,0.0765831470489502,23.026901201220983,306.97116721854144,-43.58391122395074,2.8168268992518857,1.5316344118672567,309.2697000507537,-47.08026577326058,2.3995803902445623,-0.26256869339456895,0.1836934554158501,-0.9529820372243233,0.18103185771195268,0.10286487879865633,-0.10721440883070797,0.49916550698198536,306.49798364310743,-43.04119269264269,3.079485522245175,0.4537375942729349,-0.7448451336700702
GUIDED_NOGPS,0.11553382873535156,25.664223214832038,306.8229615097058,-43.24542053385202,3.062309370890636,1.4790332332382554,309.2633820050469,-47.07887143995127,2.398196426795783,-0.21388541284760557,0.34470812146631913,-0.9848788072048713,0.1794964611450806,0.1087254151102155,-0.10353232632667789,0.4986717741118103,306.2301386743632,-43.88345601185741,4.8625187376333185,0.20630520064135302,-1.260507149287811
GUIDED_NOGPS,0.16392207145690918,20.67004735926512,306.53659040752933,-43.011672742315376,4.680171217648263,1.428235938302373,309.25310701831165,-47.07660384694509,2.395930016123688,-0.02111473607640767,0.2558189723907154,-1.0535404577751881,0.1775347805354073,0.12617043290941163,-0.09997651568116613,0.49543151759695087,305.8960982157357,-42.11036952244604,6.098509393066293,0.3402998846875367,-0.5729577951308232
GUIDED_NOGPS,0.20600652694702148,23.76403132046822,306.2119020706032,-42.89918759997596,5.6808293270245045,1.37484789491497,309.23798882912484,-47.073267404675185,2.392571749766173,0.03823014292972164,0.21787535056059049,-1.0664450329948694,0.17551548304520115,0.14365619156064388,-0.09623935264404791,0.4934234848454833,305.76653168086733,-42.70373726562443,6.081459850373899,0.10312382073255975,-0.34377467707849396
GUIDED_NOGPS,0.24877095222473145,23.389138278117628,305.9645635178457,-42.27146835756682,5.723300217245217,1.322663040602022,309.21718156413095,-47.06867543684167,2.387916677331301,0.031021331828022757,0.4784513362648082,-1.0968097061672188,0.23645004107992554,0.14661340146104235,-0.09258641284214156,0.49332923292017217,305.43206537515505,-42.000298284629984,4.989931408295457,0.11463613969625894,-0.9167324722093172
GUIDED_NOGPS,0.2994384765625,19.74087391983734,305.68041509502564,-41.638485011974886,5.457906011665429,1.2672933612625616,309.18987915691883,-47.06265005216319,2.381764275645608,0.08839654836214303,0.26747469020934217,-1.1643935742308487,0.2554098744640543,0.15645673974950824,-0.08871053528837933,0.49384771652796033,305.0772415290068,-40.21141948567025,5.302326776326929,0.23703438583421557,-0.9740282517223995
GUIDED_NOGPS,0.33587002754211426,27.453406554565746,305.33661017798073,-40.99177714040622,4.824102556420679,1.203237858280959,309.15531476689864,-47.055022016128454,2.3739184179024044,0.0947364580157958,0.4897424927364855,-1.174581655151569,0.29656088669097147,0.1791620779574554,-0.08422665007966715,0.49509963172296345,304.51111408913863,-40.763613650918444,4.180049484639649,-0.09398362696103332,-0.6302535746439055
GUIDED_NOGPS,0.37182068824768066,27.828634744126486,305.0596133526613,-40.57954892916904,4.554141915202076,1.1522509122418019,309.1127601981782,-47.04563062274781,2.364187342810079,0.07446955252064902,0.5165968755622716,-1.1843608852174405,0.294035889378483,0.18285946753686527,-0.08065756385692614,0.495620090855216,304.51111408913863,-40.763613650918444,4.180049484639649,-0.09398362696103332,-0.8021409131831525
GUIDED_NOGPS,0.4159884452819824,22.655870707769093,304.78156687468385,-40.35974675575743,4.7744777731806165,1.0959991280790682,309.0615253184401,-47.03432356630478,2.3523836237404026,0.1311035734679039,0.5897202404861934,-1.2378811803366028,0.28317674104847224,0.18796107143718957,-0.07671993896553478,0.49515581170111955,304.37629929098006,-39.55201296543541,5.96333435026255,0.008084518714656607,-1.260507149287811
GUIDED_NOGPS,0.4553210735321045,25.416327322086484,304.4749040103414,-39.57856999028028,5.12460977757167,1.0303374508493743,309.00095747781813,-47.020956813107624,2.3383241378768314,0.13387321517634407,0.6065020152769147,-1.2965454616744305,0.35825593783711274,0.2012109843074447,-0.07212362155945622,0.4944274287206103,303.8987510534427,-38.42008335448702,5.230445497812809,0.007982999666572519,-1.2032113697747289
GUIDED_NOGPS,0.501121997833252,21.83703071228127,304.2408631344292,-38.74332989656447,5.3123786447554195,0.9921460791771304,308.9304409277742,-47.005394473240905,2.32183003536281,0.16216505933772693,0.4581571366934078,-1.3140096150519185,0.38671213243263464,0.19997516551572925,-0.06945022554239913,0.4940189027812148,303.907037149446,-38.25789336977102,4.743356086190901,-0.07183939699889991,0.2291831180523293
GUIDED_NOGPS,0.5425839424133301,24.124467246823613,304.0802658855047,-37.53565750935641,5.6852363386499265,0.9598428816741068,308.8493962399749,-46.987508672317034,2.3027267084500735,0.09889763070570706,0.5523518486502306,-1.323455873395752,0.46767308059114937,0.19845435283186905,-0.06718900171718749,0.4932349807396003,303.7081278445156,-35.92899580381124,7.081907431946073,0.10527219270028143,-0.34377467707849396
GUIDED_NOGPS,0.5851202011108398,23.5123859922528,303.8255381700672,-36.8953035623729,5.556386870214766,0.9294193354123775,308.7572797251685,-46.96717942322782,2.280843760646954,0.13975286079338792,0.371020571470147,-1.3432495481670372,0.4499830270522791,0.21082373472917534,-0.06505935347886643,0.49344891378086436,303.2374755119512,-36.49902151353649,4.843897092507326,-0.10071804725625476,-0.2291831180523293
GUIDED_NOGPS,0.6200339794158936,28.6515745611039,303.60048618087563,-36.19792551248872,5.446909075510682,0.8986357881066525,308.65358285206116,-46.94429449789602,2.2560149758666808,0.16741648763368827,0.4307772561883539,-1.3541662181731275,0.49160149864963726,0.21482848715052372,-0.06290450516746568,0.49361821180071197,303.25103934502226,-36.16575922011849,4.414922702078647,-0.12726121138977167,-0.34377467707849396
GUIDED_NOGPS,0.6627013683319092,23.439853804927935,303.4778620370831,-35.986975696655215,5.654564859648254,0.8868423789676596,308.5378316661943,-46.918749299026906,2.2280782875756855,0.15410847768572666,0.5932830379120013,-1.3251213723361772,0.4546239299656611,0.20538712396856365,-0.06207896652773618,0.4931470268558549,303.2856303344805,-35.296146356310715,7.704874784358788,-0.05989356395211014,0.5156620156177409
GUIDED_NOGPS,0.7104840278625488,20.93321222163441,303.2788389842068,-35.34263752601611,6.514971182620633,0.8830360369171969,308.40958620882077,-46.89044673185983,2.1968757479419043,0.24831782385645468,0.4469754766918623,-1.3007259643333016,0.5061984181524392,0.21250480060811608,-0.06181252258420379,0.49136380913064254,302.91192188506426,-34.56600700161917,7.425116061424464,-0.01892168858179422,0.5156620156177409
GUIDED_NOGPS,0.7561516761779785,21.899397470839467,303.10488362662744,-34.88596878753646,8.031129069008374,0.8679708730018253,308.26843993578194,-46.85929707591975,2.162253496983082,0.34652084299986996,0.32354776853079653,-1.3242133840633887,0.5117913520130232,0.21164375680332517,-0.060757961110127774,0.48826224885594943,302.838351056619,-34.79575300467955,8.96339636124187,-0.1535450774759894,-0.40107045659157625
GUIDED_NOGPS,0.794651985168457,25.981540443772687,302.9516461587341,-34.004838649739476,8.364897839489272,0.837987406133221,308.1140191363843,-46.825217856768795,2.124061731715076,0.3607648823488142,0.4373385066597974,-1.3344768105083906,0.5848344424426266,0.2095872483634726,-0.058659118429325474,0.4875183277844516,302.4712881724845,-32.652755942919754,8.706181095801474,0.11597917151593846,-0.8594366926962349
GUIDED_NOGPS,0.8313496112823486,27.25202068768355,302.8094853943612,-33.56161387733767,8.460074105019832,0.8140300586969061,307.945982352276,-46.78813371775783,2.082154675300157,0.43272812897003876,0.23969481675101936,-1.3523907958757473,0.568586362186486,0.2067232182633785,-0.05698210410878343,0.4872441611405606,302.5402355231579,-33.23633268441374,7.710644858016148,-0.06123977499066272,0.0
GUIDED_NOGPS,0.8854207992553711,18.49862395032108,302.659101845813,-32.85634674289229,8.242525767572529,0.8054814594411845,307.76401979632396,-46.74797629177801,2.0363905461953165,0.39544922328437365,0.21637185516954144,-1.3274935824122873,0.5997882851405144,0.20609054716747843,-0.056383702160882926,0.48758772955724555,302.53371259173946,-32.67995160134339,8.310751348899961,-0.048920298447885195,0.5156620156177409
GUIDED_NOGPS,0.9204981327056885,28.512120511739834,302.55453691375726,-32.13663953693291,8.876131167480596,0.8101493554520318,307.5678527714902,-46.7046840730123,1.986631527300566,0.4761024448814114,0.021384681961075236,-1.326156145995434,0.6481971304370755,0.19652882933135554,-0.05671045488164223,0.4862210007196399,302.38909722478536,-30.493634325041615,10.606997295525677,0.16826602780103658,0.5729577951308232
GUIDED_NOGPS,0.9710001945495605,19.805753357384358,302.4270810922056,-31.34118159160207,8.863934333706714,0.8004516365851114,307.3572330897089,-46.65820228868709,1.932743735107242,0.5331761459162726,-0.03747383288127496,-1.3388397005624422,0.6657001707511828,0.19632932714198165,-0.05603161456095781,0.48613761880280104,302.2010719488605,-30.849958848421206,7.674054356694508,0.024419456300776694,-0.2291831180523293
GUIDED_NOGPS,1.016348123550415,22.055898236812908,302.35264403308156,-30.727699009285015,8.39255366912299,0.7913838878551835,307.13194249076287,-46.608482770823706,1.8745971888463107,0.5952731309205609,-0.06151012234419608,-1.3415946146754845,0.6816290222755608,0.18549777614631346,-0.05539687214986285,0.48696408703944666,302.0991028768643,-30.839503854392227,6.896609355148785,-0.035605812025652335,0.057295779513082325
GUIDED_NOGPS,1.0550947189331055,25.814914202713016,302.2953361259762,-30.200921453781685,8.807645333113866,0.7915445268612652,306.8917920611604,-46.55548382798995,1.812065779636669,0.6126565493276251,0.07656023073690761,-1.3101133122955435,0.7008041228071344,0.17411156015567072,-0.05540811688028857,0.4860088408930456,302.2536959876312,-28.913301658531623,11.852272287498309,0.19700081497564972,0.40107045659157625
GUIDED_NOGPS,1.098111867904663,23.251568840499367,302.2204703308933,-29.087472178209982,10.843712928900326,0.7999078107747131,306.63662165301184,-46.49917011705172,1.7450272396334494,0.6816547467971237,-0.016928196971053477,-1.310590678485504,0.780500487612968,0.16876979555996796,-0.05599354675422992,0.4818026286214662,302.15938361632493,-27.509611021706103,13.782257144053883,0.3864855961554063,0.5156620156177409
GUIDED_NOGPS,1.1382057666778564,24.947829862660075,302.17689916923865,-28.049141922506653,12.571394298690018,0.7893823711448598,306.3662993029067,-46.43951251492449,1.6733631111763225,0.6324309074701641,-0.02934334644802103,-1.3285505541863467,0.8201920059023791,0.1554192249040764,-0.05525676598014019,0.4782039376249726,302.1712414165123,-27.724513087282233,12.079653464517861,0.27401693560123114,-0.6875493541569879
GUIDED_NOGPS,1.1687932014465332,32.71050107233379,302.156816540965,-27.48312790082208,12.572310382615251,0.7681020640220199,306.08072065078983,-46.37648799032492,1.5969587159378011,0.6731667426495019,-0.025548536033844257,-1.3430146536926124,0.8172502570003223,0.1356867416985469,-0.05376714448154139,0.4780492966666451,302.1006588074924,-27.215259593477892,11.855020539274008,0.31180708229009474,-0.6302535746439055
GUIDED_NOGPS,1.2101304531097412,24.197116632725468,302.12350795967103,-27.237880835798027,11.783988173250071,0.7607661321752053,305.77980835883864,-46.31007947552238,1.5157031240715426,0.6612652447424605,0.04999570406402396,-1.3266930628972207,0.7884610417210415,0.1320000807941108,-0.05325362925226437,0.4794634299016429,301.9325599703944,-26.77386982663395,11.417290515958344,0.3462453777215445,0.17188733853924698
GUIDED_NOGPS,1.251953363418579,23.912384622839973,302.0814791210067,-27.103247143613416,12.016543484193491,0.7617630702345493,305.4635115303395,-46.2402757380905,1.429489123360653,0.6546387339479316,0.07317565855975473,-1.3251237202137045,0.783563524732363,0.12089993453480924,-0.053323414916418455,0.4788258912783343,302.0435517943092,-27.320612010728397,12.777319397348123,0.09879470534264455,0.8021409131831525
GUIDED_NOGPS,1.2976913452148438,21.869138802133573,302.04282574893693,-26.764308804916464,12.442733679284594,0.7558820470182555,305.1318051285645,-46.167071252658765,1.3382131883659905,0.673852269526589,0.13533656986580608,-1.3134895601796455,0.8079603858452354,0.10961487103089818,-0.05291174329127789,0.4777909590181628,301.9661167559761,-26.19844457738703,13.133591124547314,0.2433882832187235,-0.40107045659157625
GUIDED_NOGPS,1.3390438556671143,24.18651212409538,301.99052941795924,-26.310449157492616,13.351418801266961,0.747898273987834,304.7846893956484,-46.09046607266403,1.2417754495744677,0.7777362451513096,0.05924399364363279,-1.3452959368753967,0.8335985218322833,0.09596742698980044,-0.05235287917914839,0.47578071329661503,301.90975976162395,-25.412290884362427,14.143345881905445,0.3482435281275983,-0.057295779513082325
GUIDED_NOGPS,1.379502534866333,24.720945858333433,301.9271743173454,-25.58805317166669,13.678545360382344,0.7455810002608801,304.4221892714652,-46.01046570210207,1.1400796625473562,0.8436140066654644,-0.014056956198709367,-1.3344677391633992,0.8805833009090731,0.08317853187667269,-0.052190670018261616,0.47492306860433003,301.78388330442317,-25.153424053250614,13.758699074694274,0.3505901238865121,0.2291831180523293
GUIDED_NOGPS,1.4268670082092285,21.1409648331376,301.9572833165333,-25.461844767232503,13.652669055032945,0.7353274495077478,304.0443538125047,-45.92708096727917,1.0330331770685885,0.8438177384018012,0.2004353162886092,-1.309570632421645,0.8382904615542628,0.06296272235309824,-0.051472921465542346,0.4747607282440713,302.08310496633374,-25.819819364084466,13.055962208499116,0.11779427860015364,-0.2291831180523293
GUIDED_NOGPS,1.4670162200927734,24.892159597386335,301.9684294122314,-25.329089891939912,13.8649786168168,0.722643653042162,303.6512556107496,-45.84032788856366,0.9205469062930631,0.8792238382335605,0.10344364186666624,-1.3110897091817382,0.8416010508085868,0.0433170177925217,-0.05058505571295135,0.47411113657895254,302.0992822727998,-25.014026258484662,14.78027456725701,0.22204010934159701,-0.2291831180523293
GUIDED_NOGPS,1.5038630962371826,27.147071577898163,301.9720185082116,-25.450808407573202,13.823043969163194,0.6882992220280484,303.24299021255183,-45.75022755213745,0.8025352958949463,0.8973080980824916,-0.023082624300058092,-1.3718534199156986,0.813248498321234,0.023124315919838538,-0.048180945541963394,0.4739589826534635,301.9840622358769,-25.518579600150485,13.632895131733465,0.0866550796091211,-1.260507149287811
GUIDED_NOGPS,1.5431010723114014,25.492019886467236,301.9506706524191,-24.7195400143757,14.506747942090582,0.649988282036826,302.8196755375095,-45.65680598174764,0.6789162932159758,0.9400531294557238,0.22259714571118494,-1.408196216159102,0.9054813864126559,0.009942289787851052,-0.045499179742577826,0.4723443367022508,301.80302048266157,-23.62601418449196,15.107074127281278,0.41716288500113985,-1.3178029288008934
GUIDED_NOGPS,1.5910816192626953,20.844576528938763,301.9930497271564,-24.59130025253776,13.933621822290386,0.6096943496092992,302.3814512973437,-45.560094010457995,0.5496113164137673,0.8984885468701401,0.19836854373444565,-1.4415234838839444,0.8610661739947032,-0.008662103206309384,-0.04267860447265095,0.47323197898824676,301.9957786781097,-24.629306972970838,13.060896207856427,0.17922437569360844,-0.8021409131831525
GUIDED_NOGPS,1.6382222175598145,21.238810429252137,301.99067738278745,-24.248567131147862,13.676494565381502,0.557744744606618,301.92847841477493,-45.460127152400574,0.4145452236101108,0.9085347946438769,0.04595714127384236,-1.5088123731527945,0.885516736557999,-0.025824832494807742,-0.03904213212246327,0.47347610131645723,302.0712432444888,-24.49038023598079,12.861513361006807,0.06635298824028989,-1.088619810748564
GUIDED_NOGPS,1.6779170036315918,25.176952212878092,301.9878128383716,-24.512300605918323,12.765803466909125,0.49029647659059883,301.4609384424001,-45.35694547452725,0.27364628203927976,0.9229779766958093,0.03562391883325932,-1.559725777164833,0.828789957342727,-0.049639874974532885,-0.034320753361341924,0.4750156856302603,302.0849595507208,-24.41721460880334,12.375000831864147,0.014473613497163714,-1.8907607239317168
GUIDED_NOGPS,1.7217929363250732,22.798351941035147,301.99371732802354,-24.052820199898804,12.50448259475903,0.43067368742078205,300.97903298156916,-45.25059346836125,0.12684613719633342,0.9431906408839926,0.2154216051012634,-1.6452970551293973,0.8951787093115763,-0.0681814653139399,-0.030147158119454745,0.4752447270848746,302.01358468413656,-23.25086575491228,12.276933591406152,0.13313267711494667,-1.432394487827058
GUIDED_NOGPS,1.7674100399017334,21.92503998912714,302.10774056956245,-24.20876072266559,11.54757176543472,0.3681791499568741,300.4829831012617,-45.14111992174875,-0.02592021801458122,1.0296228428490959,0.09261523071125727,-1.7171437082870558,0.8439214913741823,-0.09932959144689969,-0.025772540496981192,0.4768530160331014,302.3731366903561,-24.958201804281163,9.990780873033875,-0.2614503675496366,-1.0313240312354819
GUIDED_NOGPS,1.8122379779815674,22.310008989313886,302.22842412976655,-24.38328966906181,11.021295531767295,0.3105087103957688,299.97302875696397,-45.02857779061039,-0.18471447413192532,1.0695360137594174,0.047538756953523435,-1.7629712894100793,0.8315719344123083,-0.12681882839431008,-0.02173560972770382,0.47758797998820157,302.5991964791301,-24.940801447991998,10.79617213086188,-0.3375069688811517,-0.9740282517223995
GUIDED_NOGPS,1.8668794631958008,18.304227909087736,302.3127731725111,-24.618870512801156,10.861747252789513,0.24045882403368138,299.44942820954526,-44.91302407069285,-0.349595035988465,1.039315414889873,0.09813807898544727,-1.8531763171179683,0.8185208314763103,-0.14254110002197434,-0.0168321176823577,0.477577315422444,302.49298845821136,-23.957608286130316,11.798288754472802,-0.28223275563080646,-2.0053522829578814
GUIDED_NOGPS,1.908355951309204,24.120998815315783,302.36158408439724,-23.739740052823148,12.452021303560857,0.16120614429943747,298.9124574441349,-44.79451966932041,-0.5206170535629684,1.045570694230841,0.09186817877078712,-1.9092728742146947,0.9241638567619492,-0.1750137067183061,-0.011284430100960623,0.4740547232857524,302.3290141101516,-22.320810424347133,14.761603025347913,-0.011058226155782763,-1.1459155902616465
GUIDED_NOGPS,1.9532227516174316,22.290682596033246,302.3824475611158,-22.295838849789376,13.553123783673328,0.12447427436956367,298.36240958899873,-44.673129277146465,-0.6978324528319009,0.9432840223765514,0.17161704063303287,-1.9238734707826548,1.0113728779129543,-0.19378836492178814,-0.008713199205869458,0.4714980875269895,302.117902067729,-20.609097838890694,14.099479571199296,0.2206599827178549,-0.5156620156177409
GUIDED_NOGPS,1.9923686981201172,25.550253108266986,302.34704495824536,-21.18401066206651,14.47140697944136,0.10034075911312633,297.79959433441616,-44.54892123990515,-0.8812899666211247,1.002620863904214,0.06280977927720256,-1.9685010730458719,1.0391419522127434,-0.21734523255283933,-0.007023853137918844,0.46929460610787505,302.19612367600405,-20.622123722961717,14.553138341776895,0.1629368089437602,-0.17188733853924698
GUIDED_NOGPS,2.03254771232605,24.89378472057357,302.28970922773095,-20.870115656659383,13.677607049846017,0.07325271611623395,297.22433735155647,-44.421967430162816,-1.071035165457591,0.9745101531579689,0.055675860132535816,-2.000032427905824,0.9858787850457794,-0.23659142225598823,-0.005127690128136377,0.47050271556939277,302.3125178265582,-21.37912540812576,12.380203236561886,-0.0180383890484712,-0.9167324722093172
GUIDED_NOGPS,2.074216365814209,24.003662668253824,302.2578424834411,-21.206960617284185,13.206141631726835,0.04067396353873549,296.63697971135593,-44.29234311906964,-1.2671104884210402,1.0623602597060844,0.02851134402974885,-2.0439712482799277,0.9207167322982655,-0.26019015763642867,-0.0028471774477114844,0.47105349575970423,302.33365473676224,-21.619632720765104,12.68508331684175,-0.06997207685587085,-0.9167324722093172
GUIDED_NOGPS,2.1162846088409424,23.776963980000225,302.2916843938569,-21.656649579388983,12.682704909491584,0.012312732331250301,296.03787730339434,-44.16012684811116,-1.4695552739956987,1.1054238553710742,0.08071554707321413,-2.0779736375155435,0.8901802688758588,-0.2912382410738688,-0.0008618912631875212,0.47169547963302544,302.49822366223043,-21.97119060927611,12.982828175071145,-0.14173107451649739,-0.4583662361046586
GUIDED_NOGPS,2.1566872596740723,24.75421097982743,302.4335570424246,-22.140593744826138,12.845560365471286,-0.005283710220322087,295.42740025477167,-44.02540030085982,-1.6784057909219738,1.1313096319951879,-0.02447278123956725,-2.094387222421319,0.8623120194370195,-0.3318449831982899,0.00036985971542254607,0.4709520676872135,302.82726531056744,-22.83095790443723,12.868769604500999,-0.3343363956458688,0.0
GUIDED_NOGPS,2.203347682952881,21.435272112146286,302.58886415137295,-22.65973125928731,12.6218214088208,-0.02383892342372652,294.8059323489849,-43.888248174726556,-1.89369526904815,1.04303584027512,0.01812561450992134,-2.112450298011652,0.8404289346429988,-0.3577918008970231,0.0016687246396608565,0.4709689666442621,302.972659220746,-23.1770452641486,12.013866446890287,-0.4156990678131107,-0.4583662361046586
GUIDED_NOGPS,2.2446517944335938,24.216675615910024,302.73077321703045,-23.015952565870105,11.948385124550219,-0.051929551163403684,294.1738704448049,-43.748758052712304,-2.11545393018209,1.0199265355486165,-0.09235354908868117,-2.1352276982331757,0.827857881793414,-0.3950998465641638,0.003635068581438258,0.4718723218905354,303.02206315484574,-23.039854529024502,10.962519322259402,-0.3755376343918434,-0.8021409131831525
GUIDED_NOGPS,2.2855076789855957,24.481278490839156,302.8684549006472,-23.08558477406586,11.312968363803021,-0.08969420158798949,293.53162389515273,-43.60702027515959,-2.3437090189429224,0.9768084050919723,-0.12468104787376308,-2.171912217378491,0.8405676326611167,-0.4281194705858585,0.006278594111159265,0.4726866452345081,303.02206315484574,-23.039854529024502,10.962519322259402,-0.3755376343918434,-1.1459155902616465
GUIDED_NOGPS,2.3290398120880127,22.97757739441982,303.0374864844139,-23.21547283021545,10.749236543270394,-0.126519031960495,292.87961396597683,-43.46312781150409,-2.578484833612751,0.9692529352094689,-0.14547534535845533,-2.215286906815834,0.8272643206980547,-0.4603348034451822,0.00885633223723465,0.4733445572462337,303.3433815810641,-23.566709432597374,10.322670985292408,-0.4088192187297868,-0.8021409131831525
GUIDED_NOGPS,2.375077962875366,21.728317291254392,303.1514073294434,-23.697569887101253,9.296084512420057,-0.14214518775598983,292.2182732551293,-43.31717613202613,-2.8198027569883397,0.9414532115138707,-0.13852071867950141,-2.205133617171198,0.7806302581358928,-0.48628784322176744,0.009950163142919289,0.4757682254611832,303.3968695357151,-24.486145699681913,6.60306322970839,-0.5633915921823826,0.5156620156177409
GUIDED_NOGPS,2.416431427001953,24.23934765396996,303.31259088067924,-24.02177192105039,9.066053712121729,-0.13503977591570554,291.5480451112431,-43.16926307960231,-3.0676812872328147,0.9563288299176296,-0.3190868012291319,-2.1867089684416774,0.7696633223532336,-0.5292051459097801,0.00945278431409939,0.4757325300012909,303.7785769769252,-24.012460630871914,10.272426921364422,-0.43615321710869226,0.6875493541569879
GUIDED_NOGPS,2.459965705871582,22.942009167386857,303.45757729517226,-24.28594134477493,8.709387032157519,-0.09940224794259528,290.8693830526083,-43.019488741457025,-3.3221360687273638,0.9515456697862108,-0.4063185622139498,-2.1089075642665316,0.7596400575641434,-0.5591317902508305,0.00695815735598167,0.47593695379823026,303.74699522731095,-24.359217703770998,9.25267094539978,-0.46306590923530433,1.7188733853924698
GUIDED_NOGPS,2.506732940673828,21.39601697682011,303.61689409505277,-23.99233144978867,10.493609535426762,-0.05485050473612975,290.1827501860492,-42.86795532091401,-3.5831799229229215,1.009037826629441,-0.5405766025211286,-2.070307390502439,0.8037580722691515,-0.5916344225967232,0.0038395353315290827,0.47184642108330066,303.81864715424797,-23.605316014723137,11.955730739516117,-0.25331168156564166,1.088619810748564
GUIDED_NOGPS,2.5442628860473633,26.634391053931687,303.7731984369463,-23.924598631280134,10.963187956906436,-0.01580899188967232,289.48861862580077,-42.71476700914792,-3.8508228791918837,0.9606494581761915,-0.5454950857754782,-2.011624966474628,0.7851183540202877,-0.6390500740740368,0.0011066294322770625,0.47037197832780336,304.12490329053196,-23.80926217534631,11.681162185803448,-0.0987790741180539,0.5729577951308232
GUIDED_NOGPS,2.5860838890075684,23.917838996823733,303.8942429402595,-23.345072356326412,11.490924995363933,0.010422002997968482,288.7874689123855,-42.560029856935856,-4.125072205679791,1.0621028469517395,-0.7156904865657964,-2.0193441474538005,0.840250997320277,-0.6643328730531461,-0.0007295402098577938,0.46876800559791254,304.00209205228117,-22.620638878909837,10.835882060772272,0.24066987651627375,0.5156620156177409
GUIDED_NOGPS,2.6308178901672363,22.362465344423118,303.93197285560296,-22.967232919111638,11.28930371769487,0.032182841249113595,288.0797894314902,-42.40385164640894,-4.4059324401570255,1.0524760154817239,-0.7189919225341456,-1.9765248377733442,0.8342738849416199,-0.6856451604558973,-0.002252798887437952,0.4686095276842962,303.96722655364243,-22.471797703078803,11.350866906508928,0.38452349715205963,0.2291831180523293
GUIDED_NOGPS,2.6772782802581787,21.526141023469698,304.0168630332265,-23.25394098774197,10.915684464666327,0.0625375273971719,287.3660758328425,-42.246341762803866,-4.693405420870514,0.9954471375632908,-0.7797352494223019,-1.9524906827445387,0.7738264909843302,-0.7200197753139921,-0.004377626917802034,0.46878182022892634,304.17144611542864,-24.669386381237306,10.560304426717819,0.06602909361837574,1.088619810748564
GUIDED_NOGPS,2.719299554824829,23.827346630384767,304.1642161852963,-24.230865583657714,10.923085945484543,0.0868265036837209,286.6468304490879,-42.08761106621445,-4.987490317395422,0.9339743678161183,-0.724613168221066,-1.933391552834479,0.6763798387106708,-0.765979383263617,-0.006077855257860463,0.4681788474742401,304.55541291459696,-25.55141266665706,10.858086503226916,-0.01737243802087563,0.2291831180523293
GUIDED_NOGPS,2.761718988418579,23.56244663161206,304.2942348000771,-25.580835804246096,10.384412995141764,0.0871849186325468,285.92256171466596,-41.92777176334319,-5.2881836614868485,0.9194111238451818,-0.789952251925289,-1.9486354678448896,0.5918830904820052,-0.7988955945638547,-0.006102944304278277,0.46865480668674275,304.7749963644361,-26.52170836484396,9.734848055480587,2.2281923785364077e-05,-0.4583662361046586
GUIDED_NOGPS,2.7972476482391357,28.157628324762683,304.46067350106927,-26.473163307712564,10.007209339750759,0.08101049822183866,285.19378358468776,-41.7669372792528,-5.595479377931525,0.9030696828125147,-0.8218134835778117,-1.9769109569048615,0.56746835318888,-0.8509965591731177,-0.005670734875528707,0.46879462256463544,304.834285557242,-27.346368891636697,9.428693460544807,-0.04349630013874495,-0.2291831180523293
GUIDED_NOGPS,2.8351213932037354,26.404346265950682,304.6243309592534,-27.252286864241455,9.32608061825134,0.07756518093149976,284.461014953812,-41.60522212911782,-5.909368815399512,0.9521577187688673,-0.7996447172443601,-1.988875954226843,0.5452447504860659,-0.8826146703421053,-0.005429562665204984,0.4695291011326983,304.7855138445631,-27.88878333624374,8.814700338728652,-0.04854370439685673,0.0
GUIDED_NOGPS,2.8831093311309814,20.84219418508157,304.74977390933776,-27.693132788655884,9.697071038949748,0.0759506877296328,283.724779075122,-41.44274178997608,-6.229840777295895,0.8448882638324948,-0.8649999159261561,-1.9901002656355677,0.5583002329044926,-0.9012158538709863,-0.005316548141074296,0.4681461763675087,304.79866086585037,-27.84424613808725,10.847819317575814,0.044681447174988266,0.0
GUIDED_NOGPS,2.9236981868743896,24.64657006193515,304.7996988741438,-28.392412311483714,8.683552788323349,0.06937463356340873,282.98560297900235,-41.27961257248035,-6.556881552612474,0.7831087225420535,-0.8487987072148858,-1.9920564745025418,0.49811812956574797,-0.9382878076452777,-0.004856224349438611,0.46951913131812834,304.80503773862716,-29.44420746012019,6.388138708665612,-0.10257472796944668,-0.2291831180523293
GUIDED_NOGPS,2.9659132957458496,23.691680270225998,304.82435975155784,-29.083821071512176,7.421883115694631,0.041898926490127886,282.2440168920157,-41.11595149264983,-6.890474946779483,0.7122512195144305,-0.8119512240248422,-2.040123717343095,0.46743330734500044,-0.9659837867085791,-0.002932924854308952,0.4713752838750518,304.8983007515062,-29.963009616329117,5.029691320842498,-0.10864594160158877,-1.260507149287811
GUIDED_NOGPS,3.007747173309326,23.91647517006609,304.86057191202246,-29.87844376315751,6.587413261553418,-0.00577501398149647,281.5005536557794,-40.95187614362172,-7.230602312517252,0.639203413558202,-0.9643468316729898,-2.1202584848934465,0.4217628844658415,-0.9994342886773797,0.0004042509787047529,0.47236396885185866,305.01534635956494,-30.22811421302325,8.344409755152174,-0.049999069749435354,-1.6615776058793874
GUIDED_NOGPS,3.052147388458252,22.523864759204365,304.8814433373807,-30.194769787605072,7.578194355798492,-0.03850126047762696,280.7557481458424,-40.78750456740279,-7.577242580687939,0.5349986324859024,-0.9429803991236032,-2.152285455355048,0.43931645478279935,-1.02685290741306,0.0026950882334338877,0.4696891261270271,304.8898709713543,-30.39318553346287,9.360481991400835,0.012299000398850181,-0.2864788975654116
GUIDED_NOGPS,3.095349073410034,23.151461626777355,304.85554677719966,-30.864480274297595,9.636587177088549,-0.064612142307589,280.0101366905616,-40.62295512662092,-7.930372291147197,0.3763045765667981,-0.8346019455816027,-2.1677016191985894,0.38078117260785077,-1.055141528919183,0.00452284996153123,0.4648660810635285,304.6691780649452,-31.972141076406682,11.20486978471267,-0.1415247616491553,-0.40107045659157625
GUIDED_NOGPS,3.1322669982910156,27.09148688799897,304.8228225382844,-31.506624514678084,10.6612271813815,-0.07757816956606323,279.26425648997906,-40.45834637627668,-8.289965623595899,0.34697174220679655,-1.0758910778952913,-2.180675350083617,0.34127061291334126,-1.0925380781796925,0.005430471869624426,0.4620976143900452,304.64141654405086,-32.154546934164706,11.418329768031024,-0.10988703622440793,0.0
GUIDED_NOGPS,3.17952561378479,21.166249495357288,304.7964238404217,-32.55731892204526,11.536032066145225,-0.09393788411764437,278.51864503469824,-40.29379693549482,-8.655994428431804,0.2663139315764102,-0.9068838098554378,-2.182129326603184,0.28125742967390477,-1.1103619175793877,0.006575651888235106,0.45961594701084596,304.7663072621928,-33.54526875556439,11.984896645692004,-0.2841275181918979,-0.5729577951308232
GUIDED_NOGPS,3.2202303409576416,24.568466310135367,304.7232360981634,-33.20573772592475,11.29105483269609,-0.11471649995550255,277.7738395247612,-40.129425359275885,-9.02842825760127,0.22995571404652163,-0.9401723376010818,-2.2069749934827514,0.26660607993054175,-1.1419303024323482,0.00803015499688518,0.4593610338194053,304.64940764827344,-33.917397488045154,10.469938084365268,-0.25310604333560904,-0.4583662361046586
GUIDED_NOGPS,3.263090133666992,23.337083465478198,304.6007498864924,-34.38988445567741,9.397755812594577,-0.11780568146423366,277.03037628852496,-39.965350010247775,-9.407234395450963,0.18880992077463757,-1.0978088347767447,-2.1903562894584643,0.17747355663617068,-1.1624190566123789,0.008246397702496357,0.4623900195839089,304.2774399129992,-35.70698712342269,5.738432707726484,-0.3636437222099614,0.4583662361046586
GUIDED_NOGPS,3.3050053119659424,23.86340697416407,304.49868491034306,-34.601717658982466,8.30357881774141,-0.1020289757723189,276.2887902015383,-39.80168893041726,-9.79237788957954,0.18282221943049004,-1.1261245579197963,-2.1528412619987574,0.2310334789338275,-1.1910142266672301,0.007142028304062324,0.4638080865853581,304.1588531841983,-34.18076836547955,8.702365661132507,0.011977394928137035,0.7448451336700702
GUIDED_NOGPS,3.347771406173706,23.38939913564757,304.4131433737118,-35.48860834537662,7.9922113046888255,-0.08486473105181684,275.54961410541864,-39.63855971292152,-10.183821581689324,0.1884091007281489,-1.1873585912111357,-2.1275821552309924,0.14246186744068434,-1.2185219637502995,0.005940531173627179,0.4636479342272437,304.2137088608947,-36.57806954722761,9.535835545207512,-0.20840904024901938,0.4583662361046586
GUIDED_NOGPS,3.3890161514282227,24.24999855458745,304.293797431508,-35.80537527742131,9.613913509911251,-0.06618139173115926,274.8133782267286,-39.47607937377978,-10.581526138438058,0.14204772431323287,-1.1773437196188987,-2.0917524769489866,0.1621529591926819,-1.2434829975060278,0.004632697421181149,0.4596091207033014,304.1695775511736,-36.657287919556765,10.60353932339376,-0.07820005537002692,0.4583662361046586
GUIDED_NOGPS,3.431256055831909,23.679107553166865,304.14776025355667,-37.00888886360962,9.857580911746153,-0.02682758630457559,274.0806095958528,-39.3143642236448,-10.98545008229053,0.13394543909073167,-1.0505455265458432,-2.0330384632962644,0.04579481691817233,-1.264922778616446,0.0018779310413202916,0.45831393801192666,303.9192217585168,-37.791309124044496,9.433367866637212,-0.14302682291373794,1.6615776058793874
GUIDED_NOGPS,3.4730324745178223,23.94337123806914,304.0005956207287,-37.59586277222254,8.294016257018649,0.03679347160180411,273.3518314658746,-39.153529739554415,-11.395549822370334,0.0946281755050673,-1.0235381047939667,-1.9500136719533514,0.05830685502087358,-1.2901566643032354,-0.002575543012126288,0.460620867841222,303.5416167488592,-38.338991273066355,4.845141581024999,-0.1065141220031469,2.177239621497128
GUIDED_NOGPS,3.512284278869629,25.501164310685514,303.8595619899971,-38.422757292743576,6.99145576223782,0.10808818719528551,272.6275627314528,-38.99369043668316,-11.811779685311524,0.07636646413984817,-1.0712730162427164,-1.8157127295204485,-0.0016482444673615732,-1.3166994839832236,-0.0075661731036699865,0.4623935291049013,303.4536850305402,-39.13797148111988,6.695857839051273,0.024081478082332155,2.0053522829578814
GUIDED_NOGPS,3.5593056678771973,21.261419454258817,303.6786319695291,-39.266827534347016,7.406336825377243,0.181595780953074,271.90831734769813,-38.83495974009374,-12.234091946110334,0.03465876774681156,-1.0676277229383393,-1.7315139994139395,-0.03066269055027855,-1.3297021204999115,-0.01271170466671518,0.46071914245702483,303.3090587585547,-40.32351984885482,10.678011056055482,-0.01932605225889542,2.0626480624709638
GUIDED_NOGPS,3.5997447967529297,24.73362857429281,303.45547657541954,-40.179920556661024,9.884747314835806,0.279206171064387,271.19460374905043,-38.677449856488664,-12.66243685897686,0.002375585150055392,-1.1274957183956762,-1.6328107222746735,-0.08952736180661548,-1.3529372467823841,-0.01954443197450709,0.4549056316523747,303.05380058062593,-41.07827034000837,12.280373049400687,0.03450654178223801,2.521014298575622
GUIDED_NOGPS,3.6443262100219727,22.449241309176546,303.20964078639406,-41.09498699139021,11.461247017215868,0.37060036503089894,270.4869242681551,-38.521271645961754,-13.096762688186763,-0.09220759381581181,-1.0735153460028903,-1.5336102287081719,-0.125274378521785,-1.367591847684165,-0.025942025552162927,0.4508839805891947,302.6900428133894,-41.883170785307414,11.425356946191457,0.08156872140836675,2.521014298575622
GUIDED_NOGPS,3.684403657913208,24.949313854371763,302.91833388393877,-42.01335697065113,11.568839127586443,0.484128273973527,269.7857745547399,-38.36653449374968,-13.537015738932975,-0.16779442921450005,-1.1258557259429327,-1.399673100570278,-0.1753423827142933,-1.384432357709165,-0.03388897917814689,0.44978829026696115,302.08508223658265,-43.07862978663759,11.00078738716721,0.2109424764617881,3.20856365273261
GUIDED_NOGPS,3.7329559326171875,20.5999990177155,302.62119102182186,-42.838116804626,11.331002814390873,0.6014485290965331,269.09164299449145,-38.213346181983596,-13.983140388177372,-0.2608681897346473,-1.045248394679381,-1.2192227043497146,-0.19617697883671603,-1.3963219532095854,-0.042101397036757325,0.4493717135948635,301.967970719956,-43.55254984193297,11.566864109813979,0.3170561862509256,3.20856365273261
GUIDED_NOGPS,3.7747294902801514,23.943507920650777,302.3207242578222,-43.845773067834976,11.11351716753404,0.7309140529053787,268.4050101279323,-38.06181276144058,-14.435079115502493,-0.305323596525586,-0.8780077977570337,-1.0966086424735266,-0.26434877099501464,-1.4159402462464914,-0.05116398370337651,0.44890280743392696,301.8067249385564,-44.90613957493434,10.772900005620956,0.27209694040848026,2.7501974166279517
GUIDED_NOGPS,3.8085503578186035,29.573173139295484,301.94878620437026,-44.14574237254377,10.6709425141489,0.8573265721238323,267.7263480692975,-37.912038423295286,-14.892772533963235,-0.2970585073409152,-1.0789125828293755,-0.9980809225402713,-0.23983245869198105,-1.4290313944022033,-0.06001286004866827,0.4488725699037757,301.1941103133664,-43.978537700764,9.673063427011787,0.9020602777182882,3.380450991271857
GUIDED_NOGPS,3.848457098007202,25.0629156682661,301.64959970436564,-44.28773832548745,10.039675619881502,0.9725824689353104,267.0561199254113,-37.76412537087148,-15.356159420938535,-0.40640212530957665,-0.7921672609287829,-0.835230749872067,-0.23369004567428453,-1.4460252784829937,-0.06808077282547173,0.4492083299183599,301.1941103133664,-43.978537700764,9.673063427011787,0.9020602777182882,3.896113006889598
GUIDED_NOGPS,3.8929994106292725,22.456813655151734,301.2967104170582,-44.791134740038615,8.977166025735379,1.1200813505280511,266.3947792145638,-37.61817369139352,-15.825176748983065,-0.4823300833005821,-0.6845039495372239,-0.6618687026278017,-0.2819250168848766,-1.452773146407129,-0.07840569453696358,0.45039531445056313,300.32063580004524,-46.41632881858783,7.585371223182586,0.8553849381012796,4.354479242994256
GUIDED_NOGPS,3.936983823776245,22.73914764194673,300.9215302905187,-45.622685951248506,8.664022685150664,1.2910176179789414,265.7427692853879,-37.474281227738004,-16.299759716678963,-0.5967490921115184,-0.9479734808502941,-0.4267092115269502,-0.34394244826330544,-1.46345271223291,-0.0903712332585259,0.45007243519634077,300.0920700872586,-46.473191334393675,8.733633405257645,1.0513407448215089,4.010704565915763
GUIDED_NOGPS,3.976978302001953,25.00852040664222,300.526270088816,-46.369458097964944,8.32790396772854,1.4565621878672408,265.1005227357357,-37.33254345018529,-16.779841779487487,-0.6482684086081312,-0.7538410417834315,-0.3120864709796771,-0.38095458227023904,-1.474654023408403,-0.10195935315070687,0.44978450850556795,299.8304239300426,-46.218854140913315,8.664707274745417,1.3282640148821945,3.7815214478634336
GUIDED_NOGPS,4.015982151031494,25.665479555996132,300.17845125981574,-46.17938922935303,8.27458110417511,1.5777295686275998,264.4684608315557,-37.19305332817105,-17.26535468060074,-0.6055783922742292,-0.775420917744381,-0.18706778230924798,-0.30787428431694636,-1.4904803934300186,-0.110441069803932,0.4489201284304483,299.455016168365,-45.84612221275207,7.425402632522298,1.6440962267446122,2.864788975654116
GUIDED_NOGPS,4.049795389175415,29.58464587756484,299.6418945005891,-47.16866959369471,9.284225575638425,1.692075842473775,263.846992925769,-37.055901202037774,-17.756228481793347,-0.6311792753047593,-0.7509398122117629,-0.09168997353245194,-0.4586844980551754,-1.4808898487632642,-0.11844530897316426,0.44591909188513645,298.5113265172332,-49.44103242741872,11.762566819647589,1.447914178596369,2.7501974166279517
GUIDED_NOGPS,4.081404209136963,31.630059198371104,299.1718297710651,-48.46738225690834,9.395593246698875,1.7749162668870995,263.2365158771463,-36.921174654786455,-18.25239159427416,-0.5855131107617301,-0.8587703565162813,-0.06444867116235523,-0.5468596863405701,-1.4929529553774796,-0.12424413868209698,0.44470403031805394,297.9703121524252,-50.114992130554214,8.998810287926771,1.5452742672827005,2.46371851906254
GUIDED_NOGPS,4.1338067054748535,19.114106683072436,298.6379368520164,-49.573386053563176,9.624702705497308,1.8498937211009439,262.6374134691847,-36.788958383827975,-18.753770809537976,-0.5757008503279192,-0.9678429280326843,0.13779358367737274,-0.5363050961347984,-1.4882610096982198,-0.1294925604770661,0.44324305296992944,297.422605492015,-49.164133602716596,8.112731008917601,1.9283561878866002,2.0626480624709638
GUIDED_NOGPS,4.1792778968811035,21.96338653596414,298.0526401716437,-49.69457667950059,7.885733347678728,1.953798762118014,262.05005582898417,-36.659334072734794,-19.26029133021718,-0.6025819669410034,-0.8393618403811612,0.22259786608269896,-0.49217989383666266,-1.4863697888699177,-0.136765913348261,0.4457079506442082,296.90394052817925,-49.804604305230974,6.54565874619185,1.989838051814273,1.2032113697747289
GUIDED_NOGPS,4.2206809520721436,24.156701933432778,297.43717066312513,-49.92708865102289,7.2553991364950035,1.9773343980916573,261.4747988461245,-36.532380262992454,-19.771876800933505,-0.5550440104002734,-0.9693599770803676,0.19805375472303002,-0.5167168288460688,-1.4831927514134748,-0.13841340786641604,0.445945448125143,296.377668625772,-50.8125280451211,7.107807654375598,1.967290580353933,-1.1459155902616465
GUIDED_NOGPS,4.2607581615448,24.985726880644314,296.791341622211,-50.53950939435188,5.787394853917324,1.957256604852622,260.9119835915419,-36.40817222575114,-20.288449339149697,-0.5513051221599261,-1.1235202281336114,0.16595688154414182,-0.575990371694025,-1.4779877747847672,-0.13700796233968357,0.44784831161386596,295.2821813126628,-51.00139583270358,3.708718161184568,2.2521862126176733,-1.260507149287811
GUIDED_NOGPS,4.300753116607666,24.994064786785213,296.114311236747,-51.31924473572803,5.207899226019541,1.9012190672423916,260.3619357364057,-36.2867818335772,-20.8099295660212,-0.5345342329831945,-1.050235499990548,0.07125179970984577,-0.624385041210604,-1.4711326244914966,-0.13308533470696743,0.44796434241591854,294.5851602251056,-52.14381032935941,4.807171862498501,2.133829464118015,-2.4064227395494577
GUIDED_NOGPS,4.337530136108398,27.198827565187504,295.3753913027049,-52.429899435668794,4.125920403545725,1.8297975941971374,259.8249649709954,-36.16827743220475,-21.33623663724787,-0.5746476671744148,-1.1682995886624499,0.01000842910301375,-0.70763483650568,-1.457287621664958,-0.12808583159379963,0.4490756859184128,293.72800582180446,-54.144492144943406,3.8618711869541493,1.8076487676576658,-2.0626480624709638
GUIDED_NOGPS,4.382492780685425,22.243987293101895,294.63020549421435,-53.64491486585223,3.8427444220758695,1.7416613156972442,259.3013644235766,-36.05272371228722,-21.867288273925666,-0.6436172098659112,-1.1089343591610492,-0.10488995443373628,-0.7498053346302149,-1.4517611700707398,-0.12191629209880711,0.44857993460799694,293.1780114857265,-54.64644212325386,2.8591902167750005,1.73304550354341,-3.0939720937064457
GUIDED_NOGPS,4.432037115097046,20.191424321344844,293.78294546086147,-54.63380086913896,2.6668929736149587,1.61302312122633,258.7914100792789,-35.940181581148856,-22.403000793398355,-0.6385162324946753,-1.2230629782105542,-0.2883815790936338,-0.7729173669337227,-1.4342995994657664,-0.11291161848584311,0.44986021246597335,292.14136845900754,-55.11046833921962,1.2796175171157687,1.6353612855016966,-3.666929888837269
GUIDED_NOGPS,4.468312501907349,27.5734251942622,293.0616022024379,-55.23668576495342,1.9849498195325843,1.429897005826908,258.2953601989715,-35.83070803453635,-22.94328914010921,-0.6928938764372325,-1.070361079266814,-0.48938753634305643,-0.7941232372582356,-1.428408028373497,-0.10009279040788358,0.4501435220807164,291.67546502054483,-55.953146832386786,1.8160417247070257,1.4447812684932835,-4.92743703812508
GUIDED_NOGPS,4.51076602935791,23.577546179185358,292.3741782843946,-55.52376613337092,1.2204063022196896,1.2502629476465374,257.81345473814054,-35.72435602837036,-23.488066916452677,-0.7253523761161612,-0.8178740652523011,-0.7278876035978524,-0.779823427253967,-1.4256386807235968,-0.08751840633525763,0.45058305356265527,291.1480406348892,-55.507683228506366,0.565559664836316,1.48812444107341,-6.0733526283867265
GUIDED_NOGPS,4.555920600891113,22.14054054054054,291.76118568726076,-55.68626668072519,0.16718617116435466,1.0236046169292567,257.3459147657657,-35.62117435049702,-24.037246413626107,-0.7849156811034921,-0.9152765115197968,-0.9928980896207009,-0.7809329523701348,-1.4263889695766638,-0.07165232318504798,0.45159113483041907,290.6630428361355,-55.5979699812824,-1.880042876050236,1.4081699632476203,-6.245239966925974
GUIDED_NOGPS,4.596692800521851,24.536990019773253,291.02486278710745,-55.85919227034717,-1.4483904995239054,0.7718031151005154,256.89294188319695,-35.52120749243961,-24.59073864248143,-0.8777665533411149,-1.0046112237170381,-1.2337929919532327,-0.7952883344359416,-1.4051034832032172,-0.05402621805703608,0.45371530371408497,289.49639698495974,-56.47192360125274,-3.030688287357755,0.9967955115186966,-5.67228217179515
GUIDED_NOGPS,4.632816553115845,27.683164918718774,290.3743777288419,-56.938793930160706,-2.053807705822592,0.5562537371660593,256.45471764303113,-35.424495521149964,-25.148453364376902,-0.9530318762609232,-0.8614950683865875,-1.4109278649402839,-0.9195342618871672,-1.401375961563468,-0.038937761601624155,0.45381070868289136,288.8889431676798,-58.74648820794696,-1.2506919540597439,0.38884966801937093,-5.213915935690491
GUIDED_NOGPS,4.673923015594482,24.34656218255696,289.6854363394721,-58.086048888332776,-1.5206420101540334,0.37393025613354625,256.0314029679888,-35.33107395076015,-25.710299122028676,-1.0082374138360801,-0.9261334173706495,-1.5108050808431457,-0.9651994841458591,-1.3899124665637101,-0.02617511792934824,0.4516206857762507,288.2307580736958,-59.039734855798585,-0.2805457890445592,0.15331249104489222,-4.8128454790989155
GUIDED_NOGPS,4.714199066162109,24.83070875464728,288.95198021403445,-58.66067282554477,-1.6077907839066745,0.17890881653682666,255.62313756979103,-35.24097361433395,-26.27618327036267,-1.054727096421772,-0.9823543052546111,-1.7007179571068212,-0.9502168944089913,-1.3738300495545464,-0.012523617157577868,0.450663215027088,287.48076000770084,-58.195795412888735,-3.2921346086156786,0.16841908066983544,-4.755549699585833
GUIDED_NOGPS,4.759355068206787,22.156797903867385,288.072022324327,-58.630493144283236,-2.154311607742184,-0.010087609568221103,255.23003936803588,-35.15422053561843,-26.846012007366138,-0.9858626746104705,-1.2598607290857038,-1.98690352366059,-0.9081551622066437,-1.34710047134524,0.0007061326697754773,0.4506165992007521,286.2632533875984,-58.65594916416234,-2.890254425566272,-0.2153499553875475,-4.583662361046586
GUIDED_NOGPS,4.79950737953186,24.904427132813986,287.2946372312772,-58.6200033373871,-3.0419809061927814,-0.21520877463373544,254.85220390907546,-35.070835800795535,-27.419690404939402,-1.0100619281181198,-1.140091440998826,-2.2003134246078733,-0.9136129385823031,-1.3356319223723172,0.015064614224361483,0.45124458100250675,285.6094715197107,-59.00826543511019,-2.9435536843963526,-0.4149155487271918,-4.8128454790989155
GUIDED_NOGPS,4.838337182998657,25.760373418498958,286.5077727974406,-59.0084143710584,-3.1490046147497353,-0.3983729226196101,254.48970378489224,-34.99083543023357,-27.99712243974756,-1.0291538009521863,-1.0401311956088664,-2.361465121328566,-0.964123859210058,-1.316646125530338,0.02788610458337271,0.45030376435000435,284.9546209984968,-59.36102851390265,-3.613205734286542,-0.6235842297587696,-4.411775022507339
GUIDED_NOGPS,4.879820346832275,24.10852071550099,285.58958145037377,-59.12016181594806,-4.007901438628988,-0.5441770857583512,254.1425880519762,-34.91423025023884,-28.578211024072175,-1.0757181887319252,-0.9118333491261699,-2.484390597142224,-0.9499080889486611,-1.2870990624582679,0.03809239600308459,0.45085938082911364,283.63980133836156,-58.99119149883131,-5.466944897204029,-0.8455956257193414,-3.0366763141933633
GUIDED_NOGPS,4.923724412918091,22.783367283196174,284.6912925891626,-59.00457066443244,-5.396707681729868,-0.6660926603240696,253.81088165020117,-34.84102576480711,-29.162858036662982,-1.1535010233302652,-0.8938679238966265,-2.5658143494550036,-0.932894846156414,-1.2678537201014497,0.04662648622268487,0.45246769929013375,282.98931570164467,-58.66149198056335,-7.109972413698994,-0.9221757169745387,-2.0053522829578814
GUIDED_NOGPS,4.965417861938477,23.98814977494867,283.8993607312356,-58.486913329433634,-6.516681608706141,-0.7498975607005818,253.494584821702,-34.771222027375224,-29.75096435358954,-1.2923342231642947,-0.8442346467454364,-2.6147193576859413,-0.8866548195949548,-1.254670812442832,0.05249282924904073,0.4535314345102332,282.303594097964,-57.80805650890621,-6.97312751521536,-0.8926794445231031,-0.8021409131831525
GUIDED_NOGPS,5.0065672397613525,24.3052246071114,283.13355601683986,-57.96793826472523,-6.473311326268323,-0.7922751522656053,253.1936725297508,-34.704813512572684,-30.342429879092993,-1.3962635555139722,-0.7950346597197189,-2.6453668433786115,-0.868783685362927,-1.2376830481383736,0.05545926065859238,0.45226176289435066,281.7804479477319,-57.4342663047061,-5.3368340498905775,-0.9300615049355365,-0.2291831180523293
GUIDED_NOGPS,5.051424980163574,22.296844433103683,282.2519965844097,-57.74123362591242,-4.954876895774365,-0.8246730214345577,252.90809387763397,-34.641788987973115,-30.937153576437755,-1.4340520039838909,-0.8319298475122469,-2.678190171208754,-0.8852657475345066,-1.209128445593353,0.057727111500419044,0.44803544663867323,280.5468238363461,-57.981378064124925,-2.5546691222171196,-1.1926125917094441,-0.5729577951308232
GUIDED_NOGPS,5.087694406509399,27.579408341607433,281.4487464653938,-57.757315242552245,-4.385444108226931,-0.856725506635334,252.63777152752874,-34.58213138584588,-31.53503349876313,-1.4166548718376337,-0.9842327139980704,-2.6966908057927914,-0.9064504006351041,-1.183824973301077,0.05997078546447338,0.4457008212189276,279.6235507432822,-57.85630135882572,-5.264829152573056,-1.1987481424011643,-0.6302535746439055
GUIDED_NOGPS,5.128197908401489,24.709295064390325,280.7755934737213,-57.897993593925456,-4.361442475787758,-0.8707622249475867,252.38260111938024,-34.52581767490765,-32.13596681993512,-1.4148205391586621,-0.9193243590983814,-2.693364717110407,-0.9233322553428402,-1.182549791218135,0.060953355746331074,0.44445095131170526,279.6235507432822,-57.85630135882572,-5.264829152573056,-1.1987481424011643,-0.11459155902616465
GUIDED_NOGPS,5.164744853973389,27.357784401844594,279.9313804270858,-57.685204721075394,-5.813627545242107,-0.8748105998927865,252.14245068977772,-34.47281873207389,-32.73984986539806,-1.4173981885184015,-0.8487552714806328,-2.688386576422525,-0.8902367548211562,-1.140378023844938,0.06123674199249506,0.4461475553596881,278.0825288647864,-57.34301144557475,-6.911224330580169,-1.170342633758362,0.34377467707849396
GUIDED_NOGPS,5.205769062042236,24.37755149486214,279.03518572801687,-57.342983372427376,-6.677333966853319,-0.8455963399310185,251.91716009083166,-34.423099214210495,-33.34657814302625,-1.5128595804011442,-0.8054159069279035,-2.6348120666768264,-0.871318950514598,-1.1154547103986432,0.059191743795171295,0.4466615116476541,277.29947445238736,-56.829637312881665,-7.855948417406693,-1.1091799471690778,1.7188733853924698
GUIDED_NOGPS,5.245674133300781,25.067259535506388,278.2248526194063,-56.88687496544674,-7.8542033132533176,-0.785645718924129,251.70654040905032,-34.376617429885286,-33.956046373975894,-1.5587219528002527,-0.8826553146004044,-2.5298753881462774,-0.8462585364445618,-1.0961717108116937,0.05499520032468904,0.44779631387855484,276.4951582932931,-56.487976137883784,-8.795437191773049,-1.0851472265362587,2.4064227395494577
GUIDED_NOGPS,5.2922327518463135,21.48116053366111,277.38395944821616,-56.233934768782184,-7.4967549170327645,-0.7017899603585182,251.51037338421668,-34.3333252111196,-34.56814852353641,-1.5503041715350352,-0.7376087770557789,-2.39810993999933,-0.814555923436963,-1.0753172854705373,0.04912529722509627,0.4458572127869927,275.4190848873316,-55.38419085558111,-5.838879141918513,-0.932445636896757,2.807493196141034
GUIDED_NOGPS,5.334733724594116,23.53481429942149,276.3964687672557,-55.704897681675426,-6.730072393819838,-0.5986220283340249,251.32841082826462,-34.29316778513976,-35.18277783198255,-1.475047973321071,-0.6837946770806005,-2.301598299809992,-0.8004470587752478,-1.0285032329623132,0.04190354198338175,0.4430945891236746,274.68609733848,-55.242526051561384,-5.555900847767913,-0.8999102964628973,2.3491269600363753
GUIDED_NOGPS,5.377827167510986,23.219517596062822,275.55409735732826,-55.29602440681666,-5.937729624898853,-0.5097543784730146,251.1603740441563,-34.256083646128815,-35.79982684542571,-1.3448692634956825,-0.8917235646623599,-2.180859551747796,-0.7952629729164575,-1.0127517622777622,0.03568280649311103,0.4402758055589463,273.87067181514874,-55.26135631330749,-6.418408885010093,-0.8862809191828412,2.119943841984046
GUIDED_NOGPS,5.418613433837891,24.515907297542157,274.54883828158444,-55.15263307606705,-6.489902166768597,-0.42074410569033754,251.0059532447587,-34.22200442697785,-36.41918744666596,-1.2857719054757932,-0.6753702790696244,-2.113410153033451,-0.8094752124736538,-0.963261668065927,0.02945208739832363,0.4401414294402053,272.2731790736684,-54.95401686333223,-7.495396767527742,-0.7917295686738828,2.177239621497128
GUIDED_NOGPS,5.472653150558472,18.508337856383235,273.5168019370382,-54.723190986458896,-7.699939944247877,-0.3237888706453261,250.86480697171993,-34.19085477103778,-37.0407508860435,-1.1657746598253664,-0.7527031749563897,-1.9524806509041952,-0.7808991959299372,-0.9432149070528276,0.02266522094517283,0.4413183781164087,271.33497657056193,-53.954199782736936,-9.186014180205751,-0.5686947455409161,2.9220847551671985
GUIDED_NOGPS,5.5176026821136475,22.255318019982703,272.55245537512315,-54.29048193334228,-8.686498421319696,-0.15664815106249744,250.73656151434636,-34.1625522038707,-37.664407812290435,-1.0622957997957925,-0.7407459683189304,-1.7377268035160065,-0.7605334169716546,-0.9039274585624711,0.010965370574374822,0.44204418121805855,270.5973520777561,-53.96322915395763,-9.378084316225552,-0.5767952155008832,4.411775022507339
GUIDED_NOGPS,5.563290119171143,21.88819772053605,271.4034819439613,-53.6406416736491,-9.310766557429865,0.01484198842255477,250.62081032847937,-34.137007005001564,-38.29004830338256,-0.9878562360744679,-0.7194061094742833,-1.562587733148774,-0.722517076495196,-0.8516184872069994,-0.001038939189578834,0.4420414365080946,268.94123018267095,-53.00449608425268,-9.368201175858252,-0.4039833054578408,4.297183463481175
GUIDED_NOGPS,5.603684663772583,24.782586088723974,270.2610959335587,-52.981604304501424,-9.497806519363166,0.19515497247978197,250.51711345537217,-34.114122079669784,-38.9175618973909,-0.8804596755865097,-0.8144591841107063,-1.3888102183039017,-0.6912093575205731,-0.8009672506793513,-0.013660848073584739,0.4411604892439445,268.1587417631357,-51.97708767529392,-9.747134066005655,-0.17504733504082956,4.18259190445501
GUIDED_NOGPS,5.6500866413116455,21.545381229035357,269.1518952992089,-51.857726601041804,-9.500056002920173,0.35584583891379884,250.42499694056568,-34.09379283058054,-39.54683762333356,-0.7637078903697496,-0.791691602286115,-1.2037730298905573,-0.6244322608456884,-0.7733474547063592,-0.02490920872396592,0.43990643675917324,266.7271759019195,-50.591596043578775,-9.38483276689657,0.1684488580627112,4.18259190445501
GUIDED_NOGPS,5.688490629196167,26.04429817752802,268.0497729828129,-50.90920100532839,-9.385611943385669,0.5255744338107111,250.34395225276654,-34.07590702965672,-40.177764032027255,-0.6258244603563221,-0.8390900201965358,-1.0663180341649894,-0.5859235049868223,-0.718601926929504,-0.03679021036674978,0.43841569582271683,265.82436498858203,-50.15891929711244,-9.02486899725474,0.295140376600852,3.20856365273261
GUIDED_NOGPS,5.731867790222168,23.058802832387737,266.92693748451984,-50.00492035791641,-9.364324041061344,0.6500297249308579,250.2734357027225,-34.06034468979,-40.810229226939185,-0.6172927003093299,-0.6524145468777405,-0.9122465755709557,-0.562792189139479,-0.6847761614752564,-0.04550208074516005,0.4371081896282443,264.9831745862906,-49.26424573305798,-9.683270359032683,0.517660389525725,3.151267873219528
GUIDED_NOGPS,5.7710254192352295,25.541851132370763,265.98914501625177,-49.63340914938302,-9.362923878851449,0.784503716893608,250.21286786210055,-34.046977936592825,-41.44412089503858,-0.6680895108578023,-0.5373148670273301,-0.7978105980088002,-0.5828285128736271,-0.6555158022907309,-0.054915260182552564,0.4358376059676257,264.25226784133054,-49.47706241797857,-9.38063228026689,0.4764422712851479,3.0939720937064457
GUIDED_NOGPS,5.810708999633789,25.208426240346185,264.9502002996828,-49.12032663039895,-10.474097498504719,0.9199881722769809,250.16163298236233,-34.03567088014978,-42.079326337648524,-0.7259546600627389,-0.5889730818240175,-0.6694869248733046,-0.5525758461306652,-0.6085889489361416,-0.06439917205938867,0.4367895423217124,262.9640181802908,-48.61967174016026,-12.358389856214552,0.6511597867848972,4.1252961249419275
GUIDED_NOGPS,5.8394880294799805,34.76422710319105,264.0428078683703,-48.74176672506989,-11.310445685969581,1.055704012221202,250.119078413642,-34.026279486769155,-42.71573250129747,-0.8158032372733178,-0.5696737419939117,-0.5593172008606155,-0.5383741491619024,-0.5604099756302667,-0.07389928085548415,0.4371894263693442,262.1902137453569,-48.12856601707078,-12.192314921427272,0.7310803408913132,3.666929888837269
GUIDED_NOGPS,5.889718294143677,19.908977852036795,263.13629712452257,-48.20704550244222,-12.483484436563765,1.1372440125484278,250.0845140236218,-34.018651450734396,-43.353226008571255,-0.8412761076177631,-0.4397196813591931,-0.40797651059369106,-0.5246661762608051,-0.5634419281822636,-0.07960708087838995,0.438260516855985,261.29181126934344,-47.872898750095565,-12.899748532049447,0.7602774156264881,2.635605857601787
GUIDED_NOGPS,5.932213068008423,23.541286875308696,262.09823346765535,-47.47658436318877,-12.29576643621521,1.2826980513642292,250.05721161640963,-34.012626066055944,-43.99169318896439,-0.7608937990708515,-0.6111519867195183,-0.306725306089746,-0.47573302905845727,-0.5030307689906097,-0.08978886359549605,0.43660814649450164,259.7928563019546,-46.4282883223999,-11.795235855168885,1.0372667414566878,2.6929016371148693
