Mode,Time,Freq,North-Vision,East-Vision,Down-Vision,Yaw-Vision,North-Desired,East-Desired,Down-Desired,Roll-UAV,Pitch-UAV,Yaw-UAV,Roll-Control,Pitch-Control,Yaw-Control,Thrust-Control
GUIDED_NOGPS,0.0017397403717041016,583.6771500139159,0.0,0.0,0.0,0.0,300,0,30,0.9879002054172499,-0.1997867151217224,92.46667751190408,-0.0,10.0,0.0,0.5030002231597901
GUIDED_NOGPS,0.010821342468261719,110.17346992382453,0.0,0.0,0.0,0.0,300,0,30,0.9879002054172499,-0.1997867151217224,92.46667751190408,-0.0,10.0,0.0,0.5030013073444366
GUIDED_NOGPS,0.013009309768676758,458.8452029318455,0.0,0.0,0.0,0.0,300,0,30,0.9879002054172499,-0.1997867151217224,92.46667751190408,-0.0,10.0,0.0,0.5030068800449371
GUIDED_NOGPS,0.015573501586914062,394.83234491198345,0.0,0.0,0.0,0.0,300,0,30,0.9879002054172499,-0.1997867151217224,92.46667751190408,-0.0,10.0,0.0,0.5030085596084595
GUIDED_NOGPS,0.02335810661315918,128.4272023025812,0.0,0.0,0.0,0.0,300,0,30,0.9879002054172499,-0.1997867151217224,92.46667751190408,-0.0,10.0,0.0,0.5030133792877197
GUIDED_NOGPS,0.025345563888549805,504.4868895838345,0.0,0.0,0.0,0.0,300,0,30,0.9879002054172499,-0.1997867151217224,92.46667751190408,-0.0,10.0,0.0,0.5030142694950104
GUIDED_NOGPS,0.026899337768554688,647.2691358024691,0.0,0.0,0.0,0.0,300,0,30,0.9879002054172499,-0.1997867151217224,92.46667751190408,-0.0,10.0,0.0,0.5030155124664306
GUIDED_NOGPS,0.028577327728271484,598.2461845671088,0.0,0.0,0.0,0.0,300,0,30,0.9879002054172499,-0.1997867151217224,92.46667751190408,-0.0,10.0,0.0,0.5030165783405304
GUIDED_NOGPS,0.03171229362487793,319.90725345130045,0.0,0.0,0.0,0.0,300,0,30,0.9879002054172499,-0.1997867151217224,92.46667751190408,-0.0,10.0,0.0,0.5030175390720367
GUIDED_NOGPS,0.03373837471008301,495.6634365398251,0.0,0.0,0.0,0.0,300,0,30,0.9879002054172499,-0.1997867151217224,92.46667751190408,-0.0,10.0,0.0,0.5030192017555237
GUIDED_NOGPS,0.04324054718017578,105.34217400040185,0.0,0.0,0.0,0.0,300,0,30,0.9879002054172499,-0.1997867151217224,92.46667751190408,-0.0,10.0,0.0,0.5030203465938569
GUIDED_NOGPS,0.045975446701049805,371.24305186758716,0.0,0.0,0.0,0.0,300,0,30,0.9879002054172499,-0.1997867151217224,92.46667751190408,-0.0,10.0,0.0,0.5030265053749085
GUIDED_NOGPS,0.049201011657714844,308.99543244437893,0.0,0.0,0.0,0.0,300,0,30,0.9879002054172499,-0.1997867151217224,92.46667751190408,-0.0,10.0,0.0,0.5030285361289978
GUIDED_NOGPS,0.0520176887512207,356.688834084531,0.0,0.0,0.0,0.0,300,0,30,0.9879002054172499,-0.1997867151217224,92.46667751190408,-0.0,10.0,0.0,0.503029977941513
GUIDED_NOGPS,0.0603489875793457,120.0705370433986,0.0,0.0,0.0,0.0,300,0,30,1.0459409118281968,0.1941236878869885,92.3182575012397,-0.0,10.0,0.0,0.5030352585315704
GUIDED_NOGPS,0.06249380111694336,467.5924191750279,0.0,0.0,0.0,0.0,300,0,30,1.0459409118281968,0.1941236878869885,92.3182575012397,-0.0,10.0,0.0,0.5030368880271912
GUIDED_NOGPS,0.06360054016113281,916.1869812145042,0.0,0.0,0.0,0.0,300,0,30,1.0459409118281968,0.1941236878869885,92.3182575012397,-0.0,10.0,0.0,0.5030376700878143
GUIDED_NOGPS,0.06667017936706543,328.50125313283206,0.0,0.0,0.0,0.0,300,0,30,1.0459409118281968,0.1941236878869885,92.3182575012397,-0.0,10.0,0.0,0.5030382657527923
GUIDED_NOGPS,0.07211685180664062,183.54209697181867,0.0,0.0,0.0,0.0,300,0,30,1.0459409118281968,0.1941236878869885,92.3182575012397,-0.0,10.0,0.0,0.5030424095153808
GUIDED_NOGPS,0.07445335388183594,429.3923013923014,0.0,0.0,0.0,0.0,300,0,30,1.0623151164245388,0.3212771041577375,92.29210470690772,-0.0,10.0,0.0,0.5030440827846527
GUIDED_NOGPS,0.07646656036376953,499.2624687537198,0.0,0.0,0.0,0.0,300,0,30,1.0623151164245388,0.3212771041577375,92.29210470690772,-0.0,10.0,0.0,0.5030453014373779
GUIDED_NOGPS,0.08427548408508301,128.18777506112468,0.0,0.0,0.0,0.0,300,0,30,1.0623151164245388,0.3212771041577375,92.29210470690772,-0.0,10.0,0.0,0.5030500012397766
GUIDED_NOGPS,0.0863947868347168,473.8255761409851,0.0,0.0,0.0,0.0,300,0,30,1.0554961330336332,0.45724957530744237,92.27239278096307,-0.0,10.0,0.0,0.5030512526512146
GUIDED_NOGPS,0.08842086791992188,494.7863631001534,0.0,0.0,0.0,0.0,300,0,30,1.0554961330336332,0.45724957530744237,92.27239278096307,-0.0,10.0,0.0,0.5030521809101105
GUIDED_NOGPS,0.09035730361938477,518.2631904114667,0.0,0.0,0.0,0.0,300,0,30,1.0554961330336332,0.45724957530744237,92.27239278096307,-0.0,10.0,0.0,0.5030531897068024
GUIDED_NOGPS,0.09408354759216309,269.1244145011229,0.0,0.0,0.0,0.0,300,0,30,1.0067131077124039,0.626515003153581,92.26241387458568,-0.0,10.0,0.0,0.5030552645206452
GUIDED_NOGPS,0.09650850296020508,413.68024460005915,0.0,0.0,0.0,0.0,300,0,30,0.9492293818839302,0.8317644288682856,92.25595251563085,-0.0,10.0,0.0,0.5030566951751709
GUIDED_NOGPS,0.0975942611694336,926.7132125497128,0.0,0.0,0.0,0.0,300,0,30,0.9492293818839302,0.8317644288682856,92.25595251563085,-0.0,10.0,0.0,0.5030579578876495
GUIDED_NOGPS,0.09920239448547363,624.2452745944337,0.0,0.0,0.0,0.0,300,0,30,0.9492293818839302,0.8317644288682856,92.25595251563085,-0.0,10.0,0.0,0.5030587645530701
GUIDED_NOGPS,0.10020112991333008,1008.973779167669,0.0,0.0,0.0,0.0,300,0,30,0.9492293818839302,0.8317644288682856,92.25595251563085,-0.0,10.0,0.0,0.5030596347332
GUIDED_NOGPS,0.10360264778137207,294.8751406074241,0.0,0.0,0.0,0.0,300,0,30,0.8884890965643886,1.0799128853776652,92.24910866608249,-0.0,10.0,0.0,0.5030616300106049
GUIDED_NOGPS,0.10826897621154785,216.24582388121263,0.0,0.0,0.0,0.0,300,0,30,0.8884890965643886,1.0799128853776652,92.24910866608249,-0.0,10.0,0.0,0.503062343120575
GUIDED_NOGPS,0.12131190299987793,76.83986443162041,0.0,0.0,0.0,0.0,300,0,30,0.8318442567042101,1.3886627289065117,92.25655357227781,-0.0,10.0,0.0,0.5030651167392731
GUIDED_NOGPS,0.12269806861877441,712.7109600679694,0.0,0.0,0.0,0.0,300,0,30,0.8318442567042101,1.3886627289065117,92.25655357227781,-0.0,10.0,0.0,0.5030730217456818
GUIDED_NOGPS,0.12395930290222168,798.0030441400304,0.0,0.0,0.0,0.0,300,0,30,0.8318442567042101,1.3886627289065117,92.25655357227781,-0.0,10.0,0.0,0.503073675775528
GUIDED_NOGPS,0.12646698951721191,400.37266132111495,0.0,0.0,0.0,0.0,300,0,30,0.8318442567042101,1.3886627289065117,92.25655357227781,-0.0,10.0,0.0,0.5030744346618652
GUIDED_NOGPS,0.12815523147583008,594.4308390022676,0.0,0.0,0.0,0.0,300,0,30,0.8318442567042101,1.3886627289065117,92.25655357227781,-0.0,10.0,0.0,0.5030759349822999
GUIDED_NOGPS,0.13054680824279785,423.4104583080961,0.0,0.0,0.0,0.0,300,0,30,0.8318442567042101,1.3886627289065117,92.25655357227781,-0.0,10.0,0.0,0.5030773712158203
GUIDED_NOGPS,0.13512635231018066,218.10119078571057,0.0,0.0,0.0,0.0,300,0,30,0.6672154067265994,2.237888002779406,92.27799353608248,-0.0,10.0,0.0,0.5030785110473632
GUIDED_NOGPS,0.1365971565246582,683.3339850114044,0.0,0.0,0.0,0.0,300,0,30,0.6672154067265994,2.237888002779406,92.27799353608248,-0.0,10.0,0.0,0.5030812602043152
GUIDED_NOGPS,0.13869690895080566,478.0378390699795,0.0,0.0,0.0,0.0,300,0,30,0.5789883591136638,2.7637062740514295,92.28580727249297,-0.0,10.0,0.0,0.5030819830417633
GUIDED_NOGPS,0.14063477516174316,517.8792443511545,0.0,0.0,0.0,0.0,300,0,30,0.5789883591136638,2.7637062740514295,92.28580727249297,-0.0,10.0,0.0,0.5030832527637482
GUIDED_NOGPS,0.1416630744934082,982.7328959700094,0.0,0.0,0.0,0.0,300,0,30,0.5789883591136638,2.7637062740514295,92.28580727249297,-0.0,10.0,0.0,0.5030844194889068
GUIDED_NOGPS,0.1523451805114746,93.68140802287144,0.0,0.0,0.0,0.0,300,0,30,0.5789883591136638,2.7637062740514295,92.28580727249297,-0.0,10.0,0.0,0.5030905641078949
GUIDED_NOGPS,0.16349554061889648,89.73884764329574,0.0,0.0,0.0,0.0,300,0,30,0.39933997651204794,3.9842593711854155,92.28938629161806,-0.0,10.0,0.0,0.5030970773696899
GUIDED_NOGPS,0.16466403007507324,861.607230895645,0.0,0.0,0.0,0.0,300,0,30,0.39933997651204794,3.9842593711854155,92.28938629161806,-0.0,10.0,0.0,0.5030982408046722
GUIDED_NOGPS,0.16647553443908691,554.728739584711,0.0,0.0,0.0,0.0,300,0,30,0.2677796741640391,4.661018419812374,92.28414070633549,-0.0,10.0,0.0,0.5030988716602326
GUIDED_NOGPS,0.16775298118591309,788.6995110943964,0.0,0.0,0.0,0.0,300,0,30,0.2677796741640391,4.661018419812374,92.28414070633549,-0.0,10.0,0.0,0.503100028514862
GUIDED_NOGPS,0.169236421585083,676.6097757702855,0.0,0.0,0.0,0.0,300,0,30,0.2677796741640391,4.661018419812374,92.28414070633549,-0.0,10.0,0.0,0.5031006715297699
GUIDED_NOGPS,0.1705183982849121,786.0389805097451,0.0,0.0,0.0,0.0,300,0,30,0.2677796741640391,4.661018419812374,92.28414070633549,-0.0,10.0,0.0,0.503101543712616
GUIDED_NOGPS,0.17471790313720703,238.7060497410506,0.0,0.0,0.0,0.0,300,0,30,0.2677796741640391,4.661018419812374,92.28414070633549,-0.0,10.0,0.0,0.5031029553413391
GUIDED_NOGPS,0.17655706405639648,546.6315652287241,0.0,0.0,0.0,0.0,300,0,30,0.2677796741640391,4.661018419812374,92.28414070633549,-0.0,10.0,0.0,0.5031048961162568
GUIDED_NOGPS,0.17889761924743652,428.90929542898044,0.0,0.0,0.0,0.0,300,0,30,0.2677796741640391,4.661018419812374,92.28414070633549,-0.0,10.0,0.0,0.5031062568187714
GUIDED_NOGPS,0.18107271194458008,461.57191592384726,0.0,0.0,0.0,0.0,300,0,30,0.2677796741640391,4.661018419812374,92.28414070633549,-0.0,10.0,0.0,0.5031075451374054
GUIDED_NOGPS,0.18339943885803223,431.6015641078411,0.0,0.0,0.0,0.0,300,0,30,0.2677796741640391,4.661018419812374,92.28414070633549,-0.0,10.0,0.0,0.503108852481842
GUIDED_NOGPS,0.1867353916168213,300.5161567672136,0.0,0.0,0.0,0.0,300,0,30,0.2677796741640391,4.661018419812374,92.28414070633549,-0.0,10.0,0.0,0.5031102681159973
GUIDED_NOGPS,0.20032835006713867,73.62432199968404,0.0,0.0,0.0,0.0,300,0,30,-0.087475233216345,6.794089912701941,92.26895719581056,-0.0,10.0,0.0,0.5031188159942627
GUIDED_NOGPS,0.20177865028381348,691.9010227647641,0.0,0.0,0.0,0.0,300,0,30,-0.087475233216345,6.794089912701941,92.26895719581056,-0.0,10.0,0.0,0.5031204085826874
GUIDED_NOGPS,0.20279264450073242,996.0351460460698,0.0,0.0,0.0,0.0,300,0,30,-0.087475233216345,6.794089912701941,92.26895719581056,-0.0,10.0,0.0,0.5031211309909821
GUIDED_NOGPS,0.20415830612182617,769.8795888399412,0.0,0.0,0.0,0.0,300,0,30,-0.087475233216345,6.794089912701941,92.26895719581056,-0.0,10.0,0.0,0.5031216608524323
GUIDED_NOGPS,0.20551705360412598,721.2904557179708,0.0,0.0,0.0,0.0,300,0,30,-0.087475233216345,6.794089912701941,92.26895719581056,-0.0,10.0,0.0,0.5031225261688232
GUIDED_NOGPS,0.21164536476135254,163.42505357490745,0.0,0.0,0.0,0.0,300,0,30,-0.1862359533137477,7.521342842315511,92.25195002477722,-0.0,10.0,0.0,0.503123437833786
GUIDED_NOGPS,0.21352338790893555,534.3743151993884,0.0,0.0,0.0,0.0,300,0,30,-0.1862359533137477,7.521342842315511,92.25195002477722,-0.0,10.0,0.0,0.50312707862854
GUIDED_NOGPS,0.21458745002746582,945.5148782687105,0.0,0.0,0.0,0.0,300,0,30,-0.1862359533137477,7.521342842315511,92.25195002477722,-0.0,10.0,0.0,0.5031281513690948
GUIDED_NOGPS,0.2160797119140625,673.4592164418754,0.0,0.0,0.0,0.0,300,0,30,-0.1862359533137477,7.521342842315511,92.25195002477722,-0.0,10.0,0.0,0.5031287314414978
GUIDED_NOGPS,0.21773862838745117,605.5007939945142,0.0,0.0,0.0,0.0,300,0,30,-0.1862359533137477,7.521342842315511,92.25195002477722,-0.0,10.0,0.0,0.5031296326637268
GUIDED_NOGPS,0.22211885452270508,228.88425648021828,0.0,0.0,0.0,0.0,300,0,30,-0.31829935512302354,8.22393537393075,92.23039394775667,-0.0,10.0,0.0,0.5031312793254852
GUIDED_NOGPS,0.22445106506347656,429.83234269317484,0.0,0.0,0.0,0.0,300,0,30,-0.31829935512302354,8.22393537393075,92.23039394775667,-0.0,10.0,0.0,0.503134001159668
GUIDED_NOGPS,0.22571754455566406,794.6767715043577,0.0,0.0,0.0,0.0,300,0,30,-0.31829935512302354,8.22393537393075,92.23039394775667,-0.0,10.0,0.0,0.5031347415924072
GUIDED_NOGPS,0.22751688957214355,558.0500266098989,0.0,0.0,0.0,0.0,300,0,30,-0.31829935512302354,8.22393537393075,92.23039394775667,-0.0,10.0,0.0,0.5031356229305267
GUIDED_NOGPS,0.22965073585510254,470.794028510495,0.0,0.0,0.0,0.0,300,0,30,-0.4646700955929852,8.908619149542217,92.2036469269669,-0.0,10.0,0.0,0.5031364905357361
GUIDED_NOGPS,0.232635498046875,336.16285966177765,0.0,0.0,0.0,0.0,300,0,30,-0.4646700955929852,8.908619149542217,92.2036469269669,-0.0,10.0,0.0,0.5031384363174438
GUIDED_NOGPS,0.23504948616027832,416.43208895949164,0.0,0.0,0.0,0.0,300,0,30,-0.4646700955929852,8.908619149542217,92.2036469269669,-0.0,10.0,0.0,0.5031401426315307
GUIDED_NOGPS,0.2367098331451416,606.2885226944204,0.0,0.0,0.0,0.0,300,0,30,-0.4646700955929852,8.908619149542217,92.2036469269669,-0.0,10.0,0.0,0.5031411269664764
GUIDED_NOGPS,0.23845505714416504,575.8242723778144,0.0,0.0,0.0,0.0,300,0,30,-0.4646700955929852,8.908619149542217,92.2036469269669,-0.0,10.0,0.0,0.5031421702384948
GUIDED_NOGPS,0.2405686378479004,475.27524079320114,0.0,0.0,0.0,0.0,300,0,30,-0.4646700955929852,8.908619149542217,92.2036469269669,-0.0,10.0,0.0,0.5031430979251862
GUIDED_NOGPS,0.24178075790405273,830.7197464844523,0.0,0.0,0.0,0.0,300,0,30,-0.4646700955929852,8.908619149542217,92.2036469269669,-0.0,10.0,0.0,0.5031442868232727
GUIDED_NOGPS,0.24303579330444336,801.97017208413,0.0,0.0,0.0,0.0,300,0,30,-0.4646700955929852,8.908619149542217,92.2036469269669,-0.0,10.0,0.0,0.5031450065135956
GUIDED_NOGPS,0.24419140815734863,870.3681261672547,0.0,0.0,0.0,0.0,300,0,30,-0.4646700955929852,8.908619149542217,92.2036469269669,-0.0,10.0,0.0,0.5031457615375519
GUIDED_NOGPS,0.24522781372070312,970.9037037037037,0.0,0.0,0.0,0.0,300,0,30,-0.4646700955929852,8.908619149542217,92.2036469269669,-0.0,10.0,0.0,0.5031464361667634
GUIDED_NOGPS,0.2465043067932129,789.1446848541863,0.0,0.0,0.0,0.0,300,0,30,-0.4646700955929852,8.908619149542217,92.2036469269669,-0.0,10.0,0.0,0.5031470527172088
GUIDED_NOGPS,0.24949216842651367,335.1689307975068,0.0,0.0,0.0,0.0,300,0,30,-0.5896051411265081,9.562075300268383,92.17491915131782,-0.0,10.0,0.0,0.5031481158733367
GUIDED_NOGPS,0.25605320930480957,153.39589657316316,0.0,0.0,0.0,0.0,300,0,30,-0.7666274227139599,10.330285459239935,92.12637699688653,-0.0,10.0,0.0,0.5031528388500214
GUIDED_NOGPS,0.2578709125518799,547.1307070180015,0.0,0.0,0.0,0.0,300,0,30,-0.7666274227139599,10.330285459239935,92.12637699688653,-0.0,10.0,0.0,0.5031540637969971
GUIDED_NOGPS,0.2600679397583008,456.7465969726669,0.0,0.0,0.0,0.0,300,0,30,-0.7666274227139599,10.330285459239935,92.12637699688653,-0.0,10.0,0.0,0.5031547206878663
GUIDED_NOGPS,0.2632932662963867,312.56457262091067,0.0,0.0,0.0,0.0,300,0,30,-0.7666274227139599,10.330285459239935,92.12637699688653,-0.0,10.0,0.0,0.5031566786289215
GUIDED_NOGPS,0.2657945156097412,400.25803988930244,0.0,0.0,0.0,0.0,300,0,30,-0.7666274227139599,10.330285459239935,92.12637699688653,-0.0,10.0,0.0,0.5031584045410157
GUIDED_NOGPS,0.2683408260345459,393.3512144799775,0.0,0.0,0.0,0.0,300,0,30,-0.7666274227139599,10.330285459239935,92.12637699688653,-0.0,10.0,0.0,0.5031601541996003
GUIDED_NOGPS,0.27145886421203613,322.24216349108787,0.0,0.0,0.0,0.0,300,0,30,-0.7666274227139599,10.330285459239935,92.12637699688653,-0.0,10.0,0.0,0.5031609394073486
GUIDED_NOGPS,0.3005831241607666,34.34828967087322,0.0,0.0,0.0,0.0,300,0,30,-1.3933595511779533,12.613173736479148,91.88339301716333,-0.0,10.0,0.0,0.5031768750190735
GUIDED_NOGPS,0.3022146224975586,615.3615023474179,0.0,0.0,0.0,0.0,300,0,30,-1.3933595511779533,12.613173736479148,91.88339301716333,-0.0,10.0,0.0,0.5031804487228394
GUIDED_NOGPS,0.3036825656890869,684.5607964746206,0.0,0.0,0.0,0.0,300,0,30,-1.3933595511779533,12.613173736479148,91.88339301716333,-0.0,10.0,0.0,0.5031813935756684
GUIDED_NOGPS,0.305187463760376,688.71986863711,0.0,0.0,0.0,0.0,300,0,30,-1.3933595511779533,12.613173736479148,91.88339301716333,-0.0,10.0,0.0,0.5031822558879853
GUIDED_NOGPS,0.30668091773986816,661.1450189155107,0.0,0.0,0.0,0.0,300,0,30,-1.3933595511779533,12.613173736479148,91.88339301716333,-0.0,10.0,0.0,0.5031832167625427
GUIDED_NOGPS,0.30864882469177246,510.25596107055964,0.0,0.0,0.0,0.0,300,0,30,-1.3933595511779533,12.613173736479148,91.88339301716333,-0.0,10.0,0.0,0.5031841847896575
GUIDED_NOGPS,0.3096959590911865,959.7949656750573,0.0,0.0,0.0,0.0,300,0,30,-1.3933595511779533,12.613173736479148,91.88339301716333,-0.0,10.0,0.0,0.5031851685523987
GUIDED_NOGPS,0.3115544319152832,541.4799896720888,0.0,0.0,0.0,0.0,300,0,30,-1.3933595511779533,12.613173736479148,91.88339301716333,-0.0,10.0,0.0,0.5031857255935669
GUIDED_NOGPS,0.3129081726074219,743.1438695960312,0.0,0.0,0.0,0.0,300,0,30,-1.3933595511779533,12.613173736479148,91.88339301716333,-0.0,10.0,0.0,0.5031868724346161
GUIDED_NOGPS,0.31444621086120605,653.1149174711928,0.0,0.0,0.0,0.0,300,0,30,-1.3933595511779533,12.613173736479148,91.88339301716333,-0.0,10.0,0.0,0.5031876685142517
GUIDED_NOGPS,0.3167564868927002,433.6991004032675,0.0,0.0,0.0,0.0,300,0,30,-1.514138640044935,12.979540814690399,91.82587599416266,-0.0,10.0,0.0,0.5031890817165374
GUIDED_NOGPS,0.32028722763061523,284.41744083542415,0.0,0.0,0.0,0.0,300,0,30,-1.514138640044935,12.979540814690399,91.82587599416266,-0.0,10.0,0.0,0.5031908514022827
GUIDED_NOGPS,0.3226771354675293,419.3046086174148,0.0,0.0,0.0,0.0,300,0,30,-1.514138640044935,12.979540814690399,91.82587599416266,-0.0,10.0,0.0,0.5031921291351318
GUIDED_NOGPS,0.33298420906066895,97.12409401412528,0.0,0.0,0.0,0.0,300,0,30,-1.514138640044935,12.979540814690399,91.82587599416266,-0.0,10.0,0.0,0.5031989541053772
GUIDED_NOGPS,0.3356316089630127,378.8208092485549,0.0,0.0,0.0,0.0,300,0,30,-1.6115007455076453,13.307478687310223,91.76546980114307,-0.0,10.0,0.0,0.503200511932373
GUIDED_NOGPS,0.3381526470184326,397.8283221094565,0.0,0.0,0.0,0.0,300,0,30,-1.6115007455076453,13.307478687310223,91.76546980114307,-0.0,10.0,0.0,0.5032021269798279
GUIDED_NOGPS,0.34810566902160645,100.57318242854403,0.0,0.0,0.0,0.0,300,0,30,-1.6115007455076453,13.307478687310223,91.76546980114307,-0.0,10.0,0.0,0.5032076727867126
GUIDED_NOGPS,0.3502016067504883,480.0622639349891,0.0,0.0,0.0,0.0,300,0,30,-1.6979794781364692,13.603620321796342,91.69886862654627,-0.0,10.0,0.0,0.5032092676639557
GUIDED_NOGPS,0.351330041885376,892.7850148999574,0.0,0.0,0.0,0.0,300,0,30,-1.6979794781364692,13.603620321796342,91.69886862654627,-0.0,10.0,0.0,0.5032101045131684
GUIDED_NOGPS,0.3528411388397217,663.9708722494855,0.0,0.0,0.0,0.0,300,0,30,-1.6979794781364692,13.603620321796342,91.69886862654627,-0.0,10.0,0.0,0.5032106887340546
GUIDED_NOGPS,0.35463905334472656,567.027713938083,0.0,0.0,0.0,0.0,300,0,30,-1.6979794781364692,13.603620321796342,91.69886862654627,-0.0,10.0,0.0,0.5032119535923004
GUIDED_NOGPS,0.36664724349975586,83.24509278555125,0.0,0.0,0.0,0.0,300,0,30,-1.9127688638526834,14.256825463070511,91.49952955561945,-0.0,10.0,0.0,0.503213650894165
GUIDED_NOGPS,0.3692476749420166,385.71859481331614,0.0,0.0,0.0,0.0,300,0,30,-1.9127688638526834,14.256825463070511,91.49952955561945,-0.0,10.0,0.0,0.5032201225280761
GUIDED_NOGPS,0.37167930603027344,412.86583325130425,0.0,0.0,0.0,0.0,300,0,30,-1.967247519889763,14.381726571101597,91.43218389040312,-0.0,10.0,0.0,0.5032216094017029
GUIDED_NOGPS,0.3742537498474121,395.8010757761631,0.0,0.0,0.0,0.0,300,0,30,-1.967247519889763,14.381726571101597,91.43218389040312,-0.0,10.0,0.0,0.5032230165958405
GUIDED_NOGPS,0.38378405570983887,104.69532225051171,0.0,0.0,0.0,0.0,300,0,30,-1.967247519889763,14.381726571101597,91.43218389040312,-0.0,10.0,0.0,0.503229256772995
GUIDED_NOGPS,0.3849480152130127,866.9499793303017,0.0,0.0,0.0,0.0,300,0,30,-1.967247519889763,14.381726571101597,91.43218389040312,-0.0,10.0,0.0,0.5032302335262299
GUIDED_NOGPS,0.3869185447692871,508.83222127866065,0.0,0.0,0.0,0.0,300,0,30,-2.0210459317741916,14.478564993154038,91.36828064052848,-0.0,10.0,0.0,0.503231069803238
GUIDED_NOGPS,0.3882315158843994,766.3628722821122,0.0,0.0,0.0,0.0,300,0,30,-2.0210459317741916,14.478564993154038,91.36828064052848,-0.0,10.0,0.0,0.5032321130752564
GUIDED_NOGPS,0.3922886848449707,247.17449466674523,0.0,0.0,0.0,0.0,300,0,30,-2.0210459317741916,14.478564993154038,91.36828064052848,-0.0,10.0,0.0,0.503234568977356
GUIDED_NOGPS,0.40075087547302246,118.28602047435066,0.0,0.0,0.0,0.0,300,0,30,-2.0210459317741916,14.478564993154038,91.36828064052848,-0.0,10.0,0.0,0.5032389323234558
GUIDED_NOGPS,0.4117891788482666,90.62495138498768,0.0,0.0,0.0,0.0,300,0,30,-2.0602151456735105,14.601527181234484,91.23697708392416,-0.0,10.0,0.0,0.5032460976123809
GUIDED_NOGPS,0.41392993927001953,468.4802859376745,0.0,0.0,0.0,0.0,300,0,30,-2.0699718574594623,14.62884452281995,91.17637964560781,-0.0,10.0,0.0,0.5032470850944519
GUIDED_NOGPS,0.4158601760864258,521.0962852528264,0.0,0.0,0.0,0.0,300,0,30,-2.0699718574594623,14.62884452281995,91.17637964560781,-0.0,10.0,0.0,0.503248218345642
GUIDED_NOGPS,0.4184095859527588,393.3881072969424,0.0,0.0,0.0,0.0,300,0,30,-2.0699718574594623,14.62884452281995,91.17637964560781,-0.0,10.0,0.0,0.5032502056121826
GUIDED_NOGPS,0.42008447647094727,598.7586009992863,0.0,0.0,0.0,0.0,300,0,30,-2.0699718574594623,14.62884452281995,91.17637964560781,-0.0,10.0,0.0,0.5032512091159821
GUIDED_NOGPS,0.42105960845947266,1030.2883812331122,0.0,0.0,0.0,0.0,300,0,30,-2.0699718574594623,14.62884452281995,91.17637964560781,-0.0,10.0,0.0,0.5032519850254059
GUIDED_NOGPS,0.42253994941711426,681.446628757108,0.0,0.0,0.0,0.0,300,0,30,-2.0699718574594623,14.62884452281995,91.17637964560781,-0.0,10.0,0.0,0.5032524658203125
GUIDED_NOGPS,0.4238579273223877,762.739407164939,0.0,0.0,0.0,0.0,300,0,30,-2.0699718574594623,14.62884452281995,91.17637964560781,-0.0,10.0,0.0,0.5032534284114838
GUIDED_NOGPS,0.4256706237792969,553.8497293014657,0.0,0.0,0.0,0.0,300,0,30,-2.073074257446529,14.63558421198346,91.12172447186936,-0.0,10.0,0.0,0.5032545429229737
GUIDED_NOGPS,0.42730116844177246,615.8132432829246,0.0,0.0,0.0,0.0,300,0,30,-2.073074257446529,14.63558421198346,91.12172447186936,-0.0,10.0,0.0,0.5032556808948517
GUIDED_NOGPS,0.4296247959136963,432.0906562274647,0.0,0.0,0.0,0.0,300,0,30,-2.073074257446529,14.63558421198346,91.12172447186936,-0.0,10.0,0.0,0.5032569933891297
GUIDED_NOGPS,0.43129730224609375,601.1615307438727,0.0,0.0,0.0,0.0,300,0,30,-2.073074257446529,14.63558421198346,91.12172447186936,-0.0,10.0,0.0,0.5032576851844788
GUIDED_NOGPS,0.43240857124328613,904.919956850054,0.0,0.0,0.0,0.0,300,0,30,-2.073074257446529,14.63558421198346,91.12172447186936,-0.0,10.0,0.0,0.5032586596488953
GUIDED_NOGPS,0.433394193649292,1027.7637833864248,0.0,0.0,0.0,0.0,300,0,30,-2.073074257446529,14.63558421198346,91.12172447186936,-0.0,10.0,0.0,0.5032593068122864
GUIDED_NOGPS,0.4344923496246338,914.9877835951135,0.0,0.0,0.0,0.0,300,0,30,-2.073074257446529,14.63558421198346,91.12172447186936,-0.0,10.0,0.0,0.5032598858833313
GUIDED_NOGPS,0.4357748031616211,786.9238273921201,0.0,0.0,0.0,0.0,300,0,30,-2.073074257446529,14.63558421198346,91.12172447186936,-0.0,10.0,0.0,0.5032605153083801
GUIDED_NOGPS,0.4367825984954834,999.5958055290753,0.0,0.0,0.0,0.0,300,0,30,-2.073074257446529,14.63558421198346,91.12172447186936,-0.0,10.0,0.0,0.5032612972259521
GUIDED_NOGPS,0.43778514862060547,1005.5871493646607,0.0,0.0,0.0,0.0,300,0,30,-2.073074257446529,14.63558421198346,91.12172447186936,-0.0,10.0,0.0,0.5032618941783905
GUIDED_NOGPS,0.4388444423675537,953.0343103840037,0.0,0.0,0.0,0.0,300,0,30,-2.073074257446529,14.63558421198346,91.12172447186936,-0.0,10.0,0.0,0.5032624892711639
GUIDED_NOGPS,0.43982696533203125,1025.7529958425043,0.0,0.0,0.0,0.0,300,0,30,-2.073074257446529,14.63558421198346,91.12172447186936,-0.0,10.0,0.0,0.5032631268501282
GUIDED_NOGPS,0.44083356857299805,1001.5052531041069,0.0,0.0,0.0,0.0,300,0,30,-2.073074257446529,14.63558421198346,91.12172447186936,-0.0,10.0,0.0,0.5032637119293213
GUIDED_NOGPS,0.44183778762817383,1005.1052000958543,0.0,0.0,0.0,0.0,300,0,30,-2.073074257446529,14.63558421198346,91.12172447186936,-0.0,10.0,0.0,0.5032643141746521
GUIDED_NOGPS,0.44350409507751465,603.5838250107929,0.0,0.0,0.0,0.0,300,0,30,-2.073074257446529,14.63558421198346,91.12172447186936,-0.0,10.0,0.0,0.5032649826526642
GUIDED_NOGPS,0.45992422103881836,60.95574706797076,0.0,0.0,0.0,0.0,300,0,30,-2.0396165757972216,14.60456661541514,91.01082952050504,-0.0,10.0,0.0,0.5032690732002258
GUIDED_NOGPS,0.46271324157714844,359.3474982864976,0.0,0.0,0.0,0.0,300,0,30,-2.0081913023128157,14.570279065781676,90.95804581859917,-0.0,10.0,0.0,0.5032763114452362
GUIDED_NOGPS,0.4868016242980957,41.52858472444999,0.0,0.0,0.0,0.0,300,0,30,-1.9779525607532884,14.523143930319417,90.90793955084796,-0.0,10.0,0.0,0.5032820628166199
GUIDED_NOGPS,0.4885590076446533,571.1198257080611,0.0,0.0,0.0,0.0,300,0,30,-1.9779525607532884,14.523143930319417,90.90793955084796,-0.0,10.0,0.0,0.5032923722267151
GUIDED_NOGPS,0.4904491901397705,531.664849790848,0.0,0.0,0.0,0.0,300,0,30,-1.9779525607532884,14.523143930319417,90.90793955084796,-0.0,10.0,0.0,0.5032934498310089
GUIDED_NOGPS,0.4923372268676758,533.0838840874428,0.0,0.0,0.0,0.0,300,0,30,-1.9779525607532884,14.523143930319417,90.90793955084796,-0.0,10.0,0.0,0.5032942829608917
GUIDED_NOGPS,0.4953582286834717,331.8541023815175,0.0,0.0,0.0,0.0,300,0,30,-1.9307764441560105,14.474497615503294,90.86675351015279,-0.0,10.0,0.0,0.5032954648494721
GUIDED_NOGPS,0.4988689422607422,285.793404197329,0.0,0.0,0.0,0.0,300,0,30,-1.9307764441560105,14.474497615503294,90.86675351015279,-0.0,10.0,0.0,0.5032974947452545
GUIDED_NOGPS,0.5002501010894775,726.7898111245885,0.0,0.0,0.0,0.0,300,0,30,-1.9307764441560105,14.474497615503294,90.86675351015279,-0.0,10.0,0.0,0.5032991381168366
GUIDED_NOGPS,0.5032176971435547,337.6512638866527,0.0,0.0,0.0,0.0,300,0,30,-1.893367284628439,14.410211875035134,90.82571773361934,-0.0,10.0,0.0,0.5033005631923676
GUIDED_NOGPS,0.5245978832244873,46.79262796197956,0.0,0.0,0.0,0.0,300,0,30,-1.8105187975434769,14.2794914458312,90.75311282274211,-0.0,10.0,0.0,0.5033138484954834
GUIDED_NOGPS,0.5269653797149658,428.6901062959935,0.0,0.0,0.0,0.0,300,0,30,-1.8105187975434769,14.2794914458312,90.75311282274211,-0.0,10.0,0.0,0.5033151366710663
GUIDED_NOGPS,0.5289957523345947,490.3898047468724,0.0,0.0,0.0,0.0,300,0,30,-1.8105187975434769,14.2794914458312,90.75311282274211,-0.0,10.0,0.0,0.5033164319992065
GUIDED_NOGPS,0.5300920009613037,918.9973707274321,0.0,0.0,0.0,0.0,300,0,30,-1.8105187975434769,14.2794914458312,90.75311282274211,-0.0,10.0,0.0,0.5033172099113464
GUIDED_NOGPS,0.5314130783081055,760.2508609751677,0.0,0.0,0.0,0.0,300,0,30,-1.8105187975434769,14.2794914458312,90.75311282274211,-0.0,10.0,0.0,0.5033180503368377
GUIDED_NOGPS,0.5330572128295898,611.0582750582751,0.0,0.0,0.0,0.0,300,0,30,-1.8105187975434769,14.2794914458312,90.75311282274211,-0.0,10.0,0.0,0.5033186256885529
GUIDED_NOGPS,0.5349941253662109,518.0071631468445,0.0,0.0,0.0,0.0,300,0,30,-1.8105187975434769,14.2794914458312,90.75311282274211,-0.0,10.0,0.0,0.5033198449134827
GUIDED_NOGPS,0.5367684364318848,567.1043807463494,0.0,0.0,0.0,0.0,300,0,30,-1.8105187975434769,14.2794914458312,90.75311282274211,-0.0,10.0,0.0,0.5033211947441101
GUIDED_NOGPS,0.5379009246826172,889.188891244435,0.0,0.0,0.0,0.0,300,0,30,-1.8105187975434769,14.2794914458312,90.75311282274211,-0.0,10.0,0.0,0.5033218413352967
GUIDED_NOGPS,0.5476641654968262,102.53267166988535,0.0,0.0,0.0,0.0,300,0,30,-1.8105187975434769,14.2794914458312,90.75311282274211,-0.0,10.0,0.0,0.5033225441455841
GUIDED_NOGPS,0.5512368679046631,280.517924023542,0.0,0.0,0.0,0.0,300,0,30,-1.8105187975434769,14.2794914458312,90.75311282274211,-0.0,10.0,0.0,0.5033294562339783
GUIDED_NOGPS,0.5535411834716797,436.17970049916806,0.0,0.0,0.0,0.0,300,0,30,-1.8105187975434769,14.2794914458312,90.75311282274211,-0.0,10.0,0.0,0.5033309104919433
GUIDED_NOGPS,0.5637288093566895,98.23646243207794,0.0,0.0,0.0,0.0,300,0,30,-1.776467529766613,14.189879363920632,90.70383983806964,-0.0,10.0,0.0,0.5033330465316772
GUIDED_NOGPS,0.5660722255706787,427.99020408163267,0.0,0.0,0.0,0.0,300,0,30,-1.7168865089761223,14.129802727528492,90.68091772321507,-0.0,10.0,0.0,0.503338207244873
GUIDED_NOGPS,0.5683672428131104,437.1799041067334,0.0,0.0,0.0,0.0,300,0,30,-1.7168865089761223,14.129802727528492,90.68091772321507,-0.0,10.0,0.0,0.50333971657753
GUIDED_NOGPS,0.5702693462371826,527.9174323473883,0.0,0.0,0.0,0.0,300,0,30,-1.7168865089761223,14.129802727528492,90.68091772321507,-0.0,10.0,0.0,0.5033409163475037
GUIDED_NOGPS,0.5718071460723877,653.8275915822292,0.0,0.0,0.0,0.0,300,0,30,-1.7168865089761223,14.129802727528492,90.68091772321507,-0.0,10.0,0.0,0.5033420062541961
GUIDED_NOGPS,0.573472261428833,604.8895298528987,0.0,0.0,0.0,0.0,300,0,30,-1.7168865089761223,14.129802727528492,90.68091772321507,-0.0,10.0,0.0,0.503342862701416
GUIDED_NOGPS,0.574988603591919,661.3535162409335,0.0,0.0,0.0,0.0,300,0,30,-1.7168865089761223,14.129802727528492,90.68091772321507,-0.0,10.0,0.0,0.5033441342830658
GUIDED_NOGPS,0.5870203971862793,83.18730662435541,0.0,0.0,0.0,0.0,300,0,30,-1.7168865089761223,14.129802727528492,90.68091772321507,-0.0,10.0,0.0,0.5033448325157166
GUIDED_NOGPS,0.5905055999755859,287.95166826857064,0.0,0.0,0.0,0.0,300,0,30,-1.6808111573274076,14.066889855083504,90.64976523041065,-0.0,10.0,0.0,0.5033533673763275
GUIDED_NOGPS,0.5936996936798096,314.10948850445595,0.0,0.0,0.0,0.0,300,0,30,-1.6808111573274076,14.066889855083504,90.64976523041065,-0.0,10.0,0.0,0.5033544017791748
GUIDED_NOGPS,0.6093194484710693,64.03419795117632,0.0,0.0,0.0,0.0,300,0,30,-1.5634256052608644,13.587098947967728,90.51874854175146,-0.0,10.0,0.0,0.5033596095561981
GUIDED_NOGPS,0.6108973026275635,638.1110603986003,0.0,0.0,0.0,0.0,300,0,30,-1.5634256052608644,13.587098947967728,90.51874854175146,-0.0,10.0,0.0,0.5033653885364533
GUIDED_NOGPS,0.6227786540985107,84.21282576396418,0.0,0.0,0.0,0.0,300,0,30,-1.6051170799546222,13.479934133663873,90.49929616299526,-0.0,10.0,0.0,0.5033665149211883
GUIDED_NOGPS,0.6237552165985107,1032.317007137583,0.0,0.0,0.0,0.0,300,0,30,-1.6051170799546222,13.479934133663873,90.49929616299526,-0.0,10.0,0.0,0.5033734245777131
GUIDED_NOGPS,0.6249492168426514,844.0941839404306,0.0,0.0,0.0,0.0,300,0,30,-1.6051170799546222,13.479934133663873,90.49929616299526,-0.0,10.0,0.0,0.5033739987850189
GUIDED_NOGPS,0.630335807800293,185.8271232998095,0.0,0.0,0.0,0.0,300,0,30,-1.6051170799546222,13.479934133663873,90.49929616299526,-0.0,10.0,0.0,0.503374969959259
GUIDED_NOGPS,0.6334340572357178,323.60959802484376,0.0,0.0,0.0,0.0,300,0,30,-1.63961273691436,13.438697720323567,90.4876711810279,-0.0,10.0,0.0,0.5033791705131531
GUIDED_NOGPS,0.6360015869140625,391.8811548164066,0.0,0.0,0.0,0.0,300,0,30,-1.63961273691436,13.438697720323567,90.4876711810279,-0.0,10.0,0.0,0.5033798093795776
GUIDED_NOGPS,0.6404235363006592,226.35207771181868,0.0,0.0,0.0,0.0,300,0,30,-1.6927198055887362,13.34248511435383,90.48074536920952,-0.0,10.0,0.0,0.5033833949565888
GUIDED_NOGPS,0.6413867473602295,1043.6188106494153,0.0,0.0,0.0,0.0,300,0,30,-1.6927198055887362,13.34248511435383,90.48074536920952,-0.0,10.0,0.0,0.50338397731781
GUIDED_NOGPS,0.6422996520996094,1105.218445322793,0.0,0.0,0.0,0.0,300,0,30,-1.6927198055887362,13.34248511435383,90.48074536920952,-0.0,10.0,0.0,0.5033845429420472
GUIDED_NOGPS,0.6438620090484619,644.5833717534962,0.0,0.0,0.0,0.0,300,0,30,-1.6927198055887362,13.34248511435383,90.48074536920952,-0.0,10.0,0.0,0.5033850991249085
GUIDED_NOGPS,0.6461284160614014,442.3904651408079,0.0,0.0,0.0,0.0,300,0,30,-1.6927198055887362,13.34248511435383,90.48074536920952,-0.0,10.0,0.0,0.503386386013031
GUIDED_NOGPS,0.6475839614868164,691.4447741510056,0.0,0.0,0.0,0.0,300,0,30,-1.6927198055887362,13.34248511435383,90.48074536920952,-0.0,10.0,0.0,0.5033873888015747
GUIDED_NOGPS,0.6484708786010742,1134.2087614926988,0.0,0.0,0.0,0.0,300,0,30,-1.6927198055887362,13.34248511435383,90.48074536920952,-0.0,10.0,0.0,0.5033882649898529
GUIDED_NOGPS,0.6493747234344482,1115.8031391327481,0.0,0.0,0.0,0.0,300,0,30,-1.6927198055887362,13.34248511435383,90.48074536920952,-0.0,10.0,0.0,0.5033887824058533
GUIDED_NOGPS,0.6518592834472656,403.76434347323834,0.0,0.0,0.0,0.0,300,0,30,-1.6927198055887362,13.34248511435383,90.48074536920952,-0.0,10.0,0.0,0.5033897538661957
GUIDED_NOGPS,0.6537859439849854,521.420188960716,0.0,0.0,0.0,0.0,300,0,30,-1.6927198055887362,13.34248511435383,90.48074536920952,-0.0,10.0,0.0,0.5033909798145294
GUIDED_NOGPS,0.6578056812286377,249.43823966696402,0.0,0.0,0.0,0.0,300,0,30,-1.6927198055887362,13.34248511435383,90.48074536920952,-0.0,10.0,0.0,0.5033924294948577
GUIDED_NOGPS,0.6620297431945801,239.52395637028152,0.0,0.0,0.0,0.0,300,0,30,-1.7245691911319174,13.266605127769573,90.49747933267605,-0.0,10.0,0.0,0.5033952260017395
GUIDED_NOGPS,0.6661560535430908,240.41637051473117,0.0,0.0,0.0,0.0,300,0,30,-1.8328520220255375,13.12549341951711,90.48777363386546,-0.0,10.0,0.0,0.5033981149196625
GUIDED_NOGPS,0.6695349216461182,296.50106037042275,0.0,0.0,0.0,0.0,300,0,30,-1.8328520220255375,13.12549341951711,90.48777363386546,-0.0,10.0,0.0,0.5033999116420745
GUIDED_NOGPS,0.6772944927215576,128.99597109026604,0.0,0.0,0.0,0.0,300,0,30,-1.8653605208236248,12.997294183890554,90.5243219761142,-0.0,10.0,0.0,0.5034049064159394
GUIDED_NOGPS,0.6792483329772949,513.5044074436827,0.0,0.0,0.0,0.0,300,0,30,-1.8653605208236248,12.997294183890554,90.5243219761142,-0.0,10.0,0.0,0.5034062711238861
GUIDED_NOGPS,0.683269739151001,249.02357062281067,0.0,0.0,0.0,0.0,300,0,30,-1.9436536986190116,12.819323359782118,90.54008605271858,-0.0,10.0,0.0,0.503407514667511
GUIDED_NOGPS,0.6845440864562988,787.8106686701728,0.0,0.0,0.0,0.0,300,0,30,-1.9436536986190116,12.819323359782118,90.54008605271858,-0.0,10.0,0.0,0.503409763288498
GUIDED_NOGPS,0.686903715133667,426.72743921049954,0.0,0.0,0.0,0.0,300,0,30,-2.0116687223739986,12.609882439072846,90.56736582826362,-0.0,10.0,0.0,0.5034106359004974
GUIDED_NOGPS,0.6890604496002197,465.10357063650474,0.0,0.0,0.0,0.0,300,0,30,-2.0116687223739986,12.609882439072846,90.56736582826362,-0.0,10.0,0.0,0.5034122107505798
GUIDED_NOGPS,0.6918959617614746,353.6512647554806,0.0,0.0,0.0,0.0,300,0,30,-2.0116687223739986,12.609882439072846,90.56736582826362,-0.0,10.0,0.0,0.5034138017654419
GUIDED_NOGPS,0.6939325332641602,493.0994592052669,0.0,0.0,0.0,0.0,300,0,30,-2.0116687223739986,12.609882439072846,90.56736582826362,-0.0,10.0,0.0,0.5034150217056275
GUIDED_NOGPS,0.6952347755432129,772.2894494568219,0.0,0.0,0.0,0.0,300,0,30,-2.0116687223739986,12.609882439072846,90.56736582826362,-0.0,10.0,0.0,0.5034161023139954
GUIDED_NOGPS,0.697392463684082,470.6883626977893,0.0,0.0,0.0,0.0,300,0,30,-2.0116687223739986,12.609882439072846,90.56736582826362,-0.0,10.0,0.0,0.5034170394420624
GUIDED_NOGPS,0.6996731758117676,437.22547691024704,0.0,0.0,0.0,0.0,300,0,30,-2.0116687223739986,12.609882439072846,90.56736582826362,-0.0,10.0,0.0,0.503418682384491
GUIDED_NOGPS,0.7013380527496338,603.7575932057003,0.0,0.0,0.0,0.0,300,0,30,-2.0116687223739986,12.609882439072846,90.56736582826362,-0.0,10.0,0.0,0.5034196711540222
GUIDED_NOGPS,0.7037818431854248,410.9242676594494,0.0,0.0,0.0,0.0,300,0,30,-2.0116687223739986,12.609882439072846,90.56736582826362,-0.0,10.0,0.0,0.5034209367275237
GUIDED_NOGPS,0.7050979137420654,763.0169183190832,0.0,0.0,0.0,0.0,300,0,30,-2.0116687223739986,12.609882439072846,90.56736582826362,-0.0,10.0,0.0,0.503422117471695
GUIDED_NOGPS,0.7075784206390381,404.5432098765432,0.0,0.0,0.0,0.0,300,0,30,-2.069158424617996,12.384912229511906,90.61191232203043,-0.0,10.0,0.0,0.503423074054718
GUIDED_NOGPS,0.709815502166748,448.54069083520477,0.0,0.0,0.0,0.0,300,0,30,-2.069158424617996,12.384912229511906,90.61191232203043,-0.0,10.0,0.0,0.503424812412262
GUIDED_NOGPS,0.7177040576934814,126.85793787617578,0.0,0.0,0.0,0.0,300,0,30,-2.126940757779246,12.13520734364541,90.65325545707653,-0.0,10.0,0.0,0.5034296070575714
GUIDED_NOGPS,0.7219130992889404,238.0827609695181,0.0,0.0,0.0,0.0,300,0,30,-2.159546586773006,11.836987624104314,90.72517734903676,-0.0,10.0,0.0,0.5034308649063111
GUIDED_NOGPS,0.7235071659088135,630.3432521791403,0.0,0.0,0.0,0.0,300,0,30,-2.159546586773006,11.836987624104314,90.72517734903676,-0.0,10.0,0.0,0.503432918548584
GUIDED_NOGPS,0.7247204780578613,831.7081102518342,0.0,0.0,0.0,0.0,300,0,30,-2.159546586773006,11.836987624104314,90.72517734903676,-0.0,10.0,0.0,0.5034338672637939
GUIDED_NOGPS,0.725792646408081,937.2746368715084,0.0,0.0,0.0,0.0,300,0,30,-2.159546586773006,11.836987624104314,90.72517734903676,-0.0,10.0,0.0,0.5034345808029175
GUIDED_NOGPS,0.742668867111206,59.275908365013635,0.0,0.0,0.0,0.0,300,0,30,-2.178065577490438,11.266739399168179,90.84709622572149,-0.0,10.0,0.0,0.5034351233959198
GUIDED_NOGPS,0.7440893650054932,707.8994092827004,0.0,0.0,0.0,0.0,300,0,30,-2.178065577490438,11.266739399168179,90.84709622572149,-0.0,10.0,0.0,0.5034453499794006
GUIDED_NOGPS,0.7457065582275391,622.1156926727974,0.0,0.0,0.0,0.0,300,0,30,-2.178065577490438,11.266739399168179,90.84709622572149,-0.0,10.0,0.0,0.5034461838245392
GUIDED_NOGPS,0.7477896213531494,481.38459772753356,0.0,0.0,0.0,0.0,300,0,30,-2.1501057712361673,10.958533089286878,90.92644936349869,-0.0,10.0,0.0,0.5034471814632415
GUIDED_NOGPS,0.7489526271820068,866.0549246334916,0.0,0.0,0.0,0.0,300,0,30,-2.1501057712361673,10.958533089286878,90.92644936349869,-0.0,10.0,0.0,0.5034484632015228
GUIDED_NOGPS,0.7510085105895996,488.05026762857807,0.0,0.0,0.0,0.0,300,0,30,-2.1501057712361673,10.958533089286878,90.92644936349869,-0.0,10.0,0.0,0.5034490093708038
GUIDED_NOGPS,0.7541043758392334,324.235003092146,0.0,0.0,0.0,0.0,300,0,30,-2.1501057712361673,10.958533089286878,90.92644936349869,-0.0,10.0,0.0,0.5034509261131287
GUIDED_NOGPS,0.7561776638031006,483.60475037472617,0.0,0.0,0.0,0.0,300,0,30,-2.1501057712361673,10.958533089286878,90.92644936349869,-0.0,10.0,0.0,0.5034523610591889
GUIDED_NOGPS,0.7572393417358398,948.2939181550984,0.0,0.0,0.0,0.0,300,0,30,-2.1501057712361673,10.958533089286878,90.92644936349869,-0.0,10.0,0.0,0.5034534245014191
GUIDED_NOGPS,0.7594170570373535,460.6594179022515,0.0,0.0,0.0,0.0,300,0,30,-2.1501057712361673,10.958533089286878,90.92644936349869,-0.0,10.0,0.0,0.5034543560504914
GUIDED_NOGPS,0.7602789402008057,1169.3069417340396,0.0,0.0,0.0,0.0,300,0,30,-2.1501057712361673,10.958533089286878,90.92644936349869,-0.0,10.0,0.0,0.5034552780151367
GUIDED_NOGPS,0.7714371681213379,89.6812846116017,0.0,0.0,0.0,0.0,300,0,30,-2.058976533556211,10.424164701834467,91.05990442969157,-0.0,10.0,0.0,0.5034557892799377
GUIDED_NOGPS,0.7727510929107666,765.8031769216725,0.0,0.0,0.0,0.0,300,0,30,-2.058976533556211,10.424164701834467,91.05990442969157,-0.0,10.0,0.0,0.5034624830722809
GUIDED_NOGPS,0.7742464542388916,671.6259407526021,0.0,0.0,0.0,0.0,300,0,30,-2.058976533556211,10.424164701834467,91.05990442969157,-0.0,10.0,0.0,0.5034632821559906
GUIDED_NOGPS,0.7768394947052002,387.07124400147654,0.0,0.0,0.0,0.0,300,0,30,-2.000143418479837,10.289699621418073,91.10580330091406,-0.0,10.0,0.0,0.5034647039413452
GUIDED_NOGPS,0.7868080139160156,100.42148107357484,0.0,0.0,0.0,0.0,300,0,30,-1.8815497767038476,9.941944808695105,91.20807172335667,-0.0,10.0,0.0,0.5034658427715302
GUIDED_NOGPS,0.788323163986206,663.1310671936759,0.0,0.0,0.0,0.0,300,0,30,-1.8815497767038476,9.941944808695105,91.20807172335667,-0.0,10.0,0.0,0.5034720087051392
GUIDED_NOGPS,0.7896921634674072,734.940248817242,0.0,0.0,0.0,0.0,300,0,30,-1.8815497767038476,9.941944808695105,91.20807172335667,-0.0,10.0,0.0,0.5034728282451629
GUIDED_NOGPS,0.7910370826721191,746.9820124666073,0.0,0.0,0.0,0.0,300,0,30,-1.8815497767038476,9.941944808695105,91.20807172335667,-0.0,10.0,0.0,0.5034736742496491
GUIDED_NOGPS,0.7920336723327637,1009.9455815073441,0.0,0.0,0.0,0.0,300,0,30,-1.8815497767038476,9.941944808695105,91.20807172335667,-0.0,10.0,0.0,0.5034742877960205
GUIDED_NOGPS,0.7949709892272949,341.5278886084195,0.0,0.0,0.0,0.0,300,0,30,-1.7128524284975837,9.538635798584192,91.33783848739773,-0.0,10.0,0.0,0.5034748502731323
GUIDED_NOGPS,0.796027660369873,953.0343103840037,0.0,0.0,0.0,0.0,300,0,30,-1.7128524284975837,9.538635798584192,91.33783848739773,-0.0,10.0,0.0,0.5034766199588776
GUIDED_NOGPS,0.7970495223999023,985.5037593984962,0.0,0.0,0.0,0.0,300,0,30,-1.7128524284975837,9.538635798584192,91.33783848739773,-0.0,10.0,0.0,0.5034772093296052
GUIDED_NOGPS,0.7984225749969482,732.5015717778554,0.0,0.0,0.0,0.0,300,0,30,-1.7128524284975837,9.538635798584192,91.33783848739773,-0.0,10.0,0.0,0.5034779873847961
GUIDED_NOGPS,0.8003730773925781,515.0176817288801,0.0,0.0,0.0,0.0,300,0,30,-1.7128524284975837,9.538635798584192,91.33783848739773,-0.0,10.0,0.0,0.5034788941860199
GUIDED_NOGPS,0.8026254177093506,446.10763667304826,0.0,0.0,0.0,0.0,300,0,30,-1.7128524284975837,9.538635798584192,91.33783848739773,-0.0,10.0,0.0,0.5034802297115326
GUIDED_NOGPS,0.8044383525848389,553.3382585751979,0.0,0.0,0.0,0.0,300,0,30,-1.7128524284975837,9.538635798584192,91.33783848739773,-0.0,10.0,0.0,0.5034813549518585
GUIDED_NOGPS,0.8232221603393555,53.26235586935541,0.0,0.0,0.0,0.0,300,0,30,-1.3614774020710974,8.926973575389333,91.53656967148842,-0.0,10.0,0.0,0.5034928750038147
GUIDED_NOGPS,0.8286905288696289,183.1014100493299,0.0,0.0,0.0,0.0,300,0,30,-1.3614774020710974,8.926973575389333,91.53656967148842,-0.0,10.0,0.0,0.5034962193965912
GUIDED_NOGPS,0.82955002784729,1171.266126780229,0.0,0.0,0.0,0.0,300,0,30,-1.3614774020710974,8.926973575389333,91.53656967148842,-0.0,10.0,0.0,0.5034967918872834
GUIDED_NOGPS,0.8314058780670166,552.5364247134764,0.0,0.0,0.0,0.0,300,0,30,-1.3614774020710974,8.926973575389333,91.53656967148842,-0.0,10.0,0.0,0.5034972985744476
GUIDED_NOGPS,0.8328104019165039,704.3331654072208,0.0,0.0,0.0,0.0,300,0,30,-1.3614774020710974,8.926973575389333,91.53656967148842,-0.0,10.0,0.0,0.5034985220909118
GUIDED_NOGPS,0.8341560363769531,746.1846646504181,0.0,0.0,0.0,0.0,300,0,30,-1.3614774020710974,8.926973575389333,91.53656967148842,-0.0,10.0,0.0,0.5034992901325226
GUIDED_NOGPS,0.8358931541442871,578.7641782806678,0.0,0.0,0.0,0.0,300,0,30,-1.3614774020710974,8.926973575389333,91.53656967148842,-0.0,10.0,0.0,0.5035004878997803
GUIDED_NOGPS,0.8378851413726807,503.2158368326335,0.0,0.0,0.0,0.0,300,0,30,-1.1219753247207191,8.608687613840385,91.65940379352193,-0.0,10.0,0.0,0.5035011251926422
GUIDED_NOGPS,0.8403918743133545,400.21984732824427,0.0,0.0,0.0,0.0,300,0,30,-1.1219753247207191,8.608687613840385,91.65940379352193,-0.0,10.0,0.0,0.5035028370857239
GUIDED_NOGPS,0.8452801704406738,205.03025859119128,0.0,0.0,0.0,0.0,300,0,30,-0.8736347157800802,8.298643983072349,91.77940338704988,-0.0,10.0,0.0,0.5035043577194214
GUIDED_NOGPS,0.8511943817138672,169.28898934452695,0.0,0.0,0.0,0.0,300,0,30,-0.35877809771313385,7.709322454878956,92.0306314051013,-0.0,10.0,0.0,0.5035095915317536
GUIDED_NOGPS,0.8525817394256592,725.0309420916162,0.0,0.0,0.0,0.0,300,0,30,-0.35877809771313385,7.709322454878956,92.0306314051013,-0.0,10.0,0.0,0.5035104647159576
GUIDED_NOGPS,0.8539173603057861,753.6934411500449,0.0,0.0,0.0,0.0,300,0,30,-0.35877809771313385,7.709322454878956,92.0306314051013,-0.0,10.0,0.0,0.5035112603664398
GUIDED_NOGPS,0.8558108806610107,530.454533957253,0.0,0.0,0.0,0.0,300,0,30,-0.35877809771313385,7.709322454878956,92.0306314051013,-0.0,10.0,0.0,0.5035121482849121
GUIDED_NOGPS,0.8587172031402588,345.26703984194927,0.0,0.0,0.0,0.0,300,0,30,-0.35877809771313385,7.709322454878956,92.0306314051013,-0.0,10.0,0.0,0.50351310172081
GUIDED_NOGPS,0.861292839050293,389.5156017830609,0.0,0.0,0.0,0.0,300,0,30,-0.35877809771313385,7.709322454878956,92.0306314051013,-0.0,10.0,0.0,0.5035149251937866
GUIDED_NOGPS,0.8629536628723145,605.2386724386724,0.0,0.0,0.0,0.0,300,0,30,-0.35877809771313385,7.709322454878956,92.0306314051013,-0.0,10.0,0.0,0.5035163259506226
GUIDED_NOGPS,0.8738586902618408,91.95615188985354,0.0,0.0,0.0,0.0,300,0,30,-0.132188799813569,7.413627344009825,92.15555556502083,-0.0,10.0,0.0,0.5035226439476013
GUIDED_NOGPS,0.8762590885162354,415.8540551259171,0.0,0.0,0.0,0.0,300,0,30,0.10534342830181487,7.144736456764763,92.2694489694308,-0.0,10.0,0.0,0.5035239418506622
GUIDED_NOGPS,0.8771991729736328,1071.342017879949,0.0,0.0,0.0,0.0,300,0,30,0.10534342830181487,7.144736456764763,92.2694489694308,-0.0,10.0,0.0,0.5035253155708312
GUIDED_NOGPS,0.8789565563201904,571.1198257080611,0.0,0.0,0.0,0.0,300,0,30,0.10534342830181487,7.144736456764763,92.2694489694308,-0.0,10.0,0.0,0.5035258656024932
GUIDED_NOGPS,0.8816421031951904,373.6906628652887,0.0,0.0,0.0,0.0,300,0,30,0.3935199616481095,6.83440083540971,92.40164045062723,-0.0,10.0,0.0,0.5035274550437927
GUIDED_NOGPS,0.8833765983581543,578.6044971720237,0.0,0.0,0.0,0.0,300,0,30,0.3935199616481095,6.83440083540971,92.40164045062723,-0.0,10.0,0.0,0.5035287073135376
GUIDED_NOGPS,0.891390323638916,124.93086706579692,0.0,0.0,0.0,0.0,300,0,30,0.3935199616481095,6.83440083540971,92.40164045062723,-0.0,10.0,0.0,0.5035332363128662
GUIDED_NOGPS,0.8934094905853271,497.8993352326686,0.0,0.0,0.0,0.0,300,0,30,0.3935199616481095,6.83440083540971,92.40164045062723,-0.0,10.0,0.0,0.5035346055984498
GUIDED_NOGPS,0.895733118057251,431.6904075751338,0.0,0.0,0.0,0.0,300,0,30,0.5707390914218751,6.587300386051105,92.5160529494141,-0.0,10.0,0.0,0.5035356066703797
GUIDED_NOGPS,0.8978869915008545,465.9820019997778,0.0,0.0,0.0,0.0,300,0,30,0.5707390914218751,6.587300386051105,92.5160529494141,-0.0,10.0,0.0,0.503537187242508
GUIDED_NOGPS,0.9007866382598877,349.0308729300158,0.0,0.0,0.0,0.0,300,0,30,0.5707390914218751,6.587300386051105,92.5160529494141,-0.0,10.0,0.0,0.5035385844230652
GUIDED_NOGPS,0.9035711288452148,358.2731698983514,0.0,0.0,0.0,0.0,300,0,30,0.8077419065054103,6.35631662181279,92.64135959992716,-0.0,10.0,0.0,0.5035405201911927
GUIDED_NOGPS,0.905470609664917,528.516129032258,0.0,0.0,0.0,0.0,300,0,30,0.8077419065054103,6.35631662181279,92.64135959992716,-0.0,10.0,0.0,0.5035416903495789
GUIDED_NOGPS,0.907395601272583,521.6147245367491,0.0,0.0,0.0,0.0,300,0,30,0.8077419065054103,6.35631662181279,92.64135959992716,-0.0,10.0,0.0,0.5035428247451782
GUIDED_NOGPS,0.9096639156341553,442.9043294614572,0.0,0.0,0.0,0.0,300,0,30,0.8077419065054103,6.35631662181279,92.64135959992716,-0.0,10.0,0.0,0.5035439604282379
GUIDED_NOGPS,0.9120807647705078,415.1132224861441,0.0,0.0,0.0,0.0,300,0,30,0.8077419065054103,6.35631662181279,92.64135959992716,-0.0,10.0,0.0,0.5035454940795898
GUIDED_NOGPS,0.9136214256286621,652.2009018815114,0.0,0.0,0.0,0.0,300,0,30,0.8077419065054103,6.35631662181279,92.64135959992716,-0.0,10.0,0.0,0.5035467680931092
GUIDED_NOGPS,0.9185960292816162,201.28150494289278,0.0,0.0,0.0,0.0,300,0,30,1.0286927631832106,6.151001989135853,92.7522955324265,-0.0,10.0,0.0,0.5035476841926575
GUIDED_NOGPS,0.9229860305786133,228.21176342564883,0.0,0.0,0.0,0.0,300,0,30,1.2908780054889069,5.943691660560803,92.88393376830017,-0.0,10.0,0.0,0.5035519000530243
GUIDED_NOGPS,0.9239881038665771,1005.1052000958543,0.0,0.0,0.0,0.0,300,0,30,1.2908780054889069,5.943691660560803,92.88393376830017,-0.0,10.0,0.0,0.5035533750534058
GUIDED_NOGPS,0.9249594211578369,1036.6544735541274,0.0,0.0,0.0,0.0,300,0,30,1.2908780054889069,5.943691660560803,92.88393376830017,-0.0,10.0,0.0,0.503553897190094
GUIDED_NOGPS,0.9351880550384521,97.88340723453909,0.0,0.0,0.0,0.0,300,0,30,1.3991351164514336,5.7851019251091,92.95950981146635,-0.0,10.0,0.0,0.5035544881343842
GUIDED_NOGPS,0.9446535110473633,105.72187633907191,0.0,0.0,0.0,0.0,300,0,30,1.5444768462342506,5.658696894800143,93.04817249708229,-0.0,10.0,0.0,0.5035649161338807
GUIDED_NOGPS,0.948235273361206,294.9580872011252,0.0,0.0,0.0,0.0,300,0,30,1.5444768462342506,5.658696894800143,93.04817249708229,-0.0,10.0,0.0,0.5035669204235077
GUIDED_NOGPS,0.9558730125427246,128.19169290014975,0.0,0.0,0.0,0.0,300,0,30,1.7353378381320888,5.60937994078489,93.16448378845844,-0.0,10.0,0.0,0.5035720113277435
GUIDED_NOGPS,0.9595835208892822,270.0427504506825,0.0,0.0,0.0,0.0,300,0,30,1.785726918403623,5.551334431897183,93.21327182969983,-0.0,10.0,0.0,0.5035746647834778
GUIDED_NOGPS,0.960686206817627,912.9960818458859,0.0,0.0,0.0,0.0,300,0,30,1.785726918403623,5.551334431897183,93.21327182969983,-0.0,10.0,0.0,0.5035753225326538
GUIDED_NOGPS,0.9625692367553711,534.9195255707181,0.0,0.0,0.0,0.0,300,0,30,1.785726918403623,5.551334431897183,93.21327182969983,-0.0,10.0,0.0,0.5035759702682495
GUIDED_NOGPS,0.963970422744751,716.73000683527,0.0,0.0,0.0,0.0,300,0,30,1.785726918403623,5.551334431897183,93.21327182969983,-0.0,10.0,0.0,0.5035772698879242
GUIDED_NOGPS,0.9747533798217773,92.79844240895615,0.0,0.0,0.0,0.0,300,0,30,1.9169094525935921,5.61947666792546,93.273821456692,-0.0,10.0,0.0,0.5035781715393066
GUIDED_NOGPS,0.9760868549346924,753.8289000718908,0.0,0.0,0.0,0.0,300,0,30,1.9169094525935921,5.61947666792546,93.273821456692,-0.0,10.0,0.0,0.5035843417644501
GUIDED_NOGPS,0.9854135513305664,107.32335405951741,0.0,0.0,0.0,0.0,300,0,30,1.9807779111921466,5.763083529659094,93.31230957266501,-0.0,10.0,0.0,0.5035900947093963
GUIDED_NOGPS,0.986553430557251,883.569412260375,0.0,0.0,0.0,0.0,300,0,30,1.9807779111921466,5.763083529659094,93.31230957266501,-0.0,10.0,0.0,0.5035908184051514
GUIDED_NOGPS,0.991405725479126,206.3618204182042,0.0,0.0,0.0,0.0,300,0,30,2.042655583091054,6.020911644882851,93.36805757667067,-0.0,10.0,0.0,0.5035915993213653
GUIDED_NOGPS,0.9924299716949463,983.6547842401501,0.0,0.0,0.0,0.0,300,0,30,2.042655583091054,6.020911644882851,93.36805757667067,-0.0,10.0,0.0,0.5035943862438201
GUIDED_NOGPS,0.9935348033905029,912.7973884657237,0.0,0.0,0.0,0.0,300,0,30,2.042655583091054,6.020911644882851,93.36805757667067,-0.0,10.0,0.0,0.5035949362754821
GUIDED_NOGPS,0.9951529502868652,620.0005912786401,0.0,0.0,0.0,0.0,300,0,30,2.042655583091054,6.020911644882851,93.36805757667067,-0.0,10.0,0.0,0.5035956847190857
GUIDED_NOGPS,0.9989669322967529,262.6035562233909,0.0,0.0,0.0,0.0,300,0,30,2.1138048099014304,6.2827405434129435,93.41827995763776,-0.0,10.0,0.0,0.5035977571010589
GUIDED_NOGPS,1.0015830993652344,383.3915904936015,0.0,0.0,0.0,0.0,300,0,30,2.1138048099014304,6.2827405434129435,93.41827995763776,-0.0,10.0,0.0,0.5035995687007904
GUIDED_NOGPS,1.0040981769561768,398.69809885931556,0.0,0.0,0.0,0.0,300,0,30,2.1138048099014304,6.2827405434129435,93.41827995763776,-0.0,10.0,0.0,0.5036013634204864
GUIDED_NOGPS,1.018866777420044,67.75388094661174,0.0,0.0,0.0,0.0,300,0,30,2.1138048099014304,6.2827405434129435,93.41827995763776,-0.0,10.0,0.0,0.5036031974792481
GUIDED_NOGPS,1.0287823677062988,100.91437095493588,0.0,0.0,0.0,0.0,300,0,30,2.1138048099014304,6.2827405434129435,93.41827995763776,-0.0,10.0,0.0,0.5036109096527099
GUIDED_NOGPS,1.0309929847717285,453.7325832972739,0.0,0.0,0.0,0.0,300,0,30,2.1138048099014304,6.2827405434129435,93.41827995763776,-0.0,10.0,0.0,0.5036167962074279
GUIDED_NOGPS,1.0332000255584717,455.16049918610963,0.0,0.0,0.0,0.0,300,0,30,2.1138048099014304,6.2827405434129435,93.41827995763776,-0.0,10.0,0.0,0.5036180665016174
GUIDED_NOGPS,1.034651756286621,691.4447741510056,0.0,0.0,0.0,0.0,300,0,30,2.1138048099014304,6.2827405434129435,93.41827995763776,-0.0,10.0,0.0,0.5036193888664245
GUIDED_NOGPS,1.038853645324707,238.44820920977827,0.0,0.0,0.0,0.0,300,0,30,2.1138048099014304,6.2827405434129435,93.41827995763776,-0.0,10.0,0.0,0.5036205322742462
GUIDED_NOGPS,1.0415558815002441,371.63778132199184,0.0,0.0,0.0,0.0,300,0,30,2.1138048099014304,6.2827405434129435,93.41827995763776,-0.0,10.0,0.0,0.5036231305122375
GUIDED_NOGPS,1.0444855690002441,342.6718954248366,0.0,0.0,0.0,0.0,300,0,30,2.110324828519309,6.685669197364451,93.4505252807094,-0.0,10.0,0.0,0.5036250119209289
GUIDED_NOGPS,1.046983242034912,401.6763072208389,0.0,0.0,0.0,0.0,300,0,30,2.110324828519309,6.685669197364451,93.4505252807094,-0.0,10.0,0.0,0.5036265371322631
GUIDED_NOGPS,1.0568804740905762,101.10898440324952,0.0,0.0,0.0,0.0,300,0,30,2.110324828519309,6.685669197364451,93.4505252807094,-0.0,10.0,0.0,0.5036325754642487
GUIDED_NOGPS,1.067718744277954,92.34283701371612,0.0,0.0,0.0,0.0,300,0,30,2.0453244795092362,7.1966868755918805,93.4367897702885,-0.0,10.0,0.0,0.5036337118625641
GUIDED_NOGPS,1.069911241531372,457.4938917975567,0.0,0.0,0.0,0.0,300,0,30,2.0453244795092362,7.1966868755918805,93.4367897702885,-0.0,10.0,0.0,0.5036407469749451
GUIDED_NOGPS,1.071800947189331,530.7230165759838,0.0,0.0,0.0,0.0,300,0,30,1.9874181357258685,7.810208617788276,93.39798746561367,-0.0,10.0,0.0,0.5036419172763824
GUIDED_NOGPS,1.073141098022461,749.920257464688,0.0,0.0,0.0,0.0,300,0,30,1.9874181357258685,7.810208617788276,93.39798746561367,-0.0,10.0,0.0,0.5036427921772003
GUIDED_NOGPS,1.0758094787597656,376.0695776921008,0.0,0.0,0.0,0.0,300,0,30,1.9874181357258685,7.810208617788276,93.39798746561367,-0.0,10.0,0.0,0.5036441093921661
GUIDED_NOGPS,1.0786693096160889,351.04653498493474,0.0,0.0,0.0,0.0,300,0,30,1.764343623824723,8.51207117293597,93.2897904389715,-0.0,10.0,0.0,0.5036459249973297
GUIDED_NOGPS,1.09483003616333,61.899409681227866,0.0,0.0,0.0,0.0,300,0,30,1.764343623824723,8.51207117293597,93.2897904389715,-0.0,10.0,0.0,0.5036473507881165
GUIDED_NOGPS,1.097707986831665,348.393055901653,0.0,0.0,0.0,0.0,300,0,30,1.764343623824723,8.51207117293597,93.2897904389715,-0.0,10.0,0.0,0.5036565462589264
GUIDED_NOGPS,1.0996720790863037,510.3180435576104,0.0,0.0,0.0,0.0,300,0,30,1.622145168442287,9.304037583614472,93.19805416822905,-0.0,10.0,0.0,0.5036581487178803
GUIDED_NOGPS,1.1006832122802734,998.1684911946692,0.0,0.0,0.0,0.0,300,0,30,1.622145168442287,9.304037583614472,93.19805416822905,-0.0,10.0,0.0,0.5036592965602875
GUIDED_NOGPS,1.1034271717071533,365.2302333681644,0.0,0.0,0.0,0.0,300,0,30,1.622145168442287,9.304037583614472,93.19805416822905,-0.0,10.0,0.0,0.5036598312854766
GUIDED_NOGPS,1.1051545143127441,581.0894984760322,0.0,0.0,0.0,0.0,300,0,30,1.622145168442287,9.304037583614472,93.19805416822905,-0.0,10.0,0.0,0.5036616467475891
GUIDED_NOGPS,1.1072900295257568,469.6868980963046,0.0,0.0,0.0,0.0,300,0,30,1.3574582626313678,10.314196094876324,93.05280336533956,-0.0,10.0,0.0,0.5036625039100647
GUIDED_NOGPS,1.1088714599609375,635.019530658592,0.0,0.0,0.0,0.0,300,0,30,1.3574582626313678,10.314196094876324,93.05280336533956,-0.0,10.0,0.0,0.503664198923111
GUIDED_NOGPS,1.1184141635894775,104.89693635113167,0.0,0.0,0.0,0.0,300,0,30,-0.34540842929965704,14.396092166473425,92.10865948617952,-0.0,10.0,0.0,0.5036647289276123
GUIDED_NOGPS,1.1233007907867432,205.0001955034213,0.0,0.0,0.0,0.0,300,0,30,-0.7779779164540517,15.108035227062413,91.89151411208648,-0.0,10.0,0.0,0.5036704765796661
GUIDED_NOGPS,1.1310720443725586,128.80186709249477,0.0,0.0,0.0,0.0,300,0,30,-1.2677596294174118,15.723322573159257,91.63023888576598,-0.0,10.0,0.0,0.5036773995399475
GUIDED_NOGPS,1.1326665878295898,632.148304446119,0.0,0.0,0.0,0.0,300,0,30,-1.2677596294174118,15.723322573159257,91.63023888576598,-0.0,10.0,0.0,0.503678228521347
GUIDED_NOGPS,1.134657621383667,504.6689929009746,0.0,0.0,0.0,0.0,300,0,30,-1.2677596294174118,15.723322573159257,91.63023888576598,-0.0,10.0,0.0,0.5036792348861694
GUIDED_NOGPS,1.139538049697876,205.2509909469048,0.0,0.0,0.0,0.0,300,0,30,-1.2677596294174118,15.723322573159257,91.63023888576598,-0.0,10.0,0.0,0.5036804322242737
GUIDED_NOGPS,1.1424784660339355,340.723314378554,0.0,0.0,0.0,0.0,300,0,30,-1.7104435061546848,16.223604901558716,91.39051973646605,-0.0,10.0,0.0,0.503683389377594
GUIDED_NOGPS,1.1438407897949219,738.303819750044,0.0,0.0,0.0,0.0,300,0,30,-1.7104435061546848,16.223604901558716,91.39051973646605,-0.0,10.0,0.0,0.5036851370334625
GUIDED_NOGPS,1.1453940868377686,646.9696128335647,0.0,0.0,0.0,0.0,300,0,30,-1.7104435061546848,16.223604901558716,91.39051973646605,-0.0,10.0,0.0,0.5036857691764831
GUIDED_NOGPS,1.146836757659912,708.6169961142085,0.0,0.0,0.0,0.0,300,0,30,-1.7104435061546848,16.223604901558716,91.39051973646605,-0.0,10.0,0.0,0.5036867412090301
GUIDED_NOGPS,1.1503236293792725,286.613639469728,0.0,0.0,0.0,0.0,300,0,30,-1.7104435061546848,16.223604901558716,91.39051973646605,-0.0,10.0,0.0,0.5036875803470612
GUIDED_NOGPS,1.155867099761963,180.7032872345009,0.0,0.0,0.0,0.0,300,0,30,-2.203405579311185,16.617542892128373,91.12236650965134,-0.0,10.0,0.0,0.5036917073726654
GUIDED_NOGPS,1.158069133758545,461.1152154793316,0.0,0.0,0.0,0.0,300,0,30,-2.203405579311185,16.617542892128373,91.12236650965134,-0.0,10.0,0.0,0.5036931022644043
GUIDED_NOGPS,1.1609015464782715,354.30849805710426,0.0,0.0,0.0,0.0,300,0,30,-2.203405579311185,16.617542892128373,91.12236650965134,-0.0,10.0,0.0,0.5036944440841675
GUIDED_NOGPS,1.1636686325073242,362.0773480662983,0.0,0.0,0.0,0.0,300,0,30,-2.6299220781179202,16.882660099857002,90.88126766213907,-0.0,10.0,0.0,0.5036962511062623
GUIDED_NOGPS,1.1696982383728027,166.698620881523,0.0,0.0,0.0,0.0,300,0,30,-3.0203149870649275,17.082024783993212,90.6249716437235,-0.0,10.0,0.0,0.5036994545936585
GUIDED_NOGPS,1.1714951992034912,555.1692918596956,0.0,0.0,0.0,0.0,300,0,30,-3.0203149870649275,17.082024783993212,90.6249716437235,-0.0,10.0,0.0,0.5037015910625458
GUIDED_NOGPS,1.1726090908050537,902.9717976318623,0.0,0.0,0.0,0.0,300,0,30,-3.0203149870649275,17.082024783993212,90.6249716437235,-0.0,10.0,0.0,0.5037022706985473
GUIDED_NOGPS,1.1737983226776123,847.1629973742678,0.0,0.0,0.0,0.0,300,0,30,-3.0203149870649275,17.082024783993212,90.6249716437235,-0.0,10.0,0.0,0.5037029902458191
GUIDED_NOGPS,1.1749191284179688,897.3692768506633,0.0,0.0,0.0,0.0,300,0,30,-3.0203149870649275,17.082024783993212,90.6249716437235,-0.0,10.0,0.0,0.5037037129402161
GUIDED_NOGPS,1.175837755203247,1119.3765679210035,0.0,0.0,0.0,0.0,300,0,30,-3.0203149870649275,17.082024783993212,90.6249716437235,-0.0,10.0,0.0,0.5037043216228485
GUIDED_NOGPS,1.1907768249511719,66.94711975866306,0.0,0.0,0.0,0.0,300,0,30,-3.763234876530626,17.17444065855807,90.12140228678598,-0.0,10.0,0.0,0.5037049965381623
GUIDED_NOGPS,1.1938066482543945,331.0944111146195,0.0,0.0,0.0,0.0,300,0,30,-3.763234876530626,17.17444065855807,90.12140228678598,-0.0,10.0,0.0,0.5037140921592712
GUIDED_NOGPS,1.195497751235962,594.0940509915014,0.0,0.0,0.0,0.0,300,0,30,-3.763234876530626,17.17444065855807,90.12140228678598,-0.0,10.0,0.0,0.5037159930229187
GUIDED_NOGPS,1.1982183456420898,368.276758275529,0.0,0.0,0.0,0.0,300,0,30,-3.983178920636084,17.156383345939847,89.96619989827578,-0.0,10.0,0.0,0.5037166632175446
GUIDED_NOGPS,1.2006876468658447,409.0806593192236,0.0,0.0,0.0,0.0,300,0,30,-3.983178920636084,17.156383345939847,89.96619989827578,-0.0,10.0,0.0,0.503718750333786
GUIDED_NOGPS,1.2024271488189697,574.9559972583961,0.0,0.0,0.0,0.0,300,0,30,-3.983178920636084,17.156383345939847,89.96619989827578,-0.0,10.0,0.0,0.5037199356555939
GUIDED_NOGPS,1.205176591873169,364.7855279178988,0.0,0.0,0.0,0.0,300,0,30,-3.983178920636084,17.156383345939847,89.96619989827578,-0.0,10.0,0.0,0.5037217951774597
GUIDED_NOGPS,1.206742286682129,652.30233281493,0.0,0.0,0.0,0.0,300,0,30,-3.983178920636084,17.156383345939847,89.96619989827578,-0.0,10.0,0.0,0.5037225536346436
GUIDED_NOGPS,1.2103955745697021,274.6401257202724,0.0,0.0,0.0,0.0,300,0,30,-4.246913868831433,17.042752903812932,89.74528425976088,-0.0,10.0,0.0,0.5037234982013702
GUIDED_NOGPS,1.2232377529144287,77.92193508833857,0.0,0.0,0.0,0.0,300,0,30,-4.435448861151764,16.896585148027366,89.54244130178984,-0.0,10.0,0.0,0.503732604265213
GUIDED_NOGPS,1.2254366874694824,463.0496798410245,0.0,0.0,0.0,0.0,300,0,30,-4.435448861151764,16.896585148027366,89.54244130178984,-0.0,10.0,0.0,0.5037334444046021
GUIDED_NOGPS,1.2289483547210693,284.3403159107857,0.0,0.0,0.0,0.0,300,0,30,-4.435448861151764,16.896585148027366,89.54244130178984,-0.0,10.0,0.0,0.5037347178459167
GUIDED_NOGPS,1.2322595119476318,304.553006099332,0.0,0.0,0.0,0.0,300,0,30,-4.584162569950451,16.68285828361391,89.35090230689518,-0.0,10.0,0.0,0.5037371312618255
GUIDED_NOGPS,1.2369616031646729,212.33756897686428,0.0,0.0,0.0,0.0,300,0,30,-4.7076267769348945,16.452149861376515,89.16808546357062,-0.0,10.0,0.0,0.5037387936592103
GUIDED_NOGPS,1.2386119365692139,608.664054563924,0.0,0.0,0.0,0.0,300,0,30,-4.7076267769348945,16.452149861376515,89.16808546357062,-0.0,10.0,0.0,0.503741584444046
GUIDED_NOGPS,1.2405338287353516,522.394320587869,0.0,0.0,0.0,0.0,300,0,30,-4.7076267769348945,16.452149861376515,89.16808546357062,-0.0,10.0,0.0,0.5037428723335267
GUIDED_NOGPS,1.2442286014556885,272.5875089361149,0.0,0.0,0.0,0.0,300,0,30,-4.7076267769348945,16.452149861376515,89.16808546357062,-0.0,10.0,0.0,0.5037436606884003
