Mode,Time,Freq,time2delay,actualDelay,North-Desired,East-Desired,Down-Desired,Roll-UAV,Pitch-UAV,Yaw-UAV,Roll-Control,Pitch-Control,Yaw-Control,Thrust-Control,North-Pos,East-Pos,Down-Pos,Yaw-Ang,North-Vel,East-Vel,Down-Vel,Yaw-Vel,North-Acc,East-Acc,Down-Acc,North-Avg,East-Avg,Down-Avg,Yaw-Avg,North-Dif,East-Dif,Down-Dif,Yaw-Dif,North-One,East-One,Down-One,Yaw-One,North-Two,East-Two,Down-Two,Yaw-Two,Landing-State,Q-Size,Kalman-Time,Kalman-Dt
STABILIZE,0.034417152404785156,29.064541611807915,0.03243830998738607,0.03256940841674805,0.0,0.0,0.0,-0.27820694510784205,-1.3338840781544805,13.64193597549282,-0.0627947266429688,0.06115833412998415,0.0088537085173457,0.4,0.02473022526156717,0.02536972022414549,0.028692460139305754,0.02505275771618748,-0.16371557721868157,-0.008514660294167697,1.9642172381281853,0.07903544059930999,-2.956833317875862,-0.5451648961752653,26.064366102218628,0.0,0.0,0.0,0.0,0.0,0.0,0.0,0.0,0.0,0.0,0.0,0.0,0.0,0.0,0.0,0.0,False,0,0.05954575538635254,0.0399130859375
STABILIZE,0.06862115859985352,29.2398061974973,0.0322604497273763,0.03322553634643555,0.0,0.0,0.0,-0.27761560013610703,-1.3335995580868671,13.64388599450086,-0.06742762317770985,0.06515411312062945,0.015042990738760427,0.4,0.05330863329023842,0.05507157008349752,0.06704389283949386,0.05459436987040458,-0.16371557721868157,-0.008514660294167697,1.9642172381281853,0.07903544059930999,-2.956833317875862,-0.5451648961752653,26.064366102218628,0.0,0.0,0.0,0.0,0.0,0.0,0.0,0.0,0.0,0.0,0.0,0.0,0.0,0.0,0.0,0.0,False,1,0.08726930618286133,0.0399130859375
STABILIZE,0.1020042896270752,29.952040218804004,0.032372506459554036,0.03250241279602051,0.0,0.0,0.0,-0.27747547453641597,-1.333311516202963,13.64527081535508,-0.07862177873468727,0.07445083121229319,0.023186152156507496,0.4,0.09024727072776692,0.09500212627251309,0.12892944470804674,0.0923757447127727,-0.10140705853700638,0.21178952883929014,1.3499096035957336,-0.16328955927111963,0.8686508052051067,-0.0923228042665869,19.24602836370468,0.0,0.0,0.0,0.0,0.0,0.0,0.0,0.0,0.0,0.0,0.0,0.0,0.0,0.0,0.0,0.0,False,0,0.14458823204040527,0.034923828125
STABILIZE,0.1355271339416504,29.830828645192494,0.032454760869344075,0.03258991241455078,0.0,0.0,0.0,-0.2762544715005704,-1.3328690480107932,13.645272522902372,-0.06972256062585465,0.0653378612750126,0.025509117769281837,0.4,0.1043201820627562,0.11091198745045919,0.16306369688085773,0.10670202434509685,-0.08368190610781312,0.08859895169734955,2.2552890703082085,-0.10260397549589763,0.39204927161335945,1.7440440133213997,30.024224519729614,0.0,0.0,0.0,0.0,0.0,0.0,0.0,0.0,0.0,0.0,0.0,0.0,0.0,0.0,0.0,0.0,False,0,0.17319202423095703,0.029909912109375
STABILIZE,0.1689748764038086,29.8978102189781,0.032381804784139,0.032507896423339844,0.0,0.0,0.0,-0.27442643540224,-1.333108851683684,13.645900046532367,-0.0614601938138369,0.05713482952929194,0.027165504282710376,0.4,0.11264488084042773,0.12068284713919586,0.1904675184842983,0.1170301862222679,-0.09169003460556269,0.02934235380962491,1.9576849415898323,0.19915320173599052,2.565102279186249,-0.25671105831861496,26.667582988739014,0.0,0.0,0.0,0.0,0.0,0.0,0.0,0.0,0.0,0.0,0.0,0.0,0.0,0.0,0.0,0.0,False,0,0.2023181915283203,0.039911865234375
STABILIZE,0.20244336128234863,29.880557672990474,0.032364638646443684,0.03249621391296387,0.0,0.0,0.0,-0.27552983111831436,-1.3320647932360241,13.649203296769715,-0.05654875823497054,0.05148674370059653,0.030033776483879605,0.4,0.1252840280600093,0.13536821615631947,0.22982910376589796,0.1324504961997352,-0.09169003460556269,0.02934235380962491,1.9576849415898323,0.19915320173599052,2.565102279186249,-0.25671105831861496,26.667582988739014,0.0,0.0,0.0,0.0,0.0,0.0,0.0,0.0,0.0,0.0,0.0,0.0,0.0,0.0,0.0,0.0,False,0,0.23437762260437012,0.039911865234375
STABILIZE,0.23600387573242188,29.795439369183775,0.032335551579793294,0.03247356414794922,0.0,0.0,0.0,-0.2754198010396537,-1.3320464371026297,13.649339046779469,-0.048858352058170705,0.04408207041012498,0.03178631738024949,0.4,0.13694679133240922,0.14753265914751088,0.2695607271698678,0.14341113625799815,0.10230522602796555,0.03139879845548421,2.001301757991314,-0.08531338496254341,-1.3058939948678017,-0.3826431231573224,18.623721599578857,0.0,0.0,0.0,0.0,0.0,0.0,0.0,0.0,0.0,0.0,0.0,0.0,0.0,0.0,0.0,0.0,False,0,0.26309967041015625,0.02993505859375
STABILIZE,0.2712838649749756,28.342572946089494,0.03223875363667806,0.03244280815124512,0.0,0.0,0.0,-0.2741385002400416,-1.332689968988492,13.648713230696766,-0.03187363170221013,0.028743674883880032,0.03144125060966467,0.4,0.14139296050255704,0.15170403459945814,0.29690322156104926,0.1463955337980058,0.10230522602796555,0.03139879845548421,2.001301757991314,-0.08531338496254341,-1.3058939948678017,-0.3826431231573224,18.623721599578857,0.0,0.0,0.0,0.0,0.0,0.0,0.0,0.0,0.0,0.0,0.0,0.0,0.0,0.0,0.0,0.0,False,0,0.29138612747192383,0.02993505859375
STABILIZE,0.302919864654541,31.61432415524116,0.030473025639851888,0.030606746673583984,0.0,0.0,0.0,-0.27366134749349275,-1.3328018133361508,13.65080326858279,-0.03689968629411032,0.03047042415536002,0.03528634748039324,0.4,0.15802536003196396,0.17647399387377422,0.3891866467888547,0.16450474255963504,0.09107213118113577,0.17367085674777627,1.6931694000959396,-0.10578587648366493,-1.1258887127041817,-0.2550130244344473,20.258449018001556,0.0,0.0,0.0,0.0,0.0,0.0,0.0,0.0,0.0,0.0,0.0,0.0,0.0,0.0,0.0,0.0,False,0,0.34885549545288086,0.034923095703125
STABILIZE,0.3363673686981201,29.89567919713752,0.032299311955769856,0.03242635726928711,0.0,0.0,0.0,-0.27384042651579404,-1.3332768316485841,13.651470065800513,-0.034034432522483234,0.027595993301950335,0.035009135965323214,0.4,0.16013592127458942,0.1799901754451251,0.41660005307617537,0.16416449822800522,0.09107213118113577,0.17367085674777627,1.6931694000959396,-0.10578587648366493,-1.1258887127041817,-0.2550130244344473,20.258449018001556,0.0,0.0,0.0,0.0,0.0,0.0,0.0,0.0,0.0,0.0,0.0,0.0,0.0,0.0,0.0,0.0,False,0,0.37754034996032715,0.034923095703125
STABILIZE,0.3698453903198242,29.870768792507924,0.032315762837727864,0.03250885009765625,0.0,0.0,0.0,-0.2720568933687745,-1.3334061783559912,13.652451905493702,-0.027287647110988123,0.02082442884220246,0.034516666718728765,0.4,0.15861369520036184,0.18051452188902112,0.44814242862896,0.16355067241347906,-0.126078468747437,0.008894433995010331,2.0615069195628166,-0.042079268022034565,-3.7299901247024536,-0.3372827544808388,27.289706468582153,0.0,0.0,0.0,0.0,0.0,0.0,0.0,0.0,0.0,0.0,0.0,0.0,0.0,0.0,0.0,0.0,False,0,0.40619349479675293,0.02993505859375
STABILIZE,0.40331053733825684,29.879919072179636,0.032346280415852864,0.032480478286743164,0.0,0.0,0.0,-0.27236713336748114,-1.3335575097347891,13.653608768784373,-0.02038665086120282,0.011490376314326353,0.03320397135669795,0.4,0.15110637064616755,0.178357700700023,0.47195888558271804,0.15880013075518087,-0.38083537947386503,0.02769803104456514,1.997336931526661,-0.16165622358477422,-4.186903312802315,-0.43797907419502735,25.517702102661133,0.0,0.0,0.0,0.0,0.0,0.0,0.0,0.0,0.0,0.0,0.0,0.0,0.0,0.0,0.0,0.0,False,0,0.4348022937774658,0.06984814453125
STABILIZE,0.4367663860321045,29.890778999579535,0.0323365052541097,0.03246760368347168,0.0,0.0,0.0,-0.2720535849958952,-1.3338283694240625,13.65482112736205,-0.025396840289325234,0.014704092265214042,0.035873936807325126,0.4,0.16159111442976185,0.1920457793041474,0.5437065652748764,0.1703059154655488,0.11839348590001464,0.11871802853420377,1.6981197521090508,0.14349260280738146,5.06090372800827,-0.3048414830118418,26.181578636169434,0.0,0.0,0.0,0.0,0.0,0.0,0.0,0.0,0.0,0.0,0.0,0.0,0.0,0.0,0.0,0.0,False,0,0.46349048614501953,0.029933837890625
STABILIZE,0.470287561416626,29.833587026104276,0.03228572209676107,0.03241682052612305,0.0,0.0,0.0,-0.26945149636553195,-1.3333891028830662,13.654302886758776,-0.010823526902354105,0.004762839599613215,0.03436837667571032,0.4,0.1575416117149415,0.18667558349741392,0.5613919883714642,0.16562890283288567,0.04481821088120341,-0.003143449066556059,1.857668161392212,0.017855111671351728,1.1740469373762608,-0.44867051765322685,23.653990030288696,0.0,0.0,0.0,0.0,0.0,0.0,0.0,0.0,0.0,0.0,0.0,0.0,0.0,0.0,0.0,0.0,False,0,0.4921603202819824,0.034924072265625
STABILIZE,0.5037965774536133,29.841440595362602,0.03224066098531087,0.03259587287902832,0.0,0.0,0.0,-0.2687520423058403,-1.3339740445524542,13.65524033022236,-0.0057799568375403445,-0.0032630353169761286,0.03286722250363474,0.4,0.14358702457302944,0.1800123277961046,0.6060632558294589,0.1585856305791527,-0.44776336289942265,0.09121026378124952,1.6973957419395447,0.02185584495188711,-9.158387780189514,-0.43950900435447693,23.396971821784973,0.0,0.0,0.0,0.0,0.0,0.0,0.0,0.0,0.0,0.0,0.0,0.0,0.0,0.0,0.0,0.0,False,0,0.5498104095458984,0.039912841796875
STABILIZE,0.5376088619232178,29.574007220216608,0.03242925008138021,0.03291630744934082,0.0,0.0,0.0,-0.2684962303770822,-1.3329870822173875,13.657919471924297,-0.0039043216304018233,-0.005682602729669676,0.03232241684502235,0.4,0.13727573428858372,0.17673546885531194,0.6320336016689142,0.15567398840384938,-0.17488003941252828,0.0007495548288716236,1.6839047893881798,0.01744929905006446,-4.654430225491524,-0.5152612458914518,23.23920428752899,0.0,0.0,0.0,0.0,0.0,0.0,0.0,0.0,0.0,0.0,0.0,0.0,0.0,0.0,0.0,0.0,False,0,0.5782284736633301,0.0249462890625
STABILIZE,0.5710761547088623,29.88077054599339,0.032433303197224934,0.032566070556640625,0.0,0.0,0.0,-0.26835994675879926,-1.3333098086556705,13.658003995515276,-0.0022427178901007604,-0.005688024768701117,0.031158237677563146,0.4,0.13015636992664503,0.17138185569703474,0.6364973010690624,0.14955774380400644,-0.0757597154006362,0.11182376183569431,1.6389239579439163,0.018751457273050203,-1.007915660738945,1.5131939202547073,23.595288395881653,0.0,0.0,0.0,0.0,0.0,0.0,0.0,0.0,0.0,0.0,0.0,0.0,0.0,0.0,0.0,0.0,False,0,0.6069581508636475,0.034923583984375
STABILIZE,0.6045498847961426,29.874385675009616,0.032414944966634114,0.03254580497741699,0.0,0.0,0.0,-0.26863037956124947,-1.3329403381102551,13.658626396503394,0.0062142072914015845,-0.014499978620728804,0.029566137682941016,0.4,0.12260769760842694,0.16761799516345804,0.647205566375729,0.14371086163233054,-0.1953387400135398,0.05680010071955621,1.231456734240055,-0.08964934112609824,-3.44298779964447,-0.542141729965806,20.17442435026169,0.0,0.0,0.0,0.0,0.0,0.0,0.0,0.0,0.0,0.0,0.0,0.0,0.0,0.0,0.0,0.0,False,0,0.6356391906738281,0.034924072265625
STABILIZE,0.6382508277893066,29.67318004952246,0.03238681157430013,0.032515525817871094,0.0,0.0,0.0,-0.2680075516863089,-1.333303618796735,13.660283571150767,0.005609691286412761,-0.016443204577043274,0.02841915147403231,0.4,0.11494543995470553,0.1637106999637567,0.6568078394476052,0.13771351439610074,-0.1953387400135398,0.05680010071955621,1.231456734240055,-0.08964934112609824,-3.44298779964447,-0.542141729965806,20.17442435026169,0.0,0.0,0.0,0.0,0.0,0.0,0.0,0.0,0.0,0.0,0.0,0.0,0.0,0.0,0.0,0.0,False,0,0.6642813682556152,0.034924072265625
STABILIZE,0.6714026927947998,30.16226322829323,0.03211930592854818,0.03223752975463867,0.0,0.0,0.0,-0.26843956115131223,-1.333527307492053,13.660676307028044,0.005424590449890617,-0.012001121559074804,0.028206609890226907,0.4,0.11059403701964084,0.15776891350111066,0.6776723618569788,0.13548431617073153,0.003530047251842916,-0.057027762522920966,1.9565468654036522,0.13867263702768132,1.5113919973373413,-0.5009755957871675,21.980634331703186,0.0,0.0,0.0,0.0,0.0,0.0,0.0,0.0,0.0,0.0,0.0,0.0,0.0,0.0,0.0,0.0,False,0,0.6929337978363037,0.02993408203125
STABILIZE,0.704970121383667,29.79416946070353,0.0324275811513265,0.032562255859375,0.0,0.0,0.0,-0.26850145974066547,-1.3336649784925112,13.660732656088696,0.00890054630856783,-0.016013320149454887,0.025391324753119063,0.4,0.09678268849041037,0.1478437227555317,0.7099407658184365,0.12250733776866762,-0.14560454292222857,0.025791997904889286,1.9069550558924675,-0.09876328141834145,1.705779880285263,-0.41607338935136795,19.838468730449677,0.0,0.0,0.0,0.0,0.0,0.0,0.0,0.0,0.0,0.0,0.0,0.0,0.0,0.0,0.0,0.0,False,0,0.7504062652587891,0.034924072265625
STABILIZE,0.738370418548584,29.93707531547993,0.03230765660603841,0.03249049186706543,0.0,0.0,0.0,-0.267380028056314,-1.334649059341522,13.661562524072853,0.008367612977763313,-0.016517973207526137,0.02441981825243924,0.4,0.08905516481309532,0.1438009406351333,0.7150715231607975,0.11714380655310473,-0.20768544636666775,0.056980346562340856,1.1356974951922894,-0.05012251613091877,-1.6607418656349182,-0.20726174116134644,25.78083872795105,0.0,0.0,0.0,0.0,0.0,0.0,0.0,0.0,0.0,0.0,0.0,0.0,0.0,0.0,0.0,0.0,False,0,0.7789442539215088,0.06485888671875
STABILIZE,0.771824836730957,29.890992018244013,0.03242996533711751,0.032618045806884766,0.0,0.0,0.0,-0.2666373517057809,-1.3347521525093067,13.661459217461656,0.006789912769165872,-0.014339762203800802,0.0239865360320242,0.4,0.08621282046482757,0.14330554866171957,0.7679467550507536,0.1141655063929804,0.054699130123481154,0.071148102870211,1.945476420223713,-0.023212504615994115,-0.21203486248850822,1.7212672159075737,24.28581714630127,0.0,0.0,0.0,0.0,0.0,0.0,0.0,0.0,0.0,0.0,0.0,0.0,0.0,0.0,0.0,0.0,False,0,0.8091447353363037,0.034923095703125
STABILIZE,0.8054060935974121,29.781899257281623,0.03247502644856771,0.03258681297302246,0.0,0.0,0.0,-0.26792334826044734,-1.334256857072775,13.661764868427014,0.0073300104030182426,-0.01423371943174592,0.02214613826920292,0.4,0.0791846921026069,0.13851576879144606,0.7871828097636366,0.1050745635059179,-0.14849695144221187,0.05252919509075582,2.2150415927171707,-0.2221242351524409,-0.6683375220745802,1.7110086977481842,24.798089265823364,0.0,0.0,0.0,0.0,0.0,0.0,0.0,0.0,0.0,0.0,0.0,0.0,0.0,0.0,0.0,0.0,False,0,0.837914228439331,0.034924072265625
STABILIZE,0.840674877166748,28.351194057090325,0.03232243855794271,0.03437924385070801,0.0,0.0,0.0,-0.2670515386459187,-1.3344311336183161,13.662959297758121,0.00590371442296319,-0.01297991042566492,0.021572422891598327,0.4,0.07744477296943447,0.135522020037131,0.7936615823691995,0.10195323137639409,0.12941844761371613,0.14431318268179893,1.5517238527536392,0.09467504634422519,6.641770154237747,-0.22825254127383232,19.935396313667297,0.0,0.0,0.0,0.0,0.0,0.0,0.0,0.0,0.0,0.0,0.0,0.0,0.0,0.0,0.0,0.0,False,0,0.866549015045166,0.02993505859375
STABILIZE,0.8755652904510498,28.662539122828598,0.032440932591756184,0.03397250175476074,0.0,0.0,0.0,-0.2672380881876247,-1.3348700799941953,13.663684151583787,0.004370874323621929,-0.011475598924780898,0.020835469196687346,0.4,0.06699769855824994,0.12889712730975744,0.7937997429986048,0.09673974401688913,-0.35774759016931057,-0.03734570927917957,1.5492737293243408,-0.0199187259300348,-4.142645001411438,1.5187982469797134,22.00642228126526,0.0,0.0,0.0,0.0,0.0,0.0,0.0,0.0,0.0,0.0,0.0,0.0,0.0,0.0,0.0,0.0,False,0,0.895214319229126,0.034924072265625
STABILIZE,0.9090354442596436,29.876726477522848,0.032398255666097005,0.032518863677978516,0.0,0.0,0.0,-0.26708995846,-1.3342657149743549,13.664737708263262,0.004509726557511054,-0.0077350025682835265,0.019135635443295815,0.4,0.06707357211806843,0.1247718320674096,0.8078052353808741,0.08839292735007859,0.20585095044225454,0.17705659847706556,1.6221590340137482,0.014586535983223363,0.021739734802395105,-0.24605924263596535,21.948036551475525,0.0,0.0,0.0,0.0,0.0,0.0,0.0,0.0,0.0,0.0,0.0,0.0,0.0,0.0,0.0,0.0,False,0,0.9544539451599121,0.034923828125
STABILIZE,0.9494884014129639,24.719488908272236,0.03237441380818685,0.039449453353881836,0.0,0.0,0.0,-0.2664833522843383,-1.3340093694370678,13.664864066762908,0.006172617672478327,-0.00888279204766125,0.01873931415964992,0.4,0.061154213215946815,0.1202556750798854,0.8172199254685576,0.08592463463279293,-0.13711063656955957,0.03249154251534492,1.7990907654166222,0.09720183614105306,4.515783116221428,-0.396173819899559,16.903936862945557,0.0,0.0,0.0,0.0,0.0,0.0,0.0,0.0,0.0,0.0,0.0,0.0,0.0,0.0,0.0,0.0,False,0,0.9826643466949463,0.034923828125
STABILIZE,0.9853415489196777,27.890626662410895,0.03231933911641439,0.03493332862854004,0.0,0.0,0.0,-0.26467079083334616,-1.3349119149028617,13.665470246051747,0.005727302719896535,-0.007301932513720391,0.017290705285585628,0.4,0.05739020892879711,0.1163234239217386,0.8242342256415379,0.07812783947483248,-0.024984095944091678,0.059406523359939456,1.693197526037693,-0.20570670154355164,2.426127716898918,-0.3257975447922945,20.170576870441437,0.0,0.0,0.0,0.0,0.0,0.0,0.0,0.0,0.0,0.0,0.0,0.0,0.0,0.0,0.0,0.0,False,0,1.0113272666931152,0.02993408203125
STABILIZE,1.0187838077545166,29.903991900697996,0.03240373929341634,0.032526254653930664,0.0,0.0,0.0,-0.2646640673658819,-1.3345084001333019,13.66693190653413,0.007215494708507413,-0.005848198092691255,0.016427988747282095,0.4,0.05867930408036432,0.11069155691983096,0.8267524491243243,0.07377679867310591,0.2457680180668831,-0.026900245575234294,1.771872490644455,-0.02347715777106558,6.719853729009628,-0.35725138150155544,22.540031373500824,0.0,0.0,0.0,0.0,0.0,0.0,0.0,0.0,0.0,0.0,0.0,0.0,0.0,0.0,0.0,0.0,False,0,1.0407435894012451,0.034924072265625
STABILIZE,1.0523812770843506,29.76414652492939,0.03240063985188802,0.0326693058013916,0.0,0.0,0.0,-0.26395041931932134,-1.3344945263115504,13.667159010324031,0.007799476782813279,-0.00535572371762072,0.013644740508187057,0.4,0.0501647225048472,0.10349363301170159,0.8392591369030086,0.06083496349410378,0.004230879494571127,0.05518810357898474,1.6282066702842712,-0.28013658027007643,-2.6008974760770798,-0.3349645994603634,17.984043061733246,0.0,0.0,0.0,0.0,0.0,0.0,0.0,0.0,0.0,0.0,0.0,0.0,0.0,0.0,0.0,0.0,False,0,1.0983035564422607,0.02993505859375
STABILIZE,1.085768699645996,29.949473744341145,0.03239157994588216,0.032508134841918945,0.0,0.0,0.0,-0.26348617989917206,-1.3340490699116185,13.667486859404193,0.008304846712676197,-0.00797665354475412,0.012275257425887984,0.4,0.045068301793380484,0.09858808042621905,0.8484575607875621,0.053636232127967386,-0.13833579141646624,-0.014307173842098564,2.194695360958576,-0.22007717943342045,5.105210095643997,-0.19292555516585708,24.605192244052887,0.0,0.0,0.0,0.0,0.0,0.0,0.0,0.0,0.0,0.0,0.0,0.0,0.0,0.0,0.0,0.0,False,0,1.1268954277038574,0.0349228515625
STABILIZE,1.1193161010742188,29.80941551057539,0.03245380719502767,0.03256988525390625,0.0,0.0,0.0,-0.26314392338873094,-1.3334269890886186,13.668087916051153,0.008825260349189021,-0.008205721820013006,0.010711969146259418,0.4,0.03999930941707854,0.09401744737040277,0.8630872403111179,0.0464358242100252,-0.13833579141646624,-0.014307173842098564,2.194695360958576,-0.22007717943342045,5.105210095643997,-0.19292555516585708,24.605192244052887,0.0,0.0,0.0,0.0,0.0,0.0,0.0,0.0,0.0,0.0,0.0,0.0,0.0,0.0,0.0,0.0,False,0,1.1555373668670654,0.0349228515625
STABILIZE,1.1530368328094482,29.656185701861684,0.0323360284169515,0.03245258331298828,0.0,0.0,0.0,-0.26382320704602985,-1.3336467290808225,13.669045850082249,0.007992333201804558,-0.0087530597661305,0.010612688487189298,0.4,0.0356051647679235,0.09217533049605615,0.8678295269617958,0.044927955972114665,-0.10616909712553024,0.1360827824100852,1.6525333747267723,0.09743386246963516,-2.2245828062295914,1.8953897058963776,27.736708521842957,0.0,0.0,0.0,0.0,0.0,0.0,0.0,0.0,0.0,0.0,0.0,0.0,0.0,0.0,0.0,0.0,False,0,1.1842145919799805,0.034925048828125
STABILIZE,1.186722993850708,29.685360813067973,0.03204944928487142,0.03278970718383789,0.0,0.0,0.0,-0.263342639204896,-1.3330079996717206,13.670604840760303,0.006332958544571101,-0.010579949040631826,0.009913375330470844,0.4,0.03318006511203895,0.09007885218382372,0.8762129925671458,0.041190530587267314,-0.0003203324922651518,0.11447733268141747,1.8887203186750412,-0.04121018648110994,-0.7210595533251762,-0.04875671002082527,28.12383770942688,0.0,0.0,0.0,0.0,0.0,0.0,0.0,0.0,0.0,0.0,0.0,0.0,0.0,0.0,0.0,0.0,False,0,1.2129032611846924,0.02993408203125
STABILIZE,1.2201728820800781,29.894400729843767,0.03243234952290853,0.03254961967468262,0.0,0.0,0.0,-0.2630526763302878,-1.3335865380387617,13.671047949282707,0.0046661006384223,-0.008196495412973312,0.009354790023254376,0.4,0.02988377629226001,0.08658075095600952,0.8740701310504264,0.03697733708979888,-0.07010075496509671,0.03411360667087138,1.6151921823620796,-0.09325721513238558,1.345006562769413,1.8383251503109932,29.8580139875412,0.0,0.0,0.0,0.0,0.0,0.0,0.0,0.0,0.0,0.0,0.0,0.0,0.0,0.0,0.0,0.0,False,0,1.2507829666137695,0.034924072265625
STABILIZE,1.2536332607269287,29.88737111381888,0.03241875966389974,0.03253006935119629,0.0,0.0,0.0,-0.2630314387108373,-1.3347105310440521,13.672171515401175,0.002945608847399025,-0.007239281069339968,0.007219171854292008,0.4,0.026963739219471122,0.0853156594334628,0.8790778259684146,0.02667376938257546,0.1525486703030765,0.10883331997320056,1.7198000103235245,-0.2057937864554693,2.9306896030902863,1.6061335802078247,19.405636191368103,0.0,0.0,0.0,0.0,0.0,0.0,0.0,0.0,0.0,0.0,0.0,0.0,0.0,0.0,0.0,0.0,False,0,1.2989122867584229,0.029934814453125
STABILIZE,1.2871534824371338,29.834860297046607,0.03238967259724935,0.03250312805175781,0.0,0.0,0.0,-0.262159949261426,-1.3351649520672695,13.674194105169144,0.001350377477164253,-0.008114822500721512,0.006632970815173605,0.4,0.020471956354817772,0.08412543982608547,0.8810736442849567,0.023120665201539103,-0.27975901030004025,0.1502958475612104,1.884777471423149,-0.08554505110536849,-3.8848143070936203,1.7140693962574005,25.25050938129425,0.0,0.0,0.0,0.0,0.0,0.0,0.0,0.0,0.0,0.0,0.0,0.0,0.0,0.0,0.0,0.0,False,0,1.327596664428711,0.034924072265625
STABILIZE,1.320540189743042,29.950115321722613,0.03228286107381185,0.032422780990600586,0.0,0.0,0.0,-0.26210135904495196,-1.3349535363681164,13.674096774973473,0.0009195788566132692,-0.009370834900033483,0.005830655998615903,0.4,0.013868516514381498,0.08321484346403234,0.8883699310310711,0.01937854557633084,-0.27975901030004025,0.1502958475612104,1.884777471423149,-0.08554505110536849,-3.8848143070936203,1.7140693962574005,25.25050938129425,0.0,0.0,0.0,0.0,0.0,0.0,0.0,0.0,0.0,0.0,0.0,0.0,0.0,0.0,0.0,0.0,False,0,1.356541395187378,0.034924072265625
STABILIZE,1.3539059162139893,29.970232013090484,0.032355340321858723,0.032500267028808594,0.0,0.0,0.0,-0.26068398807046855,-1.3359886301924906,13.676209864747944,0.0013142805252982386,-0.010464083046593655,0.005105064960276197,0.4,0.009468962168955456,0.08047003265984887,0.8915874053733911,0.015698439276260648,-0.15564904315397143,0.037881199386902153,1.6664670780301094,-0.0908820435289401,-0.523728784173727,-0.35823581274598837,23.809532821178436,0.0,0.0,0.0,0.0,0.0,0.0,0.0,0.0,0.0,0.0,0.0,0.0,0.0,0.0,0.0,0.0,False,0,1.3856830596923828,0.034923095703125
STABILIZE,1.3874702453613281,29.794381104599537,0.032488377888997395,0.03263497352600098,0.0,0.0,0.0,-0.2611438519006808,-1.3358455163850378,13.677585294092056,0.0008152659551132039,-0.009944231206821476,0.004423132376205277,0.4,0.007383850195986477,0.07812849176483891,0.8991080972599894,0.012148072097274603,-0.027250900166109204,0.057787244440987706,1.9399059936404228,-0.09205516853952946,0.1832190901041031,-0.31697344966232777,25.51443576812744,0.0,0.0,0.0,0.0,0.0,0.0,0.0,0.0,0.0,0.0,0.0,0.0,0.0,0.0,0.0,0.0,False,0,1.4140889644622803,0.02993505859375
STABILIZE,1.42094087600708,29.877577769388033,0.032383235295613606,0.03251910209655762,0.0,0.0,0.0,-0.26112005296029156,-1.3366037741046148,13.678053162050203,0.0020589475593504923,-0.011517473941026892,0.004301408058250109,0.4,0.001539824603739037,0.07446656945043019,0.898155542398637,0.010248816877117333,-0.2770752180367708,-0.016247107123490423,1.7594002187252045,-0.024990463221413267,-4.831341281533241,-2.237982116639614,25.476068258285522,0.0,0.0,0.0,0.0,0.0,0.0,0.0,0.0,0.0,0.0,0.0,0.0,0.0,0.0,0.0,0.0,False,0,1.4426259994506836,0.034924072265625
STABILIZE,1.4543330669403076,29.945624857208134,0.03236821492513021,0.032485246658325195,0.0,0.0,0.0,-0.2604346861657631,-1.3375521031821889,13.679344067803335,0.004173707972072952,-0.011303642978829052,0.0035240147776056862,0.4,-0.004150867132455532,0.06916333399441126,0.8996338220607467,0.006386446571835409,-0.15733238542452455,0.09121663169935346,1.3915603049099445,-0.01963376563538511,-1.8408415839076042,-0.16512013971805573,25.796392560005188,0.0,0.0,0.0,0.0,0.0,0.0,0.0,0.0,0.0,0.0,0.0,0.0,0.0,0.0,0.0,0.0,False,0,1.5002806186676025,0.02993505859375
STABILIZE,1.487813949584961,29.868641623642514,0.03242042859395345,0.032557010650634766,0.0,0.0,0.0,-0.2603781236616989,-1.3380931822305009,13.680368596178837,0.005078008599148517,-0.010828660361283528,0.003567305557165752,0.4,-0.009427829176243789,0.0665047697054455,0.8915167820508474,0.0060705165060006535,-0.26869336143136024,0.025242991978302598,1.351709570735693,0.047077659153588074,-4.9813903868198395,-0.3385836258530617,22.783786058425903,0.0,0.0,0.0,0.0,0.0,0.0,0.0,0.0,0.0,0.0,0.0,0.0,0.0,0.0,0.0,0.0,False,0,1.5306522846221924,0.034923095703125
STABILIZE,1.521233320236206,29.92233882416728,0.032390864690144856,0.032494306564331055,0.0,0.0,0.0,-0.25959254518544167,-1.3376085589645472,13.681448619841346,0.004876438230195706,-0.008850860202694507,0.002911601701862048,0.4,-0.009672475232875614,0.06429885177872902,0.9001755215982562,0.002732439006996921,0.0489566707983613,0.04145464627072215,2.04896479845047,-0.12070112866090837,0.9956681169569492,1.6397716477513313,24.37676042318344,0.0,0.0,0.0,0.0,0.0,0.0,0.0,0.0,0.0,0.0,0.0,0.0,0.0,0.0,0.0,0.0,False,0,1.5591957569122314,0.034923828125
STABILIZE,1.554624080657959,29.9477630056978,0.032404216130574544,0.03252363204956055,0.0,0.0,0.0,-0.2587347161143704,-1.3369361054964184,13.680932086785363,0.004830896769774884,-0.007896956191163507,0.0022726941636411063,0.4,-0.009752107091604217,0.062166299972957605,0.9086397627713613,-0.0005063468394903817,0.0489566707983613,0.04145464627072215,2.04896479845047,-0.12070112866090837,0.9956681169569492,1.6397716477513313,24.37676042318344,0.0,0.0,0.0,0.0,0.0,0.0,0.0,0.0,0.0,0.0,0.0,0.0,0.0,0.0,0.0,0.0,True,0,1.589479684829712,0.034923828125
STABILIZE,1.5882272720336914,29.759078202381122,0.0324583371480306,0.03258967399597168,0.0,0.0,0.0,-0.25848285288872613,-1.3368152965254738,13.682293855751134,0.002848498638760532,-0.007655254445027147,0.0025018345047367876,0.4,-0.014771889886761317,0.06260026595051349,0.9089156851381702,0.00024272553047998075,-0.25129925925284624,0.1885517151094973,1.5779994428157806,0.10864737223024987,-1.4473134651780128,1.5588676556944847,17.888185381889343,0.0,0.0,0.0,0.0,0.0,0.0,0.0,0.0,0.0,0.0,0.0,0.0,0.0,0.0,0.0,0.0,True,0,1.618255376815796,0.02993505859375
STABILIZE,1.6216163635253906,29.952254111530852,0.03230336507161458,0.03243279457092285,0.0,0.0,0.0,-0.2582391005127213,-1.3369671615128007,13.684202039850506,0.0009359169578371601,-0.007933959377516559,0.00214412093749658,0.4,-0.02067491006963538,0.061348390771534665,0.908142329277898,-0.0018106937853759333,-0.33475859090685844,0.08911496843211353,1.8179142847657204,-0.08120166444304862,-8.525165170431137,-0.3226937958970666,24.86511617898941,0.0,0.0,0.0,0.0,0.0,0.0,0.0,0.0,0.0,0.0,0.0,0.0,0.0,0.0,0.0,0.0,True,0,1.6457221508026123,0.034923828125
STABILIZE,1.655601978302002,29.422975475615914,0.03235915501912435,0.033049821853637695,0.0,0.0,0.0,-0.2582122066428644,-1.3372982122441348,13.685648332407256,0.0001894765034654817,-0.00855119581810284,0.0016341325232516746,0.4,-0.026936624669508073,0.06027927689213623,0.91243960094361,-0.0040626951989253856,-0.33475859090685844,0.08911496843211353,1.8179142847657204,-0.08120166444304862,-8.525165170431137,-0.3226937958970666,24.86511617898941,0.0,0.0,0.0,0.0,0.0,0.0,0.0,0.0,0.0,0.0,0.0,0.0,0.0,0.0,0.0,0.0,True,1,1.6743016242980957,0.034923828125
STABILIZE,1.6894667148590088,29.529034074908477,0.032390626271565755,0.03295183181762695,0.0,0.0,0.0,-0.25847869074220065,-1.3385420537250177,13.68753346461818,0.0009328291619072387,-0.012782527789305461,0.001316508254790363,0.4,-0.03558116302769434,0.05667572016509612,0.9178906508278519,-0.005864596566993702,-0.18040280556306243,0.010197523079114035,1.6083234921097755,-0.07361292406876778,-1.6427820548415184,-0.4226728342473507,22.52930998802185,0.0,0.0,0.0,0.0,0.0,0.0,0.0,0.0,0.0,0.0,0.0,0.0,0.0,0.0,0.0,0.0,True,0,1.7316737174987793,0.034924072265625
STABILIZE,1.7229278087615967,29.88588040814,0.032410415013631184,0.03254413604736328,0.0,0.0,0.0,-0.2585198853206323,-1.3386440796757446,13.688019261822896,0.0006586211803270041,-0.012753380772981384,0.0016772132431903033,0.4,-0.03558713518740697,0.05518978875719116,0.9191673651045424,-0.00470304957879572,0.014654260303359479,0.05429172306321561,1.6834545880556107,0.10363084507882013,1.0645126923918724,-0.31984213273972273,25.408935546875,0.0,0.0,0.0,0.0,0.0,0.0,0.0,0.0,0.0,0.0,0.0,0.0,0.0,0.0,0.0,0.0,True,0,1.7619833946228027,0.034924072265625
STABILIZE,1.756382703781128,29.8905659839512,0.03240516980489095,0.03253936767578125,0.0,0.0,0.0,-0.25778958868796986,-1.338633194061755,13.688468346760825,0.0018417810430805643,-0.011955426606552575,0.0020102381927583454,0.4,-0.03872738705579756,0.05325337305472067,0.9193716013179779,-0.003147872395195828,-0.1794205978512764,0.024459022097289562,1.6342142596840858,0.12035831186151191,-3.9819862693548203,-0.4249701742082834,19.485555589199066,0.0,0.0,0.0,0.0,0.0,0.0,0.0,0.0,0.0,0.0,0.0,0.0,0.0,0.0,0.0,0.0,True,0,1.7896854877471924,0.034924072265625
STABILIZE,1.7897765636444092,29.944769683296684,0.032390626271565755,0.0325016975402832,0.0,0.0,0.0,-0.2573120090545979,-1.3379732270332025,13.690400436522292,0.0021939477636163185,-0.010678268092514832,0.0024499451533974213,0.4,-0.04174955078945621,0.05136871671190407,0.9193526927962804,-0.0014978758264268086,-0.1794205978512764,0.024459022097289562,1.6342142596840858,0.12035831186151191,-3.9819862693548203,-0.4249701742082834,19.485555589199066,0.0,0.0,0.0,0.0,0.0,0.0,0.0,0.0,0.0,0.0,0.0,0.0,0.0,0.0,0.0,0.0,True,0,1.818720817565918,0.034924072265625
STABILIZE,1.8232777118682861,29.849935593147965,0.032444032033284505,0.03257274627685547,0.0,0.0,0.0,-0.2566592991020385,-1.337278041841742,13.690620710123026,0.0018641863126627972,-0.008621594780702855,0.002185472013266472,0.4,-0.04348914243926227,0.05101005597780322,0.9158945750736722,-0.002928035876488572,-0.11135106906294823,0.11048255255445838,1.4450143091380596,-0.06414590835315986,-0.6524461787194014,1.497241947799921,17.550580203533173,0.0,0.0,0.0,0.0,0.0,0.0,0.0,0.0,0.0,0.0,0.0,0.0,0.0,0.0,0.0,0.0,True,0,1.8471548557281494,0.029934814453125
STABILIZE,1.8618419170379639,25.933828394061745,0.03239587148030599,0.03752875328063965,0.0,0.0,0.0,-0.25560905079544327,-1.337798096714015,13.691533394150868,0.0010465035374271816,-0.006788298224195183,0.0005217569982501237,0.4,-0.048511557088783325,0.04900452511715039,0.9106439594312676,-0.010489136154040148,-0.18153118435293436,0.06914442637935281,1.6269978135824203,-0.2092923640948232,-6.107886880636215,-0.4923775792121887,16.53892993927002,0.0,0.0,0.0,0.0,0.0,0.0,0.0,0.0,0.0,0.0,0.0,0.0,0.0,0.0,0.0,0.0,True,0,1.904515027999878,0.034924072265625
STABILIZE,1.8951835632324219,29.98930358930359,0.032265456517537434,0.03240346908569336,0.0,0.0,0.0,-0.25539251245441275,-1.3380995855328477,13.691897101724171,0.00044099448088659324,-0.004715036359925782,0.00014414751344734122,0.4,-0.04442424083927518,0.04878269035818226,0.9066638451345383,-0.011945931888526898,0.2132926369085908,0.10762610472738743,1.414437871426344,-0.07019314039881362,5.761682987213135,-0.19517057808116078,28.899279236793518,0.0,0.0,0.0,0.0,0.0,0.0,0.0,0.0,0.0,0.0,0.0,0.0,0.0,0.0,0.0,0.0,True,0,1.93330717086792,0.034924072265625
STABILIZE,1.9298748970031738,28.82445434053549,0.032393487294514973,0.03385019302368164,0.0,0.0,0.0,-0.25484791158980996,-1.3383079063025332,13.69363538486794,0.0002793894238648698,-0.00490039836688683,0.0007162014808665327,0.4,-0.047848661843236,0.04720707605700437,0.9118808020638256,-0.009214134034163525,-0.2372910501435399,0.024959209258668125,1.9641498103737831,0.17190052016401486,-5.759170651435852,1.578880287706852,19.578208029270172,0.0,0.0,0.0,0.0,0.0,0.0,0.0,0.0,0.0,0.0,0.0,0.0,0.0,0.0,0.0,0.0,True,0,1.9620702266693115,0.069846923828125
STABILIZE,1.9633822441101074,29.84398858696039,0.03246310551961263,0.03259634971618652,0.0,0.0,0.0,-0.25418911850002107,-1.338271407479156,13.694735899097958,-0.00011392163552400722,-0.006887357247735892,0.0011296402075415637,0.4,-0.05458479067025419,0.04619077128390968,0.9479847478276531,-0.007180168897395387,-0.2372910501435399,0.024959209258668125,1.9641498103737831,0.17190052016401486,-5.759170651435852,1.578880287706852,19.578208029270172,0.0,0.0,0.0,0.0,0.0,0.0,0.0,0.0,0.0,0.0,0.0,0.0,0.0,0.0,0.0,0.0,True,0,1.990562915802002,0.069846923828125
STABILIZE,1.9968557357788086,29.875662430907745,0.032412322362264,0.03254389762878418,0.0,0.0,0.0,-0.2539603071628257,-1.3382920047683717,13.695916668050724,-0.000788938865732581,-0.008625147372583143,0.0007068469318622737,0.4,-0.05962029608057119,0.047164594840341266,0.9714199932358154,-0.009178460633524356,-0.15434124507009983,0.13240774860605597,1.4830746687948704,-0.07456121979580868,-1.5061026439070702,1.5511888079345226,15.636046230793,0.0,0.0,0.0,0.0,0.0,0.0,0.0,0.0,0.0,0.0,0.0,0.0,0.0,0.0,0.0,0.0,True,0,2.0193121433258057,0.029934814453125
STABILIZE,2.0303025245666504,29.897383990305794,0.03236535390218099,0.03259420394897461,0.0,0.0,0.0,-0.2538070547933235,-1.338857843252425,13.697262215317217,-0.0011184477489737479,-0.006599433477508185,0.00011530606808069742,0.4,-0.059726870483919746,0.046153780225849525,0.9419170222950348,-0.012571141165906628,-0.27451380155980587,0.01864578080130741,1.761944219470024,-0.13084745471424167,-3.596513718366623,-0.5157134961336851,15.676839649677277,0.0,0.0,0.0,0.0,0.0,0.0,0.0,0.0,0.0,0.0,0.0,0.0,0.0,0.0,0.0,0.0,True,0,2.0769245624542236,0.034924072265625
STABILIZE,2.064401149749756,29.329976783866186,0.032492669423421223,0.03298497200012207,0.0,0.0,0.0,-0.25323609366739275,-1.3391499405611487,13.697629337985106,0.0003180558671215576,-0.01350905566345692,-0.00017213476660227106,0.4,-0.06955565986173003,0.04306787765742312,0.9358601845930777,-0.013971853486043602,-0.5989950615912676,-0.05237036966718733,1.618809625506401,-0.0832072854597994,-6.558497995138168,-0.5483518354594707,18.64464581012726,0.0,0.0,0.0,0.0,0.0,0.0,0.0,0.0,0.0,0.0,0.0,0.0,0.0,0.0,0.0,0.0,True,0,2.105290174484253,0.034924072265625
STABILIZE,2.097654104232788,30.06928194540032,0.03219607671101888,0.032358646392822266,0.0,0.0,0.0,-0.25239800811189106,-1.3403659276768225,13.699585333408667,-0.0005567096309725429,-0.010281249894335126,-0.0005009861179385203,0.4,-0.06628277655550588,0.04334921192442528,0.9290594611963847,-0.015016834812501711,0.07492608856409788,0.1188990892842412,1.5590379014611244,-0.06674292770249854,-0.27707936242222786,-0.36222105845808983,23.427526652812958,0.0,0.0,0.0,0.0,0.0,0.0,0.0,0.0,0.0,0.0,0.0,0.0,0.0,0.0,0.0,0.0,True,0,2.1341307163238525,0.029934814453125
STABILIZE,2.1312763690948486,29.7455711104492,0.03243687947591146,0.03255939483642578,0.0,0.0,0.0,-0.25219310243679066,-1.3409769094424213,13.699891838147671,-0.001151659643043025,-0.005145671105807152,-0.0007627654163334004,0.4,-0.06249837870602837,0.043551367059988834,0.9184900831889881,-0.01584489429195033,0.07492608856409788,0.1188990892842412,1.5590379014611244,-0.06674292770249854,-0.27707936242222786,-0.36222105845808983,23.427526652812958,0.0,0.0,0.0,0.0,0.0,0.0,0.0,0.0,0.0,0.0,0.0,0.0,0.0,0.0,0.0,0.0,True,0,2.1627466678619385,0.029934814453125
STABILIZE,2.1645030975341797,30.091501955016682,0.03222802480061849,0.032343149185180664,0.0,0.0,0.0,-0.2516807315273339,-1.3417621677535614,13.700963324073717,0.00039376224607906156,-0.003930082278853051,-0.0019094569371955828,0.4,-0.06482206148343034,0.041415399990104365,0.9085606757211083,-0.021031018760976135,-0.24763180408626795,-0.009000026329886168,1.5457634814083576,-0.30437766868639216,-5.727355927228928,1.473274827003479,21.761417388916016,0.0,0.0,0.0,0.0,0.0,0.0,0.0,0.0,0.0,0.0,0.0,0.0,0.0,0.0,0.0,0.0,True,0,2.1914854049682617,0.034923095703125
STABILIZE,2.198392152786255,29.509920355725665,0.03248098691304525,0.03303837776184082,0.0,0.0,0.0,-0.25110027216958863,-1.3422128535170763,13.701325324099729,-0.000416931430575732,-0.005372097424280187,-0.00229033874601756,0.4,-0.0677712642037617,0.04205321470327582,0.9083014953532931,-0.023063277812912047,-0.2573559759184718,0.13149389997124672,1.8051441758871078,-0.12521381596923728,-1.4258546754717827,-0.2536972053349018,28.01477015018463,0.0,0.0,0.0,0.0,0.0,0.0,0.0,0.0,0.0,0.0,0.0,0.0,0.0,0.0,0.0,0.0,True,0,2.2200841903686523,0.034924072265625
STABILIZE,2.2318766117095947,29.863750284802915,0.03246334393819173,0.03259468078613281,0.0,0.0,0.0,-0.25094179043650316,-1.3422430557598124,13.703325715752896,-0.0026925788505487848,0.00185484593621201,-0.0016052920093341033,0.4,-0.0626771512308281,0.043650827947620124,0.8996673772701788,-0.02020465841950722,-0.048854853957891464,0.10743696475401521,1.9232705235481262,0.17971551055455237,-2.2315267473459244,-0.21144854836165905,31.40547275543213,0.0,0.0,0.0,0.0,0.0,0.0,0.0,0.0,0.0,0.0,0.0,0.0,0.0,0.0,0.0,0.0,True,0,2.2776246070861816,0.039912841796875
STABILIZE,2.265359878540039,29.866302087783758,0.032434733708699544,0.03255057334899902,0.0,0.0,0.0,-0.24976027443179674,-1.3414716712704242,13.70514254607212,-0.0005185028644678558,-0.0010592409237388815,-0.001573600699854582,0.4,-0.06530880876715425,0.03962430770191432,0.8999527882747232,-0.020143992470964323,-0.22536704782396555,-0.14021137030795217,1.5498231165111065,-0.008076728709019829,-6.093505769968033,-0.3598819952458143,26.813465356826782,0.0,0.0,0.0,0.0,0.0,0.0,0.0,0.0,0.0,0.0,0.0,0.0,0.0,0.0,0.0,0.0,True,0,2.306185007095337,0.029934814453125
STABILIZE,2.29879093170166,29.91230922835544,0.032383235295613606,0.03252005577087402,0.0,0.0,0.0,-0.24919016707951222,-1.3417003758859138,13.706414668805035,-0.0008416291573488266,-0.0024176964060644646,-0.0016708038302551598,0.4,-0.06439973567282126,0.040436072178611115,0.8878208426291798,-0.020614476282110786,-0.07917354814708233,0.14331912389025092,1.3365414924919605,-0.06067695932737353,-2.7321305125951767,-0.4806583281606436,16.625256836414337,0.0,0.0,0.0,0.0,0.0,0.0,0.0,0.0,0.0,0.0,0.0,0.0,0.0,0.0,0.0,0.0,True,0,2.3349084854125977,0.02993408203125
STABILIZE,2.3322460651397705,29.890139961802685,0.032415183385213216,0.03254079818725586,0.0,0.0,0.0,-0.24917736047481845,-1.3417733735326682,13.70671178203393,-0.0022857055828566933,-0.0008740649447444639,-0.0016344508991774237,0.4,-0.06353140219369803,0.0412529903075033,0.8764706929357345,-0.0210699210404197,-0.07917354814708233,0.14331912389025092,1.3365414924919605,-0.06067695932737353,-2.7321305125951767,-0.4806583281606436,16.625256836414337,0.0,0.0,0.0,0.0,0.0,0.0,0.0,0.0,0.0,0.0,0.0,0.0,0.0,0.0,0.0,0.0,True,0,2.363689422607422,0.02993408203125
STABILIZE,2.365675449371338,29.91316254920979,0.032404216130574544,0.032530784606933594,0.0,0.0,0.0,-0.2493439530575433,-1.3404866299260614,13.707761923618818,-0.0006539934308634808,0.00012531939298206425,-0.0014879320998292035,0.4,-0.06428375445053867,0.038624180439670724,0.8683034278950355,-0.02063357265596577,-0.1706635463051498,-0.05599881405942142,1.478862576186657,-0.009995995190526883,-5.01784048974514,-0.3051870269700885,24.41665083169937,0.0,0.0,0.0,0.0,0.0,0.0,0.0,0.0,0.0,0.0,0.0,0.0,0.0,0.0,0.0,0.0,True,0,2.3923511505126953,0.034925048828125
STABILIZE,2.3993101119995117,29.731865514528145,0.03242185910542806,0.03271961212158203,0.0,0.0,0.0,-0.24939880801431497,-1.3406771281708814,13.708936716156062,-0.0010678111575493747,-0.0022055399759279646,-0.0024998086663983957,0.4,-0.06405457815134505,0.040936587454715845,0.8655102116210602,-0.02459397700574617,-0.090660504065454,0.21894557867199183,1.5286633744835854,-0.25446293971662987,3.5987496376037598,1.7196444794535637,24.175432324409485,0.0,0.0,0.0,0.0,0.0,0.0,0.0,0.0,0.0,0.0,0.0,0.0,0.0,0.0,0.0,0.0,True,0,2.4212496280670166,0.034923095703125
STABILIZE,2.4330337047576904,29.65366967612395,0.03241113026936849,0.03286170959472656,0.0,0.0,0.0,-0.24922442474706807,-1.3398346670254426,13.710788551194781,-0.004238542415803726,0.003865763277266548,-0.0027016210513116806,0.4,-0.054491626612892544,0.04339599219146352,0.8623473602907562,-0.025390304997699738,0.16182835679501295,0.15984161291271448,1.7052944749593735,-0.05645871720529563,4.839411377906799,1.7788371071219444,26.719525456428528,0.0,0.0,0.0,0.0,0.0,0.0,0.0,0.0,0.0,0.0,0.0,0.0,0.0,0.0,0.0,0.0,True,0,2.478365659713745,0.02993505859375
STABILIZE,2.466637134552002,29.759078202381122,0.03246310551961263,0.0326077938079834,0.0,0.0,0.0,-0.24976347608297017,-1.3400655060750477,13.712429504142877,-0.004202010862439584,0.0049133832597082604,-0.002978438427637718,0.4,-0.05155483245847493,0.044075260158526926,0.8600189829070569,-0.026578335109831774,0.05136365653015673,0.13318980345502496,1.7480045557022095,-0.11156601745028077,1.5078652650117874,1.7674511298537254,25.39670169353485,0.0,0.0,0.0,0.0,0.0,0.0,0.0,0.0,0.0,0.0,0.0,0.0,0.0,0.0,0.0,0.0,True,0,2.506962776184082,0.034923828125
STABILIZE,2.4999663829803467,30.0028183723542,0.03230932553609212,0.032427310943603516,0.0,0.0,0.0,-0.24995269366732067,-1.3405826794612647,13.713488183464229,-0.0035325243795286355,0.0044147368965190975,-0.002917001482078786,0.4,-0.05170086124784883,0.04351266992790134,0.8513105894500639,-0.026293913385466904,-0.11683175107464194,0.045444045099429786,1.106223464012146,-0.01216939606897932,-4.593659937381744,-0.4054388031363487,20.494180917739868,0.0,0.0,0.0,0.0,0.0,0.0,0.0,0.0,0.0,0.0,0.0,0.0,0.0,0.0,0.0,0.0,True,0,2.535623550415039,0.064859130859375
STABILIZE,2.533611536026001,29.722173799046182,0.03240660031636556,0.03251814842224121,0.0,0.0,0.0,-0.2500510910800512,-1.3408548198110073,13.714757744876204,-0.00488706474364266,0.004160024658001538,-0.0038498167942100487,0.4,-0.052893887342903054,0.043689189718216885,0.8773147661652204,-0.03020659829358324,-0.10731505462899804,0.019252266793046147,1.7860231921076775,-0.17991730795997188,-2.428058534860611,1.5550131909549236,20.70465087890625,0.0,0.0,0.0,0.0,0.0,0.0,0.0,0.0,0.0,0.0,0.0,0.0,0.0,0.0,0.0,0.0,True,0,2.5643773078918457,0.034924072265625
STABILIZE,2.5669004917144775,30.040423428972513,0.03221872647603353,0.03236031532287598,0.0,0.0,0.0,-0.24888451611415416,-1.3413891753918552,13.714890079791374,-0.0031563005788978657,0.004088436210013979,-0.004333472840154355,0.4,-0.052801185060820106,0.04243530920613527,0.8777460717522996,-0.0327277530577563,-0.10731505462899804,0.019252266793046147,1.7860231921076775,-0.17991730795997188,-2.428058534860611,1.5550131909549236,20.70465087890625,0.0,0.0,0.0,0.0,0.0,0.0,0.0,0.0,0.0,0.0,0.0,0.0,0.0,0.0,0.0,0.0,True,0,2.5930423736572266,0.034924072265625
STABILIZE,2.6003565788269043,29.890139961802685,0.03236559232076009,0.03248786926269531,0.0,0.0,0.0,-0.24918525788104628,-1.3412239701913053,13.715694334566143,-0.0015944738567886191,-0.0006787952849815223,-0.0048967652673424945,0.4,-0.0532424295917561,0.04163759342947414,0.8842315285284134,-0.03517809659484829,-0.13492015423253179,0.043653047760017216,2.1021755412220955,-0.1774145638974779,0.4562627989798784,-0.28970222920179367,26.287958025932312,0.0,0.0,0.0,0.0,0.0,0.0,0.0,0.0,0.0,0.0,0.0,0.0,0.0,0.0,0.0,0.0,True,0,2.6217124462127686,0.039912841796875
STABILIZE,2.6339948177337646,29.727440251750632,0.032367738087972005,0.03264737129211426,0.0,0.0,0.0,-0.24844524957315772,-1.342353726168708,13.717061226173792,-0.0012297524764644555,-0.0024040782123508652,-0.004864971379791729,0.4,-0.0538612955767418,0.041542165584402206,0.8858748280311217,-0.035091428646247924,-0.1264288672246039,0.08408969733864069,1.7860256135463715,-0.04406856728790739,-4.746276885271072,-0.21323850378394127,26.800432801246643,0.0,0.0,0.0,0.0,0.0,0.0,0.0,0.0,0.0,0.0,0.0,0.0,0.0,0.0,0.0,0.0,True,0,2.679067611694336,0.02993408203125
STABILIZE,2.6674225330352783,29.916789706060673,0.03234532674153646,0.03247880935668945,0.0,0.0,0.0,-0.2471135761284168,-1.3425271489406028,13.717214905430117,-0.0021703536706052487,-0.004482530905404201,-0.004887860652086406,0.4,-0.05807075402232137,0.04284643144519234,0.8794356809568062,-0.03505194223146233,-0.35687442868947983,0.1678304048255086,1.59190334379673,-0.061829867244823915,-6.737695634365082,1.5640998259186745,19.735443592071533,0.0,0.0,0.0,0.0,0.0,0.0,0.0,0.0,0.0,0.0,0.0,0.0,0.0,0.0,0.0,0.0,True,0,2.707862138748169,0.06485888671875
STABILIZE,2.7008683681488037,29.89866271278264,0.032343419392903645,0.032477617263793945,0.0,0.0,0.0,-0.24833874131078784,-1.3420084814505049,13.717625570553963,-0.003620463053759446,-0.004142855609887693,-0.005407273523392515,0.4,-0.058508552985663535,0.045850113563195766,0.9044746894854061,-0.037710609566553796,-0.02915790246333927,0.1761038787662983,1.6790451481938362,-0.10801410563846259,4.369237273931503,1.514660194516182,16.643570363521576,0.0,0.0,0.0,0.0,0.0,0.0,0.0,0.0,0.0,0.0,0.0,0.0,0.0,0.0,0.0,0.0,True,0,2.7365245819091797,0.034924072265625
STABILIZE,2.734304189682007,29.90655058575228,0.03237012227376302,0.032501220703125,0.0,0.0,0.0,-0.2491184500932271,-1.3423881972796752,13.718668028176037,-0.005067156917458411,-0.003349444270567734,-0.005561957747539822,0.4,-0.05684354636168945,0.04750240378096951,0.9015510702651189,-0.03859882147505907,-0.02915790246333927,0.1761038787662983,1.6790451481938362,-0.10801410563846259,4.369237273931503,1.514660194516182,16.643570363521576,0.0,0.0,0.0,0.0,0.0,0.0,0.0,0.0,0.0,0.0,0.0,0.0,0.0,0.0,0.0,0.0,True,0,2.76515793800354,0.034924072265625
STABILIZE,2.767756938934326,29.895039949822166,0.03239491780598958,0.03254127502441406,0.0,0.0,0.0,-0.2493163121357459,-1.3426981171132646,13.720169816019794,-0.005525735592889991,0.00015814952367312508,-0.006043167469052025,0.4,-0.050341146155030735,0.04764250045364134,0.8904188912769413,-0.04089187398464932,0.22669651079922915,0.0966358173172921,1.2300528585910797,-0.18322432013744808,2.294663153588772,-0.3814724972471595,20.272040367126465,0.0,0.0,0.0,0.0,0.0,0.0,0.0,0.0,0.0,0.0,0.0,0.0,0.0,0.0,0.0,0.0,True,0,2.7948989868164062,0.02993505859375
STABILIZE,2.80138897895813,29.731654757854145,0.03240254720052083,0.03254556655883789,0.0,0.0,0.0,-0.24969090532303878,-1.343251148992624,13.720952726453406,-0.004529038474506758,3.2052086291021404e-05,-0.007462138001404274,0.4,-0.051152103097771,0.04557575318721321,0.8779959675395743,-0.04691685392003813,-0.16652396880090237,-0.007668419857509434,1.3567272573709488,-0.4032644004378963,-1.2776177376508713,-0.3926456440240145,22.377784550189972,0.0,0.0,0.0,0.0,0.0,0.0,0.0,0.0,0.0,0.0,0.0,0.0,0.0,0.0,0.0,0.0,True,0,2.823498010635376,0.069847900390625
STABILIZE,2.834928035736084,29.817256357212425,0.03223088582356771,0.03256416320800781,0.0,0.0,0.0,-0.2490556977302276,-1.343786891955647,13.721280575533568,-0.003742157971131047,0.000808318461844638,-0.009698349651244043,0.4,-0.05358015035151471,0.04523947147999524,0.8976831463780264,-0.05648057114110236,-0.16652396880090237,-0.007668419857509434,1.3567272573709488,-0.4032644004378963,-1.2776177376508713,-0.3926456440240145,22.377784550189972,0.0,0.0,0.0,0.0,0.0,0.0,0.0,0.0,0.0,0.0,0.0,0.0,0.0,0.0,0.0,0.0,True,0,2.853306531906128,0.069847900390625
STABILIZE,2.868427038192749,29.85078535894498,0.03234389623006185,0.03255105018615723,0.0,0.0,0.0,-0.2496189748933421,-1.3445889055745945,13.723899953080267,-0.002042818297609726,0.0007104687171704607,-0.009974925446118863,0.4,-0.054164752018885265,0.044707072547063034,0.9078680864474384,-0.05786101965248914,-0.08770790882408619,0.13048824621364474,1.7798159271478653,0.0016115644583659969,1.678183488547802,1.589716598391533,23.020178079605103,0.0,0.0,0.0,0.0,0.0,0.0,0.0,0.0,0.0,0.0,0.0,0.0,0.0,0.0,0.0,0.0,True,0,2.910949230194092,0.034924072265625
STABILIZE,2.901881456375122,29.891418064681652,0.032378466924031575,0.03250694274902344,0.0,0.0,0.0,-0.24989815887566635,-1.344187205074033,13.723874339870878,-0.0015945685536497306,0.00024655833219291496,-0.009471139254592307,0.4,-0.053492445318968636,0.04536375322384439,0.9036721239417684,-0.05562334472326037,-0.08770790882408619,0.13048824621364474,1.7798159271478653,0.0016115644583659969,1.678183488547802,1.589716598391533,23.020178079605103,0.0,0.0,0.0,0.0,0.0,0.0,0.0,0.0,0.0,0.0,0.0,0.0,0.0,0.0,0.0,0.0,True,0,2.93938946723938,0.034924072265625
STABILIZE,2.948699712753296,21.358101639678175,0.03236988385518392,0.04604005813598633,0.0,0.0,0.0,-0.24931620541404012,-1.344731272330107,13.724610292753948,-0.0020991830298835268,-0.003683506211319982,-0.009171448257632952,0.4,-0.05567297549317795,0.04686618407063801,0.8926687076539789,-0.054348020085319054,-0.2234017476439476,0.17086146399378777,1.4180231839418411,-0.04233759458098517,-4.5993659645318985,1.550108939409256,22.86171168088913,0.0,0.0,0.0,0.0,0.0,0.0,0.0,0.0,0.0,0.0,0.0,0.0,0.0,0.0,0.0,0.0,True,0,2.972102403640747,0.034923095703125
STABILIZE,2.9827334880828857,29.384017205988467,0.03256109555562337,0.033165693283081055,0.0,0.0,0.0,-0.24841963636377018,-1.3448653147925684,13.725196835248923,-0.002926428251301826,-0.001637754551938516,-0.008307232493413834,0.4,-0.05235040840346531,0.046534280243784226,0.8705749202214301,-0.0512147862176423,-0.030944071477279067,0.11505362344905734,1.4526106417179108,-0.0708470976613093,3.3318981528282166,1.4022246934473515,18.099674582481384,0.0,0.0,0.0,0.0,0.0,0.0,0.0,0.0,0.0,0.0,0.0,0.0,0.0,0.0,0.0,0.0,True,0,3.0294930934906006,0.034924072265625
STABILIZE,3.0165293216705322,29.591951346851232,0.03245070775349935,0.03258991241455078,0.0,0.0,0.0,-0.24779051190818852,-1.3459128950565191,13.726285396647894,-0.002797674549040296,-0.001782267023818677,-0.008941479186065854,0.4,-0.05489634665860647,0.04594888966157707,0.8637281620196859,-0.055051136150100884,-0.2425583079457283,0.06445854669436812,1.498288381844759,-0.29633560118637814,-3.8998454809188843,-0.36935186944901943,22.034887969493866,0.0,0.0,0.0,0.0,0.0,0.0,0.0,0.0,0.0,0.0,0.0,0.0,0.0,0.0,0.0,0.0,True,0,3.058018922805786,0.064859130859375
STABILIZE,3.049663543701172,30.17745416870521,0.03210452397664388,0.03223991394042969,0.0,0.0,0.0,-0.247222859155137,-1.3462366887118602,13.727284311814008,-0.003448402640349758,-0.0037348060355223735,-0.010348177649077512,0.4,-0.05925770269002767,0.04670737715738768,0.8801300991252882,-0.061169437833623413,-0.2425583079457283,0.06445854669436812,1.498288381844759,-0.29633560118637814,-3.8998454809188843,-0.36935186944901943,22.034887969493866,0.0,0.0,0.0,0.0,0.0,0.0,0.0,0.0,0.0,0.0,0.0,0.0,0.0,0.0,0.0,0.0,True,0,3.086756706237793,0.064859130859375
STABILIZE,3.083127975463867,29.883964005044422,0.03243878682454427,0.03255486488342285,0.0,0.0,0.0,-0.24608915447462065,-1.346101472310635,13.728272981696367,-0.004067763646389112,-0.004550232442605554,-0.01034822261885919,0.4,-0.06021051489823283,0.04852622344899601,0.8918439955307319,-0.06070195418948148,-0.0786932185292244,0.12302027316763997,1.4191037975251675,0.013025964489901065,-1.1200067587196827,1.5396355651319027,18.302713334560394,0.0,0.0,0.0,0.0,0.0,0.0,0.0,0.0,0.0,0.0,0.0,0.0,0.0,0.0,0.0,0.0,True,0,3.1159565448760986,0.034923828125
STABILIZE,3.1166574954986572,29.823828891606702,0.03240969975789388,0.03256559371948242,0.0,0.0,0.0,-0.2466211621779412,-1.3465260112562336,13.728591439266419,-0.003333513909455226,-0.004267060523910312,-0.009446406529968043,0.4,-0.06109362888155562,0.048073403508731766,0.8786971468781655,-0.05649578643865702,-0.17156876856461167,0.08605025359429419,1.417150441557169,0.0662798355406864,-3.7037085741758347,1.5876250341534615,22.090885043144226,0.0,0.0,0.0,0.0,0.0,0.0,0.0,0.0,0.0,0.0,0.0,0.0,0.0,0.0,0.0,0.0,True,0,3.1441421508789062,0.034923828125
STABILIZE,3.149993419647217,29.996381242535417,0.032346280415852864,0.03244924545288086,0.0,0.0,0.0,-0.24665840805325892,-1.3462261232629877,13.729358128000753,-0.003724306082529277,-0.0047492571523713644,-0.008924931362287806,0.4,-0.058944766944010074,0.04851714621611673,0.8685159263642139,-0.053670563711976545,-0.028826214838773012,0.12601857306435704,1.5039396472275257,0.009903100615750744,-0.17901351675391197,1.4987671747803688,21.31437659263611,0.0,0.0,0.0,0.0,0.0,0.0,0.0,0.0,0.0,0.0,0.0,0.0,0.0,0.0,0.0,0.0,True,0,3.173219680786133,0.02993505859375
STABILIZE,3.1853785514831543,28.261790053163892,0.032448800404866536,0.03431534767150879,0.0,0.0,0.0,-0.24651145226439786,-1.3457282665055172,13.730653302622116,-0.002353508907836523,-0.0013722838575354215,-0.007628321083812256,0.4,-0.05446085080530298,0.045105055809078594,0.8551331514008563,-0.04834596068646172,-0.02217791334260255,0.024805526481941342,1.6883650794625282,0.007312224434601112,3.6489255726337433,-0.45433808118104935,23.39264154434204,0.0,0.0,0.0,0.0,0.0,0.0,0.0,0.0,0.0,0.0,0.0,0.0,0.0,0.0,0.0,0.0,True,0,3.2305374145507812,0.03487890625
STABILIZE,3.21864652633667,30.05850736000229,0.032253535588582356,0.032372236251831055,0.0,0.0,0.0,-0.2472436698877644,-1.3454546320518936,13.730653302622116,-0.0018052590283893877,0.0006783649126129311,-0.0069382541921359795,0.4,-0.05452290756483732,0.04473061508588334,0.8456685674444451,-0.0460079653864041,-0.12327722506597638,0.07990098092705011,1.3947909697890282,0.005332736895553569,-3.386441245675087,1.5801062807440758,22.073912620544434,0.0,0.0,0.0,0.0,0.0,0.0,0.0,0.0,0.0,0.0,0.0,0.0,0.0,0.0,0.0,0.0,True,0,3.259300708770752,0.029934814453125
STABILIZE,3.2520947456359863,29.89631847179158,0.03242925008138021,0.03255963325500488,0.0,0.0,0.0,-0.24695562800386026,-1.3457392588412127,13.730696845078075,-0.0005107206503956248,0.0021780332999716654,-0.006394232675537757,0.4,-0.052450381277244155,0.04388338806703395,0.8384681661138755,-0.04345443576172448,-0.02422201359877363,0.06394429365172982,1.6665292903780937,0.014976770570519844,3.084389865398407,-0.36409925669431686,20.624937117099762,0.0,0.0,0.0,0.0,0.0,0.0,0.0,0.0,0.0,0.0,0.0,0.0,0.0,0.0,0.0,0.0,True,0,3.288281202316284,0.034923828125
STABILIZE,3.2857320308685303,29.7284937662577,0.03242185910542806,0.03255486488342285,0.0,0.0,0.0,-0.24616684787642956,-1.3455232541087112,13.731024694158236,-0.0004362787207093994,0.003471195186242294,-0.0060181388354324855,0.4,-0.05071531001356867,0.04329738201962601,0.8360282147815061,-0.04115143856505574,-0.02422201359877363,0.06394429365172982,1.6665292903780937,0.014976770570519844,3.084389865398407,-0.36409925669431686,20.624937117099762,0.0,0.0,0.0,0.0,0.0,0.0,0.0,0.0,0.0,0.0,0.0,0.0,0.0,0.0,0.0,0.0,True,0,3.316603660583496,0.034923828125
STABILIZE,3.3192484378814697,29.836133676677715,0.03224376042683919,0.03266549110412598,0.0,0.0,0.0,-0.2470273449901454,-1.3461927193690781,13.731693198923251,0.00013478296983296582,0.001866241383250822,-0.005886167803726286,0.4,-0.05183516853131937,0.04257186282041603,0.8350092627233964,-0.040091190375073235,-0.17199047142639756,0.05488301394507289,1.7181836068630219,-0.04642785403245797,-3.5988256335258484,-0.39960527792572975,20.814362168312073,0.0,0.0,0.0,0.0,0.0,0.0,0.0,0.0,0.0,0.0,0.0,0.0,0.0,0.0,0.0,0.0,True,0,3.3452835083007812,0.034924072265625
STABILIZE,3.3529117107391357,29.70722724310848,0.032479317982991536,0.0326077938079834,0.0,0.0,0.0,-0.24658722467550268,-1.3465596285935548,13.732669062200918,-0.0010359665793168908,-0.002523469436216369,-0.006862605126569105,0.4,-0.056444691788991024,0.04180084884394145,0.8325359474041424,-0.043553517590595156,-0.35737170837819576,0.0507220218423754,1.6199089586734772,-0.28451142315517536,-1.7831750214099884,1.5119509771466255,21.819037199020386,0.0,0.0,0.0,0.0,0.0,0.0,0.0,0.0,0.0,0.0,0.0,0.0,0.0,0.0,0.0,0.0,True,0,3.3740172386169434,0.034924072265625
STABILIZE,3.3864378929138184,30.049247390404137,0.03225520451863607,0.032375335693359375,0.0,0.0,0.0,-0.24684260971743768,-1.3464418078303722,13.732594783893694,-0.0009150722485968857,-0.0034214743359077308,-0.0065105911956575176,0.4,-0.058249359328768055,0.0411965103013622,0.8217455069735429,-0.04159760976624293,-0.0900936487596482,0.015037860430311412,1.5673572197556496,-0.04925572910666845,-0.3525717183947563,-0.579912168905139,17.763978242874146,0.0,0.0,0.0,0.0,0.0,0.0,0.0,0.0,0.0,0.0,0.0,0.0,0.0,0.0,0.0,0.0,True,0,3.431333065032959,0.034923828125
STABILIZE,3.419671058654785,29.868216226224302,0.03216269810994466,0.03229999542236328,0.0,0.0,0.0,-0.24773234857853763,-1.3470708255642478,13.73302850090599,-0.0006643119972692986,-0.0042518536877964135,-0.00642934675257697,0.4,-0.05791276308544173,0.03989133575127752,0.8197858516394181,-0.040793321372084204,-0.0900936487596482,0.015037860430311412,1.5673572197556496,-0.04925572910666845,-0.3525717183947563,-0.579912168905139,17.763978242874146,0.0,0.0,0.0,0.0,0.0,0.0,0.0,0.0,0.0,0.0,0.0,0.0,0.0,0.0,0.0,0.0,True,0,3.4600489139556885,0.034923828125
STABILIZE,3.453052520751953,29.955890755342246,0.03240040143330892,0.03249979019165039,0.0,0.0,0.0,-0.24708732258879457,-1.347142008942004,13.733156566952927,-0.0009601265490321809,-0.004622258384205887,-0.0068414265180384536,0.4,-0.05699571554442137,0.039909378295097414,0.8159318702530453,-0.0421642988797592,-0.05771321593783796,0.08721465710550547,1.4471367001533508,-0.16844201652518187,2.8933556750416756,1.378074660897255,18.93986463546753,0.0,0.0,0.0,0.0,0.0,0.0,0.0,0.0,0.0,0.0,0.0,0.0,0.0,0.0,0.0,0.0,True,0,3.4886538982391357,0.034924072265625
STABILIZE,3.4865076541900635,29.890352971358936,0.03244927724202474,0.032555341720581055,0.0,0.0,0.0,-0.24787962453251602,-1.3474171374995088,13.73328548677351,0.00023407811292754243,-0.004813207674274199,-0.005924173441817648,0.4,-0.05839740454086521,0.03687114350808861,0.8126963155021395,-0.03792732936812728,-0.18716532504186034,-0.08497062954120338,1.4674944803118706,0.14657585958847363,-0.09433628292754292,1.2768087908625603,18.477587401866913,0.0,0.0,0.0,0.0,0.0,0.0,0.0,0.0,0.0,0.0,0.0,0.0,0.0,0.0,0.0,0.0,True,0,3.517519474029541,0.02993408203125
STABILIZE,3.519972085952759,29.883112349223765,0.03241852124532064,0.032555341720581055,0.0,0.0,0.0,-0.24750460445840003,-1.3473955797149408,13.735709350155219,-0.0008695956628419538,-0.0003975327176665818,-0.005690497511726036,0.4,-0.05402666162658553,0.03831112038940259,0.8088783366785157,-0.037252279743230546,0.12198383919894695,0.1733291894197464,1.6400886699557304,-0.057591528091526054,0.9457974694669247,1.4101679436862469,24.146102368831635,0.0,0.0,0.0,0.0,0.0,0.0,0.0,0.0,0.0,0.0,0.0,0.0,0.0,0.0,0.0,0.0,True,0,3.546178102493286,0.034924072265625
STABILIZE,3.5534932613372803,29.833587026104276,0.03240969975789388,0.03253674507141113,0.0,0.0,0.0,-0.2467971462707748,-1.3479157413089196,13.736282232271854,-0.0017377562741688838,0.0019174588962355772,-0.005857191275081697,0.4,-0.05115653271029611,0.03943978242694098,0.8039674741966648,-0.03761344700462093,0.05687371012754738,0.14604405732825398,1.320153847336769,-0.10757545941738099,1.3586045242846012,1.2472528964281082,16.35102927684784,0.0,0.0,0.0,0.0,0.0,0.0,0.0,0.0,0.0,0.0,0.0,0.0,0.0,0.0,0.0,0.0,True,0,3.574719190597534,0.034924072265625
STABILIZE,3.5948433876037598,24.18260754253559,0.03233149846394857,0.04044365882873535,0.0,0.0,0.0,-0.2464214858664241,-1.3474791428105677,13.737566307835817,-0.0025010436744582897,0.0028310514416075064,-0.0054190119670940555,0.4,-0.04855103057166889,0.03975550254527133,0.7979276544347458,-0.03542022488723612,-0.0515557243488729,0.1286506070755422,1.5834428369998932,-0.005150656325277194,1.4714245684444904,1.4078483916819096,23.90354871749878,0.0,0.0,0.0,0.0,0.0,0.0,0.0,0.0,0.0,0.0,0.0,0.0,0.0,0.0,0.0,0.0,True,0,3.6321208477020264,0.034924072265625
STABILIZE,3.62833571434021,29.85758522747496,0.03241923650105794,0.032552242279052734,0.0,0.0,0.0,-0.24646833669526216,-1.3484456145781245,13.738116138064003,-0.003055733130596433,0.0028357115700140836,-0.005223330400233878,0.4,-0.047662867722939525,0.040850080262144366,0.7969540675176505,-0.03464675296677913,-0.05187008646316826,0.14136969111859798,1.4937588945031166,-0.03657406217983156,-4.13270890712738,1.221744529902935,13.466718792915344,0.0,0.0,0.0,0.0,0.0,0.0,0.0,0.0,0.0,0.0,0.0,0.0,0.0,0.0,0.0,0.0,True,0,3.6607766151428223,0.034923828125
