E-kp,E-ki,E-kd,E-I-Tot,E-P,E-I,E-D,E-PID,N-kp,N-ki,N-kd,N-I-Tot,N-P,N-I,N-D,N-PID,D-kp,D-ki,D-kd,D-I-Tot,D-P,D-I,D-D,D-PID,Y-kp,Y-ki,Y-kd,Y-I-Tot,Y-P,Y-I,Y-D,Y-PID,errorN,desiredN,actualN,errorE,desiredE,actualE,errorD,desiredD,actualD,errorY,desiredY,actualY,roll,pitch,yaw-rate,thrust,dt,Time,Mode
0.12,0.001,0.04,-0.0012866632061097744,-0.004671654745927344,-1.2866632061097745e-06,-0.047116616500537535,-0.05178955790967099,0.1,0.001,0.04,0.0008650281237484853,0.0026173080365817845,8.650281237484854e-07,0.03167666423917279,0.03429483730387833,0.002,8e-05,0,-0.022995779390015972,-0.0013915625758880064,-1.839662351201278e-06,-0.0,-0.0013934022382392076,0.2,0.02,0,0.0009032617894367415,0.005465982609641521,1.806523578873483e-05,0.0,0.005484047845430256,0.026173080365817843,0.0,-0.026173080365817843,-0.0389304562160612,0.0,0.0389304562160612,-0.6957812879440032,0.0,0.6957812879440032,0.027329913048207602,0,-0.027329913048207602,-0.05180591055068939,-0.03427012994128589,-0.005484047845430256,0.4,0.0330502986907959,0.0333864688873291,STABILIZE
0.12,0.001,0.04,-0.002572153313081296,-0.004519319356796212,-2.5721533130812957e-06,-0.022814480112602134,-0.02733637162271143,0.1,0.001,0.04,0.0017673995793980061,0.0026436770201631737,1.7673995793980062e-06,0.01599283850496181,0.01863828292470438,0.002,8e-05,0,-0.04668617824770986,-0.0013881148980605723,-3.7348942598167893e-06,-0.0,-0.0013918497923203891,0.2,0.02,0,0.0019839375787856234,0.00633211020286966,3.967875157571247e-05,0.0,0.006371788954445372,0.026436770201631737,0.0,-0.026436770201631737,-0.037660994639968436,0.0,0.037660994639968436,-0.6940574490302861,0.0,0.6940574490302861,0.031660551014348295,0,-0.031660551014348295,-0.027346666607040774,-0.01862317452422306,-0.006371788954445372,0.4,0.034133195877075195,0.06744980812072754,STABILIZE
0.12,0.001,0.04,-0.00367093658794807,-0.00393846794371714,-3.67093658794807e-06,-0.013281877406828981,-0.017224016287134068,0.1,0.001,0.04,0.002513793709725842,0.002229473138542907,2.5137937097258424e-06,0.00901226087888937,0.011244247811142003,0.002,8e-05,0,-0.06979881670700903,-0.001380745225936552,-5.583905336560723e-06,-0.0,-0.0013863291312731128,0.2,0.02,0,0.003182465821923308,0.007159988041939284,6.364931643846616e-05,0.0,0.00722363735837775,0.022294731385429065,0.0,-0.022294731385429065,-0.032820566197642835,0.0,0.032820566197642835,-0.690372612968276,0.0,0.690372612968276,0.035799940209696415,0,-0.035799940209696415,-0.017231038632175965,-0.01123348358944325,-0.00722363735837775,0.4,0.033478498458862305,0.10089731216430664,STABILIZE
0.12,0.001,0.04,-0.004746139180013035,-0.003857489371480605,-4.7461391800130346e-06,-0.00975965409935987,-0.013621889610020489,0.1,0.001,0.04,0.003245315040661623,0.0021870574128086597,3.245315040661623e-06,0.006632383735216601,0.008822686463065922,0.002,8e-05,0,-0.09297029910356648,-0.0013855334136689786,-7.437623928285319e-06,-0.0,-0.0013929710375972639,0.2,0.02,0,0.004351251977957899,0.006988729701903929,8.702503955915798e-05,0.0,0.007075754741463087,0.021870574128086597,0.0,-0.021870574128086597,-0.03214574476233838,0.0,0.03214574476233838,-0.6927667068344893,0.0,0.6927667068344893,0.03494364850951964,0,-0.03494364850951964,-0.0136272678715048,-0.00881437708130324,-0.007075754741463087,0.4,0.0334477424621582,0.13438081741333008,STABILIZE
0.12,0.001,0.04,-0.005939832520212706,-0.003712021514381734,-5.939832520212707e-06,-0.0075564118445316086,-0.011274373191433555,0.1,0.001,0.04,0.0043127427086446565,0.002766144882135697,4.312742708644656e-06,0.00650643036798386,0.009276887992828203,0.002,8e-05,0,-0.1195991194224192,-0.0013801248974834755,-9.567929553793537e-06,-0.0,-0.001389692827037269,0.2,0.02,0,0.005725814363584719,0.007124114958276116,0.00011451628727169437,0.0,0.007238631245547811,0.027661448821356967,0.0,-0.027661448821356967,-0.030933512619847784,0.0,0.030933512619847784,-0.6900624487417377,0.0,0.6900624487417377,0.03562057479138058,0,-0.03562057479138058,-0.011280138419301866,-0.009269876964263643,-0.007238631245547811,0.4,0.0385890007019043,0.1729590892791748,STABILIZE
0.12,0.001,0.04,-0.00700712684460128,-0.0038257082396840445,-7.0071268446012805e-06,0.0016405174631570524,-0.002192197903371593,0.1,0.001,0.04,0.005202128987054919,0.0026566651889622034,5.202128987054919e-06,-9.052188803150952e-05,0.0025713454299177486,0.002,8e-05,0,-0.14270556631861978,-0.0013804146657055393,-1.1416445305489582e-05,0.0,-0.0013918311110110288,0.2,0.02,0,0.0067739717961504044,0.0062618536652636605,0.0001354794359230081,0.0,0.006397333101186668,0.026566651889622032,0.0,-0.026566651889622032,-0.03188090199736704,0.0,0.03188090199736704,-0.6902073328527696,0.0,0.6902073328527696,0.0313092683263183,0,-0.0313092683263183,-0.002193602687242363,-0.002570147119919166,-0.006397333101186668,0.4,0.0334775447845459,0.20649218559265137,STABILIZE
0.12,0.001,0.04,-0.008107369751935746,-0.0039452170217970945,-8.107369751935747e-06,0.001104913486803328,-0.0028484109047457024,0.1,0.001,0.04,0.006054717283724998,0.002547653975760693,6.0547172837249975e-06,-0.00041291713556019464,0.0021407915574842237,0.002,8e-05,0,-0.1658110607000944,-0.0013808494639859876,-1.3264884856007555e-05,0.0,-0.0013941143488419951,0.2,0.02,0,0.0076745654743226085,0.005382201641053525,0.00015349130948645218,-0.0,0.0055356929505399775,0.025476539757606928,0.0,-0.025476539757606928,-0.03287680851497579,0.0,0.03287680851497579,-0.6904247319929938,0.0,0.6904247319929938,0.026911008205267622,0,-0.026911008205267622,-0.002849416089699792,-0.0021394534635345327,-0.0055356929505399775,0.4,0.03346562385559082,0.23991799354553223,STABILIZE
0.12,0.001,0.04,-0.009154968253408984,-0.0037579991747723586,-9.154968253408985e-06,0.0003213575974909011,-0.0034457965455348665,0.1,0.001,0.04,0.006807541564068982,0.0022504749516017697,6.807541564068982e-06,-0.00013384217147427769,0.002123440321691561,0.002,8e-05,0,-0.18878851967670274,-0.0013737653587550754,-1.510308157413622e-05,0.0,-0.0013888684403292116,0.2,0.02,0,0.008457617641860397,0.004681674953512532,0.00016915235283720793,-0.0,0.00485082730634974,0.0225047495160177,0.0,-0.0225047495160177,-0.031316659789769656,0.0,0.031316659789769656,-0.6868826793775377,0.0,0.6868826793775377,0.02340837476756266,0,-0.02340837476756266,-0.003446663796296334,-0.0021220323532655486,-0.00485082730634974,0.4,0.03345179557800293,0.2733879089355469,STABILIZE
0.12,0.001,0.04,-0.010159072037350109,-0.003600663888684132,-1.015907203735011e-05,0.0004733967350805432,-0.0031374262256409387,0.1,0.001,0.04,0.007617945456970077,0.002421721803966027,7.617945456970077e-06,0.00037699556521456236,0.0028063353146375596,0.002,8e-05,0,-0.21175524362845258,-0.0013726246047638204,-1.694041949027621e-05,0.0,-0.0013895650242540967,0.2,0.02,0,0.009197177045499924,0.0044200358581953075,0.00018394354090999848,-0.0,0.004603979399105306,0.024217218039660267,0.0,-0.024217218039660267,-0.0300055324057011,0.0,0.0300055324057011,-0.6863123023819102,0.0,0.6863123023819102,0.022100179290976536,0,-0.022100179290976536,-0.0031385084543861788,-0.002805124935055107,-0.004603979399105306,0.4,0.03346395492553711,0.30684924125671387,STABILIZE
0.12,0.001,0.04,-0.011204819281808902,-0.003751598896995673,-1.1204819281808902e-05,-7.873500574901948e-05,-0.0038415387220265018,0.1,0.001,0.04,0.008319322729067399,0.0020968149922784944,8.319322729067399e-06,-0.0016005925994900358,0.0005045417155175261,0.002,8e-05,0,-0.23470150565494782,-0.001371988176635121,-1.8776120452395828e-05,0.0,-0.0013907642970875168,0.2,0.02,0,0.009933896074988085,0.004404943152800913,0.0001986779214997617,-0.0,0.004603621074300675,0.020968149922784944,0.0,-0.020968149922784944,-0.03126332414163061,0.0,0.03126332414163061,-0.6859940883175605,0.0,0.6859940883175605,0.022024715764004565,0,-0.022024715764004565,-0.0038417323859529563,-0.0005030649761676743,-0.004603621074300675,0.4,0.033449649810791016,0.34031081199645996,STABILIZE
0.12,0.001,0.04,-0.012293216564583655,-0.003906972172393099,-1.2293216564583655e-05,-0.000162194712341689,-0.004081460101299372,0.1,0.001,0.04,0.008911511740246729,0.001771462516560882,8.911511740246729e-06,-0.002117575569298305,-0.0003372015409971764,0.002,8e-05,0,-0.2576236798570105,-0.0013713787871938899,-2.060989438856084e-05,0.0,-0.0013919886815824507,0.2,0.02,0,0.010667575468993171,0.004389428108653423,0.00021335150937986343,-0.0,0.004602779618033286,0.01771462516560882,0.0,-0.01771462516560882,-0.03255810143660916,0.0,0.03255810143660916,-0.6856893935969449,0.0,0.6856893935969449,0.021947140543267112,0,-0.021947140543267112,-0.004081330636867553,0.0003387649189568517,-0.004602779618033286,0.4,0.03342938423156738,0.3737335205078125,STABILIZE
0.12,0.001,0.04,-0.013423136775804293,-0.004029499655597637,-1.3423136775804294e-05,-0.00016687485019508126,-0.004209797642568522,0.1,0.001,0.04,0.009442432283356804,0.0015777988306659976,9.442432283356804e-06,-0.0023174093425356217,-0.0007301680795862673,0.002,8e-05,0,-0.2806387765922229,-0.0013679332317323495,-2.2451102127377836e-05,0.0,-0.0013903843338597273,0.2,0.02,0,0.011478090971525003,0.004817407910570331,0.00022956181943050005,-0.0,0.005046969730000831,0.015777988306659975,0.0,-0.015777988306659975,-0.03357916379664697,0.0,0.03357916379664697,-0.6839666158661747,0.0,0.6839666158661747,0.024087039552851654,0,-0.024087039552851654,-0.004209490309261271,0.0007319378061404109,-0.005046969730000831,0.4,0.033649444580078125,0.40744638442993164,STABILIZE
0.12,0.001,0.04,-0.014400272792943536,-0.0035033099258301764,-1.4400272792943536e-05,0.0005080929438357694,-0.0030096172547873505,0.1,0.001,0.04,0.009989563642810081,0.0016346843297529038,9.989563642810082e-06,-0.0014707383266808277,0.00017393556671488624,0.002,8e-05,0,-0.30347781317359546,-0.0013647404617249414,-2.427822505388764e-05,0.0,-0.001389018686778829,0.2,0.02,0,0.012240954877245863,0.004558472662441057,0.00024481909754491725,-0.0,0.004803291759985974,0.016346843297529036,0.0,-0.016346843297529036,-0.029194249381918138,0.0,0.029194249381918138,-0.6823702308624707,0.0,0.6823702308624707,0.022792363312205285,0,-0.022792363312205285,-0.003009686208533951,-0.00017273832187069736,-0.004803291759985974,0.4,0.03347015380859375,0.44085264205932617,STABILIZE
0.12,0.001,0.04,-0.015312278992615934,-0.0032662645169727962,-1.5312278992615934e-05,0.0006662927862601443,-0.0026152840097052677,0.1,0.001,0.04,0.010506178129905923,0.0015418385393664502,1.0506178129905922e-05,-0.002101805507530931,-0.0005494607900345747,0.002,8e-05,0,-0.32647971507548085,-0.0013729858421285017,-2.611837720603847e-05,-0.0,-0.00139910421933454,0.2,0.02,0,0.013127041776684261,0.005289061630702557,0.0002625408355336852,0.0,0.005551602466236242,0.015418385393664502,0.0,-0.015418385393664502,-0.027218870974773303,0.0,0.027218870974773303,-0.6864929210642509,0.0,0.6864929210642509,0.026445308153512783,0,-0.026445308153512783,-0.0026150301232821666,0.0005506678359340942,-0.005551602466236242,0.4,0.03350639343261719,0.4743468761444092,STABILIZE
0.12,0.001,0.04,-0.016270872670776988,-0.003366659659774436,-1.627087267077699e-05,0.0007712264366157817,-0.0026117040958294315,0.1,0.001,0.04,0.010972619049620035,0.0013651489884310784,1.0972619049620035e-05,-0.001738439523974674,-0.00036231791649397557,0.002,8e-05,0,-0.349873199064655,-0.001369330590603994,-2.7989855925172405e-05,0.0,-0.0013973204465291666,0.2,0.02,0,0.013953727590639418,0.004838980693901856,0.00027907455181278837,0.0,0.005118055245714644,0.013651489884310784,0.0,-0.013651489884310784,-0.02805549716478697,0.0,0.02805549716478697,-0.684665295301997,0.0,0.684665295301997,0.02419490346950928,0,-0.02419490346950928,-0.00261155086309967,0.0003634207564629913,-0.005118055245714644,0.4,0.03416776657104492,0.5085330009460449,STABILIZE
0.12,0.001,0.04,-0.017201106620817187,-0.003335509103225986,-1.7201106620817186e-05,0.0011431332023934112,-0.002209577007453392,0.1,0.001,0.04,0.011526703546425156,0.0016556353762495334,1.1526703546425156e-05,-0.00026544552483135275,0.0014017165549646059,0.002,8e-05,0,-0.3727267750258475,-0.0013657551890849595,-2.9818142002067804e-05,0.0,-0.0013955733310870274,0.2,0.02,0,0.014825182781773477,0.005207913419621631,0.0002965036556354695,0.0,0.0055044170752571,0.016556353762495334,0.0,-0.016556353762495334,-0.027795909193549885,0.0,0.027795909193549885,-0.6828775945424798,0.0,0.6828775945424798,0.02603956709810815,0,-0.02603956709810815,-0.0022102138260266116,-0.0014007122101164595,-0.0055044170752571,0.4,0.03346657752990723,0.5419955253601074,STABILIZE
0.12,0.001,0.04,-0.01820336001204768,-0.0034179420481349875,-1.820336001204768e-05,0.0012297096389171913,-0.0022064357692298435,0.1,0.001,0.04,0.012006437927690022,0.0013633481047210525,1.2006437927690022e-05,-0.00046953561276686897,0.0009058189298818734,0.002,8e-05,0,-0.3965526686978324,-0.001354207171699529,-3.172421349582659e-05,0.0,-0.0013859313851953556,0.2,0.02,0,0.015727346746601537,0.00512768556780546,0.00031454693493203074,0.0,0.0054422325027374905,0.013633481047210525,0.0,-0.013633481047210525,-0.028482850401124898,0.0,0.028482850401124898,-0.6771035858497645,0.0,0.6771035858497645,0.025638427839027297,0,-0.025638427839027297,-0.0022068408796230275,-0.0009048315144234846,-0.0054422325027374905,0.4,0.03518795967102051,0.577195405960083,STABILIZE
0.12,0.001,0.04,-0.0191838167604611,-0.0035152156898484725,-1.91838167604611e-05,-1.21198729246208e-05,-0.0035465193795335545,0.1,0.001,0.04,0.012365898877332828,0.0010739745974830612,1.2365898877332828e-05,-0.0012971601484772308,-0.00021081965211683677,0.002,8e-05,0,-0.4191423328216147,-0.0013498392778811944,-3.353138662572918e-05,0.0,-0.0013833706645069235,0.2,0.02,0,0.016577321786186622,0.005079002889833422,0.00033154643572373243,0.0,0.005410549325557155,0.01073974597483061,0.0,-0.01073974597483061,-0.029293464082070605,0.0,0.029293464082070605,-0.6749196389405973,0.0,0.6749196389405973,0.02539501444916711,0,-0.02539501444916711,-0.0035464255902991127,0.00021239154313983718,-0.005410549325557155,0.4,0.03347015380859375,0.6106650829315186,STABILIZE
0.12,0.001,0.04,-0.020158153018524576,-0.0034008994344187477,-2.0158153018524578e-05,-0.00026208513226206795,-0.0036831427196993404,0.1,0.001,0.04,0.012686608519299293,0.0009328583355676716,1.2686608519299293e-05,-0.0014038566524774239,-0.00045831170839045294,0.002,8e-05,0,-0.44265234665326864,-0.001367686499083357,-3.541218773226149e-05,0.0,-0.0014030986868156185,0.2,0.02,0,0.01736633918120667,0.00459007998224951,0.00034732678362413337,-0.0,0.004937406765873644,0.009328583355676715,0.0,-0.009328583355676715,-0.02834082862015623,0.0,0.02834082862015623,-0.6838432495416785,0.0,0.6838432495416785,0.02295039991124755,0,-0.02295039991124755,-0.0036829588428695047,0.0004597869913898718,-0.004937406765873644,0.4,0.03437924385070801,0.6456248760223389,STABILIZE
0.12,0.001,0.04,-0.021227013248366462,-0.003832877132019614,-2.1227013248366463e-05,-0.0009267815500085616,-0.004780885695276542,0.1,0.001,0.04,0.013077457506475959,0.0011679700981141333,1.307745750647596e-05,-0.0004280921584990287,0.0007529553971215804,0.002,8e-05,0,-0.4654101163419839,-0.0013601362863029881,-3.723280930735872e-05,0.0,-0.0013973690956103468,0.2,0.02,0,0.01818706126971901,0.004905111128308562,0.0003637412253943802,0.0,0.005268852353702942,0.011679700981141333,0.0,-0.011679700981141333,-0.03194064276683012,0.0,0.03194064276683012,-0.680068143151494,0.0,0.680068143151494,0.02452555564154281,0,-0.02452555564154281,-0.004781207561105407,-0.0007509088619685305,-0.005268852353702942,0.4,0.03346395492553711,0.6785097122192383,STABILIZE
0.12,0.001,0.04,-0.02226847268232884,-0.003735577431655314,-2.226847268232884e-05,-0.0007949450758441562,-0.004552790980181799,0.1,0.001,0.04,0.01339945865726725,0.0009624796644635323,1.3399458657267251e-05,-0.0016138618089415933,-0.0006379826858207938,0.002,8e-05,0,-0.4880895253393311,-0.001355800742224445,-3.904716202714649e-05,0.0,-0.0013948479042515914,0.2,0.02,0,0.01893868307674289,0.004493280243564803,0.0003787736615348578,-0.0,0.004872053905099661,0.009624796644635322,0.0,-0.009624796644635322,-0.031129811930460948,0.0,0.031129811930460948,-0.6779003711122225,0.0,0.6779003711122225,0.022466401217824016,0,-0.022466401217824016,-0.004552540469091228,0.0006397678437671565,-0.004872053905099661,0.4,0.03345537185668945,0.7119765281677246,STABILIZE
0.12,0.001,0.04,-0.02328093489305292,-0.0036353506736863817,-2.328093489305292e-05,-0.0004388383314148357,-0.00409746993999427,0.1,0.001,0.04,0.01365240553955339,0.0007568600332155886,1.365240553955339e-05,-0.0014415443422921789,-0.0006710319035370368,0.002,8e-05,0,-0.5106653045429077,-0.0013510113145856395,-4.085322436343262e-05,0.0,-0.001391864538949072,0.2,0.02,0,0.01961960252315312,0.004074853266973258,0.0003923920504630624,-0.0,0.004467245317436321,0.007568600332155886,0.0,-0.007568600332155886,-0.030294588947386514,0.0,0.030294588947386514,-0.6755056572928198,0.0,0.6755056572928198,0.020374266334866293,0,-0.020374266334866293,-0.004097231063313735,0.0006724889133199059,-0.004467245317436321,0.4,0.033420562744140625,0.7453832626342773,STABILIZE
0.12,0.001,0.04,-0.024256130131117274,-0.0034955299894978064,-2.4256130131117273e-05,3.334646423021839e-05,-0.003486439655398705,0.1,0.001,0.04,0.013808337768928697,0.0004657749228353898,1.3808337768928697e-05,-0.0014454718868007355,-0.000965888626196417,0.002,8e-05,0,-0.5333893669845658,-0.0013575510941737355,-4.267114935876527e-05,-0.0,-0.0014002222435325008,0.2,0.02,0,0.02039773844478251,0.004648637427994958,0.00040795476889565025,-0.0,0.005056592196890608,0.0046577492283538975,0.0,-0.0046577492283538975,-0.029129416579148387,0.0,0.029129416579148387,-0.6787755470868677,0.0,0.6787755470868677,0.023243187139974787,0,-0.023243187139974787,-0.0034860475363524736,0.0009673028911582409,-0.005056592196890608,0.4,0.0334780216217041,0.7788760662078857,STABILIZE
0.12,0.001,0.04,-0.02518122311156763,-0.0033014112992730995,-2.518122311156763e-05,0.0001965351791541494,-0.003130057343230518,0.1,0.001,0.04,0.014017947885869415,0.0006233690586910514,1.4017947885869415e-05,-0.0007421553057669117,-0.00010476829918999091,0.002,8e-05,0,-0.5562103127366401,-0.0013573649668764207,-4.449682501893121e-05,0.0,-0.001401861791895352,0.2,0.02,0,0.021166362783944525,0.004571693750125281,0.00042332725567889053,-0.0,0.004995021005804172,0.006233690586910513,0.0,-0.006233690586910513,-0.02751176082727583,0.0,0.02751176082727583,-0.6786824834382104,0.0,0.6786824834382104,0.022858468750626405,0,-0.022858468750626405,-0.003130015296239469,0.0001060170445419177,-0.004995021005804172,0.4,0.03362536430358887,0.812511682510376,STABILIZE
0.12,0.001,0.04,-0.026166414484550603,-0.0034694176903540233,-2.6166414484550604e-05,0.0007284261371979387,-0.0027671579676406353,0.1,0.001,0.04,0.014212970129495992,0.0005723199578320833,1.4212970129495992e-05,-0.0014240695601209997,-0.0008375366321594203,0.002,8e-05,0,-0.5792242191271292,-0.0013507503236580844,-4.633793753017034e-05,0.0,-0.0013970882611882547,0.2,0.02,0,0.02201057804981803,0.004954934743660003,0.0004402115609963606,0.0,0.0053951463046563635,0.005723199578320833,0.0,-0.005723199578320833,-0.02891181408628353,0.0,0.02891181408628353,-0.6753751618290422,0.0,0.6753751618290422,0.02477467371830001,0,-0.02477467371830001,-0.002766795558437183,0.0008387330718996778,-0.0053951463046563635,0.4,0.03407573699951172,0.8465964794158936,STABILIZE
0.12,0.001,0.04,-0.027121119309794346,-0.003423838911829388,-2.7121119309794347e-05,0.0006253467441558333,-0.002825613286983349,0.1,0.001,0.04,0.014341620422508465,0.00038447998759014385,1.4341620422508465e-05,-0.0013817893617753666,-0.0009829677537627143,0.002,8e-05,0,-0.6017340153508124,-0.0013454405691713904,-4.8138721228064994e-05,0.0,-0.0013935792903994554,0.2,0.02,0,0.02259748565077861,0.003508025078683741,0.0004519497130155722,-0.0,0.0039599747916993135,0.003844799875901438,0.0,-0.003844799875901438,-0.028531990931911565,0.0,0.028531990931911565,-0.6727202845856952,0.0,0.6727202845856952,0.017540125393418704,0,-0.017540125393418704,-0.002825312235775794,0.0009838327209895719,-0.0039599747916993135,0.4,0.03346085548400879,0.8800396919250488,STABILIZE
0.12,0.001,0.04,-0.02803469449897211,-0.003266398491406573,-2.8034694498972108e-05,0.0007381457459497336,-0.0025562874399558113,0.1,0.001,0.04,0.014671736492462398,0.0009835813604069427,1.4671736492462398e-05,0.0005384285278263355,0.0015366816247257406,0.002,8e-05,0,-0.6242720451803531,-0.0013430419212082175,-4.994176361442825e-05,0.0,-0.0013929836848226456,0.2,0.02,0,0.02314444206009777,0.003259314999336521,0.00046288884120195543,-0.0,0.0037222038405384764,0.009835813604069425,0.0,-0.009835813604069425,-0.02721998742838811,0.0,0.02721998742838811,-0.6715209606041087,0.0,0.6715209606041087,0.016296574996682602,0,-0.016296574996682602,-0.0025567244131979128,-0.0015359544805766102,-0.0037222038405384764,0.4,0.033562660217285156,0.9135959148406982,STABILIZE
0.12,0.001,0.04,-0.02895145981030938,-0.0032873789878199154,-2.895145981030938e-05,0.0004179169433051258,-0.002898413504325099,0.1,0.001,0.04,0.014912767360042066,0.000720249591779023,1.4912767360042066e-05,0.0006045021019587578,0.0013396644610978229,0.002,8e-05,0,-0.6466836094156662,-0.0013394068696432162,-5.17346887532533e-05,0.0,-0.0013911415583964695,0.2,0.02,0,0.023714115768811283,0.0034046034042717003,0.00047428231537622565,-0.0,0.0038788857196479258,0.00720249591779023,0.0,-0.00720249591779023,-0.027394824898499297,0.0,0.027394824898499297,-0.6697034348216081,0.0,0.6697034348216081,0.0170230170213585,0,-0.0170230170213585,-0.0028988114010144164,-0.001338803261025105,-0.0038788857196479258,0.4,0.033464908599853516,0.9470813274383545,STABILIZE
0.12,0.001,0.04,-0.029821167591538408,-0.0031208613813919943,-2.982116759153841e-05,0.00036501365301564034,-0.0027856688959678926,0.1,0.001,0.04,0.015214067648645423,0.0009009888677547862,1.5214067648645424e-05,0.0006619378277315516,0.0015781407631349832,0.002,8e-05,0,-0.6690310431123724,-0.0013365263655705736,-5.352248344898979e-05,0.0,-0.0013900488490195635,0.2,0.02,0,0.02418051203206494,0.002789362354094293,0.0004836102406412988,-0.0,0.003272972594735592,0.009009888677547862,0.0,-0.009009888677547862,-0.02600717817826662,0.0,0.02600717817826662,-0.6682631827852867,0.0,0.6682631827852867,0.013946811770471464,0,-0.013946811770471464,-0.002786052960965418,-0.0015774626350335756,-0.003272972594735592,0.4,0.03344106674194336,0.9805276393890381,STABILIZE
0.12,0.001,0.04,-0.030718509372896625,-0.0032189676051981864,-3.0718509372896625e-05,0.0004981895577394524,-0.0027514965568316307,0.1,0.001,0.04,0.015522993573709443,0.000923489211733986,1.5522993573709443e-05,0.000835595599328026,0.0017746078046357214,0.002,8e-05,0,-0.691252235498833,-0.0013285405837343716,-5.5300178839906645e-05,0.0,-0.0013838407625742784,0.2,0.02,0,0.024608365265339143,0.002558010274161039,0.0004921673053067828,-0.0,0.0030501775794678217,0.00923489211733986,0.0,-0.00923489211733986,-0.026824730043318222,0.0,0.026824730043318222,-0.6642702918671858,0.0,0.6642702918671858,0.012790051370805194,0,-0.012790051370805194,-0.002751892631325846,-0.0017739935479546838,-0.0030501775794678217,0.4,0.03345203399658203,1.0139803886413574,STABILIZE
0.12,0.001,0.04,-0.03166713232061366,-0.0032849043536052145,-3.166713232061366e-05,0.0002805312638527437,-0.0030360402220730846,0.1,0.001,0.04,0.015709008881225117,0.0005367802656875699,1.5709008881225116e-05,0.0003919594566000241,0.0009444487311688191,0.002,8e-05,0,-0.7142470964661995,-0.0013271152513587264,-5.713976771729597e-05,0.0,-0.0013842550190760223,0.2,0.02,0,0.025037428781396146,0.002476278229161476,0.0005007485756279229,-0.0,0.002977026804789399,0.0053678026568756984,0.0,-0.0053678026568756984,-0.02737420294671012,0.0,0.02737420294671012,-0.6635576256793632,0.0,0.6635576256793632,0.012381391145807379,0,-0.012381391145807379,-0.003036244242815932,-0.0009437926328484899,-0.002977026804789399,0.4,0.03465390205383301,1.0486209392547607,STABILIZE
0.12,0.001,0.04,-0.03260918999058019,-0.003377808769525161,-3.260918999058019e-05,-0.00021726183664854166,-0.0036276797961642825,0.1,0.001,0.04,0.015911767765725383,0.0006058375900600505,1.5911767765725383e-05,-0.0008709863399806401,-0.0002492369821548642,0.002,8e-05,0,-0.7365994264937106,-0.001335762108720478,-5.892795411949685e-05,0.0,-0.0013946900628399748,0.2,0.02,0,0.025485841698860395,0.002679689247037499,0.0005097168339772079,-0.0,0.0031894060810147068,0.006058375900600505,0.0,-0.006058375900600505,-0.028148406412709676,0.0,0.028148406412709676,-0.667881054360239,0.0,0.667881054360239,0.013398446235187494,0,-0.013398446235187494,-0.0036276214136551025,0.0002500852973750162,-0.0031894060810147068,0.4,0.03346753120422363,1.0821077823638916,STABILIZE
0.12,0.001,0.04,-0.03358901554700269,-0.0035125773693018853,-3.358901554700269e-05,-0.00044387252015394736,-0.003990038905002835,0.1,0.001,0.04,0.01612911320964006,0.0006493015369006213,1.6129113209640058e-05,-0.00013759898218167056,0.0005278316679285908,0.002,8e-05,0,-0.7588248268056708,-0.0013279309030699074,-6.070598614445366e-05,0.0,-0.0013886368892143612,0.2,0.02,0,0.025970274328662342,0.0028944048275398294,0.0005194054865732469,-0.0,0.0034138103141130765,0.006493015369006212,0.0,-0.006493015369006212,-0.029271478077515713,0.0,0.029271478077515713,-0.6639654515349537,0.0,0.6639654515349537,0.014472024137699145,0,-0.014472024137699145,-0.003990172099803768,-0.0005268238292371463,-0.0034138103141130765,0.4,0.03347373008728027,1.115664005279541,STABILIZE
0.12,0.001,0.04,-0.03459279294463757,-0.0035997756024791798,-3.459279294463757e-05,-0.0009495641809967934,-0.004583932576420611,0.1,0.001,0.04,0.016268200868929297,0.0004156668298627573,1.6268200868929296e-05,-0.0011285541745666542,-0.0006966191438349677,0.002,8e-05,0,-0.7810530408357775,-0.0013285910923544215,-6.248424326686221e-05,0.0,-0.0013910753356212837,0.2,0.02,0,0.026422955891857267,0.002705699574960252,0.0005284591178371453,-0.0,0.003234158692797397,0.004156668298627573,0.0,-0.004156668298627573,-0.029998130020659833,0.0,0.029998130020659833,-0.6642955461772108,0.0,0.6642955461772108,0.01352849787480126,0,-0.01352849787480126,-0.004583767965137873,0.0006977014680386308,-0.003234158692797397,0.4,0.03346133232116699,1.1490724086761475,STABILIZE
0.12,0.001,0.04,-0.035659279590103496,-0.0036870071116440212,-3.5659279590103496e-05,-0.0009215883268123567,-0.004644254718046481,0.1,0.001,0.04,0.01633071865145936,0.00018011126359975102,1.633071865145936e-05,-0.0017252644147884772,-0.0015288224325372668,0.002,8e-05,0,-0.8041200777091411,-0.0013291044533659732,-6.432960621673129e-05,-0.0,-0.0013934340595827045,0.2,0.02,0,0.02685979944800057,0.0025170580819799645,0.0005371959889600114,-0.0,0.003054254070939976,0.00180111263599751,0.0,-0.00180111263599751,-0.03072505926370018,0.0,0.03072505926370018,-0.6645522266829866,0.0,0.6645522266829866,0.012585290409899821,0,-0.012585290409899821,-0.004643918792893875,0.0015298425282797119,-0.003054254070939976,0.4,0.03471064567565918,1.1837515830993652,STABILIZE
0.12,0.001,0.04,-0.03668387417953742,-0.003687146294451908,-3.668387417953742e-05,-0.0007950184412107124,-0.0045188486098421575,0.1,0.001,0.04,0.016376572203620755,0.00013750866007789916,1.6376572203620756e-05,-0.0009347380416194859,-0.0007808528093379661,0.002,8e-05,0,-0.8262408779400212,-0.0013267463287871936,-6.609927023520171e-05,0.0,-0.0013928455990223952,0.2,0.02,0,0.027106381732935256,0.0014789344773538315,0.0005421276346587051,-0.0,0.0020210621120125365,0.0013750866007789916,0.0,-0.0013750866007789916,-0.030726219120432566,0.0,0.030726219120432566,-0.6633731643935968,0.0,0.6633731643935968,0.007394672386769157,0,-0.007394672386769157,-0.004518747794266219,0.0007814360116718284,-0.0020210621120125365,0.4,0.033345937728881836,1.2171008586883545,STABILIZE
0.12,0.001,0.04,-0.0377245360031381,-0.003711004059181634,-3.77245360031381e-05,-0.000657219598005887,-0.004405948193190659,0.1,0.001,0.04,0.01654661732350168,0.0005053179587347853,1.654661732350168e-05,-0.0002254047991209094,0.0002964597769373775,0.002,8e-05,0,-0.8484431340972111,-0.0013195555119152348,-6.787545072777689e-05,0.0,-0.0013874309626430118,0.2,0.02,0,0.0272830961143294,0.0010502736044139434,0.000545661922286588,-0.0,0.0015959355267005314,0.005053179587347852,0.0,-0.005053179587347852,-0.03092503382651362,0.0,0.03092503382651362,-0.6597777559576175,0.0,0.6597777559576175,0.005251368022069717,0,-0.005251368022069717,-0.004405975346309028,-0.00029605595440530005,-0.0015959355267005314,0.4,0.033651113510131836,1.250746488571167,STABILIZE
0.12,0.001,0.04,-0.038734936430104346,-0.0036260075599542844,-3.873493643010435e-05,-0.00021935426088575083,-0.0038840967572701395,0.1,0.001,0.04,0.016782543324511155,0.0007055531652095494,1.6782543324511155e-05,0.00014977312724778115,0.0008721088357818418,0.002,8e-05,0,-0.8702741693156145,-0.0013057446769105467,-6.962193354524916e-05,0.0,-0.0013753666104557958,0.2,0.02,0,0.02742435958603225,0.0008449165345233262,0.000548487191720645,-0.0,0.0013934037262439713,0.007055531652095494,0.0,-0.007055531652095494,-0.030216729666285705,0.0,0.030216729666285705,-0.6528723384552734,0.0,0.6528723384552734,0.004224582672616631,0,-0.004224582672616631,-0.0038841610498057213,-0.0008718224477823944,-0.0013934037262439713,0.4,0.03343844413757324,1.2841870784759521,STABILIZE
0.12,0.001,0.04,-0.03972649061546858,-0.0035579430968345938,-3.9726490615468586e-05,9.005966048780373e-05,-0.0035076099269622588,0.1,0.001,0.04,0.01701628689788652,0.0006989417435071418,1.7016286897886522e-05,0.0006925358829054689,0.0014084939133104974,0.002,8e-05,0,-0.8919461053315005,-0.0012960716331476148,-7.135568842652005e-05,0.0,-0.001367427321574135,0.2,0.02,0,0.027640091955572103,0.001290169020005263,0.000552801839111442,-0.0,0.001842970859116705,0.006989417435071418,0.0,-0.006989417435071418,-0.02964952580695495,0.0,0.02964952580695495,-0.6480358165738074,0.0,0.6480358165738074,0.006450845100026315,0,-0.006450845100026315,-0.003507768484928387,-0.0014080989878911595,-0.001842970859116705,0.4,0.03344249725341797,1.3176336288452148,STABILIZE
0.12,0.001,0.04,-0.040729564402414584,-0.0035983034768714835,-4.0729564402414584e-05,0.00017716453842632046,-0.0034618685028475777,0.1,0.001,0.04,0.017201519321523164,0.0005537333366989833,1.7201519321523166e-05,0.0008881683992767521,0.0014591032552972586,0.002,8e-05,0,-0.9135744798549151,-0.0012931161572143177,-7.308595838839322e-05,0.0,-0.001366202115602711,0.2,0.02,0,0.02802715773859385,0.002314186937110669,0.000560543154771877,-0.0,0.002874730091882546,0.005537333366989833,0.0,-0.005537333366989833,-0.029985862307262363,0.0,0.029985862307262363,-0.6465580786071589,0.0,0.6465580786071589,0.011570934685553345,0,-0.011570934685553345,-0.003462163099477835,-0.0014584040980610332,-0.002874730091882546,0.4,0.03345155715942383,1.3510937690734863,STABILIZE
0.12,0.001,0.04,-0.041701360714261504,-0.0034863012940724377,-4.1701360714261506e-05,0.0004006682205789321,-0.003127334434207767,0.1,0.001,0.04,0.01738918444639943,0.0005610376369791605,1.738918444639943e-05,0.0010078453612133121,0.001586272182638872,0.002,8e-05,0,-0.9351680959131505,-0.001291111636766328,-7.481344767305205e-05,0.0,-0.00136592508443938,0.2,0.02,0,0.028352495396538238,0.0019452380505307076,0.0005670499079307648,0.0,0.0025122879584614723,0.005610376369791605,0.0,-0.005610376369791605,-0.02905251078393698,0.0,0.02905251078393698,-0.645555818383164,0.0,0.645555818383164,0.009726190252653538,0,-0.009726190252653538,-0.003127603665264386,-0.00158574128212022,-0.0025122879584614723,0.4,0.033449649810791016,1.3845465183258057,STABILIZE
0.12,0.001,0.04,-0.04264122269372291,-0.0033115481013969287,-4.264122269372291e-05,0.000790006787338811,-0.0025641825367518404,0.1,0.001,0.04,0.017597647438167583,0.0006120891858654924,1.7597647438167583e-05,0.0002533571891445473,0.0008830440224482073,0.002,8e-05,0,-0.9570872477652237,-0.0012871805876142157,-7.656697982121791e-05,0.0,-0.0013637475674354337,0.2,0.02,0,0.028617834536564548,0.0015581779463050326,0.000572356690731291,0.0,0.0021305346370363238,0.006120891858654923,0.0,-0.006120891858654923,-0.02759623417830774,0.0,0.02759623417830774,-0.6435902938071079,0.0,0.6435902938071079,0.007790889731525162,0,-0.007790889731525162,-0.0025643025864382795,-0.0008826953452639046,-0.0021305346370363238,0.4,0.0340576171875,1.4186224937438965,STABILIZE
0.12,0.001,0.04,-0.043519184078697766,-0.0031525464354816824,-4.351918407869777e-05,0.0009377350501186934,-0.0022583305694416867,0.1,0.001,0.04,0.017756884189358675,0.00047648380000556287,1.7756884189358676e-05,-0.0005503140658942553,-5.6073381699333724e-05,0.002,8e-05,0,-0.9785344821936733,-0.0012835303010941563,-7.828275857549388e-05,0.0,-0.0013618130596696502,0.2,0.02,0,0.028962678574133687,0.0020637521954089823,0.0005792535714826737,0.0,0.002643005766891656,0.004764838000055629,0.0,-0.004764838000055629,-0.026271220295680686,0.0,0.026271220295680686,-0.6417651505470782,0.0,0.6417651505470782,0.01031876097704491,0,-0.01031876097704491,-0.00225832043420602,5.6480097888950284e-05,-0.002643005766891656,0.4,0.033419132232666016,1.4520280361175537,STABILIZE
0.12,0.001,0.04,-0.04440893221686702,-0.0031537409047303804,-4.4408932216867026e-05,0.0007996983492864418,-0.0023984514876608056,0.1,0.001,0.04,0.017941581343505295,0.0005455541714853661,1.7941581343505297e-05,-0.00037128367921602693,0.00019221207361284448,0.002,8e-05,0,-1.0002909036066248,-0.0012852722623984555,-8.002327228852998e-05,0.0,-0.0013652955346869855,0.2,0.02,0,0.029256714632576515,0.0017370337836744064,0.0005851342926515304,0.0,0.0023221680763259368,0.005455541714853661,0.0,-0.005455541714853661,-0.026281174206086503,0.0,0.026281174206086503,-0.6426361311992277,0.0,0.6426361311992277,0.008685168918372031,0,-0.008685168918372031,-0.002398480596532474,-0.00019184850263191875,-0.0023221680763259368,0.4,0.03385496139526367,1.4859519004821777,STABILIZE
0.12,0.001,0.04,-0.045337994294803556,-0.003331069852103967,-4.533799429480356e-05,0.0005269131354459293,-0.0028494947109528415,0.1,0.001,0.04,0.01809144798894608,0.00044777799417211345,1.8091447988946083e-05,-0.00025772705184674984,0.0002081423903143097,0.002,8e-05,0,-1.0216419759154034,-0.0012758730007907102,-8.173135807323227e-05,0.0,-0.0013576043588639426,0.2,0.02,0,0.02945455365254973,0.0011822238266831053,0.0005890910730509946,-0.0,0.0017713148997341,0.0044777799417211345,0.0,-0.0044777799417211345,-0.027758915434199727,0.0,0.027758915434199727,-0.6379365003953551,0.0,0.6379365003953551,0.005911119133415526,0,-0.005911119133415526,-0.002849516169524562,-0.00020784841113666956,-0.0017713148997341,0.4,0.03346896171569824,1.5193865299224854,STABILIZE
0.12,0.001,0.04,-0.04632051665929595,-0.003525032062739421,-4.632051665929595e-05,-8.291531052551662e-05,-0.0036542678899242334,0.1,0.001,0.04,0.018208904661407493,0.0003511697302203961,1.820890466140749e-05,-0.00050626645657868,-0.00013688782169687643,0.002,8e-05,0,-1.0429282122682115,-0.0012728237095051358,-8.343425698145694e-05,0.0,-0.0013562579664865928,0.2,0.02,0,0.029559206205763376,0.0006257764349826133,0.0005911841241152676,-0.0,0.0012169605590978808,0.003511697302203961,0.0,-0.003511697302203961,-0.029375267189495177,0.0,0.029375267189495177,-0.6364118547525679,0.0,0.6364118547525679,0.003128882174913066,0,-0.003128882174913066,-0.0036542604091278487,0.00013708737848901512,-0.0012169605590978808,0.4,0.033447265625,1.5528132915496826,STABILIZE
0.12,0.001,0.04,-0.047275782105080266,-0.0034280233404474264,-4.727578210508027e-05,-0.00023158827056700998,-0.0037068873931195164,0.1,0.001,0.04,0.018421513889609144,0.0006358000629442543,1.8421513889609145e-05,5.475668568270291e-05,0.0007089782625165663,0.002,8e-05,0,-1.0642545937867822,-0.0012755151624011423,-8.514036750294259e-05,0.0,-0.001360655529904085,0.2,0.02,0,0.02966787897969739,0.0006499638523878291,0.0005933575795939478,-0.0,0.0012433214319817769,0.006358000629442542,0.0,-0.006358000629442542,-0.02856686117039522,0.0,0.02856686117039522,-0.6377575812005711,0.0,0.6377575812005711,0.003249819261939145,0,-0.003249819261939145,-0.003706927600436479,-0.0007087680065519759,-0.0012433214319817769,0.4,0.03343963623046875,1.586235523223877,STABILIZE
0.12,0.001,0.04,-0.048240690042881604,-0.0034609233335344894,-4.8240690042881605e-05,-0.0006143337331289189,-0.00412349775670629,0.1,0.001,0.04,0.018543269305503242,0.0003639260487484646,1.8543269305503243e-05,-0.0002707294966773926,0.00011173982137657523,0.002,8e-05,0,-1.085520451206538,-0.0012712698498358987,-8.684163609652305e-05,0.0,-0.0013581114859324219,0.2,0.02,0,0.029815441302828614,0.0008821254119488011,0.0005963088260565722,-0.0,0.0014784342380053735,0.003639260487484646,0.0,-0.003639260487484646,-0.02884102777945408,0.0,0.02884102777945408,-0.6356349249179494,0.0,0.6356349249179494,0.004410627059744005,0,-0.004410627059744005,-0.00412350634621599,-0.00011142239433582936,-0.0014784342380053735,0.4,0.03345608711242676,1.6197643280029297,STABILIZE
0.12,0.001,0.04,-0.049214483488974614,-0.003494387531349449,-4.921448348897461e-05,-0.0006786948581560535,-0.0042222968729944774,0.1,0.001,0.04,0.01876385698456036,0.0006596358108240899,1.876385698456036e-05,0.0002734778329238466,0.0009518775007324969,0.002,8e-05,0,-1.1067537184176595,-0.001269900793473254,-8.854029747341277e-05,0.0,-0.0013584410909466666,0.2,0.02,0,0.02993822725094087,0.0007343475282666212,0.0005987645450188174,-0.0,0.0013331120732854385,0.006596358108240899,0.0,-0.006596358108240899,-0.029119896094578743,0.0,0.029119896094578743,-0.6349503967366269,0.0,0.6349503967366269,0.003671737641333106,0,-0.003671737641333106,-0.0042223578643576275,-0.0009516069174806299,-0.0013331120732854385,0.4,0.03344082832336426,1.6531691551208496,STABILIZE
0.12,0.001,0.04,-0.050266764492990286,-0.0037791329821188816,-5.0266764492990285e-05,-0.0008936002549938737,-0.004723000001605746,0.1,0.001,0.04,0.01922089082880272,0.001367815621595407,1.9220890828802718e-05,0.0022027480161769374,0.003589784528601147,0.002,8e-05,0,-1.1283427941087887,-0.001292240185629355,-9.02674235287031e-05,-0.0,-0.001382507609158058,0.2,0.02,0,0.02986678262618379,-0.00042764042555209635,0.0005973356525236758,-0.0,0.00016969522697157942,0.01367815621595407,0.0,-0.01367815621595407,-0.03149277485099068,0.0,0.03149277485099068,-0.6461200928146775,0.0,0.6461200928146775,-0.0021382021277604815,0,0.0021382021277604815,-0.004722866032342805,-0.0035899607821666484,-0.00016969522697157942,0.4,0.03341341018676758,1.6865568161010742,STABILIZE
0.12,0.001,0.04,-0.05134557917696064,-0.003872297763621327,-5.134557917696065e-05,-0.0006927781729038292,-0.004616421515702116,0.1,0.001,0.04,0.019828605194502535,0.0018177751117236095,1.9828605194502535e-05,0.003510541215750899,0.0053481449326690115,0.002,8e-05,0,-1.1499641360766855,-0.001293460860220046,-9.199713088613485e-05,-0.0,-0.0013854579911061807,0.2,0.02,0,0.0296971618524122,-0.0010147280972640487,0.000593943237048244,-0.0,-0.00042078486021580473,0.018177751117236095,0.0,-0.018177751117236095,-0.032269148030177726,0.0,0.032269148030177726,-0.646730430110023,0.0,0.646730430110023,-0.0050736404863202435,0,0.0050736404863202435,-0.004615947910108748,-0.005348553703818756,0.00042078486021580473,0.4,0.0334317684173584,1.7200229167938232,STABILIZE
0.12,0.001,0.04,-0.05244374912531305,-0.0039408441196563185,-5.244374912531305e-05,-0.001022835747266514,-0.005016123616048146,0.1,0.001,0.04,0.02057851964472953,0.0022425915313746946,2.057851964472953e-05,0.003845918277776462,0.006109088328795886,0.002,8e-05,0,-1.1715046754148135,-0.0012883237837677903,-9.372037403318508e-05,-0.0,-0.0013820441578009754,0.2,0.02,0,0.02943565646321077,-0.0015640444614834588,0.0005887131292642154,-0.0,-0.0009753313322192434,0.022425915313746946,0.0,-0.022425915313746946,-0.032840367663802654,0.0,0.032840367663802654,-0.6441618918838952,0.0,0.6441618918838952,-0.007820222307417293,0,0.007820222307417293,-0.005015289748246398,-0.00610977291571795,0.0009753313322192434,0.4,0.03343963623046875,1.7534458637237549,STABILIZE
0.12,0.001,0.04,-0.05350149571909753,-0.0037954038091936406,-5.350149571909753e-05,-0.0006673502014247179,-0.004516255506337456,0.1,0.001,0.04,0.021347701731829698,0.0022999811111802802,2.13477017318297e-05,0.004633305267542456,0.006954634080454566,0.002,8e-05,0,-1.1929387657035837,-0.0012818291956163122,-9.54351012562867e-05,-0.0,-0.0013772642968725988,0.2,0.02,0,0.02905845956917497,-0.0022557616617123236,0.0005811691913834994,-0.0,-0.0016745924703288242,0.0229998111118028,0.0,-0.0229998111118028,-0.03162836507661367,0.0,0.03162836507661367,-0.6409145978081561,0.0,0.6409145978081561,-0.011278808308561619,0,0.011278808308561619,-0.004514886382844591,-0.006955522981167412,0.0016745924703288242,0.4,0.03344297409057617,1.7868762016296387,STABILIZE
0.12,0.001,0.04,-0.054466695293351464,-0.003461476021311699,-5.446669529335146e-05,6.467337565475006e-05,-0.0034512693409503004,0.1,0.001,0.04,0.022191069981765246,0.0025204623065856824,2.2191069981765247e-05,0.004453021383512004,0.006995674760079451,0.002,8e-05,0,-1.2150587778748287,-0.0013221426560248272,-9.72047022299863e-05,-0.0,-0.0014193473582548135,0.2,0.02,0,0.028536210819932684,-0.003121550490494023,0.0005707242163986537,-0.0,-0.002550826274095369,0.025204623065856822,0.0,-0.025204623065856822,-0.028845633510930828,0.0,0.028845633510930828,-0.6610713280124136,0.0,0.6610713280124136,-0.015607752452470113,0,0.015607752452470113,-0.003449363544462747,-0.006996614649294871,0.002550826274095369,0.4,0.03346085548400879,1.8203988075256348,STABILIZE
0.12,0.001,0.04,-0.055440832059900705,-0.003496541878552505,-5.544083205990071e-05,0.0005628747417450452,-0.0029891079688673604,0.1,0.001,0.04,0.023107938438753473,0.002742487046881809,2.310793843875347e-05,0.0032887497461012256,0.006054344731421787,0.002,8e-05,0,-1.237012293232795,-0.0013133232154264466,-9.896098345862361e-05,-0.0,-0.00141228419888507,0.2,0.02,0,0.028076822622741,-0.0027481939654180063,0.00056153645245482,-0.0,-0.0021866575129631865,0.027424870468818086,0.0,-0.027424870468818086,-0.029137848987937545,0.0,0.029137848987937545,-0.6566616077132232,0.0,0.6566616077132232,-0.01374096982709003,0,0.01374096982709003,-0.0029876558986907196,-0.006055061420618263,0.0021866575129631865,0.4,0.0334320068359375,1.8538129329681396,STABILIZE
0.12,0.001,0.04,-0.05636826861813874,-0.003327208929090509,-5.636826861813874e-05,0.0010861487306003741,-0.0022974284671082737,0.1,0.001,0.04,0.0241035981031901,0.0029766346247827443,2.41035981031901e-05,0.0027720346428437826,0.005772772865729717,0.002,8e-05,0,-1.2590669663704066,-0.0013186976643635928,-0.00010072535730963253,-0.0,-0.0014194230216732252,0.2,0.02,0,0.02773496459901958,-0.00204404470024354,0.0005546992919803917,-0.0,-0.001489345408263148,0.02976634624782744,0.0,-0.02976634624782744,-0.027726741075754242,0.0,0.027726741075754242,-0.6593488321817964,0.0,0.6593488321817964,-0.010220223501217698,0,0.010220223501217698,-0.0022963987032537723,-0.005773182581252662,0.001489345408263148,0.4,0.03344917297363281,1.8872456550598145,STABILIZE
0.12,0.001,0.04,-0.05752523328663799,-0.0031893231851279906,-5.7525233286637995e-05,0.0014339722648067587,-0.0018128761536078699,0.1,0.001,0.04,0.02541569047859909,0.0030141273597617656,2.5415690478599088e-05,0.001824618754583725,0.00486416180482409,0.002,8e-05,0,-1.2875970257645957,-0.0013107801585821876,-0.00010300776206116767,-0.0,-0.0014137879206433553,0.2,0.02,0,0.027365988113187474,-0.0016952192420272892,0.0005473197622637495,-0.0,-0.0011478994797635396,0.030141273597617653,0.0,-0.030141273597617653,-0.026577693209399924,0.0,0.026577693209399924,-0.6553900792910938,0.0,0.6553900792910938,-0.008476096210136445,0,0.008476096210136445,-0.001812156550170438,-0.004864429940856789,0.0011478994797635396,0.4,0.04353141784667969,1.930799961090088,STABILIZE
0.12,0.001,0.04,-0.05838790617955351,-0.0030909895484769437,-5.838790617955351e-05,0.0013397859077800209,-0.0018095915468764765,0.1,0.001,0.04,0.02637423162100621,0.0028620742551987268,2.637423162100621e-05,0.0013241273088901795,0.0042125757957099125,0.002,8e-05,0,-1.309360258549846,-0.0012996414135785978,-0.0001047488206839877,-0.0,-0.0014043902342625856,0.2,0.02,0,0.027106827657216028,-0.0015476361653893413,0.0005421365531443205,0.0,-0.0010054996122450207,0.028620742551987266,0.0,-0.028620742551987266,-0.025758246237307866,0.0,0.025758246237307866,-0.6498207067892989,0.0,0.6498207067892989,-0.007738180826946706,0,0.007738180826946706,-0.0018090225936476616,-0.0042128201548131735,0.0010054996122450207,0.4,0.03349113464355469,1.9642667770385742,STABILIZE
0.12,0.001,0.04,-0.05922379913948524,-0.0029974045657242604,-5.922379913948524e-05,0.0008609109765184558,-0.0021957173883452898,0.1,0.001,0.04,0.027266034538694455,0.002664908731678656,2.7266034538694454e-05,0.00032564896723174906,0.0030178237334491,0.002,8e-05,0,-1.331078182924948,-0.001297961357901237,-0.00010648625463399585,0.0,-0.0014044476125352327,0.2,0.02,0,0.026729503346739274,-0.0022550606859881076,0.0005345900669347854,0.0,-0.001720470619053322,0.02664908731678656,0.0,-0.02664908731678656,-0.024978371381035504,0.0,0.024978371381035504,-0.6489806789506184,0.0,0.6489806789506184,-0.011275303429940538,0,0.011275303429940538,-0.0021951234647722253,-0.0030182557728027134,0.001720470619053322,0.4,0.033464670181274414,1.997727632522583,STABILIZE
0.12,0.001,0.04,-0.06003373042314183,-0.002905323584097684,-6.003373042314183e-05,0.0011143389539226825,-0.0018510183605981432,0.1,0.001,0.04,0.028089625101580563,0.0024619342552849727,2.8089625101580563e-05,-0.0006910340419957464,0.0017989898383908068,0.002,8e-05,0,-1.3527598107074332,-0.0012962446281798935,-0.00010822078485659466,0.0,-0.0014044654130364882,0.2,0.02,0,0.02623341848551225,-0.0029658628168424076,0.000524668369710245,-0.0,-0.0024411944471321627,0.024619342552849727,0.0,-0.024619342552849727,-0.0242110298674807,0.0,0.0242110298674807,-0.6481223140899467,0.0,0.6481223140899467,-0.014829314084212036,0,0.014829314084212036,-0.001850552683413895,-0.001799468859362243,0.0024411944471321627,0.4,0.03345298767089844,2.031195878982544,STABILIZE
0.12,0.001,0.04,-0.060743786092634804,-0.002515929264567254,-6.0743786092634804e-05,0.0015433652771633946,-0.0010333077734964943,0.1,0.001,0.04,0.028881757404621042,0.0023389584416337386,2.8881757404621043e-05,-0.001541534293202075,0.0008263059058362845,0.002,8e-05,0,-1.374812557121828,-0.001302319251195111,-0.00010998500456974625,0.0,-0.0014123042557648573,0.2,0.02,0,0.02582310538454006,-0.002423093434135025,0.0005164621076908011,-0.0,-0.0019066313264442239,0.023389584416337386,0.0,-0.023389584416337386,-0.020966077204727117,0.0,0.020966077204727117,-0.6511596255975555,0.0,0.6511596255975555,-0.012115467170675125,0,0.012115467170675125,-0.0010331330240526866,-0.0008265243852421752,0.0019066313264442239,0.4,0.03386688232421875,2.065031051635742,STABILIZE
0.12,0.001,0.04,-0.061437215421283026,-0.002488746969943639,-6.143721542128303e-05,0.0013863977534512044,-0.0011637864319137175,0.1,0.001,0.04,0.02977726370196085,0.002678341411294834,2.9777263701960848e-05,-0.0007983968680781968,0.001909721806918598,0.002,8e-05,0,-1.3965704595767747,-0.0013015004214065237,-0.00011172563676614199,0.0,-0.0014132260581726658,0.2,0.02,0,0.025298949204022717,-0.0031353642256588678,0.0005059789840804543,-0.0,-0.0026293852415784132,0.026783414112948337,0.0,-0.026783414112948337,-0.02073955808286366,0.0,0.02073955808286366,-0.6507502107032619,0.0,0.6507502107032619,-0.015676821128294337,0,0.015676821128294337,-0.001163263865277793,-0.0019100401615321772,0.0026293852415784132,0.4,0.03343510627746582,2.098491668701172,STABILIZE
0.12,0.001,0.04,-0.06214409968175572,-0.002532234171145953,-6.214409968175572e-05,0.001104111621062854,-0.0014902666497648544,0.1,0.001,0.04,0.030392102486765733,0.0018354204354798559,3.0392102486765734e-05,-0.0024482230683783393,-0.0005824105304117176,0.002,8e-05,0,-1.4185134573889906,-0.0013100873788569332,-0.00011348107659111926,-0.0,-0.0014235684554480524,0.2,0.02,0,0.02479491160700759,-0.0030093121275857927,0.0004958982321401518,-0.0,-0.002513413895445641,0.018354204354798558,0.0,-0.018354204354798558,-0.021101951426216275,0.0,0.021101951426216275,-0.6550436894284666,0.0,0.6550436894284666,-0.015046560637928962,0,0.015046560637928962,-0.0014904195463832468,0.0005820191483916816,0.002513413895445641,0.4,0.033498525619506836,2.131995916366577,STABILIZE
0.12,0.001,0.04,-0.06286771367761818,-0.002595637310880669,-6.286771367761818e-05,0.0007913262121937581,-0.001867178812364529,0.1,0.001,0.04,0.030999098904266345,0.0018144371606089813,3.099909890426635e-05,-0.002027061601869132,-0.00018162534235588424,0.002,8e-05,0,-1.4401894793729637,-0.0012958817761674292,-0.00011521515834983711,0.0,-0.0014110969345172662,0.2,0.02,0,0.02422706671787744,-0.0033948103764503378,0.0004845413343575488,-0.0,-0.002910269042092789,0.018144371606089813,0.0,-0.018144371606089813,-0.021630310924005577,0.0,0.021630310924005577,-0.6479408880837145,0.0,0.6479408880837145,-0.01697405188225169,0,0.01697405188225169,-0.0018672325374958275,0.00018107217689584075,0.002910269042092789,0.4,0.03345370292663574,2.1654438972473145,STABILIZE
0.12,0.001,0.04,-0.06361029897949225,-0.002662530776193895,-6.361029897949224e-05,0.00047457533273589025,-0.002251565742437497,0.1,0.001,0.04,0.03150749154603437,0.0015190298134568417,3.1507491546034367e-05,-0.002247784940601502,-0.000697247635598626,0.002,8e-05,0,-1.4619944218726462,-0.0013030227039691723,-0.0001169595537498117,-0.0,-0.001419982257718984,0.2,0.02,0,0.02361502279469818,-0.0036574603567083443,0.0004723004558939636,-0.0,-0.0031851599008143805,0.015190298134568415,0.0,-0.015190298134568415,-0.022187756468282457,0.0,0.022187756468282457,-0.6515113519845861,0.0,0.6515113519845861,-0.01828730178354172,0,0.01828730178354172,-0.002251788170805257,0.0006965289596904827,0.0031851599008143805,0.4,0.03346824645996094,2.1989195346832275,STABILIZE
0.12,0.001,0.04,-0.06439129949795203,-0.0028031236002178618,-6.439129949795203e-05,-0.0005722817818811319,-0.0034397966815969457,0.1,0.001,0.04,0.03199528920907562,0.0014589801896019948,3.199528920907562e-05,-0.0021009772546380667,-0.0006100017758269962,0.002,8e-05,0,-1.4835624117839807,-0.0012901771531247366,-0.00011868499294271846,0.0,-0.001408862146067455,0.2,0.02,0,0.022921265696199598,-0.0041499906202691296,0.000458425313923992,-0.0,-0.0036915653063451376,0.014589801896019947,0.0,-0.014589801896019947,-0.02335936333514885,0.0,0.02335936333514885,-0.6450885765623683,0.0,0.6450885765623683,-0.020749953101345645,0,0.020749953101345645,-0.0034400173712106,0.0006087559962799231,0.0036915653063451376,0.4,0.033434152603149414,2.2323660850524902,STABILIZE
0.12,0.001,0.04,-0.06518256461101767,-0.002838628724759272,-6.518256461101766e-05,-0.0006972437075423075,-0.003601054996912597,0.1,0.001,0.04,0.03232372949023766,0.0009818875295184268,3.232372949023766e-05,-0.004054049667469805,-0.0030398384084611403,0.002,8e-05,0,-1.504887530792089,-0.001275048745268097,-0.00012039100246336714,0.0,-0.001395439747731464,0.2,0.02,0,0.02222254119772765,-0.004177738913091174,0.00044445082395455296,-0.0,-0.0037332880891366212,0.009818875295184267,0.0,-0.009818875295184267,-0.023655239372993932,0.0,0.023655239372993932,-0.6375243726340485,0.0,0.6375243726340485,-0.02088869456545587,0,0.02088869456545587,-0.0036021630112063156,0.003038525346453735,0.0037332880891366212,0.4,0.03344988822937012,2.265803098678589,STABILIZE
0.12,0.001,0.04,-0.06599986917752071,-0.002924768624511083,-6.59998691775207e-05,-0.0007819517008627952,-0.0037727201945513987,0.1,0.001,0.04,0.03273105157458461,0.0012146867695699772,3.273105157458461e-05,-0.0014856256706573757,-0.00023820784951281387,0.002,8e-05,0,-1.5262941635764176,-0.0012767465660918102,-0.00012210353308611343,0.0,-0.0013988500991779236,0.2,0.02,0,0.021692885422963472,-0.003159003092424337,0.00043385770845926944,-0.0,-0.0027251453839650676,0.01214686769569977,0.0,-0.01214686769569977,-0.024373071870925692,0.0,0.024373071870925692,-0.6383732830459051,0.0,0.6383732830459051,-0.015795015462121684,0,0.015795015462121684,-0.0037727857191483098,0.0002371677957397084,0.0027251453839650676,0.4,0.03353309631347656,2.2994027137756348,STABILIZE
0.12,0.001,0.04,-0.0669765873121754,-0.0030055227798524457,-6.69765873121754e-05,-0.0007936538234543514,-0.0038661531906189726,0.1,0.001,0.04,0.033183032709406556,0.0011590170768246328,3.318303270940656e-05,-0.0015496502275650723,-0.0003574501180310329,0.002,8e-05,0,-1.5510952974373944,-0.0012719529845337382,-0.00012408762379499157,0.0,-0.0013960406083287297,0.2,0.02,0,0.021112814611585977,-0.002974955918984957,0.00042225629223171954,0.0,-0.0025526996267532377,0.011590170768246328,0.0,-0.011590170768246328,-0.02504602316543705,0.0,0.02504602316543705,-0.635976492266869,0.0,0.635976492266869,-0.014874779594924786,0,0.014874779594924786,-0.0038662458593416416,0.0003564463989680265,0.0025526996267532377,0.4,0.03899693489074707,2.338358163833618,STABILIZE
0.12,0.001,0.04,-0.06783986372077684,-0.0031025387423102243,-6.783986372077684e-05,-0.0008541099499894136,-0.004024488556020415,0.1,0.001,0.04,0.03355189004712215,0.0011047004270065548,3.355189004712215e-05,-0.0009736700157954803,0.0001645823012581966,0.002,8e-05,0,-1.5723596854715776,-0.0012737053673313491,-0.0001257887748377262,0.0,-0.0013994941421690754,0.2,0.02,0,0.020644051185228208,-0.002807823536707092,0.00041288102370456417,0.0,-0.0023949425130025278,0.011047004270065547,0.0,-0.011047004270065547,-0.025854489519251872,0.0,0.025854489519251872,-0.6368526836656746,0.0,0.6368526836656746,-0.01403911768353546,0,0.01403911768353546,-0.004024448107799101,-0.00016556841202042342,0.0023949425130025278,0.4,0.03338980674743652,2.3717281818389893,STABILIZE
0.12,0.001,0.04,-0.06879672003330375,-0.003122153547009313,-6.879672003330376e-05,-0.000609328706160311,-0.003800278973202928,0.1,0.001,0.04,0.03389664540205319,0.0009374266719018193,3.3896645402053194e-05,-0.0011938536838373463,-0.0002225303665334738,0.002,8e-05,0,-1.5959806575371598,-0.0012845589728376111,-0.00012767845260297278,0.0,-0.001412237425440584,0.2,0.02,0,0.020316493854623273,-0.0017813268098326848,0.0004063298770924655,0.0,-0.0013749969327402193,0.009374266719018193,0.0,-0.009374266719018193,-0.02601794622507761,0.0,0.02601794622507761,-0.6422794864188055,0.0,0.6422794864188055,-0.008906634049163423,0,0.008906634049163423,-0.0038003135196518086,0.00022193961014092364,0.0013749969327402193,0.4,0.03677678108215332,2.408525228500366,STABILIZE
0.12,0.001,0.04,-0.06962757720270266,-0.002984854647932379,-6.962757720270266e-05,-0.0002645401457515833,-0.003319022370886665,0.1,0.001,0.04,0.034183667769065895,0.0008592732880692877,3.4183667769065895e-05,-0.00023999845871916015,0.0006534584971191935,0.002,8e-05,0,-1.6172924282703889,-0.0012760423867391746,-0.00012938339426163113,-0.0,-0.0014054257810008058,0.2,0.02,0,0.020236551893323837,-0.00047865253607524966,0.00040473103786647674,0.0,-7.392149820877291e-05,0.008592732880692877,0.0,-0.008592732880692877,-0.024873788732769825,0.0,0.024873788732769825,-0.6380211933695873,0.0,0.6380211933695873,-0.002393262680376248,0,0.002393262680376248,-0.0033189950728248524,-0.0006535971331544918,7.392149820877291e-05,0.4,0.03340291976928711,2.4419212341308594,STABILIZE
0.12,0.001,0.04,-0.07045206353373978,-0.002955343820830381,-7.045206353373979e-05,-3.4519661818641054e-05,-0.003060315546182762,0.1,0.001,0.04,0.03444532181764406,0.0007815751926899847,3.444532181764406e-05,-0.0009810590703907395,-0.00016503855588311076,0.002,8e-05,0,-1.6384800573668605,-0.0012657725254934962,-0.00013107840458934886,0.0,-0.0013968509300828452,0.2,0.02,0,0.020256282993425998,0.00011787578635325926,0.00040512565986851995,0.0,0.0005230014462217792,0.007815751926899846,0.0,-0.007815751926899846,-0.024627865173586512,0.0,0.024627865173586512,-0.6328862627467481,0.0,0.6328862627467481,0.0005893789317662963,0,-0.0005893789317662963,-0.0030603138483347616,0.00016507003612515448,-0.0005230014462217792,0.4,0.033477783203125,2.475478410720825,STABILIZE
0.12,0.001,0.04,-0.07129509024921986,-0.0030281198588482496,-7.129509024921986e-05,-4.169460809457084e-05,-0.0031411095571920403,0.1,0.001,0.04,0.03464900521568633,0.0006096858411126765,3.4649005215686335e-05,-0.0012784691901248186,-0.0006341343437964558,0.002,8e-05,0,-1.6595584597489763,-0.0012618803112253954,-0.0001327646767799181,0.0,-0.0013946449880053136,0.2,0.02,0,0.020341002545339715,0.0005071823404721704,0.0004068200509067943,0.0,0.0009140023913789647,0.006096858411126764,0.0,-0.006096858411126764,-0.02523433215706875,0.0,0.02523433215706875,-0.6309401556126977,0.0,0.6309401556126977,0.002535911702360852,0,-0.002535911702360852,-0.003141081487323811,0.0006342733687117658,-0.0009140023913789647,0.4,0.03340792655944824,2.5087952613830566,STABILIZE
0.12,0.001,0.04,-0.07219546459007693,-0.0032286034961207855,-7.219546459007694e-05,-0.0002473816326549503,-0.003548180593365813,0.1,0.001,0.04,0.03477892935361618,0.0003882399306191915,3.477892935361618e-05,-0.0016777102966222615,-0.0012546914366494538,0.002,8e-05,0,-1.6813950119171972,-0.0013050417934394965,-0.0001345116009533758,-0.0,-0.0014395533943928722,0.2,0.02,0,0.020534728209247413,0.001157783911643761,0.0004106945641849483,0.0,0.0015684784758287092,0.0038823993061919146,0.0,-0.0038823993061919146,-0.02690502913433988,0.0,0.02690502913433988,-0.6525208967197482,0.0,0.6525208967197482,0.005788919558218805,0,-0.005788919558218805,-0.0035480538066200887,0.0012550499231775353,-0.0015684784758287092,0.4,0.033464908599853516,2.542296886444092,STABILIZE
0.12,0.001,0.04,-0.07307533376072281,-0.003153771925865259,-7.307533376072281e-05,-6.28120024405687e-05,-0.0032896592620665507,0.1,0.001,0.04,0.03491698353744322,0.00041236377684268643,3.491698353744322e-05,-0.0012561963424155807,-0.000808915582035451,0.002,8e-05,0,-1.703936780121712,-0.0013466319405678602,-0.00013631494240973698,-0.0,-0.0014829468829775972,0.2,0.02,0,0.02078974958395446,0.0015234826549199172,0.00041579499167908925,0.0,0.0019392776465990064,0.004123637768426864,0.0,-0.004123637768426864,-0.026281432715543826,0.0,0.026281432715543826,-0.6733159702839301,0.0,0.6733159702839301,0.007617413274599585,0,-0.007617413274599585,-0.0032895516885229096,0.0008093529316040505,-0.0019392776465990064,0.4,0.033478736877441406,2.5757532119750977,STABILIZE
0.12,0.001,0.04,-0.07393746691577802,-0.0030938790963022317,-7.393746691577802e-05,-0.00021743032565951738,-0.0033852468888775273,0.1,0.001,0.04,0.03493335709463427,4.896556681186757e-05,3.493335709463427e-05,-0.0019384207330325326,-0.0018545218091260308,0.002,8e-05,0,-1.7261440215790143,-0.0013282271562580245,-0.00013809152172632115,-0.0,-0.0014663186779843456,0.2,0.02,0,0.02105975061341423,0.0016148908014334527,0.0004211950122682846,0.0,0.0020360858137017375,0.0004896556681186757,0.0,-0.0004896556681186757,-0.0257823258025186,0.0,0.0257823258025186,-0.6641135781290123,0.0,0.6641135781290123,0.008074454007167263,0,-0.008074454007167263,-0.003384985505278853,0.0018549988593611396,-0.0020360858137017375,0.4,0.033438920974731445,2.6091930866241455,STABILIZE
0.12,0.001,0.04,-0.07471494740810329,-0.0027821175547675004,-7.47149474081033e-05,0.0003435804789793492,-0.0025132520231962545,0.1,0.001,0.04,0.03493132834827189,-6.049681122406465e-06,3.4931328348271886e-05,-0.001883993404115619,-0.0018551117568897536,0.002,8e-05,0,-1.7482577059512623,-0.0013188513002347253,-0.000139860616476101,-0.0,-0.0014587119167108263,0.2,0.02,0,0.021410445234065417,0.002091528705237291,0.00042820890468130835,0.0,0.0025197376099185993,-6.0496811224064646e-05,0.0,6.0496811224064646e-05,-0.023184312956395836,0.0,0.023184312956395836,-0.6594256501173626,0.0,0.6594256501173626,0.010457643526186455,0,-0.010457643526186455,-0.002512913385759524,0.0018555704455291535,-0.0025197376099185993,0.4,0.03353476524353027,2.6427218914031982,STABILIZE
