Mode,Time,Freq,time2delay,actualDelay,North-Desired,East-Desired,Down-Desired,Roll-UAV,Pitch-UAV,Yaw-UAV,Roll-Control,Pitch-Control,Yaw-Control,Thrust-Control,North-Pos,East-Pos,Down-Pos,Yaw-Ang,North-Vel,East-Vel,Down-Vel,Yaw-Vel,North-Acc,East-Acc,Down-Acc,North-Avg,East-Avg,Down-Avg,Yaw-Avg,North-Dif,East-Dif,Down-Dif,Yaw-Dif,North-One,East-One,Down-One,Yaw-One,North-Two,East-Two,Down-Two,Yaw-Two,Landing-State,Q-Size,Kalman-Time,Kalman-Dt
STABILIZE,0.03431439399719238,29.150188343549754,0.033309253056844075,0.03343057632446289,0.0,0.0,0.0,1.2694757144463775,-0.9758369174042438,16.303489086543895,-0.016205855401728773,0.01605980406291219,0.04446467331187558,0.4,0.08984114489203426,0.09037718516098692,0.12740129725713792,0.08892934662375115,0.14841477386653423,0.12921681627631187,1.5964813530445099,0.03735479815868897,4.918025434017181,1.5963762998580933,25.50485134124756,0.0,0.0,0.0,0.0,0.0,0.0,0.0,0.0,0.0,0.0,0.0,0.0,0.0,0.0,0.0,0.0,False,0,0.1449122428894043,0.02993603515625
STABILIZE,0.06776762008666992,29.896105377202485,0.03236225446065267,0.03248786926269531,0.0,0.0,0.0,1.26988371152758,-0.9751579539120622,16.303804982793007,-0.0049652506373329425,0.004851098710488162,0.05045259241654647,0.4,0.10189685926796008,0.10288281760676542,0.15372074907684163,0.10090518483309294,0.014136261597741395,0.0921890139579773,1.7012294381856918,0.03186802849115972,-4.361932724714279,-0.6106456741690636,21.14155888557434,0.0,0.0,0.0,0.0,0.0,0.0,0.0,0.0,0.0,0.0,0.0,0.0,0.0,0.0,0.0,0.0,False,0,0.17365217208862305,0.03492578125
STABILIZE,0.1010446548461914,30.04752523479644,0.03237298329671224,0.03249049186706543,0.0,0.0,0.0,1.2710011945088175,-0.975808956317329,16.30441628472372,-0.007969855816717785,0.007402429940944149,0.062162143145829754,0.4,0.12619136874331044,0.12998660918143196,0.21596260487891214,0.12432428629165951,-0.03224819665774703,0.15175818698480725,1.6331708058714867,-0.07307362593892106,-3.1084131449460983,-0.3240555291995406,23.218517005443573,0.0,0.0,0.0,0.0,0.0,0.0,0.0,0.0,0.0,0.0,0.0,0.0,0.0,0.0,0.0,0.0,False,0,0.23113417625427246,0.03492626953125
STABILIZE,0.13564252853393555,28.904705460760262,0.03254893620808919,0.03370785713195801,0.0,0.0,0.0,1.270765659704158,-0.9756291302430873,16.304628020587995,-0.005744815238353624,0.005043023312162872,0.06669328108177587,0.4,0.13345151145399672,0.14046255889668124,0.24656523751009507,0.13338656216355174,-0.2550969598814845,0.10482633952051401,1.652221567928791,0.0006159443249176342,-2.1894797682762146,1.367104984819889,21.820081770420074,0.0,0.0,0.0,0.0,0.0,0.0,0.0,0.0,0.0,0.0,0.0,0.0,0.0,0.0,0.0,0.0,False,0,0.25970959663391113,0.034925048828125
STABILIZE,0.16896605491638184,30.007970065749465,0.03242472012837728,0.03253459930419922,0.0,0.0,0.0,1.2708973542890922,-0.975114624899515,16.303994520542474,-0.005406279354974015,0.005035723178401961,0.07077487640378213,0.4,0.13927513482040374,0.14703494915610313,0.27893957141323444,0.14154975280756427,-0.16829187516123056,-0.1578143914230168,1.9082104787230492,0.09513807180497123,2.792191319167614,0.7812879979610443,20.833876729011536,0.0,0.0,0.0,0.0,0.0,0.0,0.0,0.0,0.0,0.0,0.0,0.0,0.0,0.0,0.0,0.0,False,0,0.28845715522766113,0.029936767578125
STABILIZE,0.20252537727355957,29.798614614045682,0.032535584767659505,0.03267812728881836,0.0,0.0,0.0,1.270271965093213,-0.9788830750523637,16.304486294162714,-0.005355082518062057,0.005265111749009661,0.07299313060124989,0.4,0.14540925633573568,0.15222213698657552,0.30471742745121133,0.14598626120249977,0.3297440242022276,0.18679838394746184,1.8553577363491058,0.12249730833006306,4.004685208201408,1.4817756600677967,26.015248894691467,0.0,0.0,0.0,0.0,0.0,0.0,0.0,0.0,0.0,0.0,0.0,0.0,0.0,0.0,0.0,0.0,False,0,0.3171355724334717,0.034925048828125
STABILIZE,0.2370612621307373,28.954390131092993,0.03243282636006673,0.03373384475708008,0.0,0.0,0.0,1.2655158055533569,-0.9752593395325546,16.306041869746185,-0.005987443411503002,0.005796138030901586,0.07512055243198155,0.4,0.15371723491884126,0.16027804274644797,0.333406363907066,0.1502411048639631,0.3477272344753146,0.2870034659281373,1.5378942713141441,-0.06858134915682285,3.0199842527508736,3.3415839076042175,23.06569069623947,0.0,0.0,0.0,0.0,0.0,0.0,0.0,0.0,0.0,0.0,0.0,0.0,0.0,0.0,0.0,0.0,False,0,0.3486599922180176,0.034926025390625
STABILIZE,0.27053213119506836,29.87715211739146,0.03253057797749837,0.03265500068664551,0.0,0.0,0.0,1.2706449574549192,-0.974253700898976,16.300097897620983,-0.005419250235124402,0.005395994367431952,0.0779119948195548,0.4,0.15817101365136077,0.16360063812600836,0.36273365363619364,0.1558239896391096,0.05496678641065955,-0.0730800093151629,1.6760043799877167,0.18485685541100014,3.84051650762558,-1.083572767674923,19.958792626857758,0.0,0.0,0.0,0.0,0.0,0.0,0.0,0.0,0.0,0.0,0.0,0.0,0.0,0.0,0.0,0.0,False,0,0.3751821517944336,0.02993701171875
STABILIZE,0.3040282726287842,29.853334946653664,0.032503875096639,0.032636404037475586,0.0,0.0,0.0,1.2736852454092211,-0.9807396058461377,16.28846608546445,-0.0056913873976963125,0.006272465960231455,0.07669000591582752,0.4,0.1667669613110821,0.16787232152949244,0.4229087706764079,0.15338001183165503,0.25962162762880325,0.072002864908427,2.0766587927937508,-0.2061277987141388,6.587204337120056,1.5411843545734882,39.28172290325165,0.0,0.0,0.0,0.0,0.0,0.0,0.0,0.0,0.0,0.0,0.0,0.0,0.0,0.0,0.0,0.0,False,0,0.4326794147491455,0.034925048828125
STABILIZE,0.3386087417602539,28.918257032542748,0.03246119817097982,0.03374648094177246,0.0,0.0,0.0,1.271541526505189,-0.9786443385965305,16.30824119065893,-0.005084533322528125,0.004559010802196833,0.07503164352635967,0.4,0.1642987795686767,0.16808095093177547,0.45248879462492475,0.15006328705271935,-0.3118502674624324,-0.07705199532210827,1.8051059916615486,-0.3308328056108498,-10.917814075946808,-67.40577816963196,20.499159395694733,0.0,0.0,0.0,0.0,0.0,0.0,0.0,0.0,0.0,0.0,0.0,0.0,0.0,0.0,0.0,0.0,False,0,0.461184024810791,0.034926025390625
STABILIZE,0.37213945388793945,29.82425302558414,0.032490046819051106,0.03261446952819824,0.0,0.0,0.0,1.2724260360027058,-0.979901520290636,16.29744095403385,-0.0016660687181511739,0.004321938124994695,0.08057266191129293,0.4,0.16094282825775982,0.14920224003107557,0.4729880241241937,0.16114532382258587,-0.2829500939697027,-1.4953372068703175,1.1552241630852222,0.8853917124974936,-9.99695211648941,-21.118822693824768,2.092358097434044,0.0,0.0,0.0,0.0,0.0,0.0,0.0,0.0,0.0,0.0,0.0,0.0,0.0,0.0,0.0,0.0,False,0,0.490490198135376,0.029935791015625
STABILIZE,0.4102020263671875,26.272198837442374,0.03239420255025228,0.03714132308959961,0.0,0.0,0.0,1.2721740660553558,-0.9779672960950531,16.311424058812158,-0.006077076018052472,0.003985338721509203,0.06435782971034232,0.4,0.1558014826008601,0.1590722396720835,0.49522977128529183,0.12871565942068464,-0.2233389299362898,0.9626337327063084,1.879679597914219,-2.335591084092088,-2.1014343947172165,11.40064150094986,38.20617496967316,0.0,0.0,0.0,0.0,0.0,0.0,0.0,0.0,0.0,0.0,0.0,0.0,0.0,0.0,0.0,0.0,False,0,0.5185351371765137,0.03492626953125
STABILIZE,0.44858717918395996,26.052386720084474,0.03239277203877767,0.03747129440307617,0.0,0.0,0.0,1.2710373731670774,-0.9777537459617844,16.324377512573086,-0.002340975147951553,0.005951943445694729,0.07199351130601513,0.4,0.16381306133634263,0.14380651179544157,0.5460820247736953,0.14398702261203025,0.20046010613441467,-0.43154042214155197,1.838114857673645,0.0011792081478189007,4.394441470503807,26.828494668006897,35.877254605293274,0.0,0.0,0.0,0.0,0.0,0.0,0.0,0.0,0.0,0.0,0.0,0.0,0.0,0.0,0.0,0.0,False,0,0.5762717723846436,0.029935791015625
STABILIZE,0.4879028797149658,25.435131168815417,0.03241732915242513,0.038448333740234375,0.0,0.0,0.0,1.2729418220067474,-0.9787602383690093,16.28553422676322,-0.0056469297980655305,0.004635346578892361,0.06216511077058644,0.4,0.16211513175956863,0.1522239286957513,0.568275824694097,0.12433022154117288,0.10845970828086138,0.8492509834468365,2.029835991561413,-1.1716188471556643,-0.3221516730263829,7.526715844869614,37.88022994995117,0.0,0.0,0.0,0.0,0.0,0.0,0.0,0.0,0.0,0.0,0.0,0.0,0.0,0.0,0.0,0.0,False,0,0.6097836494445801,0.034926025390625
STABILIZE,0.5214099884033203,29.84462565284834,0.03245714505513509,0.032607316970825195,0.0,0.0,0.0,1.2707571219676954,-0.9774795778996318,16.31078543612476,-0.002525422274855236,0.004459366646574982,0.06891289104728907,0.4,0.15989507152808197,0.14077834883626483,0.5940944534894711,0.13782578209457813,-0.008738847100175917,-0.6307187024503946,1.8624775111675262,1.1275312567237015,0.6063887849450111,-37.775903940200806,28.12540829181671,0.0,0.0,0.0,0.0,0.0,0.0,0.0,0.0,0.0,0.0,0.0,0.0,0.0,0.0,0.0,0.0,False,0,0.6383907794952393,0.034926025390625
STABILIZE,0.5548610687255859,29.89461380013257,0.032416613896687825,0.03254556655883789,0.0,0.0,0.0,1.2731439529174975,-0.9795783669655298,16.30293584122112,-0.0029638293438093307,0.00441074928155743,0.06770176584741056,0.4,0.15778330522429196,0.13370431419712842,0.6164440451444305,0.1354035316948211,0.029246939811855555,-0.2776042092591524,1.6915129497647285,0.006656369526774521,2.8159363195300102,26.64749324321747,33.21297764778137,0.0,0.0,0.0,0.0,0.0,0.0,0.0,0.0,0.0,0.0,0.0,0.0,0.0,0.0,0.0,0.0,False,0,0.6674439907073975,0.029851806640625
STABILIZE,0.5882387161254883,29.958458329762006,0.03241422971089681,0.03254985809326172,0.0,0.0,0.0,1.268867080558306,-0.9726487131657288,16.285209792777646,-0.005766790320427212,0.004301690522972214,0.05726774496090926,0.4,0.15544137030526403,0.14343922272997897,0.632403138432916,0.11453548992181851,0.11175438994541764,0.926480907946825,1.7687221989035606,-1.1582088379374023,0.22440804168581963,5.501898378133774,30.966755747795105,0.0,0.0,0.0,0.0,0.0,0.0,0.0,0.0,0.0,0.0,0.0,0.0,0.0,0.0,0.0,0.0,False,0,0.6961627006530762,0.034926025390625
STABILIZE,0.6216926574707031,29.892696276868694,0.032498868306477864,0.032630205154418945,0.0,0.0,0.0,1.2683935563497537,-0.9759814185938719,16.30274801101895,-0.006287185838784612,0.004413613785901268,0.046823692963267556,0.4,0.1541077678097084,0.15445309263213974,0.6542903480395454,0.09364738592653511,0.11175438994541764,0.926480907946825,1.7687221989035606,-1.1582088379374023,0.22440804168581963,5.501898378133774,30.966755747795105,0.0,0.0,0.0,0.0,0.0,0.0,0.0,0.0,0.0,0.0,0.0,0.0,0.0,0.0,0.0,0.0,False,1,0.725074052810669,0.034926025390625
STABILIZE,0.6551468372344971,29.890778999579535,0.03249219258626302,0.032618045806884766,0.0,0.0,0.0,1.2700815735700988,-0.9761791739146849,16.30795432271379,-0.0011956069710167651,0.001735768806418317,0.04387492086355692,0.4,0.13803072980842845,0.13528386762691416,0.6909015589122378,0.08774984172711384,-0.3245281521230936,0.006211260188138112,1.4576601795852184,-1.3738577602719801,-16.88593477010727,22.91433960199356,27.674594521522522,0.0,0.0,0.0,0.0,0.0,0.0,0.0,0.0,0.0,0.0,0.0,0.0,0.0,0.0,0.0,0.0,False,0,0.7824141979217529,0.029937255859375
STABILIZE,0.6886124610900879,29.882260741943988,0.032480748494466145,0.032605648040771484,0.0,0.0,0.0,1.2712077010095046,-0.9760273089273579,16.30134440714451,-0.005260497066408514,0.005317020480764815,0.03762920555301051,0.4,0.1446218773273659,0.14194181150825494,0.6971092188628736,0.07525841110602102,0.7113202940672636,0.7025224156677723,1.3630417175590992,-0.55227154056663,15.030676126480103,5.238699913024902,21.858784556388855,0.0,0.0,0.0,0.0,0.0,0.0,0.0,0.0,0.0,0.0,0.0,0.0,0.0,0.0,0.0,0.0,False,0,0.811223030090332,0.034925048828125
STABILIZE,0.7220332622528076,29.92212535848303,0.03246954282124837,0.032593727111816406,0.0,0.0,0.0,1.2693122167931203,-0.9765206833731855,16.32173935200617,-0.0013684484018594899,0.0021173403188842186,0.04496236455670266,0.4,0.1322620182770958,0.1258282759946046,0.7126377369908509,0.08992472911340532,-0.544223515316844,-0.7943190634250641,1.606394350528717,1.165720231755418,-7.345140725374222,-18.40873211622238,23.680877685546875,0.0,0.0,0.0,0.0,0.0,0.0,0.0,0.0,0.0,0.0,0.0,0.0,0.0,0.0,0.0,0.0,False,0,0.8400044441223145,0.03492578125
STABILIZE,0.7555406093597412,29.842926870917708,0.03249529202779134,0.03262448310852051,0.0,0.0,0.0,1.2696860629284727,-0.9765984834967002,16.310121200227975,-0.004732739791253906,0.0035910985118654724,0.03900955917059246,0.4,0.13019848072416915,0.13113865880592318,0.7246304164746743,0.07801911834118493,0.12329136952757835,0.5740276537835598,1.4496702700853348,-0.5308257604289949,-4.466335475444794,30.364131927490234,14.676624536514282,0.0,0.0,0.0,0.0,0.0,0.0,0.0,0.0,0.0,0.0,0.0,0.0,0.0,0.0,0.0,0.0,False,0,0.8712272644042969,0.02993603515625
STABILIZE,0.7889268398284912,29.952895808041134,0.03243378003438314,0.032555341720581055,0.0,0.0,0.0,1.2710315034732595,-0.9773636781271532,16.304015011109986,-0.003943049589353053,0.0018307944004364997,0.034937984581014575,0.4,0.11866788854086074,0.13117571816324258,0.729293240099048,0.06987596916202915,-0.43433504179120064,0.27721396181732416,1.415818091481924,-0.2894684329453121,-5.821183696389198,-8.925493061542511,9.487352520227432,0.0,0.0,0.0,0.0,0.0,0.0,0.0,0.0,0.0,0.0,0.0,0.0,0.0,0.0,0.0,0.0,False,0,0.8971304893493652,0.034926025390625
STABILIZE,0.8223507404327393,29.918496907790086,0.032499106725056966,0.032618045806884766,0.0,0.0,0.0,1.2689561931826334,-0.977437956434377,16.317111898843486,-0.0007882931598335256,0.002873926052247428,0.03576588372682321,0.4,0.11485123603535402,0.11362482644243316,0.7422557374428137,0.07153176745364642,0.021610742260236293,-0.8528978563845158,1.602018065750599,0.3156800842980294,9.09612700343132,1.1318095028400421,26.691532135009766,0.0,0.0,0.0,0.0,0.0,0.0,0.0,0.0,0.0,0.0,0.0,0.0,0.0,0.0,0.0,0.0,False,1,0.9257781505584717,0.034926025390625
STABILIZE,0.855989933013916,29.73102250575935,0.03251317342122396,0.03264784812927246,0.0,0.0,0.0,1.2692462627789474,-0.977441905137491,16.30911886996728,-0.0013294709629245948,0.0026470830863399466,0.03066781948797917,0.4,0.11040901308196192,0.10202029128889843,0.7670878933093487,0.06133563897595834,-0.20285046193748713,0.05760050844401121,1.8578235059976578,-0.23389870754917594,-10.201723873615265,-22.266319394111633,23.22652041912079,0.0,0.0,0.0,0.0,0.0,0.0,0.0,0.0,0.0,0.0,0.0,0.0,0.0,0.0,0.0,0.0,False,0,0.983241081237793,0.03492578125
STABILIZE,0.8892741203308105,30.0393476906329,0.03231170972188314,0.03244614601135254,0.0,0.0,0.0,1.2673570751432042,-0.9772980442780976,16.31963394619451,-0.0015209499718051899,0.0029860766251075784,0.032331977964005464,0.4,0.10860113379523488,0.09342309222518586,0.781999604698405,0.06466395592801093,0.13623329577967525,-0.2801376162096858,1.8420640379190445,0.3936860206223054,9.263331443071365,5.24490587413311,28.748497366905212,0.0,0.0,0.0,0.0,0.0,0.0,0.0,0.0,0.0,0.0,0.0,0.0,0.0,0.0,0.0,0.0,False,0,1.011955976486206,0.03492626953125
STABILIZE,0.9227404594421387,29.881196301098555,0.0325045903523763,0.03263521194458008,0.0,0.0,0.0,1.2683832043442929,-0.9766899439985549,16.320612370793114,-0.001253324544760818,0.0029422983536100404,0.03411703872228247,0.4,0.10685016015665363,0.08477048489762865,0.7961428173509381,0.06823407744456494,0.13623329577967525,-0.2801376162096858,1.8420640379190445,0.3936860206223054,9.263331443071365,5.24490587413311,28.748497366905212,0.0,0.0,0.0,0.0,0.0,0.0,0.0,0.0,0.0,0.0,0.0,0.0,0.0,0.0,0.0,0.0,False,0,1.04046630859375,0.03492626953125
STABILIZE,0.9562332630157471,29.859073111696446,0.03249243100484212,0.032624244689941406,0.0,0.0,0.0,1.2674957066390145,-0.9758754439400309,16.309275964318186,-0.0031180785103707325,0.003252628236269991,0.027809499831988996,0.4,0.10712973308728788,0.0879582272306973,0.8053627294865318,0.05561899966397799,0.2548657124862075,0.4321902524679899,1.591511256992817,-0.590944178368948,1.4109601266682148,13.062678277492523,28.17448079586029,0.0,0.0,0.0,0.0,0.0,0.0,0.0,0.0,0.0,0.0,0.0,0.0,0.0,0.0,0.0,0.0,False,0,1.069169044494629,0.029935791015625
STABILIZE,0.9896321296691895,29.940067099721606,0.03245118459065755,0.03258013725280762,0.0,0.0,0.0,1.2658295673683544,-0.9750366113325887,16.30376741675257,-0.0032276543451314546,0.00321792480309819,0.02154582709584209,0.4,0.10716570194286672,0.0912240532231287,0.8083143250779009,0.04309165419168418,0.2548657124862075,0.4321902524679899,1.591511256992817,-0.590944178368948,1.4109601266682148,13.062678277492523,28.17448079586029,0.0,0.0,0.0,0.0,0.0,0.0,0.0,0.0,0.0,0.0,0.0,0.0,0.0,0.0,0.0,0.0,False,0,1.097917079925537,0.029935791015625
STABILIZE,1.0231451988220215,29.838256217631326,0.0325041135152181,0.03274393081665039,0.0,0.0,0.0,1.2679532225916994,-0.9757116261216564,16.303803275245713,-0.001395158769610235,0.0015823877866655688,0.022854728390181503,0.4,0.09805373671502812,0.08372420632570243,0.8137211290851759,0.045709456780363006,-0.3078925423324108,-0.22857615258544683,1.7508715391159058,0.31920966459291283,-13.142670691013336,-14.711007475852966,21.425706148147583,0.0,0.0,0.0,0.0,0.0,0.0,0.0,0.0,0.0,0.0,0.0,0.0,0.0,0.0,0.0,0.0,False,1,1.1267061233520508,0.034926025390625
STABILIZE,1.057969570159912,28.716111761524296,0.032535584767659505,0.03399205207824707,0.0,0.0,0.0,1.2683051907773666,-0.9756489804803626,16.288957859084693,-0.0005224178856650857,0.0014938312970191301,0.02426441598432612,0.4,0.08972452417983144,0.07226876054829268,0.8326858048300125,0.04852883196865224,0.2890003379434347,-0.10295716347172856,1.4456721022725105,-0.21259649478624335,14.319206774234772,4.992452263832092,19.617663323879242,0.0,0.0,0.0,0.0,0.0,0.0,0.0,0.0,0.0,0.0,0.0,0.0,0.0,0.0,0.0,0.0,False,0,1.1840128898620605,0.0349150390625
STABILIZE,1.0917408466339111,29.612844010788066,0.032509597142537434,0.03285670280456543,0.0,0.0,0.0,1.2691384738561082,-0.9740989544255929,16.28195862273272,-0.0013992374088354828,0.0023244886933482855,0.025867426635826772,0.4,0.08767356685320425,0.06794853992575886,0.8413340005013877,0.051734853271653544,0.09681499213911593,-0.051679403986781836,1.7175743356347084,0.3349190196426628,1.5847276896238327,-0.7405304349958897,23.548445105552673,0.0,0.0,0.0,0.0,0.0,0.0,0.0,0.0,0.0,0.0,0.0,0.0,0.0,0.0,0.0,0.0,False,0,1.212667465209961,0.02993701171875
STABILIZE,1.1250925064086914,29.981586321267226,0.03240254720052083,0.032523393630981445,0.0,0.0,0.0,1.2665828091677598,-0.9736253234953348,16.289936283683296,-0.0016010295578815531,0.001613949289035382,0.026453508600793717,0.4,0.0820210262766666,0.06550367525180519,0.8438718360975995,0.052907017201587435,-0.11712078703567386,0.05140479770489037,1.7028985545039177,0.20888255274462245,-18.04557293653488,1.102789118885994,22.186435759067535,0.0,0.0,0.0,0.0,0.0,0.0,0.0,0.0,0.0,0.0,0.0,0.0,0.0,0.0,0.0,0.0,False,0,1.2412877082824707,0.034925048828125
STABILIZE,1.1585991382598877,29.845262745935177,0.032418044408162434,0.03264188766479492,0.0,0.0,0.0,1.2615562168254535,-0.9778283444341256,16.307778445342663,-0.0015411123277963045,0.0014783453755519915,0.02711959733148263,0.4,0.07655293899712412,0.06313209135827375,0.8515395742281548,0.05423919466296526,-0.11712078703567386,0.05140479770489037,1.7028985545039177,0.20888255274462245,-18.04557293653488,1.102789118885994,22.186435759067535,0.0,0.0,0.0,0.0,0.0,0.0,0.0,0.0,0.0,0.0,0.0,0.0,0.0,0.0,0.0,0.0,False,0,1.2700049877166748,0.034925048828125
STABILIZE,1.1920647621154785,29.88183495650563,0.03246048291524251,0.032598018646240234,0.0,0.0,0.0,1.260592092935424,-0.9746137799342826,16.283155613384764,0.0005259912998589663,0.00039425530326087375,0.028233129991064514,0.4,0.06595006408202117,0.04964570637695768,0.8536530433768201,0.05646625998212903,-0.42578489519655704,-0.6188593804836273,1.4076159335672855,0.2572720951366356,-1.8929984420537949,-11.025223135948181,12.18448132276535,0.0,0.0,0.0,0.0,0.0,0.0,0.0,0.0,0.0,0.0,0.0,0.0,0.0,0.0,0.0,0.0,False,0,1.2986583709716797,0.034926025390625
STABILIZE,1.2256402969360352,29.782110726889293,0.03245523770650228,0.032775163650512695,0.0,0.0,0.0,1.2595897626747246,-0.973927025757579,16.29980932212855,-0.0015565961652464334,0.004426788269313973,0.01673528997224937,0.4,0.0796540366746176,0.050007379111686096,0.8545450466913533,0.03347057994449874,1.0192803107202053,0.20696676801890135,1.3734789565205574,-1.2457112451680818,26.73838436603546,14.640076458454132,14.34965580701828,0.0,0.0,0.0,0.0,0.0,0.0,0.0,0.0,0.0,0.0,0.0,0.0,0.0,0.0,0.0,0.0,False,1,1.3278114795684814,0.029935791015625
STABILIZE,1.259265661239624,29.74282898049199,0.032524855931599934,0.032666921615600586,0.0,0.0,0.0,1.265500651071136,-0.9750796201800186,16.34008524011682,-0.0005384455925065088,-0.0027149380778225445,0.024921991518071313,0.4,0.051191099110628885,0.0446572096609333,0.8557401794338635,0.049843983036142625,-1.0394678451120853,-0.7828688248991966,1.4021124690771103,1.6872956748923942,-1.158670149743557,-22.672870755195618,14.205542206764221,0.0,0.0,0.0,0.0,0.0,0.0,0.0,0.0,0.0,0.0,0.0,0.0,0.0,0.0,0.0,0.0,False,0,1.3847956657409668,0.03492578125
STABILIZE,1.2932977676391602,29.38195879538497,0.03233936627705892,0.03317761421203613,0.0,0.0,0.0,1.263781257669291,-0.9728839278052711,16.33208367350415,-0.0030843559612109693,0.0015966907351077384,0.015604711892678702,0.4,0.051546222314782245,0.05454349280242571,0.8652610347976187,0.031209423785357404,0.21290946751832962,0.7497617043554783,1.949155144393444,-1.001919168688701,51.23560428619385,54.88819479942322,47.664764523506165,0.0,0.0,0.0,0.0,0.0,0.0,0.0,0.0,0.0,0.0,0.0,0.0,0.0,0.0,0.0,0.0,False,0,1.4135699272155762,0.02993603515625
STABILIZE,1.3268389701843262,29.817256357212425,0.032488139470418294,0.0326082706451416,0.0,0.0,0.0,1.263610823105158,-0.9732668452856149,16.29176677438086,-0.006030265163296092,0.005533250684888122,0.00449417223058359,0.4,0.07375785309336366,0.07901249825475438,0.8758915333996646,0.00898834446116718,1.5031411312520504,1.6171013936400414,2.3293431848287582,-1.225376704791896,-0.3366094082593918,-0.839818362146616,10.659368336200714,0.0,0.0,0.0,0.0,0.0,0.0,0.0,0.0,0.0,0.0,0.0,0.0,0.0,0.0,0.0,0.0,False,0,1.4422032833099365,0.034926025390625
STABILIZE,1.3603014945983887,29.88183495650563,0.0323520024617513,0.03245878219604492,0.0,0.0,0.0,1.261822594203084,-0.9738268140758501,16.317130681863702,-0.006846899380446924,0.0062579416426206645,-0.006785587972900053,0.4,0.09628936800016072,0.10396468614779689,0.8915603037097435,-0.013571175945800106,1.5031411312520504,1.6171013936400414,2.3293431848287582,-1.225376704791896,-0.3366094082593918,-0.839818362146616,10.659368336200714,0.0,0.0,0.0,0.0,0.0,0.0,0.0,0.0,0.0,0.0,0.0,0.0,0.0,0.0,0.0,0.0,False,0,1.4707112312316895,0.034926025390625
STABILIZE,1.3935532569885254,30.07273144430423,0.032351048787434895,0.03245806694030762,0.0,0.0,0.0,1.2526556265632807,-0.9788626912065594,16.2989777465971,0.00024300301621296746,-6.67308607694147e-06,-0.006926344165991611,0.4,0.08018341556967112,0.08526285348982517,0.896158887457575,-0.013852688331983222,-0.8133911527693272,-0.9944155812263489,1.690744236111641,0.10376967667782856,47.42027819156647,-8.218012005090714,36.24960780143738,0.0,0.0,0.0,0.0,0.0,0.0,0.0,0.0,0.0,0.0,0.0,0.0,0.0,0.0,0.0,0.0,False,0,1.4994490146636963,0.064862060546875
STABILIZE,1.427027702331543,29.873747337981925,0.03253343900044759,0.03265094757080078,0.0,0.0,0.0,1.2512159507522889,-0.9764831173327505,16.29985542590545,-0.0015959221127882406,0.016972222073238303,-0.050106252632805805,0.4,0.16131130422159728,0.08006960390011451,0.9313988340402405,-0.10021250526561161,2.2878682240843773,-0.08152598747983575,1.5838691964745522,-2.131414318242193,73.05477857589722,18.69824379682541,21.943992376327515,0.0,0.0,0.0,0.0,0.0,0.0,0.0,0.0,0.0,0.0,0.0,0.0,0.0,0.0,0.0,0.0,False,0,1.556910753250122,0.039916015625
STABILIZE,1.4605450630187988,29.835072519436917,0.03249505360921224,0.032613277435302734,0.0,0.0,0.0,1.2496153386089788,-0.9760841915965394,16.350236608770754,-0.003936814488762641,0.0044893089453827036,-0.04351059941193403,0.4,0.15932686117413322,0.08866222519574785,0.9368312071975735,-0.08702119882386807,-0.02634025295265019,0.6034033372998238,1.7425891011953354,0.8426982810690067,-43.065619468688965,7.32894167304039,43.626752495765686,0.0,0.0,0.0,0.0,0.0,0.0,0.0,0.0,0.0,0.0,0.0,0.0,0.0,0.0,0.0,0.0,False,0,1.585632085800171,0.029935791015625
STABILIZE,1.4939548969268799,29.931093540376217,0.03241852124532064,0.03255319595336914,0.0,0.0,0.0,1.2518218098760103,-0.9803714159611918,16.36189061904209,-0.005940583360040077,0.0018121587690421415,-0.03877276656356778,0.4,0.14274967251708742,0.10695231802750753,0.9265203687754922,-0.07754553312713557,-0.6338315084576607,1.1809502728283405,1.4448990114033222,0.4442696545634794,-7.4081458151340485,31.868574023246765,14.046353101730347,0.0,0.0,0.0,0.0,0.0,0.0,0.0,0.0,0.0,0.0,0.0,0.0,0.0,0.0,0.0,0.0,False,0,1.614368200302124,0.029936279296875
STABILIZE,1.527444839477539,29.860561144215914,0.032465489705403645,0.03264808654785156,0.0,0.0,0.0,1.2567738037459752,-0.9864070620316616,16.367788487390392,-0.006394796619287581,0.001402019221569177,-0.03412767186285562,0.4,0.12663985725509402,0.12473443842583477,0.9168673505532206,-0.06825534372571124,-0.6338315084576607,1.1809502728283405,1.4448990114033222,0.4442696545634794,-7.4081458151340485,31.868574023246765,14.046353101730347,0.0,0.0,0.0,0.0,0.0,0.0,0.0,0.0,0.0,0.0,0.0,0.0,0.0,0.0,0.0,0.0,False,0,1.644108772277832,0.029936279296875
STABILIZE,1.5622594356536865,28.722011079839213,0.03241899808247884,0.033838510513305664,0.0,0.0,0.0,1.2540713967121775,-0.9913402728814091,16.41760276455459,0.004388800466996389,0.007623687213599323,-0.022021351481124544,0.4,0.14867524089574904,0.07796241898116679,0.9002891776813406,-0.04404270296224909,1.4808764681220055,-2.4123938754200935,1.022897195070982,1.2909113026611105,13.49443644285202,-80.17578721046448,-2.4918414652347565,0.0,0.0,0.0,0.0,0.0,0.0,0.0,0.0,0.0,0.0,0.0,0.0,0.0,0.0,0.0,0.0,True,0,1.6717603206634521,0.0698359375
STABILIZE,1.595693588256836,29.91145595618439,0.032407315572102864,0.03254127502441406,0.0,0.0,0.0,1.250691520290079,-1.0130328469636638,16.41216764152255,-0.005609575849991673,0.005473284027371853,-0.03588357299636666,0.4,0.154273661054333,0.0962021790086797,0.9329753912561073,-0.07176714599273332,0.07520243525505066,1.010486762970686,1.797286793589592,-1.2827882867472613,-32.098233699798584,80.66150546073914,15.0155708193779,0.0,0.0,0.0,0.0,0.0,0.0,0.0,0.0,0.0,0.0,0.0,0.0,0.0,0.0,0.0,0.0,True,0,1.7003235816955566,0.029935791015625
STABILIZE,1.6290810108184814,29.95268190614935,0.0324282964070638,0.03254127502441406,0.0,0.0,0.0,1.2518115645922552,-1.0142309048327665,16.420013821331604,-0.0009779737230251316,0.007762389341995442,-0.050849082390910565,0.4,0.17171471670705543,0.08565482695189255,0.9130463897138742,-0.10169816478182113,1.3848421163856983,-1.4609131030738354,1.6412241384387016,-0.7011763345795193,39.37758207321167,-37.19020485877991,24.89638924598694,0.0,0.0,0.0,0.0,0.0,0.0,0.0,0.0,0.0,0.0,0.0,0.0,0.0,0.0,0.0,0.0,True,0,1.757967233657837,0.034925048828125
STABILIZE,1.6630795001983643,29.410802813247226,0.03246811230977376,0.03323984146118164,0.0,0.0,0.0,1.2260639925771286,-1.012230940066422,16.423529661206867,-0.0025604971226277674,0.005155994420823551,-0.050849082390910565,0.4,0.17171471670705543,0.08565482695189255,0.9130463897138742,-0.10169816478182113,1.3848421163856983,-1.4609131030738354,1.6412241384387016,-0.7011763345795193,39.37758207321167,-37.19020485877991,24.89638924598694,0.0,0.0,0.0,0.0,0.0,0.0,0.0,0.0,0.0,0.0,0.0,0.0,0.0,0.0,0.0,0.0,True,1,1.757967233657837,0.034925048828125
STABILIZE,1.6965885162353516,29.84250220565216,0.032570870717366536,0.0326840877532959,0.0,0.0,0.0,1.2353762084585005,-1.0219204171777314,16.433030454342354,-1.5381741878277907e-05,0.01927976553211824,-0.036912552427586995,0.4,0.2504356539826051,0.07156122899239944,0.9086456932051002,-0.07382510485517399,2.4155346676707268,-0.19344812026247382,1.8064862117171288,0.6416580661520281,28.05103063583374,-2.500164695084095,18.385206162929535,0.0,0.0,0.0,0.0,0.0,0.0,0.0,0.0,0.0,0.0,0.0,0.0,0.0,0.0,0.0,0.0,True,0,1.8238329887390137,0.029936767578125
STABILIZE,1.7300734519958496,29.865664096155626,0.032502206166585286,0.032624006271362305,0.0,0.0,0.0,1.2351896589167946,-1.0130564324606415,16.408492999749086,0.0012462025596694988,0.00843709078453149,-0.04502819181161527,0.4,0.25559558377480185,0.052727552289034654,0.9145690830065197,-0.09005638362323054,0.6796084344387054,-0.8545458316802979,2.334645949304104,-1.0171972346449618,-22.229281067848206,3.1634636223316193,36.757051944732666,0.0,0.0,0.0,0.0,0.0,0.0,0.0,0.0,0.0,0.0,0.0,0.0,0.0,0.0,0.0,0.0,True,0,1.8524928092956543,0.034926025390625
STABILIZE,1.7634854316711426,29.9481906720361,0.0324583371480306,0.032561540603637695,0.0,0.0,0.0,1.2330220343506675,-1.0133543994631833,16.409966613062515,-0.0010664802789924427,0.006429972720877955,-0.04362002217450733,0.4,0.24869571151114503,0.04991334827451355,0.9172618283229919,-0.08724004434901465,-0.11074390495195985,0.014161475701257586,1.8851310014724731,0.06702048417880965,-14.646142721176147,2.3636505007743835,13.089804351329803,0.0,0.0,0.0,0.0,0.0,0.0,0.0,0.0,0.0,0.0,0.0,0.0,0.0,0.0,0.0,0.0,True,0,1.8812644481658936,0.03492529296875
STABILIZE,1.7969515323638916,29.863325026699894,0.03246262868245443,0.032582998275756836,0.0,0.0,0.0,1.2331362265758536,-1.002034001244122,16.397409310273446,0.000178132678586814,0.005207598386312098,-0.03300662390199164,0.4,0.23614443321904505,0.040612810178511635,0.9029392409954788,-0.06601324780398328,-0.39922776632010937,-0.35241444129496813,0.943773053586483,1.0756688833038541,-29.4750839471817,11.382021009922028,-22.037309408187866,0.0,0.0,0.0,0.0,0.0,0.0,0.0,0.0,0.0,0.0,0.0,0.0,0.0,0.0,0.0,0.0,True,0,1.9099235534667969,0.034926025390625
STABILIZE,1.8303353786468506,29.951826329132004,0.03243234952290853,0.03255128860473633,0.0,0.0,0.0,1.251146154756708,-1.0175270047158265,16.33495406050285,0.00042948936964981924,0.004767936528705273,-0.022332065036555902,0.4,0.22324408179591984,0.031454942265336176,0.8886236645294352,-0.044664130073111805,-0.39922776632010937,-0.35241444129496813,0.943773053586483,1.0756688833038541,-29.4750839471817,11.382021009922028,-22.037309408187866,0.0,0.0,0.0,0.0,0.0,0.0,0.0,0.0,0.0,0.0,0.0,0.0,0.0,0.0,0.0,0.0,True,0,1.9385128021240234,0.034926025390625
STABILIZE,1.8642816543579102,29.45872635711727,0.03250697453816732,0.03307080268859863,0.0,0.0,0.0,1.2693136041752955,-1.0155274668363052,16.31207292678331,0.0027194713611233007,-0.004250767182733288,-0.012072631778294119,0.4,0.16159668325703008,0.010816102085995028,0.8879988875654523,-0.024145263556588237,-3.094848245382309,-0.9997532702982426,1.701498031616211,1.0283128339106287,-93.7529444694519,-25.341638922691345,76.39811635017395,0.0,0.0,0.0,0.0,0.0,0.0,0.0,0.0,0.0,0.0,0.0,0.0,0.0,0.0,0.0,0.0,True,0,1.9672653675079346,0.06486181640625
STABILIZE,1.897719383239746,29.905910873440284,0.032442363103230794,0.03266263008117676,0.0,0.0,0.0,1.256410629781201,-0.9895016713342063,16.360394807613854,0.0059756093745017905,0.0009514484995589103,0.026705527845787967,0.4,0.13981513892724323,-0.024356681299237123,0.8626764065220597,0.053411055691575934,2.050705812871456,-0.2534483093768358,-0.9321309626102448,6.6163777820083185,201.50203704833984,15.408611297607422,104.16737794876099,0.0,0.0,0.0,0.0,0.0,0.0,0.0,0.0,0.0,0.0,0.0,0.0,0.0,0.0,0.0,0.0,True,0,2.024623155593872,0.029936279296875
STABILIZE,1.931288242340088,29.790148797897654,0.03254750569661458,0.03268551826477051,0.0,0.0,0.0,1.2595381093691265,-1.0052307432190994,16.344343863064324,0.0016775251682323582,0.009898096669477488,0.08904763410564995,0.4,0.1715855413439827,-0.029807039696015464,0.806896769731297,0.1780952682112999,2.050705812871456,-0.2534483093768358,-0.9321309626102448,6.6163777820083185,201.50203704833984,15.408611297607422,104.16737794876099,0.0,0.0,0.0,0.0,0.0,0.0,0.0,0.0,0.0,0.0,0.0,0.0,0.0,0.0,0.0,0.0,True,0,2.053267002105713,0.029936279296875
STABILIZE,1.9647362232208252,29.896531569418507,0.03243854840596517,0.03258991241455078,0.0,0.0,0.0,1.25745799660174,-0.9842920512664849,16.323165153995408,-0.002326632099882258,0.0031146097639563526,-0.0319761023319764,0.4,0.16023763981743303,-0.011831971351219373,0.803022763387225,-0.0639522046639528,-0.23361542262136936,1.003157626837492,1.7465859651565552,-13.034436752597085,-120.08893489837646,18.183961510658264,73.09315800666809,0.0,0.0,0.0,0.0,0.0,0.0,0.0,0.0,0.0,0.0,0.0,0.0,0.0,0.0,0.0,0.0,True,0,2.082030773162842,0.034926025390625
STABILIZE,1.9982872009277344,29.80666159739051,0.032465489705403645,0.032623291015625,0.0,0.0,0.0,1.2575807265633887,-0.9952679518192838,16.351756325861082,0.00520674771147312,-0.014012261464229098,0.029064706851845923,0.4,0.05524142075508258,-0.03881393934131462,0.8279273981780569,0.058129413703691846,-5.389666929841042,-1.401838008314371,3.1192943453788757,6.603852922617807,-168.73513460159302,-66.88905358314514,97.96616435050964,0.0,0.0,0.0,0.0,0.0,0.0,0.0,0.0,0.0,0.0,0.0,0.0,0.0,0.0,0.0,0.0,True,0,2.1107139587402344,0.03492578125
STABILIZE,2.0317184925079346,29.911242645747905,0.03238657315572103,0.0325314998626709,0.0,0.0,0.0,1.2599810044481194,-0.9909714426662284,16.334078088741794,-0.001047979062505996,0.0060743593599182945,-0.001313594616933575,0.4,0.07985083897331222,-0.026486156512004613,0.8294842813226965,-0.00262718923386715,1.6775598749518394,0.7334262132644653,1.8190288916230202,-3.3831762572412596,110.86668968200684,32.02124238014221,57.057708501815796,0.0,0.0,0.0,0.0,0.0,0.0,0.0,0.0,0.0,0.0,0.0,0.0,0.0,0.0,0.0,0.0,True,0,2.139308214187622,0.0399150390625
STABILIZE,2.065962314605713,29.205194443477353,0.032424243291219075,0.03332805633544922,0.0,0.0,0.0,1.2555709434001125,-0.9830041337211144,16.34457267440152,-0.001235941659927387,0.008581271979208905,-0.03084471196316242,0.4,0.11496202717691065,-0.014905656810948801,0.8252137492846535,-0.06168942392632484,2.228333055973053,0.7050578016787767,1.2940853834152222,-3.246259779243065,72.60174751281738,-3.2130416482686996,-24.477730691432953,0.0,0.0,0.0,0.0,0.0,0.0,0.0,0.0,0.0,0.0,0.0,0.0,0.0,0.0,0.0,0.0,True,1,2.168034315109253,0.024947021484375
STABILIZE,2.0993497371673584,29.94840450978572,0.03239587148030599,0.03253006935119629,0.0,0.0,0.0,1.256187474694412,-0.9872195343777758,16.352190042873378,0.0021528773488334444,0.00538796332335252,-0.04401881147343863,0.4,0.12578824870589161,-0.024366464796339023,0.7894097880798232,-0.08803762294687725,-0.9870344772934914,-1.2794628739356995,0.8319112472236156,1.497940206098015,-71.57412767410278,-36.67517304420471,-9.06050056219101,0.0,0.0,0.0,0.0,0.0,0.0,0.0,0.0,0.0,0.0,0.0,0.0,0.0,0.0,0.0,0.0,True,0,2.2255327701568604,0.034926025390625
STABILIZE,2.1327695846557617,29.92191189584448,0.032480510075887044,0.03259563446044922,0.0,0.0,0.0,1.2585901004566697,-0.9832758471840339,16.328687361939362,0.00024250900763829824,0.0077568102205130465,-0.06264940988518947,0.4,0.14797381478990926,-0.021551559806995562,0.7797033961063274,-0.12529881977037893,1.5485253185033798,0.195195060223341,1.0533811524510384,-2.179438018626787,79.28364276885986,-44.26179826259613,55.8996319770813,0.0,0.0,0.0,0.0,0.0,0.0,0.0,0.0,0.0,0.0,0.0,0.0,0.0,0.0,0.0,0.0,True,0,2.2540042400360107,0.0349248046875
STABILIZE,2.1663177013397217,29.80814441048966,0.03248456319173177,0.032622337341308594,0.0,0.0,0.0,1.2571615237030793,-0.9867447295087541,16.34531374992647,0.004317830657000901,0.005507107355973293,-0.05076895894008508,0.4,0.15397164509295472,-0.04197036210826102,0.7794420907436449,-0.10153791788017016,0.6036554928869009,-1.1559546925127506,1.586538553237915,1.3382178331828536,-23.890219628810883,-11.42311617732048,54.3049156665802,0.0,0.0,0.0,0.0,0.0,0.0,0.0,0.0,0.0,0.0,0.0,0.0,0.0,0.0,0.0,0.0,True,0,2.282961845397949,0.034926025390625
STABILIZE,2.199720859527588,29.93707531547993,0.032404454549153645,0.032531023025512695,0.0,0.0,0.0,1.254458369617341,-0.9838262110207489,16.35517995818255,-0.0013649560762846377,-0.0006312728980687162,-0.06340870006399396,0.4,0.12472241200427606,-0.02736832000522307,0.7812136795515334,-0.12681740012798792,-1.4296806417405605,0.863908976316452,1.688111573457718,-1.5228373128397694,-55.11124134063721,31.86507523059845,51.53589844703674,0.0,0.0,0.0,0.0,0.0,0.0,0.0,0.0,0.0,0.0,0.0,0.0,0.0,0.0,0.0,0.0,True,0,2.3117220401763916,0.02993603515625
STABILIZE,2.233090400695801,29.967662420245638,0.03245094617207845,0.03259992599487305,0.0,0.0,0.0,1.2610646566486243,-0.9853889369585066,16.323564720061853,-0.0018897247224125735,-0.0015500342085020592,-0.07511609182896647,0.4,0.09521400449675069,-0.012288898343328598,0.7798770725669952,-0.15023218365793295,-1.4296806417405605,0.863908976316452,1.688111573457718,-1.5228373128397694,-55.11124134063721,31.86507523059845,51.53589844703674,0.0,0.0,0.0,0.0,0.0,0.0,0.0,0.0,0.0,0.0,0.0,0.0,0.0,0.0,0.0,0.0,True,0,2.340283155441284,0.02993603515625
STABILIZE,2.2665865421295166,29.854609903837257,0.03255418141682943,0.032654762268066406,0.0,0.0,0.0,1.2599861270899968,-0.986471842107071,16.34308710825704,0.0015326392384420243,0.0007068698913739992,-0.07101100587164322,0.4,0.08326198550182462,-0.018762531771787556,0.7735881381488738,-0.14202201174328644,-0.4319768864661455,-0.39583202451467514,1.368853636085987,0.31524679417255674,44.99606192111969,-35.05238890647888,36.42019331455231,0.0,0.0,0.0,0.0,0.0,0.0,0.0,0.0,0.0,0.0,0.0,0.0,0.0,0.0,0.0,0.0,True,1,2.3690524101257324,0.03492578125
STABILIZE,2.3001344203948975,29.81005110127149,0.03248790105183919,0.032620906829833984,0.0,0.0,0.0,1.2566125472485394,-0.9808351217728122,16.35770371308087,0.0006644547046537776,0.00431167311937238,-0.07970613525843386,0.4,0.09338320397292223,-0.019261890444056847,0.7699045241751657,-0.1594122705168677,-0.5212351679801941,0.4531900864094496,1.182590238749981,-1.384809755162684,-59.04925465583801,29.55131232738495,34.52893793582916,0.0,0.0,0.0,0.0,0.0,0.0,0.0,0.0,0.0,0.0,0.0,0.0,0.0,0.0,0.0,0.0,True,0,2.4263932704925537,0.029936767578125
STABILIZE,2.3334786891937256,29.9867307252345,0.03237465222676595,0.03250408172607422,0.0,0.0,0.0,1.2582690815656792,-0.9838638837828897,16.330089258266508,0.0010685836347024496,-0.0019145260624538233,-0.07147659549015564,0.4,0.0671269701247197,-0.022022129449849877,0.7638871247539324,-0.14295319098031128,-1.312794629484415,-0.18826666055247188,1.3441388495266438,0.7696749143834021,-26.243311166763306,-23.711280524730682,18.101109564304352,0.0,0.0,0.0,0.0,0.0,0.0,0.0,0.0,0.0,0.0,0.0,0.0,0.0,0.0,0.0,0.0,True,0,2.4549574851989746,0.034925048828125
STABILIZE,2.3668954372406006,29.926181727373265,0.03249815305074056,0.032586097717285156,0.0,0.0,0.0,1.2570760396167484,-0.9845340960951972,16.344294344192843,0.002056517105318446,0.0032037069500961183,-0.06851530571659895,0.4,0.07377656820295446,-0.029747957177233053,0.7659369516734672,-0.1370306114331979,0.6452357396483421,-0.47105499543249607,1.5968428924679756,0.21621155916745768,52.3490309715271,-5.863663554191589,14.719222486019135,0.0,0.0,0.0,0.0,0.0,0.0,0.0,0.0,0.0,0.0,0.0,0.0,0.0,0.0,0.0,0.0,True,0,2.4837441444396973,0.034926025390625
STABILIZE,2.4005064964294434,29.75190103279991,0.03248790105183919,0.03282570838928223,0.0,0.0,0.0,1.25543743454618,-0.9815692603868827,16.34689835381391,0.002284730508656246,0.003454596265966876,-0.06538524527648637,0.4,0.08075430166926312,-0.037497612123093244,0.7680946018241704,-0.13077049055297274,0.6452357396483421,-0.47105499543249607,1.5968428924679756,0.21621155916745768,52.3490309715271,-5.863663554191589,14.719222486019135,0.0,0.0,0.0,0.0,0.0,0.0,0.0,0.0,0.0,0.0,0.0,0.0,0.0,0.0,0.0,0.0,True,0,2.5128421783447266,0.034926025390625
STABILIZE,2.4348318576812744,29.134192338415588,0.03254130681355794,0.033521413803100586,0.0,0.0,0.0,1.2560628237420592,-0.9821933689222927,16.33732925878672,-0.0011229117787928096,0.004715288485981221,-0.07093122264096301,0.4,0.09378378451397908,-0.02464084048215295,0.7698997893032206,-0.14186244528192601,0.9871129877865314,0.7464899215847254,1.5708193182945251,-0.8259318208430649,1.3976738788187504,21.624182164669037,18.78643035888672,0.0,0.0,0.0,0.0,0.0,0.0,0.0,0.0,0.0,0.0,0.0,0.0,0.0,0.0,0.0,0.0,True,0,2.54141902923584,0.034926025390625
STABILIZE,2.4686896800994873,29.532984558621614,0.03251078923543294,0.03301596641540527,0.0,0.0,0.0,1.2565845861616247,-0.9812769496347473,16.344693910259288,0.00307771959070947,-0.004434018219938915,-0.06368394403010295,0.4,0.053049368421119236,-0.03785208791834029,0.7648470262854141,-0.1273678880602059,-1.1468572542071342,-0.39221448823809624,1.3570434413850307,0.2801739595475264,4.1741810739040375,-0.12498082360252738,10.986743867397308,0.0,0.0,0.0,0.0,0.0,0.0,0.0,0.0,0.0,0.0,0.0,0.0,0.0,0.0,0.0,0.0,True,0,2.599108934402466,0.034926025390625
STABILIZE,2.5021331310272217,29.901220485913083,0.03249219258626302,0.032616615295410156,0.0,0.0,0.0,1.2562486262318249,-0.9838964339031531,16.347133995340275,-0.0009216238055808672,0.006057827350120228,-0.06753585189890413,0.4,0.07792615515195744,-0.026308723240903997,0.7670880151804688,-0.13507170379780825,1.689218170940876,0.6614013109356165,1.5695584937930107,-0.6513695279347285,43.62330436706543,14.358784258365631,29.250481724739075,0.0,0.0,0.0,0.0,0.0,0.0,0.0,0.0,0.0,0.0,0.0,0.0,0.0,0.0,0.0,0.0,True,0,2.627976417541504,0.029935791015625
STABILIZE,2.5360114574432373,29.5186431135196,0.032477410634358723,0.03285717964172363,0.0,0.0,0.0,1.2553072340651266,-0.98197587008591,16.34427897626721,0.0011060704967704924,0.0004425545269901855,-0.06416403239135918,0.4,0.06731670536123971,-0.028078959399817385,0.7550838587590059,-0.12832806478271835,-0.44014272280037403,-0.15285458648577332,0.9282532148063183,0.1564789135134781,-26.87462568283081,-15.576480329036713,14.276760816574097,0.0,0.0,0.0,0.0,0.0,0.0,0.0,0.0,0.0,0.0,0.0,0.0,0.0,0.0,0.0,0.0,True,0,2.6564877033233643,0.03492626953125
STABILIZE,2.5692899227142334,30.04903211015747,0.03231409390767415,0.03244924545288086,0.0,0.0,0.0,1.2555029616735298,-0.9846160583652374,16.352828665560775,0.0015046001246124055,-0.0011066848733871006,-0.0611654642195801,0.4,0.049916030398281006,-0.031781948533676566,0.7593688909817718,-0.1223309284391602,-0.8546645753085613,-0.2564115449786186,1.67462769895792,0.1588472015669007,3.568325564265251,14.230963587760925,29.893627762794495,0.0,0.0,0.0,0.0,0.0,0.0,0.0,0.0,0.0,0.0,0.0,0.0,0.0,0.0,0.0,0.0,True,0,2.6852455139160156,0.03490771484375
STABILIZE,2.602750301361084,29.887584083912895,0.03249672253926595,0.032629966735839844,0.0,0.0,0.0,1.2565030507784078,-0.9853364298792622,16.346461221707028,-8.876718892524399e-06,0.003133115747812971,-0.061216151893176626,0.4,0.05903007313732689,-0.026382257266625714,0.7630403979369449,-0.12243230378635325,0.7302951999008656,0.2862998750060797,1.6354680061340332,-0.21413983739418854,42.59108603000641,-9.160574525594711,23.195594549179077,0.0,0.0,0.0,0.0,0.0,0.0,0.0,0.0,0.0,0.0,0.0,0.0,0.0,0.0,0.0,0.0,True,0,2.714066743850708,0.034926025390625
STABILIZE,2.63619065284729,29.90207317420937,0.032491477330525716,0.03269600868225098,0.0,0.0,0.0,1.2557912170008454,-0.9844268407808868,16.346601240585013,-0.00018944503932108222,0.0034592927424028754,-0.06124621233133463,0.4,0.06845105375938117,-0.0208662897146257,0.7667518621702295,-0.12249242466266926,0.7302951999008656,0.2862998750060797,1.6354680061340332,-0.21413983739418854,42.59108603000641,-9.160574525594711,23.195594549179077,0.0,0.0,0.0,0.0,0.0,0.0,0.0,0.0,0.0,0.0,0.0,0.0,0.0,0.0,0.0,0.0,True,0,2.7425758838653564,0.034926025390625
STABILIZE,2.669771432876587,29.77999616594364,0.03258875211079915,0.03272747993469238,0.0,0.0,0.0,1.255880756511996,-0.9849797659385405,16.353491193910266,0.00035393707470416947,0.0015615814963609999,-0.05667282835110356,0.4,0.06571351640085021,-0.019333046802629202,0.763089536844832,-0.11334565670220711,-0.41453721933066845,0.2598504535853863,1.387806236743927,-0.026770106028751784,-25.086256861686707,14.26774263381958,23.426997661590576,0.0,0.0,0.0,0.0,0.0,0.0,0.0,0.0,0.0,0.0,0.0,0.0,0.0,0.0,0.0,0.0,True,0,2.800199031829834,0.03492578125
STABILIZE,2.703200340270996,29.914015918751605,0.03245976765950521,0.03258562088012695,0.0,0.0,0.0,1.2563445690453223,-0.985113808401002,16.347087891563376,0.000748759363322444,0.0003699312793488926,-0.055433056166148936,0.4,0.05679595034358682,-0.020269658823594747,0.7595798778628473,-0.11086611233229787,-0.3768941620364785,-0.10041523491963744,1.190128456801176,-0.06862918049133276,18.96224468946457,-5.474682152271271,18.878930807113647,0.0,0.0,0.0,0.0,0.0,0.0,0.0,0.0,0.0,0.0,0.0,0.0,0.0,0.0,0.0,0.0,True,0,2.8285984992980957,0.034926025390625
STABILIZE,2.7369790077209473,29.604274451400702,0.032475980122884114,0.03299069404602051,0.0,0.0,0.0,1.2568750826447619,-0.9856628915772476,16.34715790100237,0.0015819336784366048,0.0036455523218157657,-0.050814104835979465,0.4,0.06772941735874806,-0.025709054806635934,0.760945870621333,-0.10162820967195893,0.8032576180994511,-0.3657558700069785,1.4861551113426685,0.3307979342934857,19.37226504087448,-9.328870475292206,15.990893542766571,0.0,0.0,0.0,0.0,0.0,0.0,0.0,0.0,0.0,0.0,0.0,0.0,0.0,0.0,0.0,0.0,True,0,2.8578999042510986,0.03492626953125
STABILIZE,2.7704896926879883,29.841652911377995,0.03254297574361165,0.03268098831176758,0.0,0.0,0.0,1.2550610270898888,-0.9842795648269085,16.357141930021637,-0.0007837706294682707,0.0012159857525478688,-0.0538838504764979,0.4,0.06317231216678675,-0.017026474529293047,0.7629540361720502,-0.1077677009529958,-0.1259251032024622,0.47334744594991207,1.5259054489433765,-0.5834784080801538,-19.475525617599487,12.303012609481812,18.276500701904297,0.0,0.0,0.0,0.0,0.0,0.0,0.0,0.0,0.0,0.0,0.0,0.0,0.0,0.0,0.0,0.0,True,0,2.891969680786133,0.03492578125
STABILIZE,2.8039653301239014,29.87140700225052,0.032491238911946614,0.03262066841125488,0.0,0.0,0.0,1.2560057276294663,-0.9829970900885328,16.34947162758371,-0.0010664420897002166,0.0010760574737150824,-0.05701963951931631,0.4,0.05859657272139966,-0.0082265591019104,0.7649354232117443,-0.11403927903863262,-0.1259251032024622,0.47334744594991207,1.5259054489433765,-0.5834784080801538,-19.475525617599487,12.303012609481812,18.276500701904297,0.0,0.0,0.0,0.0,0.0,0.0,0.0,0.0,0.0,0.0,0.0,0.0,0.0,0.0,0.0,0.0,True,0,2.9193127155303955,0.03492578125
STABILIZE,2.8395745754241943,28.084663028558037,0.032467158635457356,0.03471040725708008,0.0,0.0,0.0,1.2579260780032975,-0.9852344039285351,16.356498184692363,-7.432211262178131e-05,-0.0011966746918196445,-0.05491476744157643,0.4,0.041281570002611734,-0.006358203384286052,0.7580302228859291,-0.10982953488315286,-0.8742083795368671,0.06218463531695306,1.0059433989226818,0.03752000002418535,-11.272837966680527,-1.711343415081501,10.931000858545303,0.0,0.0,0.0,0.0,0.0,0.0,0.0,0.0,0.0,0.0,0.0,0.0,0.0,0.0,0.0,0.0,True,0,2.948957681655884,0.02993603515625
STABILIZE,2.8732993602752686,29.651363694204477,0.0324130376180013,0.03285861015319824,0.0,0.0,0.0,1.2576038851735434,-0.9845333490432567,16.35905438298924,0.0007429421495446439,0.0017737650110669035,-0.049455509541585965,0.4,0.04429718229004226,-0.009444260940563935,0.7546834310160482,-0.09891101908317193,0.3183305263519287,-0.22073581349104643,1.4268290251493454,0.4079507906625977,23.507553339004517,-9.173663705587387,16.738052666187286,0.0,0.0,0.0,0.0,0.0,0.0,0.0,0.0,0.0,0.0,0.0,0.0,0.0,0.0,0.0,0.0,True,0,2.9777629375457764,0.02993701171875
STABILIZE,2.9067814350128174,29.86779084092317,0.032451899846394856,0.032575368881225586,0.0,0.0,0.0,1.257710606879325,-0.983482353684721,16.349971938940417,-0.0011836724317048134,0.00460499474123402,-0.05151434120375367,0.4,0.06252583696033248,-0.0012302057796155902,0.743827187976888,-0.10302868240750734,0.6773782894015312,0.2074220683425665,1.1688830330967903,-0.3437221729874572,3.0603881925344467,10.330524295568466,16.037841141223907,0.0,0.0,0.0,0.0,0.0,0.0,0.0,0.0,0.0,0.0,0.0,0.0,0.0,0.0,0.0,0.0,True,0,3.03501296043396,0.034925048828125
STABILIZE,2.9402122497558594,29.909962847016708,0.03241875966389974,0.03254437446594238,0.0,0.0,0.0,1.2579441139715746,-0.984036132616021,16.35556074122878,-0.00014199928550104858,-0.00090781069481185,-0.046986137532606956,0.4,0.047006859734519076,-0.00024116097399540823,0.7434236247470037,-0.09397227506521391,-0.8042911998927593,0.020154629601165652,1.3617162592709064,0.33477742661951726,-26.33279860019684,-3.4490276128053665,14.882348477840424,0.0,0.0,0.0,0.0,0.0,0.0,0.0,0.0,0.0,0.0,0.0,0.0,0.0,0.0,0.0,0.0,True,0,3.063936948776245,0.034926025390625
STABILIZE,2.9736030101776123,29.9477630056978,0.03244450887044271,0.0325617790222168,0.0,0.0,0.0,1.2590755774962696,-0.9833307021408055,16.35821597726862,0.0005045964940390604,-0.0007065390715627407,-0.04137221442410146,0.4,0.03522888437624032,-0.0030152073981049507,0.7446267056113991,-0.08274442884820292,-0.5712222773581743,-0.19918964244425297,1.4589028432965279,0.45811834335335627,-0.2788389101624489,-5.2289508283138275,17.968149483203888,0.0,0.0,0.0,0.0,0.0,0.0,0.0,0.0,0.0,0.0,0.0,0.0,0.0,0.0,0.0,0.0,True,0,3.092515230178833,0.02993701171875
STABILIZE,3.0071985721588135,29.769427863697985,0.03250172932942708,0.03264164924621582,0.0,0.0,0.0,1.2585082449083353,-0.9823412852065058,16.353955646773827,-0.0006702008539452342,0.002669601525662292,-0.042335189983608634,0.4,0.04421622295391311,0.0012483367786208953,0.7426945929216914,-0.08467037996721727,0.6596271879971027,0.2317277481779456,1.4764945022761822,-0.33277124531381114,21.589480340480804,6.814419478178024,22.129349410533905,0.0,0.0,0.0,0.0,0.0,0.0,0.0,0.0,0.0,0.0,0.0,0.0,0.0,0.0,0.0,0.0,True,0,3.121079206466675,0.034925048828125
STABILIZE,3.040520429611206,30.007970065749465,0.0323367436726888,0.03244638442993164,0.0,0.0,0.0,1.2595405639683595,-0.9834473489652247,16.357160713041853,-0.0008194757670595221,0.002961358139346708,-0.043435568556038265,0.4,0.05330883888625378,0.005626008243873707,0.7445108622940804,-0.08687113711207653,0.6596271879971027,0.2317277481779456,1.4764945022761822,-0.33277124531381114,21.589480340480804,6.814419478178024,22.129349410533905,0.0,0.0,0.0,0.0,0.0,0.0,0.0,0.0,0.0,0.0,0.0,0.0,0.0,0.0,0.0,0.0,True,0,3.149855852127075,0.034925048828125
STABILIZE,3.0739591121673584,29.905697642084547,0.03247097333272298,0.032601356506347656,0.0,0.0,0.0,1.261647357162191,-0.984152352553617,16.358934854678765,-0.0005382501811451811,0.00015129799512521148,-0.03884918071427536,0.4,0.04523669952162739,0.007685834782261835,0.7482096609616453,-0.07769836142855072,-0.3714374266564846,0.09459765278734267,1.5905428677797318,0.3499338031507607,0.34400206059217453,4.892951995134354,27.494588494300842,0.0,0.0,0.0,0.0,0.0,0.0,0.0,0.0,0.0,0.0,0.0,0.0,0.0,0.0,0.0,0.0,True,0,3.178516149520874,0.069851806640625
STABILIZE,3.1078336238861084,29.52446115076516,0.03248289426167806,0.03284621238708496,0.0,0.0,0.0,1.2619183235731701,-0.9846986609655122,16.356566486584065,-0.003879083423375497,0.0002850473918770341,-0.036137020454922605,0.4,0.039204000058997046,0.028125564526890343,0.7661580419271362,-0.07227404090984521,-0.06844291347078979,0.5120894405990839,1.3763876631855965,-0.025589957395900684,14.531728625297546,4.914480447769165,20.944105088710785,0.0,0.0,0.0,0.0,0.0,0.0,0.0,0.0,0.0,0.0,0.0,0.0,0.0,0.0,0.0,0.0,True,0,3.2377407550811768,0.029921630859375
STABILIZE,3.1410374641418457,30.112241454816964,0.03227809270222982,0.032414913177490234,0.0,0.0,0.0,1.2622103141601881,-0.9834979350537651,16.359542741514897,-0.0001460554778766257,0.0021957836210934017,-0.03568432740305243,0.4,0.04488602497744279,0.02425214509741301,0.7588014026126799,-0.07136865480610485,0.4270489327609539,-0.20152900833636522,1.2832125648856163,-0.14195526329538646,-2.6465026661753654,-6.997916102409363,20.265458524227142,0.0,0.0,0.0,0.0,0.0,0.0,0.0,0.0,0.0,0.0,0.0,0.0,0.0,0.0,0.0,0.0,True,0,3.2664544582366943,0.034926025390625
STABILIZE,3.174614667892456,29.783802591869343,0.03255465825398763,0.03267645835876465,0.0,0.0,0.0,1.2632825471381743,-0.9838721013542349,16.35927294904268,-0.0007892789147387377,0.0003943720401035467,-0.0336563799125524,0.4,0.03957310190626804,0.024598730811371056,0.7558627163962938,-0.0673127598251048,-0.1946912263520062,0.013780081644654274,1.3046449981629848,0.04562442301585547,8.687827736139297,0.7127938326448202,15.146636962890625,0.0,0.0,0.0,0.0,0.0,0.0,0.0,0.0,0.0,0.0,0.0,0.0,0.0,0.0,0.0,0.0,True,0,3.2950847148895264,0.06486181640625
STABILIZE,3.2080907821655273,29.87140700225052,0.032418282826741536,0.032564401626586914,0.0,0.0,0.0,1.2628185211614367,-0.9842146780297933,16.359706666054976,-0.0010737028694002783,0.0023255237658873656,-0.03245857613200737,0.4,0.04591007039403762,0.02648444755808282,0.7769991246106094,-0.06491715226401475,0.4112537484616041,-0.009213725570589304,1.4933839440345764,-0.029258642764163616,14.155545830726624,-4.891946911811829,21.49359881877899,0.0,0.0,0.0,0.0,0.0,0.0,0.0,0.0,0.0,0.0,0.0,0.0,0.0,0.0,0.0,0.0,True,0,3.3246638774871826,0.034926025390625
STABILIZE,3.241520643234253,29.914442621781614,0.03240469296773275,0.032509565353393555,0.0,0.0,0.0,1.2622092469431303,-0.9831330535416983,16.36173523223847,-0.0006854663163845627,0.0024627013207384045,-0.031101906229597905,0.4,0.05194661822480087,0.025892321544931228,0.7753506281051925,-0.06220381245919581,0.4112537484616041,-0.009213725570589304,1.4933839440345764,-0.029258642764163616,14.155545830726624,-4.891946911811829,21.49359881877899,0.0,0.0,0.0,0.0,0.0,0.0,0.0,0.0,0.0,0.0,0.0,0.0,0.0,0.0,0.0,0.0,True,0,3.352802038192749,0.034926025390625
STABILIZE,3.275149345397949,29.739876482808988,0.032399686177571614,0.032538414001464844,0.0,0.0,0.0,1.2632306803891644,-0.984942413341517,16.35987400568964,-0.001585530592782976,0.000676806722125919,-0.030253310254219543,0.4,0.04701872006706799,0.030408522461459815,0.7734051412693984,-0.060506620508439087,-0.15969463856890798,0.26000835932791233,1.4628741890192032,-0.07580300688385518,-14.67597484588623,6.844160705804825,20.909105241298676,0.0,0.0,0.0,0.0,0.0,0.0,0.0,0.0,0.0,0.0,0.0,0.0,0.0,0.0,0.0,0.0,True,0,3.3813230991363525,0.02993701171875
STABILIZE,3.3082849979400635,30.17419767918678,0.03220513661702474,0.03231215476989746,0.0,0.0,0.0,1.2639108178201097,-0.9854050519360796,16.360516043471623,-0.00015342026184783522,2.3069550510634714e-05,-0.025950773704348132,0.4,0.039300844571729006,0.0261880659603276,0.758797191480952,-0.051901547408696264,-0.060121313435956836,-0.10955265024676919,1.4014553278684616,0.2276144532650882,7.636234909296036,-3.1005272641777992,18.87967884540558,0.0,0.0,0.0,0.0,0.0,0.0,0.0,0.0,0.0,0.0,0.0,0.0,0.0,0.0,0.0,0.0,True,0,3.4385781288146973,0.03492578125
STABILIZE,3.3422977924346924,29.401113151733515,0.032534392674764,0.033155202865600586,0.0,0.0,0.0,1.2625230087581276,-0.9857817795574881,16.364820770196022,-0.0013839598183650454,0.0021017746286563633,-0.024190660048527667,0.4,0.044498068536337546,0.0295722685455526,0.7542019517509108,-0.048381320097055334,0.37228395231068134,0.21303875837475061,1.2658948078751564,0.03947344746702222,6.381674110889435,2.824467606842518,16.890020668506622,0.0,0.0,0.0,0.0,0.0,0.0,0.0,0.0,0.0,0.0,0.0,0.0,0.0,0.0,0.0,0.0,True,0,3.467597007751465,0.029937255859375
STABILIZE,3.375809669494629,29.84207755247243,0.0324590524037679,0.03258967399597168,0.0,0.0,0.0,1.2629512829634286,-0.9857919181195374,16.36243191153381,-0.0006351079750482209,0.0002426875544709958,-0.023007602791303178,0.4,0.038406619215645706,0.028168283522754183,0.7503550694910318,-0.046015205582606356,-0.23163198493421078,-0.028472376288846135,1.4824127778410912,-0.012524074819220724,-11.623410880565643,0.9220916777849197,24.604949355125427,0.0,0.0,0.0,0.0,0.0,0.0,0.0,0.0,0.0,0.0,0.0,0.0,0.0,0.0,0.0,0.0,True,0,3.4964795112609863,0.03492578125
STABILIZE,3.414062738418579,26.138272281978736,0.032385857899983723,0.03755021095275879,0.0,0.0,0.0,1.2629718802526444,-0.9854106014647802,16.365505496660315,-0.0005590904163722325,0.000366796683454032,-0.019264114283056202,0.4,0.03349531876646552,0.026382517748498893,0.7465379528566426,-0.038528228566112405,-0.17981205601245165,-0.0640493759419769,1.26682473346591,0.27183387168411766,-0.8126016706228256,-3.049034997820854,20.762135088443756,0.0,0.0,0.0,0.0,0.0,0.0,0.0,0.0,0.0,0.0,0.0,0.0,0.0,0.0,0.0,0.0,True,0,3.5251243114471436,0.034926025390625
STABILIZE,3.447730302810669,29.704912924312495,0.03265050252278646,0.03278541564941406,0.0,0.0,0.0,1.2628824474631997,-0.984925337868592,16.365549892889923,-0.0014276807073705267,0.0012907374530392983,-0.020507066296447465,0.4,0.03508373951109996,0.029935295396862262,0.7481857160042702,-0.04101413259289493,0.1758364262059331,0.23202793672680855,1.5616153366863728,-0.2709976537584671,3.4583810716867447,0.9560371749103069,20.263780653476715,0.0,0.0,0.0,0.0,0.0,0.0,0.0,0.0,0.0,0.0,0.0,0.0,0.0,0.0,0.0,0.0,True,0,3.554354667663574,0.034925048828125
STABILIZE,3.4815449714660645,29.573798695575533,0.0324275811513265,0.03273367881774902,0.0,0.0,0.0,1.2616882315755051,-0.9853340820017349,16.36420434562343,-0.00012099655680294607,-0.0006265368650919242,-0.016621564090487984,0.4,0.02568036532364036,0.025581568551508328,0.745434738785266,-0.03324312818097597,-0.3896399633958936,-0.06725200219079852,1.27047561109066,0.08701388862246502,0.7353296503424644,-1.0719607584178448,21.960973739624023,0.0,0.0,0.0,0.0,0.0,0.0,0.0,0.0,0.0,0.0,0.0,0.0,0.0,0.0,0.0,0.0,True,0,3.6118712425231934,0.029936767578125
STABILIZE,3.538686990737915,17.499526453911656,0.03222850163777669,0.032358407974243164,0.0,0.0,0.0,1.2620304880859463,-0.9856633184640707,16.367271100560764,-0.0003926790624339025,-0.000723999838477306,-0.014869566943898495,0.4,0.01735919782146339,0.02349298005093075,0.7386655906434192,-0.02973913388779699,-0.3896399633958936,-0.06725200219079852,1.27047561109066,0.08701388862246502,0.7353296503424644,-1.0719607584178448,21.960973739624023,0.0,0.0,0.0,0.0,0.0,0.0,0.0,0.0,0.0,0.0,0.0,0.0,0.0,0.0,0.0,0.0,True,0,3.6405155658721924,0.029936767578125
STABILIZE,3.5483827590942383,103.11749231714812,0.008543284734090169,0.0087432861328125,0.0,0.0,0.0,1.2620304880859463,-0.9856633184640707,16.367271100560764,-0.0011257615979837954,0.0009334981236611009,-0.014187166461720638,0.4,0.019659621318474055,0.025845141192356952,0.7349432263485792,-0.028374332923441277,0.20393207669258118,0.18368370365351439,1.4155656099319458,-0.02697957405677432,10.334020853042603,2.6728665456175804,14.073456823825836,0.0,0.0,0.0,0.0,0.0,0.0,0.0,0.0,0.0,0.0,0.0,0.0,0.0,0.0,0.0,0.0,True,0,3.6690945625305176,0.034925048828125
STABILIZE,3.582911968231201,28.961587593130925,0.03238108952840169,0.03370022773742676,0.0,0.0,0.0,1.2624220500244585,-0.9851951303408075,16.36687153449432,-0.0006080471086669215,0.000825385235862704,-0.013412673247459789,0.4,0.021009193017843132,0.024887809236905176,0.73763952350187,-0.026825346494919577,0.15358009841293097,-0.014523004938382655,1.5620124526321888,-0.01927337977517438,1.256504189223051,-2.851944789290428,28.838789463043213,0.0,0.0,0.0,0.0,0.0,0.0,0.0,0.0,0.0,0.0,0.0,0.0,0.0,0.0,0.0,0.0,True,0,3.697974920272827,0.02993701171875
STABILIZE,3.616438627243042,29.828919295650444,0.032486947377522786,0.03268098831176758,0.0,0.0,0.0,1.2626257817607953,-0.9852931008667148,16.3682887987471,-0.0005473154802837947,0.0008923726393547339,-0.012756725720327853,0.4,0.022470419724382063,0.023777761482529768,0.7368402458813124,-0.025513451440655706,0.15358009841293097,-0.014523004938382655,1.5620124526321888,-0.01927337977517438,1.256504189223051,-2.851944789290428,28.838789463043213,0.0,0.0,0.0,0.0,0.0,0.0,0.0,0.0,0.0,0.0,0.0,0.0,0.0,0.0,0.0,0.0,True,0,3.7265493869781494,0.02993701171875
STABILIZE,3.64986515045166,29.916149555641148,0.03244903882344564,0.032570838928222656,0.0,0.0,0.0,1.263826187507425,-0.9851451845825018,16.368500534611368,-0.0004220271326833916,-0.00036912188543125173,-0.012212057743419128,0.4,0.016658276268920885,0.02215422107876107,0.731073338419157,-0.024424115486838257,-0.27532835956662893,-0.04659261321648955,1.2503989972174168,-0.027493605822777285,-2.5824908167123795,0.6461638025939465,17.15894490480423,0.0,0.0,0.0,0.0,0.0,0.0,0.0,0.0,0.0,0.0,0.0,0.0,0.0,0.0,0.0,0.0,True,0,3.75530743598938,0.034926025390625
