Mode,Time,Freq,time2delay,actualDelay,North-Desired,East-Desired,Down-Desired,Roll-UAV,Pitch-UAV,Yaw-UAV,Roll-Control,Pitch-Control,Yaw-Control,Thrust-Control,North-Pos,East-Pos,Down-Pos,Yaw-Ang,North-Vel,East-Vel,Down-Vel,Yaw-Vel,North-Acc,East-Acc,Down-Acc,North-Avg,East-Avg,Down-Avg,Yaw-Avg,North-Dif,East-Dif,Down-Dif,Yaw-Dif,North-One,East-One,Down-One,Yaw-One,North-Two,East-Two,Down-Two,Yaw-Two,Landing-State,Q-Size,Kalman-Time,Kalman-Dt
STABILIZE,0.03442978858947754,29.053871144268268,0.032804044087727864,0.03297543525695801,0.0,0.0,0.0,-0.435978231797907,-1.502258913365873,9.03352708776247,-0.08634447658227194,0.08150987764496338,0.03214715973667418,0.4,0.08721530935236774,0.09209351322330053,0.12491274432359545,0.09141508634252883,-0.0881846179254353,0.06015422404743731,1.8576040863990784,-0.13881060151283028,-2.4717234075069427,-0.8470638655126095,25.760284066200256,0.0,0.0,0.0,0.0,0.0,0.0,0.0,0.0,0.0,0.0,0.0,0.0,0.0,0.0,0.0,0.0,False,0,0.14809226989746094,0.0349228515625
STABILIZE,0.0677485466003418,30.01247924895529,0.03228309949239095,0.032414913177490234,0.0,0.0,0.0,-0.4353210395337049,-1.5026732070277165,9.034129851956724,-0.052270002417411324,0.04849688120762512,0.02976700654138989,0.4,0.10066685794282819,0.10810556740076646,0.15679438552008226,0.10760880609054319,-0.2800004556775093,0.02632323303259909,1.8025631085038185,0.09628101458314427,-3.8618482649326324,0.96268430352211,20.506837964057922,0.0,0.0,0.0,0.0,0.0,0.0,0.0,0.0,0.0,0.0,0.0,0.0,0.0,0.0,0.0,0.0,False,0,0.17759323120117188,0.02993505859375
STABILIZE,0.10219812393188477,29.026727013522677,0.03245142300923665,0.03362274169921875,0.0,0.0,0.0,-0.4366658397482569,-1.5026341468834006,9.03742456445761,-0.03921052899376001,0.03573369595515144,0.02974470451561371,0.4,0.1081110016620242,0.11822578447107812,0.18309017084531268,0.11808073311033082,-0.2800004556775093,0.02632323303259909,1.8025631085038185,0.09628101458314427,-3.8618482649326324,0.96268430352211,20.506837964057922,0.0,0.0,0.0,0.0,0.0,0.0,0.0,0.0,0.0,0.0,0.0,0.0,0.0,0.0,0.0,0.0,False,1,0.20628976821899414,0.02993505859375
STABILIZE,0.13567233085632324,29.874598460081057,0.03249934514363607,0.032610177993774414,0.0,0.0,0.0,-0.4369378733762938,-1.5024977565434119,9.039392512712219,-0.03285509401167299,0.029274413352854294,0.030295091624320244,0.4,0.11457328136526931,0.12812036804787555,0.20981887203528554,0.12627247694494081,-0.1420335960574448,0.2323940396308899,1.8614007160067558,-0.021662283460605964,3.1986556947231293,1.3590168207883835,26.13654136657715,0.0,0.0,0.0,0.0,0.0,0.0,0.0,0.0,0.0,0.0,0.0,0.0,0.0,0.0,0.0,0.0,False,0,0.23546481132507324,0.0399130859375
STABILIZE,0.16908764839172363,29.92511415525114,0.03245666821797689,0.03258824348449707,0.0,0.0,0.0,-0.4361973314598763,-1.5029105561013745,9.039613640086598,-0.03010319220276057,0.026586463883156296,0.03228882288945342,0.4,0.1263217931580319,0.1424451847138545,0.24565832527062625,0.1386670523020708,0.03561943594831973,0.13361657038331032,1.5208291821181774,-0.07612187133041032,1.5207678079605103,-0.814634095877409,20.700472593307495,0.0,0.0,0.0,0.0,0.0,0.0,0.0,0.0,0.0,0.0,0.0,0.0,0.0,0.0,0.0,0.0,False,0,0.2700040340423584,0.024946044921875
STABILIZE,0.20265960693359375,29.789725633358664,0.032496007283528645,0.03261876106262207,0.0,0.0,0.0,-0.43673126015390096,-1.5037232418909001,9.043686994152864,-0.019255292970399598,0.015520623175009681,0.03580547666840535,0.4,0.14874324730766417,0.17028656982507823,0.3345789321868222,0.16549010898087815,-0.17219021683558822,0.009218473132932559,1.4169004745781422,0.03153785821389836,-4.45982962846756,-1.0882273316383362,16.24958962202072,0.0,0.0,0.0,0.0,0.0,0.0,0.0,0.0,0.0,0.0,0.0,0.0,0.0,0.0,0.0,0.0,False,0,0.33353614807128906,0.034923828125
STABILIZE,0.23601436614990234,29.978371965034913,0.03235057195027669,0.03246784210205078,0.0,0.0,0.0,-0.43547151713885673,-1.50385909862236,9.04388165454421,-0.01726066146789035,0.01347309445677405,0.03678835542030881,0.4,0.15035462608370667,0.17436602761182937,0.36134006737727853,0.17137358998533514,-0.06378849502652884,0.09499748121015728,1.6002791002392769,0.2692564891286428,0.6576795130968094,2.8804050758481026,21.97873890399933,0.0,0.0,0.0,0.0,0.0,0.0,0.0,0.0,0.0,0.0,0.0,0.0,0.0,0.0,0.0,0.0,False,0,0.3621509075164795,0.02993408203125
STABILIZE,0.2700636386871338,29.37064269008305,0.03244021733601888,0.03310799598693848,0.0,0.0,0.0,-0.4338165836473038,-1.5038714783402307,9.045448329185081,-0.015294755029762819,0.012125485843003509,0.03674855219178875,0.4,0.14995008328510315,0.17324962772291333,0.38080522042906284,0.17201411102696,0.029279699083417654,-0.047943220124579966,1.531196478754282,0.09695368149468475,1.9643262028694153,-3.098663128912449,18.46410632133484,0.0,0.0,0.0,0.0,0.0,0.0,0.0,0.0,0.0,0.0,0.0,0.0,0.0,0.0,0.0,0.0,False,0,0.3934485912322998,0.034924072265625
STABILIZE,0.30346059799194336,29.940922005054038,0.03237942059834798,0.032492876052856445,0.0,0.0,0.0,-0.43468668571453994,-1.5037382896514153,9.049203225681296,-0.013619382695756752,0.011190470209453702,0.03714686826970226,0.4,0.15088094293265322,0.1736009787409845,0.405898691018476,0.17430527716938377,0.029279699083417654,-0.047943220124579966,1.531196478754282,0.09695368149468475,1.9643262028694153,-3.098663128912449,18.46410632133484,0.0,0.0,0.0,0.0,0.0,0.0,0.0,0.0,0.0,0.0,0.0,0.0,0.0,0.0,0.0,0.0,False,0,0.4219398498535156,0.034924072265625
STABILIZE,0.34110116958618164,26.567582803899338,0.03242209752400716,0.03676891326904297,0.0,0.0,0.0,-0.43422276645950797,-1.5036156664114726,9.049525952119579,-0.011208847409153216,0.008493939722810534,0.03647101977888391,0.4,0.14758017471135937,0.17430967011611448,0.4313349585936105,0.17238443108206436,-0.23618661798536777,0.058723922120407224,1.6164550557732582,-0.15966725115412533,0.30102389864623547,8.682860434055328,19.712981581687927,0.0,0.0,0.0,0.0,0.0,0.0,0.0,0.0,0.0,0.0,0.0,0.0,0.0,0.0,0.0,0.0,False,0,0.4513866901397705,0.034924072265625
STABILIZE,0.37557435035705566,29.008257832491875,0.03245094617207845,0.03362107276916504,0.0,0.0,0.0,-0.4357385348467219,-1.5026975395766347,9.052823225941403,-0.007023716428480208,0.004080507910339771,0.035128907704196334,0.4,0.14547784570277433,0.17819747860597943,0.4583745307920971,0.1695152758421261,-0.0772033934481442,0.34839753061532974,1.787111908197403,-0.1528921303842958,0.18715765327215195,8.657101541757584,20.875859260559082,0.0,0.0,0.0,0.0,0.0,0.0,0.0,0.0,0.0,0.0,0.0,0.0,0.0,0.0,0.0,0.0,False,1,0.4801163673400879,0.029934814453125
STABILIZE,0.4090604782104492,29.861198917841378,0.03246453603108724,0.032611846923828125,0.0,0.0,0.0,-0.43679038397890385,-1.5026639222393134,9.053636018452634,-0.0059496772442414105,0.0006510088960506625,0.03298488471597825,0.4,0.13034696810771962,0.17647106885068958,0.5015756456080679,0.16048653481064967,-0.6157966796308756,0.26160762645304203,1.8014173954725266,-0.2882597029056314,-14.056307077407837,6.840427964925766,24.901102483272552,0.0,0.0,0.0,0.0,0.0,0.0,0.0,0.0,0.0,0.0,0.0,0.0,0.0,0.0,0.0,0.0,False,0,0.5374536514282227,0.0399130859375
STABILIZE,0.44278669357299805,29.65178293696802,0.03245356877644857,0.03277015686035156,0.0,0.0,0.0,-0.4352484687737735,-1.5035670013136362,9.056491891299347,-0.0062539876821409894,0.0005929635139297911,0.03245045817045331,0.4,0.12962358520659023,0.17684382168442778,0.5285112591202653,0.15778005106532647,0.06916088168509305,0.07169412565417588,1.4873599633574486,-0.09388619951572838,13.242137432098389,-7.104179263114929,12.569870054721832,0.0,0.0,0.0,0.0,0.0,0.0,0.0,0.0,0.0,0.0,0.0,0.0,0.0,0.0,0.0,0.0,False,0,0.5660350322723389,0.02494482421875
STABILIZE,0.4761784076690674,29.94797683734015,0.03235677083333333,0.03249311447143555,0.0,0.0,0.0,-0.43561836620601196,-1.5032902719305448,9.05846325464854,-0.0047026929945503055,-0.0001976427360200738,0.031116462139382885,0.4,0.12652163980811085,0.1696108945227798,0.5372879758598816,0.15183370678295902,0.10456310119479895,-0.10100641520693898,1.5753550454974174,-0.03601785532972509,1.6311895102262497,2.477550506591797,14.725068211555481,0.0,0.0,0.0,0.0,0.0,0.0,0.0,0.0,0.0,0.0,0.0,0.0,0.0,0.0,0.0,0.0,False,0,0.5946228504180908,0.034924072265625
STABILIZE,0.509967565536499,29.59403928652066,0.03242352803548177,0.032976627349853516,0.0,0.0,0.0,-0.4357073721086337,-1.5025519711699489,9.05776401403226,-0.0036903155160201784,8.142455460273826e-05,0.03042047194817433,0.4,0.12521351489944627,0.16513138559115967,0.5580395438065798,0.14814216135145228,0.10456310119479895,-0.10100641520693898,1.5753550454974174,-0.03601785532972509,1.6311895102262497,2.477550506591797,14.725068211555481,0.0,0.0,0.0,0.0,0.0,0.0,0.0,0.0,0.0,0.0,0.0,0.0,0.0,0.0,0.0,0.0,False,0,0.6233527660369873,0.034924072265625
STABILIZE,0.5434920787811279,29.83019216818628,0.03251174290974935,0.03262948989868164,0.0,0.0,0.0,-0.43499671226983505,-1.5032821610809055,9.062699679481241,-0.0025159037877867975,-0.002670166449244561,0.02951745606810273,0.4,0.11022171738332054,0.16265469712315692,0.5799224637619709,0.1434350722837511,-0.7787058129906654,0.05876297946088016,1.7112573608756065,-0.0825586642825928,-19.448964297771454,0.7682937663048506,24.54897165298462,0.0,0.0,0.0,0.0,0.0,0.0,0.0,0.0,0.0,0.0,0.0,0.0,0.0,0.0,0.0,0.0,False,0,0.6527433395385742,0.034924072265625
STABILIZE,0.5769097805023193,29.924687147729056,0.03242925008138021,0.03255033493041992,0.0,0.0,0.0,-0.43554376773367076,-1.5034068120332582,9.064841797559687,-0.0023656142836095515,-0.0019571902618210723,0.02935652896110337,0.4,0.10059229612104052,0.1603224560884741,0.6002317404724916,0.1411511874654028,-0.393536826595664,0.08530236664228141,1.6660301014780998,0.09012972220424699,9.780832380056381,0.9523437358438969,23.015189170837402,0.0,0.0,0.0,0.0,0.0,0.0,0.0,0.0,0.0,0.0,0.0,0.0,0.0,0.0,0.0,0.0,False,1,0.6813831329345703,0.029934814453125
STABILIZE,0.6131603717803955,27.584668402914794,0.03244951566060384,0.035433053970336914,0.0,0.0,0.0,-0.4393031465415281,-1.5035991245470763,9.066271868417157,-0.001249700953183011,-0.0027132050314552817,0.02614515132289175,0.4,0.09595633605501798,0.15481176601170124,0.6224605375854779,0.1262822380057324,0.5948314443230629,0.1793676638044417,1.3878243044018745,-0.46315502089685884,16.747024655342102,4.747330397367477,17.270924150943756,0.0,0.0,0.0,0.0,0.0,0.0,0.0,0.0,0.0,0.0,0.0,0.0,0.0,0.0,0.0,0.0,False,0,0.738703727722168,0.034924072265625
STABILIZE,0.6467552185058594,29.767737631386577,0.032514365514119466,0.03265261650085449,0.0,0.0,0.0,-0.4388571565330674,-1.5043477773131333,9.071601977290706,-0.001179006382672757,-0.005224490295359166,0.025160019476043467,0.4,0.08122938611689993,0.1481788720644125,0.6399681499919263,0.12087133197079081,-0.7157438434660435,-0.17222458263859153,1.6078781336545944,-0.09218504218535886,-6.14076629281044,-1.1644477024674416,23.79027009010315,0.0,0.0,0.0,0.0,0.0,0.0,0.0,0.0,0.0,0.0,0.0,0.0,0.0,0.0,0.0,0.0,False,0,0.7673490047454834,0.064858154296875
STABILIZE,0.6801095008850098,29.97922905930368,0.03236869176228841,0.03249239921569824,0.0,0.0,0.0,-0.4390378363809554,-1.5032181280574366,9.071824812212379,-0.0029919977135195778,-0.005239020936682844,0.023633463190040355,0.4,0.08000578235641387,0.15292029798169374,0.6905582551861407,0.11342727284191279,0.12357470113784075,0.26840127538889647,1.6037669032812119,-0.3344925330259337,12.464400380849838,4.788750410079956,19.380103051662445,0.0,0.0,0.0,0.0,0.0,0.0,0.0,0.0,0.0,0.0,0.0,0.0,0.0,0.0,0.0,0.0,False,0,0.7960798740386963,0.034924072265625
STABILIZE,0.7134847640991211,29.963808857042842,0.03247240384419759,0.032584428787231445,0.0,0.0,0.0,-0.43849494306364517,-1.5035091581491027,9.078621704210187,-0.0033920003240103056,-0.002863856865795296,0.021409250716820916,0.4,0.0784455676932317,0.152562489887868,0.7031077559431372,0.10284254452167355,0.12357470113784075,0.26840127538889647,1.6037669032812119,-0.3344925330259337,12.464400380849838,4.788750410079956,19.380103051662445,0.0,0.0,0.0,0.0,0.0,0.0,0.0,0.0,0.0,0.0,0.0,0.0,0.0,0.0,0.0,0.0,False,0,0.8296747207641602,0.034924072265625
STABILIZE,0.7471134662628174,29.73650291742586,0.032524855931599934,0.03264045715332031,0.0,0.0,0.0,-0.43950751860809956,-1.5048602549442958,9.084668982946587,-0.002463115356087694,-0.002254731953065873,0.0207935476415844,0.4,0.07303111127261817,0.14599915293128535,0.7148147466501992,0.09957679378258245,-0.10327179916203022,-0.08495399379171431,1.595797948539257,0.08154434784031285,-10.499153286218643,-5.194045230746269,17.161856591701508,0.0,0.0,0.0,0.0,0.0,0.0,0.0,0.0,0.0,0.0,0.0,0.0,0.0,0.0,0.0,0.0,False,0,0.8582682609558105,0.034923828125
STABILIZE,0.7804820537567139,29.968090655120427,0.032327922185262044,0.03245973587036133,0.0,0.0,0.0,-0.43781555268464045,-1.5029519641232176,9.085129166941917,-0.0031694820623278967,-0.005002605618451321,0.019423725175774034,0.4,0.05621772661497623,0.14492618428224377,0.7222720855646423,0.09157090965646095,-0.7510709576308727,0.2288943389430642,1.3951039873063564,-0.19449537290779884,9.802769124507904,10.617417842149734,19.52591985464096,0.0,0.0,0.0,0.0,0.0,0.0,0.0,0.0,0.0,0.0,0.0,0.0,0.0,0.0,0.0,0.0,False,0,0.886944055557251,0.034923828125
STABILIZE,0.8138351440429688,29.982014954179594,0.032410653432210286,0.03252410888671875,0.0,0.0,0.0,-0.4417549710101511,-1.5027929487816034,9.097896498047962,-0.003214635305261852,-0.003796453718008041,0.017378133184822814,0.4,0.049335161899600355,0.13934492101431162,0.7359512530640675,0.0817336254987289,-0.4058398772031069,-0.1309294020757079,1.5491191297769547,0.392070894327009,-31.43347203731537,6.535883992910385,20.245057344436646,0.0,0.0,0.0,0.0,0.0,0.0,0.0,0.0,0.0,0.0,0.0,0.0,0.0,0.0,0.0,0.0,False,0,0.9443633556365967,0.034923828125
STABILIZE,0.8473796844482422,29.81174614230985,0.03249791463216146,0.03262186050415039,0.0,0.0,0.0,-0.44298632605145744,-1.5089719221029376,9.086591681197946,-0.003666797409751881,-0.006364179595835235,0.013077897176684422,0.4,0.03598712832632908,0.14546044398929237,0.7422313047636899,0.061879112652033816,-0.5787197966128588,0.6292083766311407,1.4096543192863464,-0.8952848679842869,7.8925542533397675,14.542131125926971,19.45379078388214,0.0,0.0,0.0,0.0,0.0,0.0,0.0,0.0,0.0,0.0,0.0,0.0,0.0,0.0,0.0,0.0,False,0,0.9731197357177734,0.02993408203125
STABILIZE,0.8809263706207275,29.81132236397882,0.03239467938741048,0.03253054618835449,0.0,0.0,0.0,-0.4478133488039524,-1.508711948027654,9.086192968905147,-0.0003439161666304695,-0.002290356061625009,0.014386461717817873,0.4,0.05405004188311574,0.129156179515059,0.748052572290792,0.06600143093662945,1.1951392516493797,-0.6231368519365788,1.715979166328907,0.45394733892629985,37.177225947380066,-34.3334823846817,22.70020693540573,0.0,0.0,0.0,0.0,0.0,0.0,0.0,0.0,0.0,0.0,0.0,0.0,0.0,0.0,0.0,0.0,False,0,1.0027704238891602,0.034923828125
STABILIZE,0.9142348766326904,30.019997566509446,0.03229645093282064,0.032414913177490234,0.0,0.0,0.0,-0.451553090817946,-1.5095708443157831,9.106225913740793,0.001322485305674519,-0.004196963313653046,0.016623526981881222,0.4,0.04027458260525865,0.11550841025433857,0.7577380746737793,0.07508887809139742,-0.6343918386846781,-0.5059951450675726,1.6441356390714645,0.7404190263732688,-53.1460702419281,8.172378689050674,18.167266249656677,0.0,0.0,0.0,0.0,0.0,0.0,0.0,0.0,0.0,0.0,0.0,0.0,0.0,0.0,0.0,0.0,False,0,1.0304789543151855,0.034924072265625
STABILIZE,0.9476797580718994,29.900154693927014,0.032407315572102864,0.032521724700927734,0.0,0.0,0.0,-0.4667139763412586,-1.5146676595404935,9.128013363419488,0.003980308982543184,-0.004055064289453528,0.019073994885918814,0.4,0.026500053447587386,0.10182067497417169,0.7668346966859233,0.08445970071141007,-0.6343918386846781,-0.5059951450675726,1.6441356390714645,0.7404190263732688,-53.1460702419281,8.172378689050674,18.167266249656677,0.0,0.0,0.0,0.0,0.0,0.0,0.0,0.0,0.0,0.0,0.0,0.0,0.0,0.0,0.0,0.0,False,0,1.0590829849243164,0.034924072265625
STABILIZE,0.9811863899230957,29.84398858696039,0.032427104314168294,0.032584428787231445,0.0,0.0,0.0,-0.46409812061084954,-1.5358597088226333,9.120250853427768,0.0008980166566188065,-0.006870596270042076,0.01561681785837858,0.4,0.007146810383168983,0.11168692470356383,0.7684293022933841,0.06794047789270555,-0.9574342519044876,0.8413492701947689,1.2470261193811893,-0.7539693746346338,3.456495702266693,25.60405135154724,10.712306946516037,0.0,0.0,0.0,0.0,0.0,0.0,0.0,0.0,0.0,0.0,0.0,0.0,0.0,0.0,0.0,0.0,False,0,1.0879590511322021,0.034924072265625
STABILIZE,1.0146234035491943,29.907830092483653,0.03239038785298665,0.0325160026550293,0.0,0.0,0.0,-0.46310091299202766,-1.526388584321353,9.126722457666355,0.0073316894241387915,0.004261191629105875,0.011102376525636642,0.4,0.048795960476511545,0.08608750930388448,0.777889088715327,0.045591954142198785,0.8406388573348522,-1.447773538529873,1.642165146768093,0.4765472075902556,-23.046348989009857,-39.221689105033875,23.054516315460205,0.0,0.0,0.0,0.0,0.0,0.0,0.0,0.0,0.0,0.0,0.0,0.0,0.0,0.0,0.0,0.0,False,0,1.1451153755187988,0.034924072265625
STABILIZE,1.0480971336364746,29.87502403931764,0.032401116689046223,0.03252410888671875,0.0,0.0,0.0,-0.5058797751459927,-1.528544362778138,9.17208174394441,0.005802524308936757,-0.0003004198892773614,0.008682208229959439,0.4,0.042456617478189795,0.07937988327865532,0.775474733276983,0.035497304843635974,-0.2567111514508724,-0.1281705917790532,1.0726874694228172,-0.4015773437129031,-11.64124384522438,26.776570081710815,-5.242644250392914,0.0,0.0,0.0,0.0,0.0,0.0,0.0,0.0,0.0,0.0,0.0,0.0,0.0,0.0,0.0,0.0,False,0,1.1738042831420898,0.034923828125
STABILIZE,1.081517219543457,29.922552292897297,0.03236845334370931,0.0325014591217041,0.0,0.0,0.0,-0.4902306378187299,-1.5343518378416472,9.151732049086004,0.0002079855820936638,0.00803938772650181,0.0011684679951467275,0.4,0.07044030795341147,0.09432174099630583,0.8031490520344237,0.0039849779521629256,1.7271548509597778,1.1140156537294388,2.8428977355360985,-1.646172279838511,39.49885964393616,17.689481377601624,24.261435866355896,0.0,0.0,0.0,0.0,0.0,0.0,0.0,0.0,0.0,0.0,0.0,0.0,0.0,0.0,0.0,0.0,False,0,1.2024807929992676,0.0349228515625
STABILIZE,1.1150176525115967,29.85078535894498,0.03240207036336263,0.03251314163208008,0.0,0.0,0.0,-0.4726956212286031,-1.5132705656901086,9.189267353669809,0.0036974118186433097,0.012620437261699294,0.0035808768629999876,0.4,0.08043815763342196,0.0658762152267206,0.8145253707301195,0.015650942467369422,0.6736722774803638,-1.4082321897149086,1.9168874248862267,0.8461097471160164,-17.339660227298737,-49.90989565849304,-0.7755447179079056,0.0,0.0,0.0,0.0,0.0,0.0,0.0,0.0,0.0,0.0,0.0,0.0,0.0,0.0,0.0,0.0,False,0,1.2376821041107178,0.02993505859375
STABILIZE,1.1484568119049072,29.90335229784261,0.032334359486897786,0.032495737075805664,0.0,0.0,0.0,-0.44810181757467965,-1.4986098848017937,9.154024431326189,0.003717764344194568,0.007765008006518235,-0.0031629077089758355,0.4,0.04062675424921787,0.07419658862725169,0.8028667386869979,-0.015787317451470422,-2.192739024758339,0.7101351860910654,0.8955280296504498,-1.7168722082675476,-64.74356651306152,51.49667263031006,-28.783130645751953,0.0,0.0,0.0,0.0,0.0,0.0,0.0,0.0,0.0,0.0,0.0,0.0,0.0,0.0,0.0,0.0,False,0,1.266261100769043,0.034924072265625
STABILIZE,1.1819300651550293,29.873747337981925,0.03237942059834798,0.03264260292053223,0.0,0.0,0.0,-0.44766009643445026,-1.4908021248068228,9.07026667530797,-0.009261009311342796,-0.012357392881864247,-0.005886000324146798,0.4,-0.019965968969716877,0.11422357238102493,0.8192534812666735,-0.030458052885406955,-3.419707342982292,2.557733654975891,2.2421248257160187,-0.7038154556417887,-72.08277583122253,31.323403120040894,15.979146957397461,0.0,0.0,0.0,0.0,0.0,0.0,0.0,0.0,0.0,0.0,0.0,0.0,0.0,0.0,0.0,0.0,False,0,1.2952055931091309,0.02993505859375
STABILIZE,1.2159843444824219,29.366324294426125,0.03250268300374349,0.033112525939941406,0.0,0.0,0.0,-0.44726490595794155,-1.5154073476832648,9.143930265506556,-0.01864178081940031,-0.023487782244353286,-0.008642087612713123,0.4,-0.07927809911244116,0.15359428525056873,0.8302230600915804,-0.04365525947766233,-3.419707342982292,2.557733654975891,2.2421248257160187,-0.7038154556417887,-72.08277583122253,31.323403120040894,15.979146957397461,0.0,0.0,0.0,0.0,0.0,0.0,0.0,0.0,0.0,0.0,0.0,0.0,0.0,0.0,0.0,0.0,False,0,1.3236730098724365,0.02993505859375
STABILIZE,1.2495181560516357,29.820012228589306,0.0323674996693929,0.03249192237854004,0.0,0.0,0.0,-0.4471436701001738,-1.51557468731793,9.12417308955865,-0.00798188657973016,-0.0259227010121067,0.015330637521573471,0.4,-0.0667753236939641,0.11560028050572335,0.8121048689935867,0.05635812867476466,4.047399014234543,1.2427461333572865,0.09165012161247432,-1.6842566675985615,157.99816846847534,-5.9555429965257645,-28.741014003753662,0.0,0.0,0.0,0.0,0.0,0.0,0.0,0.0,0.0,0.0,0.0,0.0,0.0,0.0,0.0,0.0,False,0,1.3811488151550293,0.034924072265625
STABILIZE,1.283055305480957,29.818316247458448,0.032280715306599934,0.03248715400695801,0.0,0.0,0.0,-0.447175793333614,-1.500325649665642,9.089293874788332,-0.009019223132337294,-0.033488995767611995,0.018992427847352288,0.4,-0.09431103999232021,0.09612807107753403,0.7959496479647846,0.07359567749582702,-1.5613074414432049,-0.9569205343723297,0.3770509734749794,1.0985507640753374,-91.54514670372009,-13.969290256500244,-71.9516932964325,0.0,0.0,0.0,0.0,0.0,0.0,0.0,0.0,0.0,0.0,0.0,0.0,0.0,0.0,0.0,0.0,False,0,1.4096810817718506,0.034924072265625
STABILIZE,1.316352128982544,30.031174596355566,0.032271416982014973,0.03238725662231445,0.0,0.0,0.0,-0.4493495010369706,-1.5025258243520323,9.131833146712818,-0.0072132202981178735,-0.04635222989124788,0.012398533842074018,0.4,-0.1896164831482673,0.09450030994246811,0.8104069168180031,0.040715735713972176,-5.573442205786705,0.11337250471115112,2.22129225730896,-1.872042580266013,-79.16759848594666,39.85871076583862,15.348091721534729,0.0,0.0,0.0,0.0,0.0,0.0,0.0,0.0,0.0,0.0,0.0,0.0,0.0,0.0,0.0,0.0,False,0,1.4384117126464844,0.02993505859375
STABILIZE,1.349989652633667,29.73123325346981,0.032405885060628255,0.03274655342102051,0.0,0.0,0.0,-0.4442359305044524,-1.508573209810138,9.107313621366119,-0.004359659768679643,-0.03272050575945095,0.01307952821250568,0.4,-0.17603953375080256,0.11501412897653555,0.8054662106440529,0.04165549608102155,0.7204385008662939,1.4507015235722065,1.3406980782747269,0.15747886921622384,108.91363620758057,10.326313972473145,-9.450865536928177,0.0,0.0,0.0,0.0,0.0,0.0,0.0,0.0,0.0,0.0,0.0,0.0,0.0,0.0,0.0,0.0,False,0,1.4670209884643555,0.034923095703125
STABILIZE,1.3835077285766602,29.834223647990214,0.03241709073384603,0.032561302185058594,0.0,0.0,0.0,-0.4458976941851754,-1.5065303429180696,9.114835367189595,0.008500478241050106,-0.012888705541675021,0.014625589364891686,0.4,-0.13130757248291186,0.08667914031269544,0.808219419886718,0.046554307122603354,2.703086845576763,-1.495833694934845,1.5301316976547241,0.3836690145959528,-23.961274325847626,-54.75025177001953,-9.16878804564476,0.0,0.0,0.0,0.0,0.0,0.0,0.0,0.0,0.0,0.0,0.0,0.0,0.0,0.0,0.0,0.0,False,0,1.4961464405059814,0.029934814453125
STABILIZE,1.4170398712158203,29.822556562051165,0.0323827584584554,0.032524824142456055,0.0,0.0,0.0,-0.447716872381926,-1.5022747081783285,9.129704689012712,0.001116094621442149,-0.022233149233071944,0.00987922530919616,0.4,-0.16508346082655284,0.0893468935841157,0.8030291394231706,0.03880188765486853,-2.1533727645874023,0.3804298350587487,1.3264472596347332,-0.3658860568028693,-115.43787717819214,61.14736199378967,25.611385703086853,0.0,0.0,0.0,0.0,0.0,0.0,0.0,0.0,0.0,0.0,0.0,0.0,0.0,0.0,0.0,0.0,False,0,1.5246608257293701,0.034924072265625
STABILIZE,1.4506194591522217,29.778938998068842,0.03229502042134603,0.03251075744628906,0.0,0.0,0.0,-0.44292634845280826,-1.5122264005207429,9.116335447486058,-0.0030117199774172265,-0.024778175806299384,0.0076338771765608535,0.4,-0.2006458084672955,0.09234757034971729,0.8022545138641781,0.03117804970178205,-2.1533727645874023,0.3804298350587487,1.3264472596347332,-0.3658860568028693,-115.43787717819214,61.14736199378967,25.611385703086853,0.0,0.0,0.0,0.0,0.0,0.0,0.0,0.0,0.0,0.0,0.0,0.0,0.0,0.0,0.0,0.0,False,1,1.5537703037261963,0.034924072265625
STABILIZE,1.4840691089630127,29.898236459803545,0.032271416982014973,0.03241276741027832,0.0,0.0,0.0,-0.44458704491647344,-1.511808371599197,9.136103722491368,9.928166074970388e-05,-0.006930257760257953,0.014475467117972061,0.4,-0.19697891187805286,0.075989622400197,0.7961908634423096,0.056495776638108425,2.076188288629055,-1.7746087163686752,1.149897649884224,0.730882641548903,79.62939143180847,-56.115877628326416,-1.9578924402594566,0.0,0.0,0.0,0.0,0.0,0.0,0.0,0.0,0.0,0.0,0.0,0.0,0.0,0.0,0.0,0.0,False,0,1.6111068725585938,0.02993505859375
STABILIZE,1.51747465133667,29.932375148081015,0.03226593335469564,0.03240323066711426,0.0,0.0,0.0,-0.44320008962813773,-1.505721072223129,9.115213588914884,0.0017018320616132294,-0.009089100028477265,0.00931843697771717,0.4,-0.19557529528881676,0.08573456495417442,0.7943213987217245,0.034084175497231035,-0.1622030627913773,0.7925178855657578,1.543509867042303,-1.2459549975440867,-66.05659127235413,53.60075235366821,22.081269323825836,0.0,0.0,0.0,0.0,0.0,0.0,0.0,0.0,0.0,0.0,0.0,0.0,0.0,0.0,0.0,0.0,False,0,1.6399061679840088,0.034924072265625
STABILIZE,1.5509469509124756,29.876088040458722,0.03233364423116048,0.03248262405395508,0.0,0.0,0.0,-0.4419384256223894,-1.5104495908411877,9.1215989620152,-0.006303037900707372,-0.02710000401419434,0.011653089061987082,0.4,-0.24310741008909398,0.09971320719848063,0.7883235574706052,0.044746615632175454,-2.9844148084521294,1.0258477181196213,1.0452783666551113,0.7262832561948399,-52.17190980911255,0.46200682409107685,10.416185110807419,0.0,0.0,0.0,0.0,0.0,0.0,0.0,0.0,0.0,0.0,0.0,0.0,0.0,0.0,0.0,0.0,True,0,1.6686384677886963,0.034923583984375
STABILIZE,1.5843439102172852,29.941776959209605,0.032326491673787434,0.03247189521789551,0.0,0.0,0.0,-0.44445108146330786,-1.511429402821967,9.146717836461567,-0.0003606001913356087,-0.019060241257301408,0.012231932895971161,0.4,-0.23346485842580658,0.07353852548881465,0.7985154265212168,0.04612277557010171,0.42773056775331497,-1.3784739188849926,2.024679444730282,0.16215384021840668,67.4295723438263,-43.94611716270447,12.829317152500153,0.0,0.0,0.0,0.0,0.0,0.0,0.0,0.0,0.0,0.0,0.0,0.0,0.0,0.0,0.0,0.0,True,0,1.7006430625915527,0.034923095703125
STABILIZE,1.617785930633545,29.902499536594757,0.03239467938741048,0.03252053260803223,0.0,0.0,0.0,-0.44262389913862366,-1.5063576671981154,9.118138617426942,-0.0016499600291757066,-0.007877607709469997,0.007313996916329908,0.4,-0.2102938653692221,0.08214191144482885,0.803545336800895,0.023671231531880152,1.1839412152767181,0.7040158379822969,1.719013787806034,-1.2510343104090489,6.445128470659256,42.163169384002686,26.122108101844788,0.0,0.0,0.0,0.0,0.0,0.0,0.0,0.0,0.0,0.0,0.0,0.0,0.0,0.0,0.0,0.0,True,0,1.726294994354248,0.02993505859375
STABILIZE,1.6520237922668457,29.21211023742696,0.032398494084676106,0.0328068733215332,0.0,0.0,0.0,-0.4419034209028931,-1.509386322486487,9.12423456126118,-0.006360087254596417,-0.0032997058990897406,0.0014324624822772728,0.4,-0.18498149218945595,0.0906011604227636,0.8044227943203804,0.0013517946930604145,1.1839412152767181,0.7040158379822969,1.719013787806034,-1.2510343104090489,6.445128470659256,42.163169384002686,26.122108101844788,0.0,0.0,0.0,0.0,0.0,0.0,0.0,0.0,0.0,0.0,0.0,0.0,0.0,0.0,0.0,0.0,True,1,1.7550678253173828,0.02993505859375
STABILIZE,1.684894323348999,30.416870929844663,0.0318634827931722,0.031998395919799805,0.0,0.0,0.0,-0.44312453066044444,-1.5123982224670511,9.152610582167997,-0.0014951575017101456,-0.012136534120146892,0.0046049730960278125,0.4,-0.22580423523135446,0.07566073203143785,0.8111076980498331,0.012203433013798799,-0.8454514667391777,-0.556431245058775,1.7723260447382927,0.0820307853752647,58.264219760894775,12.945625185966492,17.142358422279358,0.0,0.0,0.0,0.0,0.0,0.0,0.0,0.0,0.0,0.0,0.0,0.0,0.0,0.0,0.0,0.0,True,0,1.8122806549072266,0.034924072265625
STABILIZE,1.7184505462646484,29.802849326748856,0.03247979482014974,0.03260493278503418,0.0,0.0,0.0,-0.44110845091652706,-1.510134975252544,9.12578757552371,0.00019614624290167419,-0.0013133685910583478,-0.0006799804210930731,0.4,-0.21463332817768516,0.07947491349343251,0.8169286074998564,-0.009372981657330406,0.41658799163997173,0.4065929912030697,1.7544649541378021,-1.2148306792699848,11.354906857013702,12.71042674779892,18.78293603658676,0.0,0.0,0.0,0.0,0.0,0.0,0.0,0.0,0.0,0.0,0.0,0.0,0.0,0.0,0.0,0.0,True,0,1.8410654067993164,0.029934814453125
STABILIZE,1.7518391609191895,29.94883219444623,0.03235462506612142,0.032473087310791016,0.0,0.0,0.0,-0.44174184424033996,-1.5096449091795954,9.129849830532576,-0.005275488308318746,-0.00034950767827272974,-0.005565295154710215,0.4,-0.20162134849659114,0.08310696704956827,0.8183690123255659,-0.030354905522681424,0.41658799163997173,0.4065929912030697,1.7544649541378021,-1.2148306792699848,11.354906857013702,12.71042674779892,18.78293603658676,0.0,0.0,0.0,0.0,0.0,0.0,0.0,0.0,0.0,0.0,0.0,0.0,0.0,0.0,0.0,0.0,True,0,1.8696882724761963,0.029934814453125
STABILIZE,1.7852799892425537,29.903565495754343,0.03239396413167318,0.03251314163208008,0.0,0.0,0.0,-0.4423832416920865,-1.5125985391088028,9.155218006883649,-0.002127088369691861,-0.0075625716322355405,-0.0017604531614857197,0.4,-0.2160390793290498,0.07537109916489797,0.8138018613563142,-0.01667554635031385,-1.2478719465434551,-0.2868028124794364,1.3778163120150566,0.8757948164659497,-70.5457866191864,-24.897633492946625,15.85797667503357,0.0,0.0,0.0,0.0,0.0,0.0,0.0,0.0,0.0,0.0,0.0,0.0,0.0,0.0,0.0,0.0,True,0,1.8984496593475342,0.034924072265625
STABILIZE,1.8188488483428955,29.790995163043092,0.0324130376180013,0.03254127502441406,0.0,0.0,0.0,-0.44015702690948544,-1.5123310945141146,9.135492420560652,-0.00014767296409631873,-0.016529599919747878,-0.0005859153992287594,0.4,-0.23715132031556552,0.07304239476239974,0.813321912669468,-0.014405326580112485,-1.5643194317817688,0.025615232880227268,1.362689957022667,0.2048818494795668,6.5710775554180145,18.487349152565002,16.479559242725372,0.0,0.0,0.0,0.0,0.0,0.0,0.0,0.0,0.0,0.0,0.0,0.0,0.0,0.0,0.0,0.0,True,0,1.927095651626587,0.034924072265625
STABILIZE,1.852637767791748,29.594874544890068,0.032280715306599934,0.032877206802368164,0.0,0.0,0.0,-0.4415606307839231,-1.5100868437632364,9.161927813969541,-0.003820458931006046,-0.00522113259269248,-0.006207995433984977,0.4,-0.21772779959631286,0.07777906035664395,0.8124682797967667,-0.037378678697100924,0.8856042288243771,0.4508264362812042,1.3577471487224102,-1.3324724701521093,50.078368186950684,-0.8836021646857262,16.563519835472107,0.0,0.0,0.0,0.0,0.0,0.0,0.0,0.0,0.0,0.0,0.0,0.0,0.0,0.0,0.0,0.0,True,1,1.9557502269744873,0.02993505859375
STABILIZE,1.887411117553711,28.757457953665043,0.032419713338216145,0.03333592414855957,0.0,0.0,0.0,-0.4400409136935952,-1.510765913977124,9.160523356321457,-0.001089821868383996,-0.012384750608338971,-0.002599508417088904,0.4,-0.2426686223534283,0.06773743173152848,0.817395892509586,-0.024375066685881294,-1.8392356112599373,0.33849377650767565,1.6239462420344353,0.21011676259155848,-33.69446098804474,24.363607168197632,20.55319994688034,0.0,0.0,0.0,0.0,0.0,0.0,0.0,0.0,0.0,0.0,0.0,0.0,0.0,0.0,0.0,0.0,True,0,2.013073682785034,0.034922607421875
STABILIZE,1.9195575714111328,31.1080916709931,0.03108671506245931,0.031235933303833008,0.0,0.0,0.0,-0.437747891123175,-1.5111978167204214,9.144364836292498,-0.0010982148412064412,-0.020177476168138333,-0.0012861349753376273,0.4,-0.26799818209042336,0.07076107330443877,0.8207692904168671,-0.02134052631013279,-1.8392356112599373,0.33849377650767565,1.6239462420344353,0.21011676259155848,-33.69446098804474,24.363607168197632,20.55319994688034,0.0,0.0,0.0,0.0,0.0,0.0,0.0,0.0,0.0,0.0,0.0,0.0,0.0,0.0,0.0,0.0,True,0,2.0419955253601074,0.034922607421875
STABILIZE,1.9531044960021973,29.810686719072056,0.03240183194478353,0.032546043395996094,0.0,0.0,0.0,-0.43943740244740115,-1.5099572836124178,9.165156785899663,-0.0033194025604017866,-0.017072981921061752,-0.003982947276990416,0.4,-0.26531967571713533,0.07467504334916307,0.8207210638247008,-0.031202024569168096,-0.15709538711234927,0.3853684524074197,1.4303511939942837,-0.5740517865301842,35.49722135066986,-6.699219346046448,18.53214055299759,0.0,0.0,0.0,0.0,0.0,0.0,0.0,0.0,0.0,0.0,0.0,0.0,0.0,0.0,0.0,0.0,True,0,2.0705597400665283,0.02993505859375
STABILIZE,1.986541509628296,29.90655058575228,0.03230431874593099,0.03243660926818848,0.0,0.0,0.0,-0.43908874263461317,-1.5106606863752232,9.165099583065365,-0.001243072613183664,-0.010001493676580335,-0.0022465885779430813,0.4,-0.24943361214072798,0.06274285725392616,0.8169153377212692,-0.0232867435167156,0.506006320938468,-0.5563585553318262,1.4599687419831753,0.4656326186574281,5.019121617078781,-16.707661747932434,19.026756286621094,0.0,0.0,0.0,0.0,0.0,0.0,0.0,0.0,0.0,0.0,0.0,0.0,0.0,0.0,0.0,0.0,True,0,2.0992491245269775,0.034924072265625
STABILIZE,2.0201566219329834,29.747891769211673,0.03232577641805013,0.03244829177856445,0.0,0.0,0.0,-0.43771875609749666,-1.5118019682968502,9.154416313429818,-0.001297679685373111,-0.01629440146535171,-0.0023567550463948375,0.4,-0.2628596696670071,0.06693677175651479,0.8224022811627889,-0.02663600627566418,-1.164381206035614,0.4031614866107702,1.7626145854592323,-0.19643350578585606,-46.04647159576416,24.30000603199005,26.554033160209656,0.0,0.0,0.0,0.0,0.0,0.0,0.0,0.0,0.0,0.0,0.0,0.0,0.0,0.0,0.0,0.0,True,0,2.127830743789673,0.034924072265625
STABILIZE,2.0538623332977295,29.669191972780453,0.032163413365681966,0.03265213966369629,0.0,0.0,0.0,-0.438715750272907,-1.5107156480537007,9.169897790957299,-0.0014873760006393223,-0.010743969420476595,-0.0014446678505424973,0.4,-0.25695466997105976,0.059343523819108616,0.8150738096753148,-0.02094800135360904,0.5427604075521231,-0.38990050088614225,1.2641307897865772,0.40910383865228694,26.335829496383667,-10.727444291114807,22.49426394701004,0.0,0.0,0.0,0.0,0.0,0.0,0.0,0.0,0.0,0.0,0.0,0.0,0.0,0.0,0.0,0.0,True,0,2.1861088275909424,0.034924072265625
STABILIZE,2.0872585773468018,29.941135739015596,0.03226354916890462,0.03249025344848633,0.0,0.0,0.0,-0.43889835111149905,-1.511109664591446,9.168454059721487,-0.0020279998981184563,-0.0065940120463870025,-0.0027100746479144723,0.4,-0.2591626161047283,0.06454392024562429,0.8189745378562084,-0.025973995463693337,-0.5201664753258228,0.45596519485116005,1.6772910952568054,-0.31418272540506276,-28.59072983264923,10.50201952457428,20.788216590881348,0.0,0.0,0.0,0.0,0.0,0.0,0.0,0.0,0.0,0.0,0.0,0.0,0.0,0.0,0.0,0.0,True,0,2.2147068977355957,0.034924072265625
STABILIZE,2.1248583793640137,26.59672796448954,0.0324278195699056,0.03461718559265137,0.0,0.0,0.0,-0.4375032849735239,-1.5137190102978022,9.167930696476335,-0.0008024243433811182,-0.011448635438617029,-0.0018119644000501097,0.4,-0.2808885277867312,0.06184635341535041,0.82037997673399,-0.023256199424318946,-1.6966985538601875,-0.024651878629811108,1.5359270386397839,0.1496265795895157,-32.54939913749695,-7.032047212123871,19.624890387058258,0.0,0.0,0.0,0.0,0.0,0.0,0.0,0.0,0.0,0.0,0.0,0.0,0.0,0.0,0.0,0.0,True,0,2.2459323406219482,0.02993505859375
STABILIZE,2.1562352180480957,31.868462841816537,0.030317099889119466,0.030449867248535156,0.0,0.0,0.0,-0.43761278144365573,-1.513875891205301,9.174609767710962,-0.0022232119502378035,-0.013375921483388927,-0.0012608790132818898,0.4,-0.2762560792634792,0.05835656156356675,0.8132096558312786,-0.019771444851980315,-0.2266030991449952,-0.06322822882793844,1.2678437866270542,0.17865140176641878,22.852446138858795,6.860899180173874,15.046420693397522,0.0,0.0,0.0,0.0,0.0,0.0,0.0,0.0,0.0,0.0,0.0,0.0,0.0,0.0,0.0,0.0,True,0,2.272066116333008,0.034923095703125
STABILIZE,2.1904585361480713,29.219843531206678,0.03240993817647298,0.033353328704833984,0.0,0.0,0.0,-0.43721310865550417,-1.5143492019704416,9.17197929110686,-0.0008014725576935039,-0.01041256827418841,-0.0004043988360005783,0.4,-0.27332247111397,0.05505699173791848,0.8101897712084535,-0.016422528239011903,-0.2266030991449952,-0.06322822882793844,1.2678437866270542,0.17865140176641878,22.852446138858795,6.860899180173874,15.046420693397522,0.0,0.0,0.0,0.0,0.0,0.0,0.0,0.0,0.0,0.0,0.0,0.0,0.0,0.0,0.0,0.0,True,0,2.3008601665496826,0.034923095703125
STABILIZE,2.2248759269714355,29.0546761892227,0.0324585755666097,0.03356146812438965,0.0,0.0,0.0,-0.4375329536077312,-1.5143297786199896,9.175863107423659,-0.0029004873747897576,-0.010272841684085496,-0.0029010733452209917,0.4,-0.26728703696933864,0.058676807175398006,0.8155273291736428,-0.026508665600345645,-0.058552774135023355,0.3497739089652896,1.7796983942389488,-0.6285800681604521,-23.42410534620285,4.998388513922691,27.224889397621155,0.0,0.0,0.0,0.0,0.0,0.0,0.0,0.0,0.0,0.0,0.0,0.0,0.0,0.0,0.0,0.0,True,1,2.3295466899871826,0.039912841796875
STABILIZE,2.259145498275757,29.181217952731803,0.032474549611409505,0.03343510627746582,0.0,0.0,0.0,-0.4355927529966244,-1.515308630105417,9.175022994155746,-0.0020534601985015234,-0.010759642351061555,-0.0019576226977250514,0.4,-0.2713585916555867,0.05903583376067548,0.8327358533762084,-0.02297700516651075,-0.320007442496717,0.10640877299010754,1.3266324065625668,0.10979746536271028,13.087260723114014,8.913108706474304,18.722599744796753,0.0,0.0,0.0,0.0,0.0,0.0,0.0,0.0,0.0,0.0,0.0,0.0,0.0,0.0,0.0,0.0,True,0,2.3868329524993896,0.0598701171875
STABILIZE,2.292654037475586,29.844413294530344,0.03247955640157064,0.032618045806884766,0.0,0.0,0.0,-0.43674620119271035,-1.5140523021849577,9.178653239699608,-0.0030737261174086966,-0.005629309935256335,-0.004533322038828707,0.4,-0.2641850778048301,0.06168788829156795,0.8523927167331066,-0.03375038414844861,0.2049746224656701,0.2168662380427122,1.6743557527661324,-0.5535102060447824,-3.521282970905304,-0.8045884780585766,23.346371948719025,0.0,0.0,0.0,0.0,0.0,0.0,0.0,0.0,0.0,0.0,0.0,0.0,0.0,0.0,0.0,0.0,True,0,2.4155433177948,0.034923828125
STABILIZE,2.3261964321136475,29.812805640850677,0.03242972691853841,0.032582998275756836,0.0,0.0,0.0,-0.4369840838748972,-1.51408741362616,9.18490542411111,-0.0023025631452398133,-0.007860952766351088,-0.003101399165145061,0.4,-0.27066467493327057,0.054963630397296785,0.84500278781922,-0.026989167896665743,-0.8797251619398594,-0.21462521981447935,1.3430442661046982,0.3056157471951627,-29.38849925994873,-6.8761564791202545,19.995084404945374,0.0,0.0,0.0,0.0,0.0,0.0,0.0,0.0,0.0,0.0,0.0,0.0,0.0,0.0,0.0,0.0,True,0,2.4441845417022705,0.029935302734375
STABILIZE,2.3596394062042236,29.90164682398232,0.03233221371968587,0.032518625259399414,0.0,0.0,0.0,-0.43557290275934907,-1.5148890003582842,9.181009654963264,-0.0014904577018695962,-0.009507589574158442,-0.0016408403270972661,0.4,-0.27585432176257524,0.048282346942989746,0.8342457791984159,-0.02015126329336263,-0.8797251619398594,-0.21462521981447935,1.3430442661046982,0.3056157471951627,-29.38849925994873,-6.8761564791202545,19.995084404945374,0.0,0.0,0.0,0.0,0.0,0.0,0.0,0.0,0.0,0.0,0.0,0.0,0.0,0.0,0.0,0.0,True,0,2.4729058742523193,0.029935302734375
STABILIZE,2.393171548843384,29.822344517679515,0.032425912221272786,0.03255796432495117,0.0,0.0,0.0,-0.4364868674476614,-1.5141178293123077,9.187513702600407,-0.0009125577898341132,-0.012311181877082104,-0.0013693202826376137,0.4,-0.2839963578411355,0.04849140905996255,0.8317189722147525,-0.020185604359302115,-1.0406832210719585,0.14036819338798523,1.7411092296242714,-0.049878930507579224,-1.0179702192544937,10.8800508081913,21.52753919363022,0.0,0.0,0.0,0.0,0.0,0.0,0.0,0.0,0.0,0.0,0.0,0.0,0.0,0.0,0.0,0.0,True,0,2.503396987915039,0.034923583984375
STABILIZE,2.428368330001831,28.41053430150645,0.03234222730000814,0.03359532356262207,0.0,0.0,0.0,-0.4373204706915203,-1.5138625509920784,9.19441219366212,0.0006540485668280548,-0.011391289489651993,-0.0009763944624143347,0.4,-0.2827357275868447,0.041074514203786515,0.8330998515157845,-0.017965035571854537,-0.45267860405147076,-0.27678890619426966,1.7183817923069,0.07626450489018721,-15.753945708274841,-4.887913912534714,21.751566231250763,0.0,0.0,0.0,0.0,0.0,0.0,0.0,0.0,0.0,0.0,0.0,0.0,0.0,0.0,0.0,0.0,True,1,2.5324089527130127,0.06984814453125
STABILIZE,2.4611895084381104,30.468574749382537,0.03172329266866048,0.03185915946960449,0.0,0.0,0.0,-0.43471432663633736,-1.5152858983820856,9.185954711922353,0.00019316839750861545,-0.01389978629750209,-0.0011112228601093716,0.4,-0.28834941521570734,0.04550720339390016,0.8525955977779532,-0.019893823141588832,-0.36038788966834545,0.21956434939056635,1.5334474854171276,0.24659746995925771,9.47338417172432,-4.7548808157444,19.24460679292679,0.0,0.0,0.0,0.0,0.0,0.0,0.0,0.0,0.0,0.0,0.0,0.0,0.0,0.0,0.0,0.0,True,0,2.5896098613739014,0.034924072265625
STABILIZE,2.4946820735931396,29.85758522747496,0.03235629399617513,0.03249931335449219,0.0,0.0,0.0,-0.43540727067197627,-1.5160960228506726,9.191605839686892,-0.0014685833012543091,-0.011910661586420781,-2.0799122156144902e-05,0.4,-0.28416733909735487,0.04766182731657874,0.8484044383313754,-0.01423100635569003,-0.36038788966834545,0.21956434939056635,1.5334474854171276,0.24659746995925771,9.47338417172432,-4.7548808157444,19.24460679292679,0.0,0.0,0.0,0.0,0.0,0.0,0.0,0.0,0.0,0.0,0.0,0.0,0.0,0.0,0.0,0.0,True,0,2.622610330581665,0.034924072265625
STABILIZE,2.5280449390411377,29.97387302404025,0.032306941350301106,0.03242373466491699,0.0,0.0,0.0,-0.4372946440387212,-1.5159789491394302,9.19955105723891,-0.001690920944937124,-0.009923719101760221,0.0008809313098597064,0.4,-0.278900461583941,0.042979161187185505,0.8405720291634485,-0.009393286375267856,-0.2985465107485652,-0.13444091891869903,1.3277368620038033,0.20794478911592085,-14.543583989143372,6.922559440135956,20.967788994312286,0.0,0.0,0.0,0.0,0.0,0.0,0.0,0.0,0.0,0.0,0.0,0.0,0.0,0.0,0.0,0.0,True,0,2.651482105255127,0.034924072265625
STABILIZE,2.561486005783081,29.902712722346987,0.03240207036336263,0.03254222869873047,0.0,0.0,0.0,-0.4354893396637222,-1.5165115971729854,9.193516585107202,-0.0029259356875805313,-0.009845314967822354,-0.0002503530369870685,0.4,-0.2852731619031594,0.04901381466035768,0.8372980411656622,-0.01427707656244346,-0.8972675539553165,0.41842381469905376,1.5465510077774525,-0.2932924317460201,-21.69712781906128,10.83027571439743,20.66182792186737,0.0,0.0,0.0,0.0,0.0,0.0,0.0,0.0,0.0,0.0,0.0,0.0,0.0,0.0,0.0,0.0,True,0,2.6799776554107666,0.029934814453125
STABILIZE,2.595034122467041,29.807932571014348,0.03242495854695638,0.032557010650634766,0.0,0.0,0.0,-0.43592305667601805,-1.515930817650123,9.197662509933402,-0.003917080343383357,-0.01022714725437695,0.0007100386802930318,0.4,-0.2858230133457182,0.047563195364577475,0.8344986673659974,-0.009791547483342624,-0.6676795426756144,0.03699661756400019,1.7603738233447075,0.1998730930023393,1.7732944339513779,-6.805127114057541,17.963722348213196,0.0,0.0,0.0,0.0,0.0,0.0,0.0,0.0,0.0,0.0,0.0,0.0,0.0,0.0,0.0,0.0,True,0,2.7087509632110596,0.034924072265625
STABILIZE,2.628422975540161,29.949473744341145,0.03232625325520833,0.03246474266052246,0.0,0.0,0.0,-0.4372491805920583,-1.515241181987363,9.206299284138883,-0.0025108957521302266,-0.007585042886617223,0.000752253853164659,0.4,-0.27778435168320775,0.04460719347813766,0.8278679730735108,-0.009829911342845037,-0.12224982492625713,-0.057346821995452046,1.3145008124411106,-0.03847278806802899,0.09413305670022964,4.859699308872223,19.244273006916046,0.0,0.0,0.0,0.0,0.0,0.0,0.0,0.0,0.0,0.0,0.0,0.0,0.0,0.0,0.0,0.0,True,0,2.7374465465545654,0.034924072265625
STABILIZE,2.6643450260162354,27.837685006968872,0.03239563306172689,0.03501272201538086,0.0,0.0,0.0,-0.4373200438046972,-1.514980460860139,9.201793066833966,-0.0013888077259070612,-0.007238124770757168,-0.0002164169828335725,0.4,-0.27196355845214354,0.04083093043386923,0.8203086067222516,-0.013297057642413825,-0.23736427538096905,-0.10381934698671103,1.2526914477348328,-0.22124227363564977,-12.805910408496857,2.7659885585308075,17.29985624551773,0.0,0.0,0.0,0.0,0.0,0.0,0.0,0.0,0.0,0.0,0.0,0.0,0.0,0.0,0.0,0.0,True,1,2.7662456035614014,0.02993505859375
STABILIZE,2.6978209018707275,29.873534565034685,0.032419713338216145,0.03261160850524902,0.0,0.0,0.0,-0.4371495025188584,-1.5156891997082336,9.210665482565812,-0.0026960084553833653,-0.008358091757383687,0.0022463422378426823,0.4,-0.2725785570733727,0.04303375016476397,0.8301160473750968,-0.0019478146698299953,-0.5940037779510021,0.15997824957594275,2.008116990327835,0.2789363879668582,-5.029464513063431,-4.730713739991188,27.30633020401001,0.0,0.0,0.0,0.0,0.0,0.0,0.0,0.0,0.0,0.0,0.0,0.0,0.0,0.0,0.0,0.0,True,0,2.826066732406616,0.034923828125
STABILIZE,2.7313311100006104,29.842714536774174,0.03245499928792318,0.03258204460144043,0.0,0.0,0.0,-0.43645783914368885,-1.5155568647930646,9.211934190204142,-0.0019605780002337845,-0.006107974900706599,0.001369008912467096,0.4,-0.2670780355250231,0.0446536482616488,0.8252385477442333,-0.006380590076304498,-0.2302368637174368,0.18317726207897067,1.3414882123470306,-0.2761608765646001,6.689998507499695,4.868080839514732,18.934166431427002,0.0,0.0,0.0,0.0,0.0,0.0,0.0,0.0,0.0,0.0,0.0,0.0,0.0,0.0,0.0,0.0,True,0,2.8548502922058105,0.0349228515625
STABILIZE,2.7647156715393066,29.953537532047392,0.032381327946980794,0.03250265121459961,0.0,0.0,0.0,-0.43696145887327154,-1.5152180233772086,9.210724392947403,-0.002571932109647962,-0.004911128730105455,0.0001993036803030992,0.4,-0.26162759128516094,0.04629201491708662,0.8204462087211718,-0.010853453795723118,-0.2302368637174368,0.18317726207897067,1.3414882123470306,-0.2761608765646001,6.689998507499695,4.868080839514732,18.934166431427002,0.0,0.0,0.0,0.0,0.0,0.0,0.0,0.0,0.0,0.0,0.0,0.0,0.0,0.0,0.0,0.0,True,0,2.883441686630249,0.0349228515625
STABILIZE,2.798163414001465,29.896744670083326,0.03244498570760091,0.0325620174407959,0.0,0.0,0.0,-0.4373321033574505,-1.5154294390763616,9.214973624384799,-0.003455900889788669,-0.005267191337968449,-0.0008427422586497362,0.4,-0.2562416951644538,0.04794118082325362,0.8157485850962483,-0.015346331892157755,-0.2302368637174368,0.18317726207897067,1.3414882123470306,-0.2761608765646001,6.689998507499695,4.868080839514732,18.934166431427002,0.0,0.0,0.0,0.0,0.0,0.0,0.0,0.0,0.0,0.0,0.0,0.0,0.0,0.0,0.0,0.0,True,0,2.912090301513672,0.0349228515625
STABILIZE,2.8316447734832764,29.868216226224302,0.03243830998738607,0.03256368637084961,0.0,0.0,0.0,-0.43737703319558446,-1.5159669963083828,9.217732167035837,-0.004588886696005882,-0.005510065031168647,-0.0008023997922814159,0.4,-0.25256255845823855,0.050302293671739565,0.8140883786072742,-0.015545039401440497,-0.3214859403669834,0.22281960118561983,1.5058236196637154,-0.03561229950754236,2.6878105476498604,3.012137860059738,17.038220167160034,0.0,0.0,0.0,0.0,0.0,0.0,0.0,0.0,0.0,0.0,0.0,0.0,0.0,0.0,0.0,0.0,True,0,2.940894603729248,0.034924072265625
STABILIZE,2.865485668182373,29.55337753570598,0.032398494084676106,0.03283548355102539,0.0,0.0,0.0,-0.4363271050541066,-1.515352599448199,9.220182497400579,-0.003961210507762203,-0.004217334791709532,-0.0022047484643749763,0.4,-0.24667186533611565,0.04914136509279401,0.806338814450186,-0.020116808916772335,-0.19243998685851693,0.02519707486499101,1.1578756384551525,-0.28170506917994637,-1.6702767461538315,-2.939584106206894,13.179732859134674,0.0,0.0,0.0,0.0,0.0,0.0,0.0,0.0,0.0,0.0,0.0,0.0,0.0,0.0,0.0,0.0,True,1,2.9695658683776855,0.029934814453125
STABILIZE,2.898991346359253,29.8437762377083,0.032279284795125325,0.032419681549072266,0.0,0.0,0.0,-0.4367919848044906,-1.5148682963473628,9.221183120113986,-0.0037307864891706183,-0.0050454219947423835,-0.001589620213548527,0.4,-0.24571702096357187,0.04938867055420998,0.8022024201357747,-0.017965058215599485,-0.4600953310728073,0.37863622419536114,1.574835553765297,-0.03007609767991646,-1.7322540283203125,4.967378079891205,14.614176750183105,0.0,0.0,0.0,0.0,0.0,0.0,0.0,0.0,0.0,0.0,0.0,0.0,0.0,0.0,0.0,0.0,True,0,3.0272014141082764,0.034924072265625
STABILIZE,2.932337522506714,29.985658828828186,0.03225568135579427,0.03245711326599121,0.0,0.0,0.0,-0.4357569977018221,-1.5150622096867676,9.225076327940894,-0.004504973052283327,-0.005907377766406748,-0.0014822009356044521,0.4,-0.24496603603504458,0.0544529726836704,0.8025604451576402,-0.01802722782653495,-0.4600953310728073,0.37863622419536114,1.574835553765297,-0.03007609767991646,-1.7322540283203125,4.967378079891205,14.614176750183105,0.0,0.0,0.0,0.0,0.0,0.0,0.0,0.0,0.0,0.0,0.0,0.0,0.0,0.0,0.0,0.0,True,0,3.0572102069854736,0.034924072265625
STABILIZE,2.9657866954803467,29.895253029223092,0.03245738347371419,0.03258490562438965,0.0,0.0,0.0,-0.43665068526603595,-1.5142071553800467,9.227588130008165,-0.004206781685944638,-0.005722034808673072,-0.0018304713671908285,0.4,-0.23927350063212288,0.054397841038593804,0.808827680648074,-0.020068187730934405,-0.17266739159822464,0.08499313844367862,1.9089581444859505,-0.14428932036167963,-1.6356224194169044,-2.7551215142011642,17.636294662952423,0.0,0.0,0.0,0.0,0.0,0.0,0.0,0.0,0.0,0.0,0.0,0.0,0.0,0.0,0.0,0.0,True,0,3.0860307216644287,0.034924072265625
STABILIZE,3.0007524490356445,28.60097238985605,0.03245690663655599,0.034067392349243164,0.0,0.0,0.0,-0.43662315106594435,-1.5141484584418667,9.226954629962647,-0.003431592436975716,-0.005276806471915398,-0.0010910205283274229,0.4,-0.23359099027942531,0.05261152466292622,0.8081793518595342,-0.016808467772876513,-0.1701606553979218,-0.012587812670972198,1.5073226764798164,0.15928161227028406,-2.7132673189044,1.2111302465200424,23.66577833890915,0.0,0.0,0.0,0.0,0.0,0.0,0.0,0.0,0.0,0.0,0.0,0.0,0.0,0.0,0.0,0.0,True,0,3.114581823348999,0.02993505859375
STABILIZE,3.0342369079589844,29.864600837344423,0.032408984502156575,0.03255867958068848,0.0,0.0,0.0,-0.4364352141420632,-1.5147908163889654,9.231034814218082,-0.003209295598333436,-0.005014795827142687,-0.00019696670381990803,0.4,-0.22715232108275293,0.05052457939791305,0.8036940749980788,-0.013469349684647964,-0.1701606553979218,-0.012587812670972198,1.5073226764798164,0.15928161227028406,-2.7132673189044,1.2111302465200424,23.66577833890915,0.0,0.0,0.0,0.0,0.0,0.0,0.0,0.0,0.0,0.0,0.0,0.0,0.0,0.0,0.0,0.0,True,0,3.143341541290283,0.02993505859375
STABILIZE,3.068254232406616,29.39678579188248,0.03235796292622884,0.03313636779785156,0.0,0.0,0.0,-0.4362201699049136,-1.5151769355204827,9.234212559729432,-0.002660234570519445,-0.0028345012783584237,-0.00023245745689006207,0.4,-0.21556334482362127,0.04803830531539792,0.8272844018338279,-0.013304235421509526,-0.04681656719185412,-0.011425895354477689,1.6285259276628494,-0.019357439793743797,3.5719815641641617,-2.848430536687374,19.900555908679962,0.0,0.0,0.0,0.0,0.0,0.0,0.0,0.0,0.0,0.0,0.0,0.0,0.0,0.0,0.0,0.0,True,0,3.200688600540161,0.06485791015625
STABILIZE,3.101868152618408,29.75021279010384,0.032473119099934895,0.032610177993774414,0.0,0.0,0.0,-0.4360725737858178,-1.5135107962498227,9.232735531321417,-0.0010182690159247045,-0.0024506377581475637,-0.0003009172679550637,0.4,-0.2129142108393603,0.044490351533237604,0.8460021253172446,-0.01357059955825323,-0.15738403890281916,-0.1404264592565596,1.403671968728304,-0.031106415707957018,-6.808319687843323,2.8801660984754562,18.393388390541077,0.0,0.0,0.0,0.0,0.0,0.0,0.0,0.0,0.0,0.0,0.0,0.0,0.0,0.0,0.0,0.0,True,0,3.2294459342956543,0.034923828125
STABILIZE,3.1352813243865967,29.92789000121301,0.03231552441914876,0.03242158889770508,0.0,0.0,0.0,-0.4359661722451537,-1.5136895551070066,9.23599865419739,-0.0014803006478789887,-0.00346172951727163,-0.0005014956620823217,0.4,-0.21269844671151872,0.04660994725746377,0.8450652723830662,-0.014665682015407695,-0.4888933151960373,0.2124932361766696,1.712372899055481,-0.08652986566610649,-10.935407876968384,-0.7843682542443275,25.40755271911621,0.0,0.0,0.0,0.0,0.0,0.0,0.0,0.0,0.0,0.0,0.0,0.0,0.0,0.0,0.0,0.0,True,0,3.2580111026763916,0.034924072265625
STABILIZE,3.16866397857666,29.955890755342246,0.0323362668355306,0.03247404098510742,0.0,0.0,0.0,-0.43633884444174253,-1.5132370550744934,9.240196659216009,-0.0022447632166102908,-0.004475725873408403,-0.0008573448546190947,0.4,-0.2127112027427067,0.048755820172930765,0.8445471256536577,-0.015761840817248636,-0.4888933151960373,0.2124932361766696,1.712372899055481,-0.08652986566610649,-10.935407876968384,-0.7843682542443275,25.40755271911621,0.0,0.0,0.0,0.0,0.0,0.0,0.0,0.0,0.0,0.0,0.0,0.0,0.0,0.0,0.0,0.0,True,0,3.286757707595825,0.034924072265625
STABILIZE,3.202110528945923,29.896957773786102,0.03241470654805501,0.03254294395446777,0.0,0.0,0.0,-0.4365640272409414,-1.5123487035955685,9.238334578893534,-0.002213761430417936,-0.0058464460136097495,-0.0011508211051192592,0.4,-0.21357380485576302,0.04678139890421496,0.8379226047819984,-0.016556197314422982,-0.5229417234659195,-0.000838386949908454,1.3792418874800205,-0.07121759540314282,-4.328331723809242,2.9955754056572914,20.32685875892639,0.0,0.0,0.0,0.0,0.0,0.0,0.0,0.0,0.0,0.0,0.0,0.0,0.0,0.0,0.0,0.0,True,0,3.316110134124756,0.06485888671875
STABILIZE,3.2356698513031006,29.798402910000284,0.032418282826741536,0.03264331817626953,0.0,0.0,0.0,-0.4360090743708779,-1.5127540326341264,9.240965055497636,-0.0028173946983104086,-0.009291899451967947,-0.0024007241163092603,0.4,-0.2201245404925919,0.04752823519538921,0.8638567229999219,-0.021909936818957167,-0.5573712754994631,0.08048067684285343,1.8243774771690369,-0.25968205801616584,-6.174519285559654,-0.8479822427034378,23.218455910682678,0.0,0.0,0.0,0.0,0.0,0.0,0.0,0.0,0.0,0.0,0.0,0.0,0.0,0.0,0.0,0.0,True,0,3.347595453262329,0.034924072265625
STABILIZE,3.270155906677246,28.99662629279354,0.03240254720052083,0.03359580039978027,0.0,0.0,0.0,-0.4369083114637924,-1.5143808983170588,9.245638612437217,-0.0033614870975087544,-0.01009235016967675,-0.0034611071808721486,0.4,-0.22153627213313756,0.04703216325531814,0.8637901560795728,-0.026495732857017354,-0.5573712754994631,0.08048067684285343,1.8243774771690369,-0.25968205801616584,-6.174519285559654,-0.8479822427034378,23.218455910682678,0.0,0.0,0.0,0.0,0.0,0.0,0.0,0.0,0.0,0.0,0.0,0.0,0.0,0.0,0.0,0.0,True,1,3.372854471206665,0.034924072265625
STABILIZE,3.3036704063415527,29.839105318573747,0.0324433167775472,0.03256511688232422,0.0,0.0,0.0,-0.43702986748667744,-1.513931493214013,9.245560065261762,-0.0025898196451082244,-0.009038349139573592,-0.003601145103347804,0.4,-0.21614227487781948,0.045129216582179305,0.8775135843386969,-0.027168313848248016,-0.07046710816211998,0.05048015736974776,1.5975818037986755,0.04035497876193691,-1.2223144993185997,1.1215089820325375,20.724990963935852,0.0,0.0,0.0,0.0,0.0,0.0,0.0,0.0,0.0,0.0,0.0,0.0,0.0,0.0,0.0,0.0,True,0,3.430194616317749,0.02993505859375
STABILIZE,3.3432087898254395,25.291116189603294,0.03236130078633626,0.03860282897949219,0.0,0.0,0.0,-0.4382099961092087,-1.5138106842430685,9.249769169337782,-0.0019748279459855713,-0.007292315810337952,-0.003112691757224762,0.4,-0.20631730659324907,0.043820371200013156,0.8665534802313138,-0.025057508965502087,-0.07046710816211998,0.05048015736974776,1.5975818037986755,0.04035497876193691,-1.2223144993185997,1.1215089820325375,20.724990963935852,0.0,0.0,0.0,0.0,0.0,0.0,0.0,0.0,0.0,0.0,0.0,0.0,0.0,0.0,0.0,0.0,True,0,3.459155797958374,0.02993505859375
STABILIZE,3.3767151832580566,29.846749402254353,0.032392295201619466,0.032532453536987305,0.0,0.0,0.0,-0.43837007866788086,-1.513832989079577,9.251190702458791,-0.002230368780438045,-0.006282259357729715,-0.0020300875825062055,0.4,-0.2020690316646799,0.043318830989785576,0.8554757466414584,-0.020392112586977644,-0.30802921392023563,0.08476112270727754,1.5314273536205292,0.17238978582416992,2.5034479796886444,0.9720426984131336,15.431571006774902,0.0,0.0,0.0,0.0,0.0,0.0,0.0,0.0,0.0,0.0,0.0,0.0,0.0,0.0,0.0,0.0,True,0,3.487705707550049,0.034923828125
STABILIZE,3.4101507663726807,29.90804335424986,0.032334359486897786,0.03246617317199707,0.0,0.0,0.0,-0.43786517827782884,-1.5141563558480946,9.251586853430652,-0.00270097310131376,-0.0037855951138741975,-0.0014245912734032965,0.4,-0.19558577938078212,0.046172362284670025,0.8506485402611225,-0.018399085127834346,-0.1452190801501274,0.2405779669061303,1.5857519581913948,0.054226752790795626,1.7553586512804031,-0.9299725294113159,18.029864132404327,0.0,0.0,0.0,0.0,0.0,0.0,0.0,0.0,0.0,0.0,0.0,0.0,0.0,0.0,0.0,0.0,True,0,3.5162105560302734,0.034924072265625
STABILIZE,3.4436230659484863,29.87502403931764,0.03234914143880208,0.03248858451843262,0.0,0.0,0.0,-0.4372878138495512,-1.5150171731269277,9.25587365090848,-0.0027205510119391145,-0.0020381940544111714,-0.0009911650184176095,0.4,-0.18826087008546868,0.04582015975440079,0.8382623587593775,-0.017042218872558097,-0.3867911407724023,-0.06327578448690474,1.3688097707927227,-0.07120136703375743,-5.306719616055489,2.916630730032921,15.62076061964035,0.0,0.0,0.0,0.0,0.0,0.0,0.0,0.0,0.0,0.0,0.0,0.0,0.0,0.0,0.0,0.0,True,0,3.5752511024475098,0.06485791015625
STABILIZE,3.4771039485931396,29.870556061987237,0.032338889439900716,0.03247570991516113,0.0,0.0,0.0,-0.4370606033379425,-1.5152772539239172,9.257915877470314,-0.00404082339511363,-0.003048031790115298,-0.0008531287977654706,0.4,-0.18831483479384103,0.05045526561112683,0.857284103221218,-0.01648124928162806,-0.2575931139290333,0.25763458106666803,1.541596744209528,5.564869945841443e-05,-1.5818633139133453,2.9902666807174683,18.150095641613007,0.0,0.0,0.0,0.0,0.0,0.0,0.0,0.0,0.0,0.0,0.0,0.0,0.0,0.0,0.0,0.0,True,0,3.6029372215270996,0.02993505859375
STABILIZE,3.510617971420288,29.834860297046607,0.03229692776997884,0.032613515853881836,0.0,0.0,0.0,-0.4352834734932698,-1.5155887745830934,9.260988608823174,-0.004837246405371576,-0.0036408363176471535,-0.0007164063749363705,0.4,-0.1838630415353781,0.05327968396690306,0.8465458853074431,-0.015608224460413,-0.2575931139290333,0.25763458106666803,1.541596744209528,5.564869945841443e-05,-1.5818633139133453,2.9902666807174683,18.150095641613007,0.0,0.0,0.0,0.0,0.0,0.0,0.0,0.0,0.0,0.0,0.0,0.0,0.0,0.0,0.0,0.0,True,0,3.631730318069458,0.02993505859375
STABILIZE,3.5441389083862305,29.832950431387054,0.03244212468465169,0.03257250785827637,0.0,0.0,0.0,-0.4357441910971283,-1.516333158480919,9.26179115605065,-0.004538935391477344,-0.0039310536327602725,-0.0004863572067592552,0.4,-0.1814640067931041,0.05138372191861884,0.837038384799027,-0.013960359373445806,-0.3428155556321144,0.023873282771091908,1.5442934818565845,0.04235212207318467,-2.602844312787056,0.9756659157574177,17.963173985481262,0.0,0.0,0.0,0.0,0.0,0.0,0.0,0.0,0.0,0.0,0.0,0.0,0.0,0.0,0.0,0.0,True,0,3.6603188514709473,0.034923828125
STABILIZE,3.5775654315948486,29.91657631954351,0.032366069157918294,0.032495975494384766,0.0,0.0,0.0,-0.4349175247641452,-1.51718821278764,9.263960594885775,-0.0037776641583483614,-0.005355805469869756,0.00011426974418602827,0.4,-0.1825663048849829,0.05015241263366984,0.8312814240189649,-0.011056457755185182,-0.4774166736751795,0.037486659130081534,1.4817544259130955,0.11126384161046722,-10.68006306886673,0.9538288228213787,19.229166209697723,0.0,0.0,0.0,0.0,0.0,0.0,0.0,0.0,0.0,0.0,0.0,0.0,0.0,0.0,0.0,0.0,True,0,3.689507246017456,0.034924072265625
STABILIZE,3.6111292839050293,29.793746181931837,0.032395394643147786,0.03258252143859863,0.0,0.0,0.0,-0.43438807838176346,-1.51793526472811,9.267540467784508,-0.0035981489726574917,-0.006958880512671646,0.0007191750335989735,0.4,-0.18380271490470795,0.04895169958389901,0.826028800745816,-0.008223897924109524,-0.4774166736751795,0.037486659130081534,1.4817544259130955,0.11126384161046722,-10.68006306886673,0.9538288228213787,19.229166209697723,0.0,0.0,0.0,0.0,0.0,0.0,0.0,0.0,0.0,0.0,0.0,0.0,0.0,0.0,0.0,0.0,True,0,3.7182776927948,0.034924072265625
STABILIZE,3.6447410583496094,29.751478954163062,0.03233316739400228,0.03261446952819824,0.0,0.0,0.0,-0.43411551114519764,-1.5177465807522885,9.268745996173015,-0.003182383588038625,-0.007378756515419991,-9.270543233626805e-05,0.4,-0.18571200603916976,0.050898843991945136,0.8481469441081523,-0.011650078099437015,-0.2583711640909314,0.1466969377361238,1.7455622553825378,-0.06163938901032386,-2.144233323633671,3.0629977583885193,23.0744868516922,0.0,0.0,0.0,0.0,0.0,0.0,0.0,0.0,0.0,0.0,0.0,0.0,0.0,0.0,0.0,0.0,True,0,3.775470495223999,0.034924072265625
