Mode,Time,Freq,North-Vision,East-Vision,Down-Vision,Yaw-Vision,North-Desired,East-Desired,Down-Desired,Roll-UAV,Pitch-UAV,Yaw-UAV,Roll-Control,Pitch-Control,Yaw-Control,Thrust-Control,northVraw,eastVraw,downVraw,N-Velocity,E-Velocity,D-Velocity,yawVraw,yawRate,Q-Size
GUIDED_NOGPS,0.004978656768798828,201.6977157970666,-12.896718435454149,14.722632957077831,67.0638345949482,-11.428206518991482,-23.33481758054179,19.68749610081335,64.31136950859054,-0.6790948132405441,0.8103652327552241,97.93435322552601,4.713254601588279,3.128135396783028,-10.0,0.4944950698272847,-26.98007567512,15.477726346407458,62.293491707532525,23.795731365680695,-15.141868591308594,-5.0120968371629715,-11.857771399308074,-16.483973420266896,1
GUIDED_NOGPS,0.01464390754699707,103.75006802384544,-15.634710862989026,10.513025290336211,64.60968843184435,-11.684315986946256,-23.334492129327565,19.68784913486218,64.31117704589634,-0.5434610234241367,0.8211055985033634,98.13239456051053,3.464757230882272,-2.9974361453366822,-10.0,0.499402977228104,-27.281785728048437,15.175389161665922,62.13013010209557,26.839089393615723,-28.22200357913971,-2.662784419953823,-12.023559873490866,-11.900339336203473,0
GUIDED_NOGPS,0.03518533706665039,48.639198450709124,-16.905763989485784,10.762940502492029,64.23811143478696,-11.930100178542476,-23.332257998947714,19.69027261358688,64.30984533849029,-0.6334861183360782,0.9753704368282731,98.52199538095722,0.37258556523176867,-0.2485142547090692,-9.536130736765145,0.5001434678074067,-27.945257465113293,14.42793626824398,61.83468834610263,26.839089393615723,-28.22200357913971,-2.662784419953823,-12.481812117038945,-11.900339336203473,0
GUIDED_NOGPS,0.0715794563293457,27.48110728910729,-17.74873760955377,10.71352233423456,63.99046203379614,-12.243117974250074,-23.326326233625988,19.696707111406162,64.30627756942967,-0.51641502177562,0.9238216117800117,98.8492843856059,0.5750111348031879,0.03571324597693609,-9.068532000625465,0.5006316310712671,-27.945257465113293,14.42793626824398,61.83468834610263,29.15041148662567,-30.960428714752197,3.454289212822914,-12.481812117038945,-16.159510406387316,0
GUIDED_NOGPS,0.10274863243103027,32.08936017198773,-18.210819953850606,10.249965058780138,63.77177097932369,-12.679216079503316,-23.315035749687866,19.708954493144674,64.29942263342402,0.0020581280959952484,0.8643640680031102,99.46321593915249,0.7486144223960134,0.0409282267654964,-10.0,0.5010553033082007,-28.401279645857038,13.71356227762251,61.75447076363034,29.15041148662567,-30.960428714752197,3.454289212822914,-12.697128963051808,-16.159510406387316,0
GUIDED_NOGPS,0.13684916496276855,29.328541161169422,-18.47640918880709,9.858332413807947,63.58117805468583,-13.024892125589961,-23.296850326805234,19.728681177788175,64.28827450632953,0.2701963338306071,0.85374477803018,99.843247664572,0.750695864930464,0.0882310427606349,-9.819553807711271,0.5014141929032874,-28.401279645857038,13.71356227762251,61.75447076363034,34.681305289268494,-30.51353394985199,1.3058288022875786,-12.697128963051808,-14.160800687302949,0
GUIDED_NOGPS,0.17242121696472168,28.114972114972115,-18.56637576014776,9.392294503768813,63.42355038265705,-13.383350121398642,-23.270355599241043,19.757421402238684,64.27187161464353,0.4685803788928175,0.7619132581653287,99.98991231661968,0.809022967682733,0.11231532292102273,-10.0,0.5016966424639729,-28.401279645857038,13.71356227762251,61.75447076363034,34.681305289268494,-30.51353394985199,1.3058288022875786,-12.697128963051808,-14.160800687302949,0
GUIDED_NOGPS,0.20409703254699707,31.57957189215236,-18.56949363273001,8.950204537436607,63.34474059779489,-13.688683860682461,-23.23425604709398,19.79658048506963,64.24929620499893,0.8217089496669988,0.5568916299316147,100.39330328900064,0.8557855730279441,0.11476278272804577,-10.0,0.5018091112144081,-28.726424198465445,13.37369871090491,61.694057968236024,37.4075323343277,-29.270032048225403,4.669052362442017,-12.93366126600613,-10.440526419991233,0
GUIDED_NOGPS,0.23753023147583008,29.91657631954351,-18.551585117619453,8.354984568476404,63.26986160080499,-13.901866911424523,-23.187371987543113,19.847438090281017,64.21967371365865,0.9515402269792159,0.14211993488740723,100.66793153514851,0.93131030523888,0.09493316940182997,-9.60604233711145,0.5018996242257073,-29.20332328148025,12.117767402638744,61.79754296651508,39.204734563827515,-35.98778247833252,3.0620044097304344,-13.46489707511279,-6.447531663744194,0
GUIDED_NOGPS,0.27443361282348633,27.100589269099554,-18.49193806288493,7.668983270966531,63.164464919656375,-14.096286654458575,-23.128636566092595,19.911151491054564,64.18217213601012,0.7350353965642707,-0.004659723138469305,100.78542444925107,0.9884709220671731,0.08668177271114,-9.510964685000427,0.5020354144327075,-30.045509147790288,10.815999085108125,61.904088077709716,39.24819827079773,-33.37789177894592,-0.2012070268392563,-13.84726291763285,-3.5224749771559076,0
GUIDED_NOGPS,0.31113123893737793,27.252906051214076,-18.29360827562753,6.967325888748105,63.00715685108121,-14.181839845909597,-23.057092747816284,19.988758833508864,64.1360013960597,0.6885166856746064,-0.3918500604373207,100.8130935455788,1.0547609668315445,0.11322889630226818,-8.978087934045375,0.5022576890899569,-30.045509147790288,10.815999085108125,61.904088077709716,40.43487012386322,-31.676113605499268,-3.905290365219116,-13.84726291763285,2.961177288240253,0
GUIDED_NOGPS,0.34156084060668945,32.868402698869204,-18.198268132353782,6.29598114333821,62.86892836199515,-14.236295366911914,-22.971890308602447,20.08118240045455,64.08041271592712,0.7962447771415747,-0.6251768730456403,100.77916116578217,1.126306488034212,0.062395305070565454,-8.897215730502978,0.502422968707864,-30.900538040536595,9.545683903071344,62.04131941764294,40.43487012386322,-31.676113605499268,-3.905290365219116,-14.104358411490464,2.961177288240253,0
GUIDED_NOGPS,0.38687944412231445,22.069592578756005,-18.167031123848684,5.83164173045957,62.7158669347446,-14.279606102497773,-22.87228282639839,20.189231875149428,64.01469798533996,0.849621424844755,-0.7701011075154403,100.60615247410574,1.0350433341036938,0.0608265299615294,-8.759360163571912,0.5025976621011907,-31.25906960242957,9.049912988238813,62.32946087003116,39.351287484169006,-22.757790982723236,-6.547126919031143,-14.11034294575661,1.6478488778363376,0
GUIDED_NOGPS,0.41722822189331055,32.95310376254115,-17.682232759755852,4.953343807938209,62.74757552534564,-14.238729146550341,-22.757624672455155,20.313607605053644,63.9381891311281,0.9965151016730458,-0.7280160431707604,100.47221929467096,1.3302199784254658,0.15455952037813087,-8.27439481842306,0.502381227211565,-31.25906960242957,9.049912988238813,62.32946087003116,45.893481373786926,-30.816546082496643,4.884592816233635,-14.11034294575661,9.712049178968938,0
GUIDED_NOGPS,0.45002245903015137,30.499371005155577,-17.514045736075076,4.3980596693829055,62.86826024603226,-14.16255299241923,-22.627368002572165,20.454903865584843,63.85025748671814,1.2750343144920044,-0.7439996463239423,100.22119618229466,1.2303410456921828,0.07060442836027198,-8.033288812761539,0.5019639944813717,-31.25906960242957,9.049912988238813,62.32946087003116,46.647509932518005,-33.588409423828125,9.165321290493011,-14.11034294575661,7.064083021724314,0
GUIDED_NOGPS,0.4939603805541992,22.761853594473298,-17.210657463612733,3.737630221354808,62.94584553912204,-14.012411555887976,-22.481059748341895,20.61361212387331,63.750313161627915,1.2701242622524114,-0.7346497043195767,99.94805008719668,1.2613960859777935,0.10231740976180898,-7.723665434986389,0.5016089352450117,-31.25906960242957,9.049912988238813,62.32946087003116,48.3710378408432,-36.71983182430267,6.5995655953884125,-14.11034294575661,11.703060421085057,0
GUIDED_NOGPS,0.5295653343200684,28.091622685991375,-16.59460988144888,2.8927690965915933,63.091104874871675,-13.889576457008216,-22.31833860839454,20.790124302517132,63.63780441096087,1.3851235169776814,-1.050024617899924,99.5995328546076,1.4496072067313246,0.18624997745283872,-7.639409847882319,0.5010933990721784,-31.25906960242957,9.049912988238813,62.32946087003116,48.97561073303223,-33.03839862346649,9.938480705022812,-14.11034294575661,11.158910348967542,0
GUIDED_NOGPS,0.5610454082489014,31.775511750178033,-16.230464514007608,2.3448703978064174,63.24384047864323,-13.680404084736606,-22.13893203964267,20.98473604333735,63.51221700490057,1.4674362610996208,-1.0581594799231149,98.99389998090258,1.4313850632903884,0.13860807561943966,-6.858271659310624,0.5005367530525147,-31.25906960242957,9.049912988238813,62.32946087003116,48.580536246299744,-30.96107244491577,10.513658076524734,-14.11034294575661,14.158788342818733,0
GUIDED_NOGPS,0.6062891483306885,22.10588340703184,-15.971968272030804,1.8145365667335602,63.4163274743207,-13.424083393454035,-21.9426532485259,21.197649971133114,63.37307359820512,1.6032340821778142,-1.256803685823594,98.50238590785013,1.389645275084436,0.1120112762874263,-6.932347018924676,0.4999134922477688,-31.25906960242957,9.049912988238813,62.32946087003116,49.85087811946869,-38.1853461265564,12.162186205387115,-14.11034294575661,16.639701733343188,0
GUIDED_NOGPS,0.6291694641113281,43.71571212673928,-15.230735087765478,0.9166728973676701,63.64281188872339,-13.132963225412269,-21.729398182255572,21.428978957436836,63.21993309970164,1.6184269842128614,-1.2749629176708366,98.03339779868037,1.8730608170494019,0.2840067671282824,-5.153132217552185,0.4991542424219565,-31.25906960242957,9.049912988238813,62.32946087003116,51.085108518600464,-36.84876263141632,13.060535490512848,-14.11034294575661,17.82857982820124,0
GUIDED_NOGPS,0.6643593311309814,28.419196812727407,-15.251130828689195,0.7155990585958019,63.79416901831595,-12.879389965639014,-21.49914252005939,21.678749384269345,63.052390041780704,1.7662698438923723,-1.2748390137704244,97.64771750681726,1.4274331155820743,0.05269263712794853,-6.355426982950803,0.4985164420469295,-31.25906960242957,9.049912988238813,62.32946087003116,51.085108518600464,-36.84876263141632,13.060535490512848,-14.11034294575661,17.82857982820124,0
GUIDED_NOGPS,0.6952769756317139,32.349977632776465,-14.886079331545856,0.26414812769017426,63.917699195110856,-12.552748278223737,-21.251938664426106,21.94690440789504,62.87007394989079,1.8978318804681003,-1.493767067236843,96.92593043608699,1.6046646029340377,0.13868809542697313,-5.3964248346898245,0.4979047495095599,-31.25906960242957,9.049912988238813,62.32946087003116,50.403738021850586,-32.23119676113129,9.193147718906403,-14.11034294575661,20.783633851850574,0
GUIDED_NOGPS,0.7347593307495117,25.334042039139888,-14.593631473122075,-0.09516546527302377,63.94478496430218,-12.237751049996838,-20.98791273235018,22.233307222577047,62.67264871203274,2.323819893387806,-1.3320766393453658,96.29301095664775,1.5829005793185074,0.12284065331090055,-5.574918528042652,0.49745572749546113,-31.25906960242957,9.049912988238813,62.32946087003116,51.98448896408081,-32.4539452791214,4.0837690234184265,-14.11034294575661,21.11988747978489,0
GUIDED_NOGPS,0.7638347148895264,34.3967393532832,-14.16374305186962,-0.3490927514848373,64.05089478549169,-11.963580316128633,-20.707261546576433,22.537744324332365,62.459811948254206,2.4282291532483824,-1.2024608865179744,95.64993498591271,1.6117838124934403,0.17253620128703873,-5.530269871228326,0.496817834325525,-31.25906960242957,9.049912988238813,62.32946087003116,50.36004185676575,-18.668225407600403,7.87985771894455,-14.11034294575661,17.550078864793967,0
GUIDED_NOGPS,0.7959568500518799,31.134878334842703,-13.838754934992421,-0.6839442937871929,64.26000399165001,-11.671235866568505,-20.41024962684474,22.859928774687035,62.23129438014411,2.5462422289449207,-0.9390816417679954,95.10376573912181,1.6784998496148995,0.1318849626027,-5.183062670698559,0.4959425807769882,-31.25906960242957,9.049912988238813,62.32946087003116,50.455307960510254,-29.890188574790955,14.973962306976318,-14.11034294575661,19.720771039631966,0
GUIDED_NOGPS,0.8339123725891113,26.352917522728845,-13.530701423375357,-0.9459858054134618,64.21540066171133,-11.465433876903893,-20.09720618113467,23.19950346443128,61.98685920032708,2.400797832881142,-0.7894467112050022,94.3773682907018,1.6678560829762474,0.1293780127437021,-5.783729522502086,0.4955429170772315,-31.25906960242957,9.049912988238813,62.32946087003116,50.548022985458374,-27.425488829612732,-0.22138766944408417,-14.11034294575661,15.095920179022102,0
GUIDED_NOGPS,0.8651995658874512,31.965369548981055,-13.012774806245975,-1.4635556502303886,64.32699414427525,-11.234738878825707,-19.768522096910154,23.556044377374665,61.72630144195793,2.360277308743218,-0.48217016082446856,93.73692194279721,1.846906612860375,0.17620297489721926,-5.2839580086684,0.49479861459536534,-31.25906960242957,9.049912988238813,62.32946087003116,51.80084705352783,-34.73705351352692,7.9825326800346375,-14.11034294575661,14.610819653600286,0
GUIDED_NOGPS,0.8986852169036865,29.868641623642514,-12.748522149961248,-1.59957673293242,64.31031316967088,-10.995756390153032,-19.42464693236416,23.929063854101248,61.449447348216076,2.282305790169057,-0.20172291366886236,93.20002126271001,1.7374465832901886,0.11425062547292852,-5.169878036828065,0.4942782683570904,-31.25906960242957,9.049912988238813,62.32946087003116,48.92573356628418,-21.74537032842636,1.8231090158224106,-14.11034294575661,17.800840722434526,0
GUIDED_NOGPS,0.931720495223999,30.274821172071807,-12.427323967828942,-1.909955491950633,64.3621356177538,-10.741870470260853,-19.06608590766335,24.318013855724736,61.15615374180002,2.4037802776709105,-0.20710478256971507,92.9110291287376,1.838585842121541,0.11269428304434287,-4.90810728641816,0.49358803624809244,-31.25906960242957,9.049912988238813,62.32946087003116,48.78284931182861,-30.27714490890503,5.654001235961914,-14.11034294575661,18.198226250987744,0
GUIDED_NOGPS,0.9658000469207764,29.348447317967448,-12.105519483961315,-2.2253191919999478,64.39613199020943,-10.47346655604101,-18.693396896192755,24.722289227643646,60.84630739442178,2.3838075238773238,-0.0032065370265362838,92.40705679063905,1.8787001909372842,0.10648240208084464,-4.708753558213809,0.4929003508084247,-31.25906960242957,9.049912988238813,62.32946087003116,48.966118693351746,-31.39425218105316,4.706095531582832,-14.11034294575661,19.525041723681497,0
GUIDED_NOGPS,0.9995830059051514,29.60866311821429,-11.78573176882051,-2.6458992498984126,64.47009213349718,-10.181777221890622,-18.307187415800424,25.141230963296447,60.51982439630137,2.465721769149875,0.3819373215175166,91.41521087031563,1.9627382669148008,0.0913259296435685,-4.38255230085406,0.4920994645256084,-31.25906960242957,9.049912988238813,62.32946087003116,48.13234508037567,-37.951821088790894,7.105446606874466,-14.11034294575661,20.776632907951313,0
GUIDED_NOGPS,1.0335171222686768,29.4703175171968,-11.48922130166577,-3.0433557015524944,64.54087982639896,-9.897927356338975,-17.908111620042114,25.574129467916716,60.176649525661205,2.491711065828597,0.4840588148516829,90.78958603290998,2.004407091305682,0.07570271276624363,-4.267078032356394,0.49127153939852447,-31.25906960242957,9.049912988238813,62.32946087003116,48.13234508037567,-37.951821088790894,7.105446606874466,-14.11034294575661,20.776632907951313,0
GUIDED_NOGPS,1.0669374465942383,29.926181727373265,-11.212332360939472,-3.3805492143073836,64.49558878867464,-9.675893721767027,-17.496867289425907,26.020227822288312,59.8167556182206,2.5606240460160286,0.5835871574983451,90.32469603724223,2.0374623617942005,0.05804429911785519,-4.47510313265783,0.49064233365909193,-31.25906960242957,9.049912988238813,62.32946087003116,48.15593063831329,-35.22818386554718,0.039665959775447845,-14.11034294575661,17.343714944305788,0
GUIDED_NOGPS,1.1008391380310059,29.504523136228702,-10.965761265974756,-3.6804159363617126,64.52760868771611,-9.520875896242002,-17.074192822656947,26.47872504650049,59.4401429366902,2.3439192191244493,0.8690400795419244,89.7499697695315,2.0672588686149544,0.03420445349133938,-4.798493829262094,0.48982506849794816,-31.25906960242957,9.049912988238813,62.32946087003116,47.518131136894226,-34.17572379112244,5.069836229085922,-14.11034294575661,14.025332422852209,0
GUIDED_NOGPS,1.1353645324707031,28.969188797182028,-10.716812174202154,-3.9625407075456076,64.50428589220783,-9.408630511269918,-16.64086422788204,26.948779363703093,59.04683854026645,2.3629769410126658,0.7915582001538882,89.25062146950104,2.1038735032323244,0.017546357558122505,-4.994478228436066,0.48908510529611726,-31.25906960242957,9.049912988238813,62.32946087003116,47.71352410316467,-33.712804317474365,1.7051830887794495,-14.11034294575661,11.485822839438216,0
GUIDED_NOGPS,1.1681654453277588,30.491389024186336,-10.482710858052368,-4.2291363770494375,64.47923193293951,-9.299547054193493,-16.197692113934345,27.4295114638617,58.63689565412599,2.228286250910249,0.6385121237090027,88.86209981894321,2.153588485365756,-0.011811365370098026,-4.91508199010714,0.48831532744237294,-31.25906960242957,9.049912988238813,62.32946087003116,47.71352410316467,-33.712804317474365,1.7051830887794495,-14.11034294575661,11.485822839438216,0
GUIDED_NOGPS,1.2020025253295898,29.55837602801993,-10.3107517688373,-4.56839161362873,64.53110857068162,-9.190959717746368,-15.745518681578053,27.92000776751275,58.21039303892021,2.292994822776715,0.8040815654405181,88.40376680487867,2.2140319686301275,-0.056798085199125936,-4.872344051570286,0.48735856893647717,-31.25906960242957,9.049912988238813,62.32946087003116,45.739659667015076,-40.381526947021484,6.790044158697128,-14.11034294575661,12.86308011292616,0
GUIDED_NOGPS,1.2353391647338867,30.0004577706569,-10.10662779535164,-4.819726950886522,64.53315739227287,-9.169390268100507,-15.285214714753018,28.41932368951874,57.76743436026958,2.2977213136823638,0.7983148047077646,88.0619226671087,2.236985671890561,-0.07184951239405446,-5.372038439812817,0.4864685539359934,-31.25906960242957,9.049912988238813,62.32946087003116,46.382465958595276,-34.01145339012146,3.5187598317861557,-14.11034294575661,7.231296297889981,0
GUIDED_NOGPS,1.2740657329559326,25.824609795893238,-9.910743200710103,-5.2302676333872045,64.4595587289911,-9.062625145168013,-14.817676571819456,28.926486902823342,57.30814755825823,2.3664874448026407,0.7617963978974981,87.60805659676136,2.300537833908252,-0.09004160647294474,-4.887063513125936,0.48569717765853426,-31.25906960242957,9.049912988238813,62.32946087003116,46.6558575630188,-45.08429169654846,-1.1148701421916485,-14.11034294575661,12.862931556311711,0
GUIDED_NOGPS,1.3050706386566162,32.259162122459024,-9.552023514636174,-5.677300288125254,64.31168343395379,-8.974041544105528,-14.343823176802587,29.440500602206576,56.83268421692826,2.2960573088458194,0.8981441559255834,87.33326442607341,2.434550904073571,-0.08254767176108757,-4.8119164481268735,0.48504200156594895,-31.25906960242957,9.049912988238813,62.32946087003116,45.97129225730896,-38.933125138282776,-6.547638773918152,-14.11034294575661,9.193584886998902,0
GUIDED_NOGPS,1.3391895294189453,29.314807307901983,-9.452457784527445,-5.888272322671192,64.1573294057982,-8.943066703535303,-13.864593010637314,29.96034676803997,56.341218933774336,2.30928951970225,1.0170973431283503,87.10976697605226,2.366812875539567,-0.17229941728142265,-5.184515801152355,0.4843677790559523,-31.25906960242957,9.049912988238813,62.32946087003116,46.515485644340515,-37.677547335624695,-5.566208064556122,-14.11034294575661,10.258615430505346,0
GUIDED_NOGPS,1.3737895488739014,28.904107889822274,-9.29080647204859,-6.10465000273371,63.85061715278571,-8.997897253398712,-13.380941102412882,30.484989430041686,55.83394868923804,2.408339428941894,0.8042745716454239,86.90410998014316,2.4098194266217985,-0.18579120560212686,-5.715198029649151,0.48396666307290465,-31.25906960242957,9.049912988238813,62.32946087003116,45.26193141937256,-34.126684069633484,-15.415540337562561,-14.11034294575661,3.6732654903491024,0
GUIDED_NOGPS,1.4068806171417236,30.224861281256757,-9.15163702649268,-6.286223447533417,63.57784285895069,-9.038593740429794,-12.893836020617545,31.013377931031712,55.31109221620237,2.290502444059895,0.8339925646415907,86.66836600094018,2.4489935314787945,-0.23204012007475056,-5.672004077274734,0.48346649871450337,-31.25906960242957,9.049912988238813,62.32946087003116,45.291486382484436,-33.3134263753891,-13.242538273334503,-14.11034294575661,4.562916412763481,0
GUIDED_NOGPS,1.4392175674438477,30.928708373890217,-9.048605979642481,-6.437906127798447,63.30675233351162,-9.098767658765636,-12.404256864383209,31.544450190686995,54.77288936948615,2.1037665662556275,0.6718208218570392,86.42766330439976,2.475155183234291,-0.2784018097381793,-5.82782817371041,0.48293227407194905,-31.25906960242957,9.049912988238813,62.32946087003116,45.291486382484436,-33.3134263753891,-13.242538273334503,-14.11034294575661,4.562916412763481,0
GUIDED_NOGPS,1.4731056690216064,29.51365804917179,-8.93002819913918,-6.694578983489291,63.02845634693959,-9.160922369540145,-11.913190254730154,32.07713596929658,54.21960049533857,2.033697576551171,0.5023731666982787,86.2888055585734,2.5420715561575244,-0.3096255674942483,-5.862917827472415,0.48238228829679797,-31.25906960242957,9.049912988238813,62.32946087003116,45.42715847492218,-40.090352296829224,-13.843663036823273,-14.11034294575661,4.523871636373103,0
GUIDED_NOGPS,1.5064537525177002,29.991233527110996,-8.79994027733688,-6.929024329672675,62.82744314192315,-9.196148497667691,-11.421627325811631,32.61036013151678,53.65150580093351,2.189882231641383,0.2130988338553566,86.20960951514711,2.5813245233671718,-0.3419120263876732,-5.7291610239872455,0.4816481253180207,-31.25906960242957,9.049912988238813,62.32946087003116,44.856029748916626,-37.79374063014984,-9.071575850248337,-14.11034294575661,5.818288106738899,0
GUIDED_NOGPS,1.5400876998901367,29.736713742839317,-8.698991668157825,-7.193941373559216,62.71042637067007,-9.25472117720577,-10.930560716158574,33.143045910126354,53.06890472386411,2.157951097271573,0.02109973834169207,86.1387053213732,2.6289678426619045,-0.38747795729948326,-5.900688796033524,0.4807169567063881,-31.25906960242957,9.049912988238813,62.32946087003116,44.26819086074829,-40.65392017364502,-4.023953899741173,-14.11034294575661,4.75769505175885,0
GUIDED_NOGPS,1.5749485492706299,28.690379774543068,-8.59587482004358,-7.4679109222492785,62.608360060611034,-9.367964722942125,-10.44098155992424,33.674118169781636,52.472115301637146,2.207661854381161,-0.2285844468489358,86.09700701649027,2.6678400119766144,-0.42233519708526984,-6.2748381243961955,0.4797275104820522,-31.25906960242957,9.049912988238813,62.32946087003116,44.08860206604004,-41.6751354932785,-3.297649323940277,-14.11034294575661,1.412364872708631,0
GUIDED_NOGPS,1.6079342365264893,30.320781314383616,-8.489730578990557,-7.730909382943088,62.5423209742837,-9.550397016324657,-9.953876478128898,34.202506670771655,51.861473541167534,2.3435493216922105,-0.34190512922482225,86.10115977150564,2.7216099665978035,-0.47434182907885336,-6.867100447728308,0.47863830513376765,-31.25906960242957,9.049912988238813,62.32946087003116,44.96774673461914,-41.129568219184875,-1.2192167341709137,-14.11034294575661,-2.794639347028771,0
STABILIZE,1.6429548263549805,28.558907840533823,-8.4125958149331,-8.026810965254018,62.49444923730625,-9.696990927265032,-9.470224569904467,34.72714933277338,51.237332788272724,2.4059840808952973,-0.4311173782646794,86.07525969417296,2.746775273520699,-0.508854652499158,-6.632869244039194,0.47748576710193297,-31.25906960242957,9.049912988238813,62.32946087003116,45.441266894340515,-46.10287249088287,-0.5410383455455303,-14.11034294575661,0.045269213158375135,0
STABILIZE,1.6748254299163818,31.382041555370996,-8.304044557348783,-8.325848139032002,62.38384419469115,-9.916472429539976,-8.990994403739197,35.24699549860678,50.60006309716721,2.4846608165012625,-0.4613261843857351,86.09930879024057,2.8162952972924655,-0.561425305267109,-7.325031370393333,0.4764324378049521,-31.25906960242957,9.049912988238813,62.32946087003116,44.99819576740265,-44.090449810028076,-4.402708634734154,-14.11034294575661,-5.047828254209475,0
STABILIZE,1.7090885639190674,29.18893489683009,-8.280731173280694,-8.475868623987692,62.220273436384396,-10.111073609119394,-8.51714100872233,35.761009197990006,49.95005059995695,2.246126918465734,-0.6633119002550842,86.15650479435025,2.7831007317784353,-0.6126573310182898,-7.1991456999297805,0.4754595543271451,-31.25906960242957,9.049912988238813,62.32946087003116,44.311487674713135,-39.08064365386963,-8.347950130701065,-14.11034294575661,-2.793787280929812,0
STABILIZE,1.7423853874206543,30.041284075119254,-8.20516232016853,-8.697334607352502,61.983136699781646,-10.224270311317902,-8.049602865788774,36.268172411294614,49.28769687613384,1.723265051887268,-0.7760418779894704,86.20847570374488,2.848347690996178,-0.6448798020089421,-6.8170527436978645,0.4746091203527044,-31.25906960242957,9.049912988238813,62.32946087003116,43.577951192855835,-40.26493728160858,-12.763389945030212,-14.11034294575661,1.4915429868883576,0
STABILIZE,1.7757399082183838,29.984372654289658,-8.178940111833276,-8.85948733747131,61.90710848057273,-10.449501289088136,-7.58929889896373,36.767488333300605,48.613418322070125,1.2041469827476154,-0.7572951965127539,86.32031322121466,2.857035725428618,-0.7019063457404358,-7.627195246097287,0.4734126196829948,-31.25906960242957,9.049912988238813,62.32946087003116,43.28386187553406,-39.43791091442108,-3.0590232461690903,-14.11034294575661,-5.163728880461775,0
STABILIZE,1.8100039958953857,29.191982182628063,-8.12400466837106,-8.948943595467275,61.74790429270662,-10.629546251388401,-7.13712546660744,37.25798463695165,47.92764552051288,0.49910059895134345,-0.9374016286755837,86.48310394989275,2.856298927567894,-0.723685457548688,-7.423066693477592,0.47235948245561254,-31.25906960242957,9.049912988238813,62.32946087003116,44.04401779174805,-34.094688296318054,-8.42219740152359,-14.11034294575661,-2.572754675425383,0
STABILIZE,1.8420772552490234,31.182561632021887,-8.01530390630351,-9.026289275010472,61.64067359169297,-10.921032898587153,-6.693953352659744,37.73871673711025,47.2308226100785,0.8377840133220353,-0.8696666426765672,86.73620343977674,2.8885433734598243,-0.7576766475837406,-8.36894041525622,0.47118029803677103,-31.25906960242957,9.049912988238813,62.32946087003116,46.92153036594391,-32.837626338005066,-5.159373581409454,-14.11034294575661,-9.603256218321683,0
STABILIZE,1.8773596286773682,28.346020761245676,-7.875606353163501,-9.071476162663172,61.60557011635617,-11.17470240489001,-6.2606247578848375,38.20877105431286,46.52340665474706,2.368970858896175,-0.8056107274018076,86.97489123051201,2.888407146525652,-0.7707590448181346,-8.14444342892174,0.4698356730767818,-31.25906960242957,9.049912988238813,62.32946087003116,51.548272371292114,-33.51044058799744,-1.2877784669399261,-14.11034294575661,-7.284215749805593,0
STABILIZE,1.9109079837799072,29.812805640850677,-7.662082248824098,-9.162652182939926,61.38977624208318,-11.41133613423423,-5.83795029111587,38.66726827852504,45.805867013356846,4.507567121050636,-0.6507338934550942,87.19825890693893,2.9372661765197856,-0.7872377122558105,-8.268853271315425,0.46883218154254735,-31.25906960242957,9.049912988238813,62.32946087003116,53.913575410842896,-34.41086411476135,-12.494806945323944,-14.11034294575661,-6.483318013013654,0
STABILIZE,1.9436049461364746,30.591911308850882,-7.489633865923831,-9.217919237164859,61.180830846494175,-11.644720770725593,-5.426705960499671,39.11336663289663,45.07868470909878,9.92901782191721,-0.2597203177476885,87.76200223046428,2.945343833988328,-0.8283676914161024,-8.4023691916796,0.46779570772520923,-31.25906960242957,9.049912988238813,62.32946087003116,53.913575410842896,-34.41086411476135,-12.494806945323944,-14.11034294575661,-6.483318013013654,0
STABILIZE,1.9771528244018555,29.813017549595912,-7.3155926093334145,-9.291351811892614,60.99628493881239,-11.878003659576455,-5.027630164741364,39.5462651375169,44.34235179901087,13.121636923956991,-0.40200988678643534,88.06729802598551,2.9681183287788904,-0.8563343940939601,-8.514215493118012,0.466692133720397,-31.25906960242957,9.049912988238813,62.32946087003116,53.641849756240845,-35.78467667102814,-11.212290823459625,-14.11034294575661,-6.748472786782719,0
STABILIZE,2.010984420776367,29.562334367070765,-7.356971152380865,-9.440850451416715,60.86910128225716,-12.052829012588294,-4.641420684349011,39.965206873169706,43.59737074347265,15.688510806506994,-0.5612600695143668,88.4242368818212,2.9976424857079293,-0.9640374154426753,-8.268159017417588,0.465456538922431,-31.25906960242957,9.049912988238813,62.32946087003116,38.91477882862091,-40.45461714267731,-7.722997665405273,-14.11034294575661,-3.398258168702294,0
STABILIZE,2.0444328784942627,29.899515255203877,-7.524446388120198,-9.59711676942576,60.60936442423643,-12.227591813928273,-4.268731672878435,40.36948224508863,42.84425377569967,16.879849477013543,-0.7840932302778874,88.74289935754815,3.011028536260942,-1.0506171913147138,-8.379382094440968,0.4644697787029265,-31.25906960242957,9.049912988238813,62.32946087003116,30.69177269935608,-41.0769522190094,-16.303767263889313,-14.11034294575661,-3.701969360336081,0
STABILIZE,2.077536106109619,30.21549854840685,-7.695433228158009,-9.749283679031684,60.352016492911105,-12.398026090395136,-3.910170648177644,40.75843224671209,42.08352227123791,17.14600999613789,-1.3284994344892775,89.02974681212118,3.0284026863424076,-1.1010654718268056,-8.470126579032685,0.4634630115566536,-31.25906960242957,9.049912988238813,62.32946087003116,30.69177269935608,-41.0769522190094,-16.303767263889313,-14.11034294575661,-3.701969360336081,0
STABILIZE,2.1112961769104004,29.622673757512835,-8.038605604644424,-9.79989320379862,60.09920093510138,-12.626320070110461,-3.566295483631624,41.13145172343869,41.31570611745826,16.81917690661632,-1.7517785303511324,89.23993222344998,2.9912925655504363,-1.198871543875197,-8.924498460405076,0.46243301036471374,-31.25906960242957,9.049912988238813,62.32946087003116,20.277443528175354,-35.701218247413635,-16.51802510023117,-14.11034294575661,-7.6347060532911515,0
STABILIZE,2.1558666229248047,22.440113208960415,-8.664210567752818,-9.920997636183955,59.882181476204124,-12.831277109808356,-3.237611399407111,41.487992636382074,40.54134308305092,15.850633884193709,-2.0523049328409897,89.60029983424901,2.980222580546017,-1.2884789694721586,-8.620541434829036,0.4613183232136936,-31.25906960242957,9.049912988238813,62.32946087003116,0.5320117808878422,-39.35231566429138,-14.217686653137207,-14.11034294575661,-6.365414433787247,0
STABILIZE,2.1847174167633057,34.66882676761832,-9.237049774687216,-10.179407348000451,59.6517882270656,-13.099688040149225,-2.9245679536970606,41.827567326126314,39.76097818751995,14.961198112738185,-2.4835782315178156,89.84514845561564,3.0721924163968093,-1.485855223453036,-9.732364908673002,0.4602183799209087,-31.25906960242957,9.049912988238813,62.32946087003116,-8.638448268175125,-34.225842356681824,-11.290793120861053,-14.11034294575661,-8.816418425936215,0
STABILIZE,2.21783447265625,30.19874721002232,-10.262880710878271,-9.957865131688528,59.43167094818148,-13.403085892160254,-2.6275560339653588,42.14975177648098,38.975163070677624,13.729998458235443,-2.7358431576625972,90.15584010058117,2.85487440999759,-1.6371527461328488,-9.859834783671118,0.4590869842449923,-31.25906960242957,9.049912988238813,62.32946087003116,-16.93090945482254,-26.713362336158752,-17.33272075653076,-14.11034294575661,-13.792207821195918,0
STABILIZE,2.2512359619140625,29.942631962192493,-11.295502425232868,-9.706251951638375,59.127531388853164,-13.55482359766125,-2.3469048481915955,42.45418887823631,38.18445536213891,11.799206432710388,-3.1807202721753844,90.43740098873661,2.818910897870406,-1.7281586559864799,-9.040905265776908,0.4581138479465715,-31.25906960242957,9.049912988238813,62.32946087003116,-24.06885325908661,-17.517337203025818,-20.715831220149994,-14.11034294575661,-4.064061593900552,0
STABILIZE,2.286759614944458,28.154604159115014,-12.438546639937059,-9.57177902785259,58.860173226960285,-13.646434654923262,-2.0828789161156855,42.74059169291829,37.38941805081599,9.527545278919384,-3.331259989359993,90.87869268082197,2.827129370246886,-1.8406646975600294,-8.704558218397594,0.4570584896477114,-31.25906960242957,9.049912988238813,62.32946087003116,-31.551557779312134,-25.21756887435913,-18.65445077419281,-14.11034294575661,-0.7841808487983339,0
STABILIZE,2.319254159927368,30.77913862817474,-13.60103584122749,-9.475689206780563,58.630377962153496,-13.908310591092414,-1.835675060482398,43.008746716543996,36.590618854412575,7.920802187055476,-3.729813480261284,91.10845341431202,2.805860500758523,-1.9905283687899293,-9.958020133562735,0.45592048178451816,-31.25906960242957,9.049912988238813,62.32946087003116,-33.98353159427643,-25.539302825927734,-15.66685140132904,-14.11034294575661,-11.003899205754102,0
STABILIZE,2.3758187294006348,17.68010352691236,-14.790136749908628,-9.18478175522893,58.39557421667983,-14.177935378941784,-1.6054193982861982,43.258517143376494,35.788629588918525,6.858035851258893,-3.792720376290748,91.75132447937196,2.756209445508975,-1.906936047339279,-9.459730239057802,0.4547861107444774,-31.25906960242957,9.049912988238813,62.32946087003116,-34.599581360816956,-16.761504113674164,-17.887696623802185,-14.11034294575661,-12.468018556238036,0
STABILIZE,2.3958723545074463,49.87696954562211,-15.915690992228088,-9.147783156438342,57.96547243851944,-14.439993866286471,-1.3921643320159056,43.489846129680245,34.984025538104135,7.432004821745391,-3.959838029808035,91.85657086429269,2.7321467908318846,-2.4445000570722875,-10.0,0.45403710619916937,-31.25906960242957,9.049912988238813,62.32946087003116,-31.533309817314148,-10.173307359218597,-18.875746428966522,-14.11034294575661,-6.358099301186163,0
STABILIZE,2.4206855297088623,40.318215899259826,-17.022389820241088,-8.404205800569494,57.850776311052385,-14.537828439326756,-1.1958855408991234,43.702760057475984,34.17738482301472,8.853430367274866,-3.9825394441750417,92.05530204838338,2.4097904165115347,-2.311260902540922,-9.510343309212308,0.4526532170239247,-31.25906960242957,9.049912988238813,62.32946087003116,-31.533309817314148,-10.173307359218597,-18.875746428966522,-14.11034294575661,-6.358099301186163,0
STABILIZE,2.45353364944458,30.445794589258362,-17.991729750739818,-7.964232516925408,57.90552825051544,-14.751709348817236,-1.016478972147251,43.89737179829622,33.369287771464954,11.830652623649126,-3.977881255161093,92.3369585591872,2.5455879342439958,-2.259988798104134,-10.0,0.45092751904189904,-31.25906960242957,9.049912988238813,62.32946087003116,-27.621600031852722,-14.578276872634888,-5.58263398706913,-14.11034294575661,-12.43255621406733,0
STABILIZE,2.487443447113037,29.498920420578823,-18.947951634142626,-7.611095337393523,57.532653773466784,-15.063021512412638,-0.8537578321999,44.07388397694004,32.56031628753345,13.97727948072023,-4.416787930565643,92.37271459949221,2.5289722649559483,-2.334898383187996,-10.0,0.45005532502813334,-31.25906960242957,9.049912988238813,62.32946087003116,-27.462908625602722,-11.17226630449295,-27.921292185783386,-14.11034294575661,-16.43523831299156,0
STABILIZE,2.52133846282959,29.505145791565546,-20.038058737899387,-7.445666902043699,57.37483824941101,-15.35905616232255,-0.7074495779696086,44.232592235228466,31.75105322105714,15.854335846723854,-4.930326802370453,92.40829305487881,2.533113589461244,-2.4769837434939643,-10.0,0.44875242994329223,-31.25906960242957,9.049912988238813,62.32946087003116,-37.394675612449646,-22.659362852573395,-14.26772028207779,-14.11034294575661,-15.558364966966986,0
STABILIZE,2.5551795959472656,29.553794012161696,-21.221771723171408,-7.1922631736846645,57.103685856979666,-15.373081002549004,-0.5771929080866407,44.3738884957597,30.942081737125648,16.165956397416515,-5.53295738104844,92.31708270870246,2.4630229034719613,-2.585369884643109,-9.308125515899484,0.44767679176029196,-31.25906960242957,9.049912988238813,62.32946087003116,-44.6371853351593,-17.061525583267212,-21.99203372001648,-14.11034294575661,1.162925083559296,0
STABILIZE,2.5882163047790527,30.27263606902873,-22.591999132595305,-6.847519230075731,56.81259814941802,-15.357294783950064,-0.4625347541434017,44.49826422566389,30.133984685575882,14.67451458270524,-6.5075762836246,92.13371262005514,2.3803213354091346,-2.7181748126046887,-9.120469512602963,0.4466427730723157,-31.25906960242957,9.049912988238813,62.32946087003116,-58.54511260986328,-11.208809167146683,-23.769499361515045,-14.11034294575661,2.366870575726396,0
STABILIZE,2.621699094772339,29.87161974489178,-24.14856355896814,-6.558265676832991,56.5726443303294,-15.151646391354179,-0.3629272719393235,44.60631370035881,29.327343970486467,11.54949044778649,-7.074447833789808,91.94644249339171,2.346420123726923,-2.8728689662811475,-7.862412717255993,0.44550939928031413,-31.25906960242957,9.049912988238813,62.32946087003116,-72.01045751571655,-14.51404094696045,-20.879483222961426,-14.11034294575661,13.515366593756962,0
STABILIZE,2.661196708679199,25.320124840779712,-25.696253789159922,-6.274410397871532,56.33692649944767,-14.939353349147567,-0.2777248327255073,44.698737267304466,28.522739919672063,9.236240272139279,-7.312734350911335,91.85043052422886,2.342788638202226,-2.8948531226775653,-7.887788389908923,0.4443716268404488,-31.25906960242957,9.049912988238813,62.32946087003116,-72.01045751571655,-14.51404094696045,-20.879483222961426,-14.11034294575661,13.515366593756962,0
STABILIZE,2.6898603439331055,34.89437603993344,-27.38490290947409,-5.939272270416684,55.910908550176906,-14.656740227501984,-0.20618101444918224,44.77634460975878,27.72075065417799,6.047204884979639,-7.682665080322042,91.61163345046687,2.2202709780829872,-3.1818128054845496,-6.82247693830657,0.4436196842080022,-31.25906960242957,9.049912988238813,62.32946087003116,-76.61847472190857,-7.897605001926422,-29.44815158843994,-14.11034294575661,18.068848807729363,0
STABILIZE,2.722876787185669,30.29165703720823,-28.91034696900818,-5.317231518957257,55.478203317720435,-14.410602772066628,-0.14744559299867532,44.84005801053229,26.92195145777461,2.5918412121741605,-7.675795617564302,91.31046308920432,2.130352557440478,-3.1218377531146575,-7.15468382671245,0.4428874962801084,-31.25906960242957,9.049912988238813,62.32946087003116,-81.07653856277466,4.016336053609848,-37.827640771865845,-14.11034294575661,14.407730808819126,0
STABILIZE,2.7580502033233643,28.43480265209551,-30.509861262062458,-4.638922746253965,55.03349567189497,-14.127589671015683,-0.10056153344779872,44.890915615743666,26.126914146451682,0.8842595019208582,-7.683135509601127,91.02069914385571,2.075190916227385,-3.1998806660049595,-6.867821996015628,0.4421868369491134,-31.25906960242957,9.049912988238813,62.32946087003116,-80.47406077384949,11.28765493631363,-35.74576675891876,-14.11034294575661,16.970875408082303,0
STABILIZE,2.7944750785827637,27.45933772406479,-32.000401161842596,-3.9119547894568534,54.58450038511853,-13.880864829188656,-0.06446198130077718,44.9300746985746,25.336206437912963,-0.2506384873486723,-7.536616852846953,90.7250544056317,2.021834331652293,-3.2385914453522204,-6.959810985581146,0.44150341210558885,-31.25906960242957,9.049912988238813,62.32946087003116,-73.91120195388794,14.990155398845673,-36.13133728504181,-14.11034294575661,14.689100451677803,0
STABILIZE,2.823150873184204,34.87696657242641,-33.35156003662544,-3.148565038501561,54.26188064611367,-13.59746761985421,-0.03796725373655008,44.95881492302507,24.550391321070634,-0.9478804195228526,-7.385918974094376,90.32643090529142,1.8994507672829162,-3.347301199441872,-6.204357390646821,0.44057702134991394,-31.25906960242957,9.049912988238813,62.32946087003116,-68.92321705818176,17.591647803783417,-28.67392897605896,-14.11034294575661,16.616861580758663,0
STABILIZE,2.856755495071411,29.761612147874832,-34.50340617894671,-2.3383672984820807,54.19799266032971,-13.352283598787736,-0.019781830853926152,44.97854160766863,23.77002642553967,-1.2428380834050337,-7.316610483265317,89.85526396577643,1.891426657440595,-3.2924697849873166,-6.532702600704468,0.4391440675304199,-31.25906960242957,9.049912988238813,62.32946087003116,-63.38858604431152,20.905327796936035,-16.651752591133118,-14.11034294575661,15.146822163811622,0
STABILIZE,2.8947200775146484,26.34480679362846,-35.71792704807386,-1.482783408199444,53.93432651823652,-13.146350909081335,-0.008491346915743492,44.99078898940721,22.99566339113231,-1.139889843696605,-6.919249714147839,89.51014133720486,1.8603645523920243,-3.3292363043635764,-6.815302562377693,0.4381226737457916,-31.25906960242957,9.049912988238813,62.32946087003116,-60.10122299194336,25.480568408966064,-25.89300572872162,-14.11034294575661,12.347428151346875,0
STABILIZE,2.9335832595825195,25.733031479879504,-36.99448007257227,-0.618152212817301,53.63121962678599,-12.952639266275726,-0.0025595815940242517,44.99722348722645,22.227847237352663,-1.2308594257047123,-6.364976874793543,88.99591005497294,1.7981079826838828,-3.4087383491094014,-6.776104013998738,0.43719325522113334,-31.25906960242957,9.049912988238813,62.32946087003116,-55.98511099815369,26.044782996177673,-24.35532808303833,-14.11034294575661,10.702889353937056,0
STABILIZE,2.962454319000244,34.650782766739646,-38.06677493820542,0.27802301235703786,53.224855909675234,-12.687008323228257,-0.0003254512142198962,44.99964696595117,21.467115732890903,-1.1592559913145297,-5.865802317700093,88.60301708334629,1.6479334380242976,-3.4846920696973083,-5.7678822490681885,0.4364845196464313,-31.25906960242957,9.049912988238813,62.32946087003116,-53.68471145629883,28.517282009124756,-30.975663661956787,-14.11034294575661,14.877878342600493,0
STABILIZE,2.995262384414673,30.482525055052072,-38.89688030494469,1.2210057073592526,52.906932146634105,-12.49643212552089,3.197442310920451e-14,44.99999999999997,20.71399876511795,-1.1059566101263354,-5.184181455044555,88.18378690228008,1.6402207089401077,-3.411522619133477,-6.336584429347618,0.4356141332369677,-31.25906960242957,9.049912988238813,62.32946087003116,-51.99628472328186,33.91958177089691,-35.55946350097656,-14.11034294575661,12.945141420709277,0
STABILIZE,3.0295090675354004,29.205601164240004,-39.77871564733337,2.1604643612506993,52.75649898895414,-12.24937950719837,0.0,45.0,19.96901770957973,-1.0846001026955863,-4.747892876526236,87.79370796859148,1.5988220805487745,-3.459621252527388,-5.908891098610627,0.43442503744125116,-31.25906960242957,9.049912988238813,62.32946087003116,-48.29728901386261,33.784592151641846,-21.791870892047882,-14.11034294575661,15.600087177512009,0
STABILIZE,3.062976837158203,29.885454519544552,-40.5984797449947,3.1862166934605605,52.48060904968396,-11.98310020449701,0.0,45.0,19.232684799491793,-1.1036979519451766,-3.9369795210901177,87.36901363618925,1.5121915265711696,-3.4774559241574283,-5.592902390416029,0.43350415149961563,-31.25906960242957,9.049912988238813,62.32946087003116,-44.637349247932434,39.97751772403717,-29.237207770347595,-14.11034294575661,16.643162931705092,0
STABILIZE,3.1014394760131836,26.00683296440286,-41.326431601609784,4.107711937812119,52.46419532933631,-11.743074939203002,0.0,45.0,18.505502495233728,-1.165809557823157,-3.3846968281052336,87.06893610519391,1.5315485090892809,-3.4725890415438405,-5.757590150093707,0.43208261433179485,-31.25906960242957,9.049912988238813,62.32946087003116,-42.535048723220825,34.70301032066345,-14.446777105331421,-14.11034294575661,15.599117290649867,0
STABILIZE,3.130514621734619,34.395893129520594,-42.00644795337994,5.047204519433719,52.362251567726815,-11.49366872934796,0.0,45.0,17.787962853843524,-1.2996076275784176,-2.5186089911103418,86.58323452312514,1.4112049259091504,-3.5188372590984143,-5.233835080332795,0.4308514225722334,-31.25906960242957,9.049912988238813,62.32946087003116,-40.783318877220154,36.68963611125946,-19.835291802883148,-14.11034294575661,16.23733358179044,0
STABILIZE,3.16361927986145,30.21136337443817,-42.469717394265984,5.945784186932279,52.241268150646164,-11.28448548063352,0.0,45.0,17.080546898512083,-1.4107305365062939,-2.515691219674277,86.36074111091197,1.4253994004317774,-3.4572682247140496,-5.51877836111392,0.4296785574957318,-31.25906960242957,9.049912988238813,62.32946087003116,-36.94680631160736,38.37466239929199,-24.617479741573334,-14.11034294575661,15.520705011430827,0
STABILIZE,3.2000927925109863,27.423609794370524,-43.0078622292832,6.84245704767308,52.077102661663844,-11.112464095719062,0.0,45.0,16.38372398807769,-1.4182731997841036,-1.9618298992174734,85.98125580062606,1.396802516309795,-3.4926918229439288,-5.724857992029959,0.4286132426528277,-31.25906960242957,9.049912988238813,62.32946087003116,-34.9734365940094,36.81691586971283,-24.86451417207718,-14.11034294575661,12.399639824909746,0
STABILIZE,3.2325572967529297,30.80604030789118,-43.522508940662426,7.688930528068269,51.89558057640182,-11.081077297222059,0.0,45.0,15.697951186520456,-1.479051211226639,-1.5785325963227574,85.71457106448291,1.3228601389372243,-3.5263009039218427,-6.453816204241116,0.4276047412202373,-31.25906960242957,9.049912988238813,62.32946087003116,-31.86478316783905,32.9436331987381,-24.51622486114502,-14.11034294575661,3.334559824502755,0
STABILIZE,3.2660207748413086,29.88907495955932,-43.864112907036514,8.505725208425304,51.64359051150822,-11.013529685427027,0.0,45.0,15.023672632456751,-1.4344855075527752,-1.56323724145016,85.43242961024804,1.3053181901748465,-3.485476395922776,-6.207011794504464,0.42676016424189706,-31.25906960242957,9.049912988238813,62.32946087003116,-28.540733456611633,35.502561926841736,-32.32285678386688,-14.11034294575661,7.0573100353886,0
STABILIZE,3.2989940643310547,30.33306092930754,-44.162549626229975,9.220525342501746,51.545900653012964,-10.886157623597136,0.0,45.0,14.361318908633635,-1.2301277416898746,-1.3462510961421406,85.1913854042491,1.2940370692672334,-3.4891819754219124,-5.758132921699096,0.42563083651124134,-31.25906960242957,9.049912988238813,62.32946087003116,-25.735631585121155,29.357361793518066,-22.03172892332077,-14.11034294575661,10.473660521428611,0
STABILIZE,3.333280086517334,29.170461658297747,-44.39269295180542,9.914474930287778,51.42599753629681,-10.790828620703811,0.0,45.0,13.711306411423394,-0.9111843744333129,-1.0897566820755344,85.0279389774107,1.2749992639194012,-3.474677409499231,-5.919146197525268,0.4245706177502532,-31.25906960242957,9.049912988238813,62.32946087003116,-22.421535849571228,29.4637531042099,-24.01025891304016,-14.11034294575661,9.17521338567886,0
STABILIZE,3.366107940673828,30.466582890846887,-44.578759320217934,10.583647229903713,51.24750285965756,-10.748478146735442,0.0,45.0,13.074036720317864,-0.648550740880776,-0.7130508852558509,84.81694077357066,1.2345954788884925,-3.468661440390423,-6.189419365174559,0.4236530677213206,-31.25906960242957,9.049912988238813,62.32946087003116,-19.77248340845108,28.451889753341675,-27.2150456905365,-14.11034294575661,5.766720178505303,0
STABILIZE,3.400344133377075,29.21231369271486,-44.69191147943716,11.290528185461149,51.09690025298411,-10.640190429251446,0.0,45.0,12.449895967423046,-0.4779933934253,-0.5384366722376518,84.61894724991033,1.2026246193199794,-3.44249170486773,-5.75604040483152,0.4227059914288779,-31.25906960242957,9.049912988238813,62.32946087003116,-17.72577315568924,33.05627405643463,-26.665014028549194,-14.11034294575661,10.54087555927706,0
STABILIZE,3.432793617248535,30.822113300166812,-44.796626773151,11.937709158127202,51.01324079419027,-10.676098193027174,0.0,45.0,11.839254206953441,-0.28295536732402893,-0.19672663029099804,84.48390757983002,1.1664679256151191,-3.4437474486857367,-6.627019308593221,0.4216520268255263,-31.25906960242957,9.049912988238813,62.32946087003116,-15.93080759048462,28.828412294387817,-21.360298991203308,-14.11034294575661,1.313852627422714,0
STABILIZE,3.46868634223938,27.865611650356435,-44.799605669998385,12.552043495187306,50.97416310349528,-10.661009774918199,0.0,45.0,11.242464784726494,-0.1365452465446339,0.19980619183302753,84.37204274160355,1.1619244087151288,-3.410641286261565,-6.31111160988405,0.42053660336246246,-31.25906960242957,9.049912988238813,62.32946087003116,-14.035820960998535,30.603709816932678,-20.992815494537354,-14.11034294575661,5.54293244544442,0
STABILIZE,3.5002987384796143,31.637693949748442,-44.80166739370761,13.181849428283986,50.850278703775516,-10.679946837368222,0.0,45.0,10.659863707657095,0.2829497644344754,0.3554208196122346,84.28338005598762,1.1018966589574095,-3.3998587940042544,-6.525960551143944,0.41961917000776316,-31.25906960242957,9.049912988238813,62.32946087003116,-13.320624828338623,30.977877974510193,-25.00039041042328,-14.11034294575661,2.908938293920703,0
STABILIZE,3.533740758895874,29.905910873440284,-44.7143560916031,13.736667795764255,50.958500894181746,-10.711980005052963,0.0,45.0,10.091769013252033,0.6577535670137219,0.7103330035747147,84.24074601518839,1.1035870759604114,-3.367778425266757,-6.618258345408949,0.4182665362381406,-31.25906960242957,9.049912988238813,62.32946087003116,-11.176890134811401,30.189746618270874,-12.786144018173218,-14.11034294575661,3.22191292961632,0
STABILIZE,3.567647933959961,29.50369296999198,-44.652012644521015,14.244836036700448,50.895146969978846,-10.736441906698703,0.0,45.0,9.538480139104436,1.1198221075848727,0.6431911234555787,84.19360404953697,1.0865549449568088,-3.3685945780332296,-6.58650348269117,0.4172866663382512,-31.25906960242957,9.049912988238813,62.32946087003116,-11.663473397493362,26.740559935569763,-22.51213937997818,-14.11034294575661,3.329975060022384,0
STABILIZE,3.6034703254699707,27.920704024710094,-44.58532855870039,14.707669739630608,50.926207188543906,-10.755470422503487,0.0,45.0,9.000277292388219,1.7635038307219288,0.6707740420058819,84.20024982359939,1.0778777096594458,-3.3622977398026,-6.561107784722549,0.41614814020768864,-31.25906960242957,9.049912988238813,62.32946087003116,-12.22459077835083,24.93024915456772,-16.770723462104797,-14.11034294575661,3.8387404833710015,0
STABILIZE,3.6351680755615234,31.550590872505435,-44.44359848369664,15.22036400999534,50.823154743690395,-10.844777643567042,0.0,45.0,8.477420819352531,2.360755421985119,0.6534805899967914,84.17282661408179,1.021480271892674,-3.3185087623095284,-7.061379268368972,0.41530853215132424,-31.25906960242957,9.049912988238813,62.32946087003116,-8.44992771744728,29.749158024787903,-24.991896748542786,-14.11034294575661,-0.6586368492116221,0
STABILIZE,3.668046712875366,30.418415079013975,-44.25839671248437,15.678661704269627,50.754188929898085,-10.948630989150992,0.0,45.0,7.970150574816202,3.1170212876456107,0.6471042882414672,84.20875340911606,1.0127604667701946,-3.2941040850949563,-7.200545277738252,0.41443192328983625,-31.25906960242957,9.049912988238813,62.32946087003116,-8.44992771744728,29.749158024787903,-24.991896748542786,-14.11034294575661,-0.6586368492116221,0
STABILIZE,3.7016003131866455,29.807085243222115,-44.10342206835598,16.130586143445655,50.702380006486656,-11.060579460304018,0.0,45.0,7.478685291662302,3.691286944474181,0.6772984201279778,84.21688816441754,0.9846294953480154,-3.291174682145722,-7.302323025946286,0.4135526105703513,-31.25906960242957,9.049912988238813,62.32946087003116,-9.152497351169586,28.836476802825928,-23.25059473514557,-14.11034294575661,-1.2693616289428973,0
STABILIZE,3.737520933151245,27.849329712430364,-43.965211283241146,16.480478179219578,50.747747561123276,-11.081773282149094,0.0,45.0,7.003221950332389,3.779439500336481,0.9415366678877918,84.27563462146883,0.9985637302650638,-3.291982425297804,-6.768362259854372,0.4125109487784182,-31.25906960242957,9.049912988238813,62.32946087003116,-10.27814969420433,22.795499861240387,-16.639049351215363,-14.11034294575661,4.203037160490094,0
STABILIZE,3.771071434020996,29.80623796360122,-43.86708036894436,16.784531743321672,50.73808565567445,-11.080423964203115,0.0,45.0,6.543935148320983,3.6544824701315672,1.1241566096651863,84.30398673671354,0.9883308892820217,-3.292925065837195,-6.640251763055114,0.41161169898529304,-31.25906960242957,9.049912988238813,62.32946087003116,-11.412933468818665,18.430325388908386,-18.882186710834503,-14.11034294575661,5.278321098601195,0
STABILIZE,3.803366184234619,30.969129102521507,-43.73748028637541,17.07681202106353,50.762134850230275,-11.058863193798025,0.0,45.0,6.100976469670357,3.210466813227848,1.0454444424529015,84.28615994297981,0.9764133975641671,-3.2697666054242567,-6.50266750878448,0.41067768323888015,-31.25906960242957,9.049912988238813,62.32946087003116,-12.719643115997314,22.364991903305054,-18.963639438152313,-14.11034294575661,6.916509100743372,0
STABILIZE,3.839177131652832,27.93353446151592,-43.60084295980104,17.34443230516089,50.79837623089981,-11.040793355288251,0.0,45.0,5.674473854464551,2.59748550974953,1.0573272640614313,84.30589918968114,0.9772924186273901,-3.2609606899058923,-6.52234363399429,0.40975219524712947,-31.25906960242957,9.049912988238813,62.32946087003116,-12.719643115997314,22.364991903305054,-18.963639438152313,-14.11034294575661,6.916509100743372,0
STABILIZE,3.872267007827759,30.22399008459798,-43.51353146173926,17.674535824536076,50.88041256590569,-11.028682749220499,0.0,45.0,5.2645309683241095,1.6462132609735312,0.9830203554203931,84.31539998281663,0.9332920463329939,-3.2581609199437525,-6.543699427430421,0.40876823680483687,-31.25906960242957,9.049912988238813,62.32946087003116,-14.103393256664276,24.255697429180145,-14.18956071138382,-14.11034294575661,6.040630401016678,0
STABILIZE,3.9101319313049316,26.4111631655836,-43.3793078145466,17.998943398114772,50.94661839397794,-11.182050746213772,0.0,45.0,4.8712265719003796,1.2790978501613388,0.8627489417078138,84.28157688604674,0.9243023255074228,-3.2423809723755457,-7.508415453829409,0.40784921635584487,-31.25906960242957,9.049912988238813,62.32946087003116,-13.903473317623138,28.52463126182556,-17.494255304336548,-14.11034294575661,-3.447625068475854,0
STABILIZE,3.9401285648345947,33.34263955355581,-43.2472840357668,18.15109196085575,51.164952986229075,-11.303729256808477,0.0,45.0,4.49461389036999,0.8839405641031304,0.821941282820485,84.25813567681524,0.9452479401141922,-3.2313168726018446,-7.592404655239823,0.40665932180828185,-31.25906960242957,9.049912988238813,62.32946087003116,-13.539555668830872,17.691031098365784,-7.683178037405014,-14.11034294575661,-2.332572780809177,0
STABILIZE,3.973414897918701,30.04752523479644,-43.06237784684542,18.3069650042048,51.4270417607817,-11.474444401279062,0.0,45.0,4.134719982929383,1.2162221168699634,0.7341464047551113,84.28471194287577,0.9350620825590632,-3.208935173569457,-7.910940416478415,0.4054153564442954,-31.25906960242957,9.049912988238813,62.32946087003116,-11.830533295869827,21.5136781334877,-6.608561426401138,-14.11034294575661,-4.11929391862386,0
STABILIZE,4.008534669876099,28.478822363149963,-42.91203472458613,18.45924117885746,51.68731584208166,-11.544387556118961,0.0,45.0,3.791545112289228,1.5673984274802846,0.5462782096525025,84.31897900194173,0.9237171070608413,-3.2089842286316475,-7.341954759363468,0.40420845854041515,-31.25906960242957,9.049912988238813,62.32946087003116,-11.677370220422745,18.374325335025787,-4.448357596993446,-14.11034294575661,1.5015496409092495,0
STABILIZE,4.0498716831207275,24.195022901115635,-42.75696834502766,18.613223321851226,51.90308757027183,-11.614979506889751,0.0,45.0,3.465062114168873,2.03224850923007,0.47352981144184375,84.39964353603958,0.9202075637527105,-3.207655065316284,-7.299363122130547,0.4031239490877941,-31.25906960242957,9.049912988238813,62.32946087003116,-11.415833979845047,18.980637192726135,-7.101839035749435,-14.11034294575661,1.3600972769719315,0
STABILIZE,4.07497239112854,39.84367667594449,-42.7074943884396,18.867231910639898,52.17561729115879,-11.690225481574164,0.0,45.0,3.155215766790562,2.1213540899249987,0.33238539298655834,84.41831727323039,0.8346444874338117,-3.2054282145715507,-7.613414668791696,0.40195919695126353,-31.25906960242957,9.049912988238813,62.32946087003116,-12.503699958324432,16.800135374069214,0.6618908140808344,-14.11034294575661,0.32434775443733427,0
STABILIZE,4.108598470687866,29.74514921139226,-42.46593182429778,18.759278769148498,52.524910765775154,-11.873040350541526,0.0,45.0,2.861922160374448,1.7822358379641003,0.32505582627476776,84.50159776978035,0.9753854169199857,-3.169219651460936,-8.211765663459541,0.4006740227891986,-31.25906960242957,9.049912988238813,62.32946087003116,-12.576641142368317,14.440838992595673,-3.6740660667419434,-14.11034294575661,-4.81927945241027,0
STABILIZE,4.141939163208008,30.00110153427989,-42.333807568939385,18.838346119523564,52.75603834245913,-12.114266457435303,0.0,45.0,2.585068066632644,1.6277576629493336,0.06172079099140866,84.57670252989381,0.8979059646348708,-3.182869150383408,-8.722333591600686,0.39965805944834704,-31.25906960242957,9.049912988238813,62.32946087003116,-13.29742968082428,17.11684763431549,-6.223528832197189,-14.11034294575661,-9.199706444042526,0
STABILIZE,4.179753065109253,26.446634509284657,-42.1940738889739,18.938632474200084,52.920709090985774,-12.291512835166353,0.0,45.0,2.3245103082634984,1.3962853267419517,-0.02077744879539201,84.65197804473652,0.8811097736518935,-3.1772317204680114,-8.30748819347014,0.39880760243455543,-31.25906960242957,9.049912988238813,62.32946087003116,-13.02153617143631,19.615744054317474,-10.576564818620682,-14.11034294575661,-5.38212247162564,0
STABILIZE,4.208431720733643,34.876386556019355,-42.07531370814198,19.12813348472399,53.08651322945322,-12.682152409921757,0.0,45.0,2.0800751284463814,1.0908228319162911,-0.12305639666622563,84.78460665803983,0.8123414732804884,-3.1591950689785295,-10.0,0.39798712379798634,-31.25906960242957,9.049912988238813,62.32946087003116,-11.279543489217758,20.77162116765976,-8.309166133403778,-14.11034294575661,-18.22912602679288,0
STABILIZE,4.242171764373779,29.648429326773545,-41.871156369790924,19.091975119235343,53.22331359920091,-12.723831796736475,0.0,45.0,1.851557560336417,1.0621531128751627,-0.04382238699309603,84.87004549436752,0.8945561554152855,-3.14466856848885,-7.881584588600795,0.39725648792227103,-31.25906960242957,9.049912988238813,62.32946087003116,-11.146001517772675,16.150982677936554,-13.53825330734253,-14.11034294575661,2.2922710361681053,0
STABILIZE,4.278489589691162,27.537219165670916,-41.701791822607845,19.047500541793145,53.307481901214715,-12.880877538638504,0.0,45.0,1.6387207965578483,1.4406170964367426,0.017787044900909647,84.9416395372476,0.8894947797951717,-3.1501767496382724,-8.591091289034802,0.39666247779068625,-31.25906960242957,9.049912988238813,62.32946087003116,-10.262724757194519,10.988541692495346,-14.5157590508461,-14.11034294575661,-4.625689266330483,0
STABILIZE,4.313122510910034,28.880424154788955,-41.52368920659731,19.053373833951404,53.18954848984433,-13.054901373358707,0.0,45.0,1.4412955586997356,1.9537047488695085,0.009794691372996624,84.96564082199102,0.8701123030990271,-3.1319159714698896,-8.853706726264383,0.3965034941377108,-31.25906960242957,9.049912988238813,62.32946087003116,-9.019692987203598,13.701856136322021,-26.38372778892517,-14.11034294575661,-5.697412541449891,0
STABILIZE,4.351704359054565,25.921967800747815,-41.338608764099625,19.039491320069775,53.072367035658566,-13.223831307465828,0.0,45.0,1.2589794668098335,2.3977618137950714,-0.23386351606669453,84.88782447677707,0.8686880088908011,-3.127937788172837,-8.799996765877887,0.39637322486230253,-31.25906960242957,9.049912988238813,62.32946087003116,-9.019692987203598,13.701856136322021,-26.38372778892517,-14.11034294575661,-5.697412541449891,0
