Mode,Time,Freq,time2delay,actualDelay,North-Desired,East-Desired,Down-Desired,Roll-UAV,Pitch-UAV,Yaw-UAV,Roll-Control,Pitch-Control,Yaw-Control,Thrust-Control,North-Pos,East-Pos,Down-Pos,Yaw-Ang,North-Vel,East-Vel,Down-Vel,Yaw-Vel,North-Acc,East-Acc,Down-Acc,North-Avg,East-Avg,Down-Avg,Yaw-Avg,North-Dif,East-Dif,Down-Dif,Yaw-Dif,North-One,East-One,Down-One,Yaw-One,North-Two,East-Two,Down-Two,Yaw-Two,Landing-State,Q-Size,Kalman-Time,Kalman-Dt
STABILIZE,0.03437447547912598,29.099628128989288,0.032772334416707356,0.032997846603393555,-10.0,40.0,10.0,0.014526958590970869,-1.345760176295546,90.68795964824936,4.000416195345605,3.9995837613452463,-0.0011963208191276642,0.518755752474688,0.029559156187471264,0.038270305825472875,0.6345242364800732,-0.005961869378726916,-0.24890652857720852,-0.009704551484901458,1.0658667422831059,-0.019551583251826783,-5.672911927103996,0.625522481277585,14.33069258928299,0.0,0.0,0.0,0.0,0.0,0.0,0.0,0.0,0.0,0.0,0.0,0.0,0.0,0.0,0.0,0.0,False,0,3.4998037815093994,0.0349208984375
STABILIZE,0.06828498840332031,29.488757962231254,0.03238561948140462,0.03303837776184082,-10.0,40.0,10.0,0.014734745752127352,-1.3455353136614645,90.68895002567902,4.000515702086306,3.99948423141796,-0.0014864407421809542,0.5187751897789115,0.034375653931035234,0.03806031200371995,0.6375321712058943,-0.007387364518931332,0.3452954115346074,0.08348221890628338,1.4207002706825733,-0.08286580935183181,4.153585806488991,0.9213615208864212,23.287129402160645,0.0,0.0,0.0,0.0,0.0,0.0,0.0,0.0,0.0,0.0,0.0,0.0,0.0,0.0,0.0,0.0,False,1,3.5284392833709717,0.02993212890625
STABILIZE,0.10502171516418457,27.22124583014239,0.032486947377522786,0.03592658042907715,-10.0,40.0,10.0,0.014683732776763818,-1.3459785289055748,90.69069855410653,4.001138103728447,3.9988615723593544,-0.003281838779603545,0.5188270873732742,0.023648095231295834,0.034396004517725155,0.625359654479956,-0.016304455142318458,-0.24212689604610205,-0.012427101319190115,0.9631465189158916,-0.2643654600331054,-1.9312189891934395,0.5607268307358027,12.005604803562164,0.0,0.0,0.0,0.0,0.0,0.0,0.0,0.0,0.0,0.0,0.0,0.0,0.0,0.0,0.0,0.0,False,0,3.5863115787506104,0.0349208984375
STABILIZE,0.13852763175964355,29.84611224569668,0.03251794179280599,0.03264951705932617,-10.0,40.0,10.0,0.014491100097828303,-1.3446216691382695,90.6972896866556,4.00108473585861,3.9989149698986135,-0.003139311353447407,0.5188532576434937,0.028036343580341898,0.03328905466574408,0.6248265063658848,-0.015539804195391232,0.3224094398319721,0.02402283134870231,1.1853046715259552,0.04246245897674947,7.8642383217811584,-1.1491875164210796,17.039385437965393,0.0,0.0,0.0,0.0,0.0,0.0,0.0,0.0,0.0,0.0,0.0,0.0,0.0,0.0,0.0,0.0,False,0,3.614821434020996,0.02993310546875
STABILIZE,0.1719515323638916,29.917643282570705,0.03245356877644857,0.03257012367248535,-10.0,40.0,10.0,0.014963983976145904,-1.3440893412698316,90.69679791303535,4.000950927195034,3.7290345897779775,-0.0029628755768414546,0.5188901847734538,0.027901872888119267,0.03240134277483892,0.6189081798852288,-0.014608784864515374,0.060040439711883664,0.03699029330164194,1.0337361134588718,0.038436742811901306,0.5330420099198818,2.9141079634428024,20.68544179201126,0.0,0.0,0.0,0.0,0.0,0.0,0.0,0.0,0.0,0.0,0.0,0.0,0.0,0.0,0.0,0.0,False,0,3.643230676651001,0.0349208984375
STABILIZE,0.20548391342163086,29.822556562051165,0.0324735959370931,0.032654523849487305,-10.0,40.0,10.0,0.014060584736705937,-1.3452784345156485,90.70180444169698,4.000534390226176,1.730804777032945,-0.0035897432913259346,0.5189208919038761,0.023193786828178204,0.03237618382317786,0.6161241592870177,-0.017683905199423637,-0.21696260664612055,0.08211711538024247,1.026349700987339,-0.1888052783804361,3.638065606355667,0.7192970253527164,13.317856192588806,0.0,0.0,0.0,0.0,0.0,0.0,0.0,0.0,0.0,0.0,0.0,0.0,0.0,0.0,0.0,0.0,False,0,3.6719186305999756,0.0349208984375
STABILIZE,0.23893499374389648,29.894826873458683,0.032442363103230794,0.03256583213806152,-10.0,40.0,10.0,0.014209034629447932,-1.3450670188164955,90.70446821547328,4.000377697871398,1.7349326854222864,-0.0025553591602575343,0.5189472037322921,0.024737348769482366,0.03288509089756929,0.615527491253138,-0.012470262142540763,0.15260506188496947,0.11086339363828301,1.1530143208801746,0.29857721057503817,5.638366192579269,0.9146074764430523,17.96451508998871,0.0,0.0,0.0,0.0,0.0,0.0,0.0,0.0,0.0,0.0,0.0,0.0,0.0,0.0,0.0,0.0,False,1,3.700659990310669,0.029916259765625
STABILIZE,0.2742655277252197,28.303174260418917,0.032396586736043294,0.03443193435668945,-10.0,40.0,10.0,0.014454281109333703,-1.3464606975722955,90.70448870604079,4.0004098920538995,1.7444680504955354,-0.002762619732672709,0.5189793320173263,0.024121009344532224,0.028569992385648606,0.6127389370604261,-0.01345898033614655,0.0543320260476321,-0.12905604671686888,1.3174446299672127,-0.06631964273694287,-2.4343738332390785,-4.931868985295296,22.11032807826996,0.0,0.0,0.0,0.0,0.0,0.0,0.0,0.0,0.0,0.0,0.0,0.0,0.0,0.0,0.0,0.0,False,0,3.7581570148468018,0.034921142578125
STABILIZE,0.3078277111053467,29.796709385922536,0.03244021733601888,0.03256654739379883,-10.0,40.0,10.0,0.015854363167480536,-1.3447832458008226,90.70779451759908,4.000314958033869,1.7469349347687275,-0.002143309088505669,0.5190044675600591,0.02305421083367261,0.027662881476139784,0.6127506005595825,-0.010327827461215872,-0.007329104118980467,0.022095307940617204,1.1615067720413208,0.17102737652816394,-1.5347694046795368,0.5828563589602709,10.844626277685165,0.0,0.0,0.0,0.0,0.0,0.0,0.0,0.0,0.0,0.0,0.0,0.0,0.0,0.0,0.0,0.0,False,0,3.786750078201294,0.029931884765625
STABILIZE,0.34124135971069336,29.92789000121301,0.032340081532796223,0.03247880935668945,-10.0,40.0,10.0,0.015636224000863255,-1.3454073543362324,90.71394851804126,4.000217945886886,1.7515331346077783,-0.0015081845625526547,0.5190352235091282,0.021956160089721857,0.026769218095640757,0.6099226272012478,-0.0071283868001464495,-0.007329104118980467,0.022095307940617204,1.1615067720413208,0.17102737652816394,-1.5347694046795368,0.5828563589602709,10.844626277685165,0.0,0.0,0.0,0.0,0.0,0.0,0.0,0.0,0.0,0.0,0.0,0.0,0.0,0.0,0.0,0.0,False,0,3.8154385089874268,0.029931884765625
STABILIZE,0.37468719482421875,29.897597103122838,0.032380135854085286,0.03253579139709473,-10.0,40.0,10.0,0.015279773503553213,-1.34581193632285,90.72081285815712,4.000159059960334,1.7572405175068144,-0.0011231194506686624,0.5190716604878262,0.019319095999420076,0.02619283147148052,0.6042850605138831,-0.005185702019933035,-0.1029307721182704,0.03849054628517479,0.9725014679133892,0.09831310258292884,4.112161323428154,4.665127396583557,16.708676517009735,0.0,0.0,0.0,0.0,0.0,0.0,0.0,0.0,0.0,0.0,0.0,0.0,0.0,0.0,0.0,0.0,False,0,3.844135046005249,0.034922119140625
STABILIZE,0.4081416130065918,29.890992018244013,0.0324130376180013,0.03253054618835449,-10.0,40.0,10.0,0.01511093976500696,-1.3461896244396105,90.72215840542361,4.000136008750268,1.762786565271706,-0.0009729947888747774,0.5190970429288224,0.021177166412374486,0.029746245054604062,0.6041594291093144,-0.004420299918150259,0.16576375346630812,0.2834618091583252,1.116504892706871,0.02697324412560016,1.303209736943245,-1.2438882142305374,13.907545804977417,0.0,0.0,0.0,0.0,0.0,0.0,0.0,0.0,0.0,0.0,0.0,0.0,0.0,0.0,0.0,0.0,False,0,3.8727047443389893,0.0349208984375
STABILIZE,0.4423975944519043,29.19238853547516,0.032402785619099934,0.03338932991027832,-10.0,40.0,10.0,0.01642905955311364,-1.3436668300366428,90.73339406660828,4.0001742107421725,1.7695847375389149,-0.0012208017781683163,0.5191148554960067,0.0234493141901182,0.03683351487369803,0.6081424797029438,-0.00563998415565875,0.06919786101207137,0.2676029922440648,1.3724368065595627,-0.13575338482794877,0.2208293415606022,4.835931211709976,20.121505856513977,0.0,0.0,0.0,0.0,0.0,0.0,0.0,0.0,0.0,0.0,0.0,0.0,0.0,0.0,0.0,0.0,False,0,3.9301748275756836,0.06485302734375
STABILIZE,0.47585296630859375,29.890352971358936,0.032456429799397786,0.032590389251708984,-10.0,40.0,10.0,0.016674732919822535,-1.3432165711599509,90.73690478384167,4.000245913316927,1.7742383975769034,-0.0016861327595812058,0.5190982968726529,0.022332751650192405,0.04000386878804469,0.6289601114851707,-0.007940079773932419,-0.045061143464408815,0.16611850587651134,1.3318048790097237,-0.1405670540270078,-1.318668294698,0.8824109099805355,18.786969780921936,0.0,0.0,0.0,0.0,0.0,0.0,0.0,0.0,0.0,0.0,0.0,0.0,0.0,0.0,0.0,0.0,False,0,3.9588277339935303,0.0349208984375
STABILIZE,0.5094320774078369,29.782956635352093,0.03246119817097982,0.032596588134765625,-10.0,40.0,10.0,0.016894152746909197,-1.3433768671620345,90.7366247460857,4.000317782742483,1.778509732318794,-0.0021520681314428627,0.5191197203925366,0.02059952226703585,0.041769487512637066,0.6307878895297695,-0.010235509208000626,-0.045061143464408815,0.16611850587651134,1.3318048790097237,-0.1405670540270078,-1.318668294698,0.8824109099805355,18.786969780921936,0.0,0.0,0.0,0.0,0.0,0.0,0.0,0.0,0.0,0.0,0.0,0.0,0.0,0.0,0.0,0.0,False,0,3.9926114082336426,0.0349208984375
STABILIZE,0.5427911281585693,29.975800976251225,0.032315762837727864,0.03245401382446289,-10.0,40.0,10.0,0.015877841942752453,-1.3495032266824187,90.73667255740989,4.000229565360338,1.7824550669608354,-0.001585533255430435,0.5191505230719136,0.01668015931300354,0.04032810094532826,0.6279274136095907,-0.007378152878120782,-0.16641925321891904,-0.010779131844174117,1.0641993954777718,0.14450223016471364,-3.019094467163086,-1.2016807682812214,13.657592236995697,0.0,0.0,0.0,0.0,0.0,0.0,0.0,0.0,0.0,0.0,0.0,0.0,0.0,0.0,0.0,0.0,False,0,4.020922422409058,0.034921142578125
STABILIZE,0.5762498378753662,29.88694518273609,0.032425912221272786,0.03254580497741699,-10.0,40.0,10.0,0.014114052311302442,-1.3513385198567422,90.7412692747213,4.000163218594302,1.783837131040091,-0.0011617980225722706,0.5191763643113902,0.012206851423319339,0.03834474186064869,0.6275447731120686,-0.005241945713428944,-0.19759086426347494,-0.039298838237300515,1.195927057415247,0.10333259793180063,2.1549656987190247,-2.9564423486590385,19.40249800682068,0.0,0.0,0.0,0.0,0.0,0.0,0.0,0.0,0.0,0.0,0.0,0.0,0.0,0.0,0.0,0.0,False,0,4.050446271896362,0.029931884765625
STABILIZE,0.6118161678314209,28.116668342550696,0.032416613896687825,0.03459429740905762,-10.0,40.0,10.0,0.026114587961309065,-1.3251764407363604,90.76043478553237,4.00030635078774,1.784543205742478,-0.002087199005027151,0.5192054726163745,0.006975534708594027,0.044258950624941784,0.6263093254750504,-0.009834018709003531,-0.24903230369091034,0.4141350742429495,1.3101526536047459,-0.2726547750449886,1.1065879836678505,8.723259717226028,24.79841411113739,0.0,0.0,0.0,0.0,0.0,0.0,0.0,0.0,0.0,0.0,0.0,0.0,0.0,0.0,0.0,0.0,False,0,4.07916259765625,0.034922119140625
STABILIZE,0.6451892852783203,29.964236981789867,0.03234389623006185,0.03246307373046875,-10.0,40.0,10.0,0.018002671104861107,-1.328575847230617,90.76091289877427,4.0004508433160835,1.786339660498889,-0.003021345193776593,0.5192262364247326,0.0016928825895696584,0.050416995693986326,0.6284526567664762,-0.014456446424664787,-0.24903230369091034,0.4141350742429495,1.3101526536047459,-0.2726547750449886,1.1065879836678505,8.723259717226028,24.79841411113739,0.0,0.0,0.0,0.0,0.0,0.0,0.0,0.0,0.0,0.0,0.0,0.0,0.0,0.0,0.0,0.0,False,0,4.107825756072998,0.034922119140625
STABILIZE,0.6785938739776611,29.935365992919948,0.0323973019917806,0.03252911567687988,-10.0,40.0,10.0,0.013075863557460505,-1.3481589600763955,90.74807897332381,4.000495201613552,1.7891134490381517,-0.003311415650143325,0.5192716857716031,-0.0028936845954934984,0.05963909716517159,0.6182808605379166,-0.01585376727619161,-0.09530617389827967,0.007469179399777204,0.3298428375273943,0.20289775956695746,12.58079707622528,-33.19780230522156,-22.07339257001877,0.0,0.0,0.0,0.0,0.0,0.0,0.0,0.0,0.0,0.0,0.0,0.0,0.0,0.0,0.0,0.0,False,0,4.165160894393921,0.0349208984375
STABILIZE,0.7124049663543701,29.57984710429067,0.032470019658406575,0.03279471397399902,-10.0,40.0,10.0,0.016773450497670376,-1.344072479240318,90.74476633157636,3.9998783509838343,1.7964945395470202,0.0006379603101623191,0.5193028664340815,-0.004313241363477062,0.05754012089267438,0.6153217397424207,0.003880056720010898,-0.04298021085560322,-0.048281525960192084,1.0034525766968727,1.1089038367531958,4.474711790680885,-4.619636759161949,39.5878404378891,0.0,0.0,0.0,0.0,0.0,0.0,0.0,0.0,0.0,0.0,0.0,0.0,0.0,0.0,0.0,0.0,False,0,4.193813800811768,0.034921142578125
STABILIZE,0.7458980083465576,29.85545993579477,0.03227690060933431,0.032440185546875,-10.0,40.0,10.0,0.00048622409154028273,-1.351337132474567,90.78359595700788,4.000030539594663,1.8057574451082972,-0.00033249752445637233,0.5193060660810438,-0.0005484184948447643,0.08002638607173163,0.6262766995842023,-0.000968987895748263,0.2477089175954461,1.3580049388110638,1.79641954600811,-0.29898971664830987,13.234257698059082,41.1559522151947,-2.8807561844587326,0.0,0.0,0.0,0.0,0.0,0.0,0.0,0.0,0.0,0.0,0.0,0.0,0.0,0.0,0.0,0.0,False,0,4.222644090652466,0.029931884765625
STABILIZE,0.7793538570404053,29.888010033206495,0.03227117856343587,0.032440900802612305,-10.0,40.0,10.0,0.008204017688537346,-1.357475764991116,90.71894138632454,4.000187152314951,1.8153549233172717,-0.0013238933075144022,0.5193155408392396,0.0034038871869024492,0.10148950996506349,0.6340878399398513,-0.005906183937047118,0.2477089175954461,1.3580049388110638,1.79641954600811,-0.29898971664830987,13.234257698059082,41.1559522151947,-2.8807561844587326,0.0,0.0,0.0,0.0,0.0,0.0,0.0,0.0,0.0,0.0,0.0,0.0,0.0,0.0,0.0,0.0,False,0,4.2512242794036865,0.029931884765625
STABILIZE,0.8128175735473633,29.886306308874037,0.032325061162312825,0.03245091438293457,-10.0,40.0,10.0,0.01320745142068903,-1.3486447572811127,90.71747289565299,4.000253678929954,1.825855157697878,-0.0017398380782656466,0.5193737372143078,0.00817544215981013,0.10088887920629894,0.617537975958746,-0.007959295422440255,0.29944577254354954,0.09638381889089942,0.36677001044154167,-0.13578629513396911,4.774132743477821,-37.73522973060608,-4.569230228662491,0.0,0.0,0.0,0.0,0.0,0.0,0.0,0.0,0.0,0.0,0.0,0.0,0.0,0.0,0.0,0.0,False,0,4.279938220977783,0.034921142578125
STABILIZE,0.8461503982543945,29.997024831216386,0.03228000005086263,0.032396554946899414,-10.0,40.0,10.0,0.0005597553468237013,-1.3659645161906784,90.7412692747213,3.9991544487964292,1.825706844973312,0.005179625412684035,0.5194054338420631,-0.006882882416247592,0.07492310279299874,0.6142452537026863,0.026549232868630084,-0.8593996055424213,-1.440686546266079,0.9455311112105846,2.0030451816600343,-1.2993878684937954,-33.99696946144104,15.483687818050385,0.0,0.0,0.0,0.0,0.0,0.0,0.0,0.0,0.0,0.0,0.0,0.0,0.0,0.0,0.0,0.0,False,0,4.308525085449219,0.0349208984375
STABILIZE,0.8796653747558594,29.836345917184175,0.032416613896687825,0.03254437446594238,-10.0,40.0,10.0,-0.09729636489194898,-1.4542380944673348,90.70479606455345,3.998590807745649,1.8273402655395548,0.008743795990998608,0.5194732168853826,-0.015030686176694273,0.05695131376226428,0.59293675210139,0.04422220515182574,0.43603931553661823,0.6068979855626822,0.10100076906383038,-1.0284305479521056,2.446475438773632,7.285814732313156,-35.19039750099182,0.0,0.0,0.0,0.0,0.0,0.0,0.0,0.0,0.0,0.0,0.0,0.0,0.0,0.0,0.0,0.0,False,0,4.366865634918213,0.06485400390625
STABILIZE,0.913158655166626,29.860348559061396,0.03234985669453939,0.03248119354248047,-10.0,40.0,10.0,-0.1929333139807022,-1.5000371808949147,90.7097479517017,3.9990715691067713,1.833471104112167,0.005724655779254361,0.5195065461924849,-0.00889593154034085,0.06768838203263819,0.5888630806536518,0.029029409348677346,0.43603931553661823,0.6068979855626822,0.10100076906383038,-1.0284305479521056,2.446475438773632,7.285814732313156,-35.19039750099182,0.0,0.0,0.0,0.0,0.0,0.0,0.0,0.0,0.0,0.0,0.0,0.0,0.0,0.0,0.0,0.0,False,0,4.395402908325195,0.06485400390625
STABILIZE,0.9465687274932861,29.930879949762012,0.03228286107381185,0.03240203857421875,-10.0,40.0,10.0,-0.18083678215634516,-1.5148118405650044,90.75127550185537,3.9982023849363597,1.8342579082505472,0.011198615165668594,0.5195076784770422,-0.0154156502644337,0.02419469787982166,0.6008650508471546,0.05621129805303507,-0.29316553846001625,-2.1746017038822174,1.1575116775929928,1.3152396894327556,-32.48302638530731,-54.66335415840149,34.93145406246185,0.0,0.0,0.0,0.0,0.0,0.0,0.0,0.0,0.0,0.0,0.0,0.0,0.0,0.0,0.0,0.0,False,0,4.424140691757202,0.0349208984375
STABILIZE,0.9799902439117432,29.920631183969295,0.032326730092366536,0.03244328498840332,-10.0,40.0,10.0,-0.22547969898434186,-1.5628558180736971,90.7621355026357,3.9980782652295774,1.8468007144325074,0.011933857488544941,0.5195758951744466,-0.0006604730241048275,0.027051374934357022,0.5793601285415636,0.059687875736261935,0.731207337230444,0.26941171381622553,0.2199126873165369,0.22661660531603164,41.10163450241089,45.6440806388855,17.522257566452026,0.0,0.0,0.0,0.0,0.0,0.0,0.0,0.0,0.0,0.0,0.0,0.0,0.0,0.0,0.0,0.0,False,0,4.452836036682129,0.02993212890625
STABILIZE,1.0133991241455078,29.930452777678667,0.03234604199727376,0.03247666358947754,-10.0,40.0,10.0,-0.20470978740942067,-1.5435632017110557,90.80204429795609,4.002012170616913,1.9165271629469744,-0.012061772458645183,0.519624809908732,0.10084352571147903,0.024996945940156556,0.5675209474117111,-0.06008931459529379,5.2191223949193954,-0.0016502839571330696,0.7793789263814688,-6.074320309097766,78.73773574829102,24.49013888835907,-73.75928163528442,0.0,0.0,0.0,0.0,0.0,0.0,0.0,0.0,0.0,0.0,0.0,0.0,0.0,0.0,0.0,0.0,False,0,4.48171067237854,0.0349208984375
STABILIZE,1.0468523502349854,29.892057157110788,0.032384665807088216,0.03256058692932129,-10.0,40.0,10.0,-0.21941353050601853,-1.5643773494330233,90.78611629681161,3.9998729774538333,1.9458535508019488,0.0007066838950873405,0.519618393141565,0.125367745459514,0.002926472329919414,0.5833465524405449,0.00374043779331798,1.2733887881040573,-1.0318142361938953,2.0668622106313705,3.3556264757806016,-69.52217221260071,34.19364392757416,44.444990158081055,0.0,0.0,0.0,0.0,0.0,0.0,0.0,0.0,0.0,0.0,0.0,0.0,0.0,0.0,0.0,0.0,False,0,4.510284662246704,0.0349208984375
STABILIZE,1.080810308456421,29.44921186589433,0.032442601521809895,0.03255653381347656,-10.0,40.0,10.0,-0.20118642365389902,-1.5477056047209625,90.74964991683292,4.005493597317484,1.8756318808336059,-0.03361206820700346,0.5196611996830783,0.032295795840136955,0.04068199959094933,0.5745465860568828,-0.16729407689671466,-2.3958081379532814,1.0905159637331963,1.0548134334385395,-4.52400781326968,-81.68367743492126,45.2729731798172,11.21760904788971,0.0,0.0,0.0,0.0,0.0,0.0,0.0,0.0,0.0,0.0,0.0,0.0,0.0,0.0,0.0,0.0,False,0,4.567697763442993,0.02993310546875
STABILIZE,1.1137001514434814,30.40298063889473,0.031911643346150716,0.032018423080444336,-10.0,40.0,10.0,-0.25711473398146084,-1.591526817775295,90.84872864093312,4.00373402306047,1.903806635831664,-0.022657432346512435,0.5196958836798766,0.057202490389522076,0.03657267915488583,0.569811256108475,-0.11214609369064722,1.4137574471533298,-0.12454971438273787,1.0659915395081043,2.8676320845848164,27.26363241672516,4.317206889390945,6.567557156085968,0.0,0.0,0.0,0.0,0.0,0.0,0.0,0.0,0.0,0.0,0.0,0.0,0.0,0.0,0.0,0.0,False,0,4.596338510513306,0.0349208984375
STABILIZE,1.1472041606903076,29.848023796985526,0.03245738347371419,0.0325922966003418,-10.0,40.0,10.0,-0.24020222510115724,-1.5778230037010166,90.86732724604306,4.003699032851965,1.9151581309597245,-0.022390442367335967,0.5197313868807729,0.0776200805789602,0.015653458065456923,0.5646914348702277,-0.11044150228731585,1.1589831672608852,-1.053962204605341,0.8842357434332371,0.08804487366116671,5.987792834639549,-34.51118469238281,21.787811815738678,0.0,0.0,0.0,0.0,0.0,0.0,0.0,0.0,0.0,0.0,0.0,0.0,0.0,0.0,0.0,0.0,False,0,4.625171899795532,0.034921142578125
STABILIZE,1.180682897567749,29.868854326895686,0.03240993817647298,0.03254532814025879,-10.0,40.0,10.0,-0.2499808148367941,-1.5897065723614867,90.82418777124526,4.004842999804296,1.8762255512858597,-0.029898752679443804,0.5197575564488219,0.0886579572844128,0.020920530492758407,0.564237687725519,-0.1474894676268061,0.6551370956003666,0.3774671582505107,1.1300268582999706,-2.0619602590064487,4.378534108400345,38.0986362695694,22.967469692230225,0.0,0.0,0.0,0.0,0.0,0.0,0.0,0.0,0.0,0.0,0.0,0.0,0.0,0.0,0.0,0.0,False,0,4.653667449951172,0.034921142578125
STABILIZE,1.21415114402771,29.879493353470014,0.032383235295613606,0.03259849548339844,-10.0,40.0,10.0,-0.22748377253635882,-1.565195904916367,90.81685897826584,4.00621773410033,1.8743598930101675,-0.03840700929311025,0.5197842305348469,0.10055199609370735,0.011785585991399493,0.5635485328827158,-0.1893961209917942,0.7149798795580864,-0.4219484981149435,1.1076297610998154,-2.356164254202401,-3.2745465636253357,-24.78659451007843,19.751881062984467,0.0,0.0,0.0,0.0,0.0,0.0,0.0,0.0,0.0,0.0,0.0,0.0,0.0,0.0,0.0,0.0,False,0,4.682512998580933,0.029931640625
STABILIZE,1.2476181983947754,29.87970621130844,0.03245404561360677,0.032570600509643555,-10.0,40.0,10.0,-0.2506240265575389,-1.5855740944702175,90.80631316618734,4.004595918362857,1.9155576463393933,-0.0280444142455119,0.5198286744015523,0.08194890528049145,-0.00013380157042965253,0.5539646319455513,-0.13712449201508234,-0.9102559648454189,-0.603766180574894,0.7403170689940453,2.7268497195163945,-9.243439137935638,10.718726366758347,23.854680359363556,0.0,0.0,0.0,0.0,0.0,0.0,0.0,0.0,0.0,0.0,0.0,0.0,0.0,0.0,0.0,0.0,False,0,4.711200952529907,0.03492138671875
STABILIZE,1.2864861488342285,25.73018998717878,0.03243544896443685,0.03794741630554199,-10.0,40.0,10.0,-0.24588488912975498,-1.5813885758911748,90.84780656539517,4.004864735354313,1.922875360546579,-0.029646673688318283,0.519878249402571,0.10578874394108145,0.024047862464889182,0.5438638768212897,-0.14457442680580954,1.4187584631145,1.4354929327964783,0.5478331819176674,-0.5080675701145124,60.99097728729248,30.27551770210266,10.900897532701492,0.0,0.0,0.0,0.0,0.0,0.0,0.0,0.0,0.0,0.0,0.0,0.0,0.0,0.0,0.0,0.0,False,0,4.748455762863159,0.0349208984375
STABILIZE,1.3199090957641602,29.91657631954351,0.03237512906392415,0.03248095512390137,-10.0,40.0,10.0,-0.24214717482817127,-1.5766721168258693,90.86527135910289,4.004969188750301,1.9139592608534874,-0.030501901047830047,0.519896473371077,0.09968931402421524,0.015591143625011284,0.5473924978192956,-0.1483545915057303,-0.21574962884187698,-0.008123165753204376,1.4659366570413113,-0.6661783385506682,-17.359045147895813,34.137484431266785,4.660416021943092,0.0,0.0,0.0,0.0,0.0,0.0,0.0,0.0,0.0,0.0,0.0,0.0,0.0,0.0,0.0,0.0,False,0,4.8058459758758545,0.03990869140625
STABILIZE,1.353264570236206,29.980943394877734,0.032381804784139,0.03249788284301758,-10.0,40.0,10.0,-0.23756860020673554,-1.5769055171964135,90.7992849015314,4.005541952476994,1.9100467536082013,-0.03408972103777858,0.5199157452143818,0.09586478806876216,0.03406358612518512,0.55038902882172,-0.1657397797845241,-0.16588808503001928,1.1092033237218857,1.1081992648541927,-1.0321943023498998,0.1198883168399334,26.784172654151917,19.233036041259766,0.0,0.0,0.0,0.0,0.0,0.0,0.0,0.0,0.0,0.0,0.0,0.0,0.0,0.0,0.0,0.0,False,0,4.834582567214966,0.02993310546875
STABILIZE,1.3867969512939453,29.821920437982154,0.032479079564412434,0.032610416412353516,-10.0,40.0,10.0,-0.23743898669506397,-1.5722812656849032,90.81282233646637,4.004477763350297,1.9080412518232759,-0.027857842207236777,0.5199367398795343,0.09030910486842349,0.028951341254486243,0.5525381242703918,-0.13413151255307573,-0.15586517984047532,-0.22844502236694098,1.3545197434723377,1.570534231361261,-2.5656310841441154,-19.763940572738647,32.81259834766388,0.0,0.0,0.0,0.0,0.0,0.0,0.0,0.0,0.0,0.0,0.0,0.0,0.0,0.0,0.0,0.0,False,0,4.863246202468872,0.02993212890625
STABILIZE,1.420320987701416,29.829980015219725,0.03239634831746419,0.03262472152709961,-10.0,40.0,10.0,-0.25516636915986185,-1.5860091988646883,90.87338562383687,4.004571745898152,1.9196420700838548,-0.0283461287611301,0.5199631612791111,0.08685321436455745,0.01729134210829933,0.5520068206171931,-0.1361162684243266,-0.04084434185642749,-0.6177270319312811,1.1858263052999973,-0.34557608909943965,1.371622271835804,-22.032424807548523,10.7020765542984,0.0,0.0,0.0,0.0,0.0,0.0,0.0,0.0,0.0,0.0,0.0,0.0,0.0,0.0,0.0,0.0,False,0,4.891963958740234,0.0349208984375
STABILIZE,1.45395827293396,29.728283057382626,0.03241470654805501,0.032549142837524414,-10.0,40.0,10.0,-0.23021920993809603,-1.5631754495825125,90.85956815114594,4.0054044994134586,1.9135146324469317,-0.03350081990511855,0.5199852319301558,0.08746687347172695,0.018388866830584518,0.5536127909661228,-0.1613499219803787,0.1590562635101378,0.12021976290270686,1.1404644697904587,-1.6397016360952759,-32.23177790641785,31.28776252269745,34.507596492767334,0.0,0.0,0.0,0.0,0.0,0.0,0.0,0.0,0.0,0.0,0.0,0.0,0.0,0.0,0.0,0.0,False,0,4.921035051345825,0.0349208984375
STABILIZE,1.4873008728027344,29.992520290321426,0.03224137624104818,0.03236222267150879,-10.0,40.0,10.0,-0.2420665465794534,-1.5739372663935138,90.81269256287213,4.005880226076986,1.9124785763363357,-0.03646863224876111,0.5200276070293622,0.07511201484513237,0.026386866540502697,0.5450712950682054,-0.175601811123441,-0.5912898574024439,0.5186824593693018,0.548434117808938,-1.0012508773670976,-9.633355587720871,-8.736343681812286,0.033261487260460854,0.0,0.0,0.0,0.0,0.0,0.0,0.0,0.0,0.0,0.0,0.0,0.0,0.0,0.0,0.0,0.0,False,0,4.949501037597656,0.02993310546875
STABILIZE,1.5228352546691895,28.144780105484948,0.032343419392903645,0.03246784210205078,-10.0,40.0,10.0,-0.26444923657214386,-1.5840645159419389,90.85109871657511,4.004687218085119,1.9107281467023776,-0.029480704747091465,0.5200775213839114,0.05798762029889965,0.019765785597230114,0.5327802223789014,-0.140193265476171,-0.11151006910949945,-0.8037061430513859,1.0993601754307747,2.568582497059563,26.771730184555054,-19.47501301765442,24.32745099067688,0.0,0.0,0.0,0.0,0.0,0.0,0.0,0.0,0.0,0.0,0.0,0.0,0.0,0.0,0.0,0.0,False,0,5.006852865219116,0.0349208984375
STABILIZE,1.5544242858886719,31.6522579087177,0.030241759618123372,0.030412673950195312,-10.0,40.0,10.0,-0.29223412595063836,-1.60003776708966,90.92362166518231,4.005985340921096,1.9337742300958276,-0.036915903856917405,0.5201018457151222,0.08563980397428786,0.03004483951222063,0.533348313372724,-0.1767749667695844,1.783236302435398,0.6632409058511257,1.048903912305832,-2.3894089193269687,20.393963158130646,29.312944412231445,22.23975509405136,0.0,0.0,0.0,0.0,0.0,0.0,0.0,0.0,0.0,0.0,0.0,0.0,0.0,0.0,0.0,0.0,False,0,5.03568959236145,0.034921142578125
STABILIZE,1.5892536640167236,28.712769890058734,0.032158644994099934,0.03378891944885254,-10.0,40.0,10.0,-0.276272240664583,-1.5815181360419934,90.91682562695814,4.006846002847667,1.931238208084635,-0.04217497789384225,0.5201298886648147,0.07347242486865836,0.022375124892792378,0.5325172417364925,-0.2023654816176616,-0.6004670634865761,-0.4100391175597906,0.963814277201891,-1.7206039461536076,-50.88788866996765,-27.38109827041626,38.42571973800659,0.0,0.0,0.0,0.0,0.0,0.0,0.0,0.0,0.0,0.0,0.0,0.0,0.0,0.0,0.0,0.0,False,0,5.064509630203247,0.029931884765625
STABILIZE,1.624006748199463,28.77560905330031,0.03227046330769857,0.03374218940734863,-10.0,40.0,10.0,-0.2874577426475367,-1.5942553716270094,90.89397864418446,4.005985264458647,1.9408084652514486,-0.03705161140191643,0.5201682057300999,0.07787245045040243,0.02033047036578543,0.5265377477055581,-0.17613606846015065,0.4181555472314358,-0.06855227402411401,0.7997387088835239,1.264657763038874,34.23960506916046,5.344150587916374,4.052447527647018,0.0,0.0,0.0,0.0,0.0,0.0,0.0,0.0,0.0,0.0,0.0,0.0,0.0,0.0,0.0,0.0,False,0,5.093733072280884,0.0349208984375
STABILIZE,1.657498836517334,29.857797773285117,0.03230169614156087,0.03243398666381836,-10.0,40.0,10.0,-0.25818205776098113,-1.5718580073997739,90.90347260713078,4.005177033621322,1.956672382131127,-0.03216298537176884,0.5202001863743837,0.0827284607693243,0.018353337589445403,0.5232304640468907,-0.151187093012771,0.4181555472314358,-0.06855227402411401,0.7997387088835239,1.264657763038874,34.23960506916046,5.344150587916374,4.052447527647018,0.0,0.0,0.0,0.0,0.0,0.0,0.0,0.0,0.0,0.0,0.0,0.0,0.0,0.0,0.0,0.0,False,0,5.122486114501953,0.0349208984375
STABILIZE,1.692824125289917,28.30527530520107,0.03225210507710775,0.03446817398071289,-10.0,40.0,10.0,-0.2845370897254158,-1.5905078389284937,90.961092082969,4.004450606415632,1.9684809683938538,-0.027866439526268095,0.5202170328210425,0.07743999057071323,0.027723017151413468,0.5282564127632337,-0.12924556603653042,-0.18745646812021732,0.6074782460927963,1.2974039651453495,1.0550199407824363,-30.73800504207611,19.369354844093323,11.858782172203064,0.0,0.0,0.0,0.0,0.0,0.0,0.0,0.0,0.0,0.0,0.0,0.0,0.0,0.0,0.0,0.0,False,0,5.156030893325806,0.034921142578125
STABILIZE,1.7263472080230713,29.831465149359886,0.032497437795003255,0.032610177993774414,-10.0,40.0,10.0,-0.24188346549318532,-1.566762899722356,90.92061638194751,4.00419568850395,1.9642063908065288,-0.02652358348676089,0.5202531069224576,0.0825744909737616,0.02469901847596749,0.5229008532921418,-0.12212274875814016,0.43849810026586056,-0.13675978407263756,0.6754680536687374,0.15601237957665448,13.955231010913849,-16.279760003089905,-10.058048367500305,0.0,0.0,0.0,0.0,0.0,0.0,0.0,0.0,0.0,0.0,0.0,0.0,0.0,0.0,0.0,0.0,False,0,5.1916587352752686,0.02993310546875
STABILIZE,1.7598536014556885,29.844200939234383,0.03239897092183431,0.03261518478393555,-10.0,40.0,10.0,-0.21947783033375184,-1.5526472465854668,90.86336573632445,4.002956509149598,1.93295124764178,-0.019657170201505567,0.5201975130633221,0.01413412479574297,0.05620459195181479,0.5633518742782373,-0.0874973579565937,-1.7926821485161781,0.869488250464201,1.6380349174141884,0.742571016209499,-50.1059889793396,-23.38247150182724,11.337804794311523,0.0,0.0,0.0,0.0,0.0,0.0,0.0,0.0,0.0,0.0,0.0,0.0,0.0,0.0,0.0,0.0,False,0,5.248424291610718,0.07479638671875
STABILIZE,1.7998788356781006,24.983494457449535,0.032412322362264,0.03910946846008301,-10.0,40.0,10.0,-0.2831562709351625,-1.592318906275605,90.87886343555122,4.001510852777232,1.9227896986941113,-0.01119051845360354,0.520200506009257,-0.015884307528582768,0.06894818723615045,0.5769432413094354,-0.044984032413674435,-1.0841034352779388,0.45716273598372936,0.7070488762110472,1.7567048042900042,34.85485911369324,6.392347067594528,-7.433803379535675,0.0,0.0,0.0,0.0,0.0,0.0,0.0,0.0,0.0,0.0,0.0,0.0,0.0,0.0,0.0,0.0,False,0,5.276932954788208,0.02494384765625
STABILIZE,1.8333263397216797,29.897383990305794,0.03243616422017415,0.03256416320800781,-10.0,40.0,10.0,-0.30764047139724837,-1.616642277127078,90.99269536825865,4.000574279559663,1.9678794537305997,-0.005547988586176377,0.5202571349452765,0.04642165350351351,0.018359523089069976,0.5612565096825444,-0.01671547557695554,3.156813234090805,-2.4031586945056915,0.6883509457111359,1.2725554894318187,94.03151273727417,-87.34016418457031,-9.834706783294678,0.0,0.0,0.0,0.0,0.0,0.0,0.0,0.0,0.0,0.0,0.0,0.0,0.0,0.0,0.0,0.0,False,0,5.305591344833374,0.034921142578125
STABILIZE,1.8667776584625244,29.89567919713752,0.032433541615804036,0.03256583213806152,-10.0,40.0,10.0,-0.20210289630229722,-1.533281525854365,90.83446037575696,4.002367061405391,1.9657874394211263,-0.016032421219438195,0.5202693702948947,0.03737298118423825,0.023939697942366917,0.5677585919902808,-0.06890715493742613,-0.36766971461474895,0.3722358960658312,1.5008575282990932,-2.8898818526929557,-110.11810302734375,137.75126934051514,30.273732542991638,0.0,0.0,0.0,0.0,0.0,0.0,0.0,0.0,0.0,0.0,0.0,0.0,0.0,0.0,0.0,0.0,False,0,5.334475040435791,0.034921142578125
STABILIZE,1.9002468585968018,29.877790599934464,0.032437833150227864,0.032561540603637695,-10.0,40.0,10.0,-0.21337436261925788,-1.551122620296673,90.74869369034911,4.002728503780796,1.9349584293986615,-0.01844013621960875,0.5203122267322099,-0.01285193251511902,0.06526069054990703,0.5589624393795934,-0.08067587005466534,-2.4809636175632477,2.198612131178379,0.7037393283098936,-0.8132736126811801,-4.6083003282547,-50.921350717544556,-19.947798550128937,0.0,0.0,0.0,0.0,0.0,0.0,0.0,0.0,0.0,0.0,0.0,0.0,0.0,0.0,0.0,0.0,False,0,5.363070487976074,0.0349208984375
STABILIZE,1.9336447715759277,29.942418206868982,0.03241089185078939,0.03252768516540527,-10.0,40.0,10.0,-0.29699823625757515,-1.5968895834908128,91.00983231288622,3.990564029007541,1.9630547931185902,0.05323379336315161,0.5203807862843864,-0.06603811532014872,-0.03995732486113282,0.5373419428500007,0.27676811697596276,-1.3362460769712925,-2.6682768017053604,0.6379589438438416,9.195220717305121,-4.614878818392754,-69.36349868774414,8.491695672273636,0.0,0.0,0.0,0.0,0.0,0.0,0.0,0.0,0.0,0.0,0.0,0.0,0.0,0.0,0.0,0.0,False,0,5.422204971313477,0.02993310546875
STABILIZE,1.967198371887207,29.80242580131735,0.03245142300923665,0.03259611129760742,-10.0,40.0,10.0,-0.32228429025604993,-1.6087276887046202,91.02262525720164,3.9937888441383156,1.9967973276080988,0.03375581560306081,0.5204172387202558,-0.029679838814093737,-0.0017708670135932053,0.5317872213435157,0.1787800659299456,1.941194012761116,2.0705288276076317,0.9351742453873158,-5.136994666276699,77.30045914649963,99.80448484420776,18.700027465820312,0.0,0.0,0.0,0.0,0.0,0.0,0.0,0.0,0.0,0.0,0.0,0.0,0.0,0.0,0.0,0.0,False,0,5.451313018798828,0.0349208984375
STABILIZE,2.0006189346313477,29.92191189584448,0.03235748608907064,0.03248763084411621,-10.0,40.0,10.0,-0.2975679167230365,-1.5955760527360547,90.94586759130904,3.9959976359125564,1.9879412254097446,0.021194960535903938,0.5204738386833603,0.0016844417055534786,-0.01989040151028444,0.5161730305278365,0.11558925331241915,1.7447924241423607,-0.9129283018410206,0.23953858762979507,-3.5288750778516214,-46.907901763916016,-70.05856037139893,-6.937423348426819,0.0,0.0,0.0,0.0,0.0,0.0,0.0,0.0,0.0,0.0,0.0,0.0,0.0,0.0,0.0,0.0,False,0,5.479592561721802,0.0349208984375
STABILIZE,2.034003973007202,29.952895808041134,0.0323820432027181,0.03249788284301758,-10.0,40.0,10.0,-0.2649361009939188,-1.5910421945093416,90.83695339480401,3.998184699201129,2.013252984014068,0.00845338941839248,0.5205300198284438,0.03314904875244858,-0.037799718903018725,0.500784303468058,0.051708542948317684,1.7447924241423607,-0.9129283018410206,0.23953858762979507,-3.5288750778516214,-46.907901763916016,-70.05856037139893,-6.937423348426819,0.0,0.0,0.0,0.0,0.0,0.0,0.0,0.0,0.0,0.0,0.0,0.0,0.0,0.0,0.0,0.0,False,0,5.508218050003052,0.0349208984375
STABILIZE,2.067577600479126,29.787609990980563,0.03244164784749349,0.032578229904174805,-10.0,40.0,10.0,-0.28272970427715405,-1.5993572027718916,90.95456242212246,3.998331364871128,2.011111922137144,0.007659144307297218,0.5205389328533818,-0.01452923934305498,-0.03235203262686004,0.5090376986959011,0.047578031020325096,-2.562606893479824,0.34477654844522476,1.5128851868212223,-0.2570027295512432,-116.28201007843018,69.46501135826111,30.386412143707275,0.0,0.0,0.0,0.0,0.0,0.0,0.0,0.0,0.0,0.0,0.0,0.0,0.0,0.0,0.0,0.0,False,0,5.536911487579346,0.02993212890625
STABILIZE,2.100931406021118,29.979871912168345,0.032317431767781575,0.03244447708129883,-10.0,40.0,10.0,-0.29378580619184774,-1.594566572121068,91.01182672812385,3.9952498903350544,2.0497212770481155,0.024848716768193873,0.5205651457791535,-0.011149461350903198,-0.032585305891122775,0.5086231427144807,0.13308100221043187,0.20268585067242384,-0.015297325444407761,1.1473022401332855,4.76984553140548,18.338754773139954,-55.26036024093628,21.573801338672638,0.0,0.0,0.0,0.0,0.0,0.0,0.0,0.0,0.0,0.0,0.0,0.0,0.0,0.0,0.0,0.0,False,0,5.566826581954956,0.0349208984375
STABILIZE,2.1346275806427,29.67716919854809,0.03242352803548177,0.03280830383300781,-10.0,40.0,10.0,-0.26762298001952545,-1.5717618511428648,90.83760226277516,3.998921185087351,2.0225939856558512,0.004368455892142969,0.5205928285703737,-0.02298627826219265,-0.0011236850274560437,0.507576714895885,0.030576661076050143,-0.6241221912205219,1.7799733206629753,0.9703264571726322,-5.723815918347045,-0.7394737564027309,70.48801183700562,26.721680164337158,0.0,0.0,0.0,0.0,0.0,0.0,0.0,0.0,0.0,0.0,0.0,0.0,0.0,0.0,0.0,0.0,False,1,5.595261335372925,0.06485400390625
STABILIZE,2.1680760383605957,29.896531569418507,0.03242042859395345,0.0325467586517334,-10.0,40.0,10.0,-0.25734760074347596,-1.5701180167087132,90.78462048538339,3.9951977763032445,2.0397977995462497,0.025383988482828433,0.5205937061173832,0.007695813969815479,0.026729745808047774,0.5198248144750321,0.13520198785765697,0.8875558152794838,0.751973781734705,1.0302981361746788,2.6974244107983334,52.0851194858551,-19.26853656768799,24.740296602249146,0.0,0.0,0.0,0.0,0.0,0.0,0.0,0.0,0.0,0.0,0.0,0.0,0.0,0.0,0.0,0.0,False,0,5.65268874168396,0.034921142578125
STABILIZE,2.201589345932007,29.838680762061948,0.032430442174275716,0.03260684013366699,-10.0,40.0,10.0,-0.2932519842195289,-1.5934941256996702,91.08557911078165,3.99161403836943,2.0384901931816573,0.045834435245771084,0.5206274152099425,0.010246738434553275,-0.017040200158526662,0.5156745442853791,0.23666169942514736,0.13472626451402903,-2.283545397222042,0.8616423234343529,5.385824434155787,-26.237112283706665,-67.09702610969543,15.299718081951141,0.0,0.0,0.0,0.0,0.0,0.0,0.0,0.0,0.0,0.0,0.0,0.0,0.0,0.0,0.0,0.0,False,0,5.682955980300903,0.0349208984375
STABILIZE,2.2350568771362305,29.879919072179636,0.03241422971089681,0.03254890441894531,-10.0,40.0,10.0,-0.30225305296769506,-1.5980161378170419,91.04761691937472,3.9952582921092277,2.0375444196698407,0.025320047089029327,0.5206471105586953,-0.023010739340222457,0.02611817284197517,0.5185156757966334,0.1336426331249962,-1.754564791917801,2.2933106869459152,1.218017190694809,-5.350908080231859,-54.99413013458252,101.8757700920105,18.638963997364044,0.0,0.0,0.0,0.0,0.0,0.0,0.0,0.0,0.0,0.0,0.0,0.0,0.0,0.0,0.0,0.0,False,0,5.711761951446533,0.0349208984375
STABILIZE,2.2685959339141846,29.815984588371613,0.03240350087483724,0.03254270553588867,-10.0,40.0,10.0,-0.20716113163036767,-1.5474396542301552,90.82861373382744,3.998734065504523,2.0260389111765478,0.005779978332438957,0.5206748891699261,-0.03546343061560505,0.04756880010422575,0.517325540874845,0.035822356347438106,-0.661106500774622,1.1532259173691273,0.9945578873157501,-5.082820593987919,9.6568763256073,-15.669384598731995,12.936829030513763,0.0,0.0,0.0,0.0,0.0,0.0,0.0,0.0,0.0,0.0,0.0,0.0,0.0,0.0,0.0,0.0,False,0,5.740175247192383,0.02991796875
STABILIZE,2.30206036567688,29.88247363921345,0.03231695493062337,0.032610177993774414,-10.0,40.0,10.0,-0.0820077334868159,-1.4793865308262042,90.86784634041999,3.9956197005666154,2.054569966409404,0.02317925990895932,0.5207001844734871,-0.017146310526266896,0.020638798206602242,0.5174134769530923,0.12240776485762594,0.9608374908566475,-1.408616453409195,1.1848261579871178,4.820086695392801,-4.651150852441788,7.906650751829147,20.67449390888214,0.0,0.0,0.0,0.0,0.0,0.0,0.0,0.0,0.0,0.0,0.0,0.0,0.0,0.0,0.0,0.0,False,0,5.768850088119507,0.034921875
STABILIZE,2.3355541229248047,29.855672451347466,0.032474788029988606,0.03260207176208496,-10.0,40.0,10.0,0.09378500732832774,-1.1666567147236502,90.93952917575928,3.993181922645065,2.0100065552751416,0.037830350663862505,0.5207264776544496,-0.07874290917325445,0.045470839977974506,0.5169569644033299,0.19501081664171988,-3.3682532608509064,1.375672034919262,1.0030392557382584,4.083285161319553,-158.7950348854065,70.01110911369324,11.794374883174896,0.0,0.0,0.0,0.0,0.0,0.0,0.0,0.0,0.0,0.0,0.0,0.0,0.0,0.0,0.0,0.0,False,0,5.797624111175537,0.02993212890625
STABILIZE,2.3690273761749268,29.875662430907745,0.03243568738301595,0.03257346153259277,-10.0,40.0,10.0,0.037363375915791155,-1.3301655737599374,90.98060593342773,4.003237313116563,1.9420208143378703,-0.020305138271832193,0.5202951267241729,-0.15812620689410553,0.15970258930103157,0.7450222563236192,-0.09534751888388046,1.9399991258978844,3.7222858518362045,9.86853614449501,-6.591187617462488,70.64511179924011,77.05699801445007,-113.24065923690796,0.0,0.0,0.0,0.0,0.0,0.0,0.0,0.0,0.0,0.0,0.0,0.0,0.0,0.0,0.0,0.0,False,0,5.854985237121582,0.034921142578125
STABILIZE,2.4042508602142334,28.39053446688688,0.03241756757100423,0.034316062927246094,-10.0,40.0,10.0,0.03796379223251759,-1.323938789114413,90.87158245389598,4.007478051376733,1.9769083152541698,-0.04456940326395343,0.5200035803979425,-0.12258182570197329,0.2256504071669935,0.9036070877132318,-0.21590861131812428,1.9399991258978844,3.7222858518362045,9.86853614449501,-6.591187617462488,70.64511179924011,77.05699801445007,-113.24065923690796,0.0,0.0,0.0,0.0,0.0,0.0,0.0,0.0,0.0,0.0,0.0,0.0,0.0,0.0,0.0,0.0,False,0,5.8837080001831055,0.034921142578125
STABILIZE,2.437670946121216,29.9212715262024,0.032399924596150716,0.032515525817871094,-10.0,40.0,10.0,-0.31698401009926713,-1.567468970527806,90.8557705659674,4.012887442549168,2.0239872961342087,-0.07414030206197622,0.5198843168187216,-0.05102387827379583,0.16533575839254255,0.9753108587318908,-0.36255067987218037,3.9353474974632263,-3.3307917416095734,5.046339333057404,-8.098224888483019,-56.18889331817627,-240.24767875671387,141.20291471481323,0.0,0.0,0.0,0.0,0.0,0.0,0.0,0.0,0.0,0.0,0.0,0.0,0.0,0.0,0.0,0.0,False,0,5.912395477294922,0.034921142578125
STABILIZE,2.4711971282958984,29.826798082803545,0.03243068059285482,0.03256368637084961,-10.0,40.0,10.0,-0.2472763800905864,-1.5189272429833487,90.98895242459348,4.012744237721578,2.0256471710369808,-0.07352122651299971,0.5198774364184258,-0.043170572312760294,0.07805161874647468,0.9908094396511691,-0.3582565280531564,0.3354563843458891,-4.80850450694561,1.961475983262062,0.33182595780485197,-88.04149627685547,26.184910535812378,-112.31628656387329,0.0,0.0,0.0,0.0,0.0,0.0,0.0,0.0,0.0,0.0,0.0,0.0,0.0,0.0,0.0,0.0,False,0,5.940905332565308,0.029932861328125
STABILIZE,2.5045504570007324,29.981372009406922,0.0323520024617513,0.032533884048461914,-10.0,40.0,10.0,-0.1352485778193893,-1.4616384977113377,90.9772659709236,4.015312639997969,2.0699969632375654,-0.08632115672774472,0.519840161646511,-0.021149970268064734,0.11694519048011212,1.0214746943532496,-0.4208467357253698,1.1475236155092716,2.388043887913227,3.407377749681473,-3.8706950965160827,-94.09239292144775,231.60243034362793,123.34152460098267,0.0,0.0,0.0,0.0,0.0,0.0,0.0,0.0,0.0,0.0,0.0,0.0,0.0,0.0,0.0,0.0,False,0,5.969916105270386,0.034921142578125
STABILIZE,2.5379977226257324,29.898449584773854,0.032506736119588216,0.03261542320251465,-10.0,40.0,10.0,-0.09424476443683422,-1.4272738950062995,90.83594935699603,4.011990155742709,2.04411428387159,-0.06920891877774558,0.5201302529320083,-0.1365085466909093,0.13929190367981395,0.8886069339461987,-0.33416895759577325,-4.8653494566679,0.1906741177663207,-5.704936012625694,14.413116412979683,-14.101651310920715,28.962042927742004,-21.76208645105362,0.0,0.0,0.0,0.0,0.0,0.0,0.0,0.0,0.0,0.0,0.0,0.0,0.0,0.0,0.0,0.0,False,0,6.02710747718811,0.02993212890625
STABILIZE,2.5715203285217285,29.830616483172598,0.03250315984090169,0.0326237678527832,-10.0,40.0,10.0,0.06066381921734919,-1.1748163361825825,90.84547064069902,4.002745705509081,1.9983492120124828,-0.018150865728477388,0.520409960305394,-0.2173474012451388,0.13878937997546506,0.761118793899362,-0.07861563956833728,-4.8653494566679,0.1906741177663207,-5.704936012625694,14.413116412979683,-14.101651310920715,28.962042927742004,-21.76208645105362,0.0,0.0,0.0,0.0,0.0,0.0,0.0,0.0,0.0,0.0,0.0,0.0,0.0,0.0,0.0,0.0,False,0,6.056063890457153,0.02993212890625
STABILIZE,2.6061782836914062,28.90868989854433,0.03241852124532064,0.03378105163574219,-10.0,40.0,10.0,-0.012056244380424538,-1.3690862328064914,90.96240347928965,4.006013943827963,1.9768178355065016,-0.037302911666041855,0.5206033044512188,-0.1947722010959917,0.1787527557818645,0.6773741365336376,-0.17377345270876077,1.1145316995680332,2.5772856548428535,-3.3069662749767303,-5.921275833478467,116.22792482376099,58.21062922477722,-172.2079038619995,0.0,0.0,0.0,0.0,0.0,0.0,0.0,0.0,0.0,0.0,0.0,0.0,0.0,0.0,0.0,0.0,False,0,6.084475755691528,0.0349208984375
STABILIZE,2.6397364139556885,29.741352658375053,0.032445700963338216,0.03259778022766113,-10.0,40.0,10.0,0.04772541321693519,-1.3288027375771083,90.92362166518231,4.005784901769359,1.9569705801302166,-0.03643334525032743,0.520369203069486,-0.22772663854322647,0.16556001164546993,0.8067410603609865,-0.16886006495742173,-2.026144601404667,-0.6351072806864977,9.026296436786652,-0.001229434050602295,-26.203039288520813,-53.36396098136902,154.78020906448364,0.0,0.0,0.0,0.0,0.0,0.0,0.0,0.0,0.0,0.0,0.0,0.0,0.0,0.0,0.0,0.0,False,0,6.1131932735443115,0.0349208984375
STABILIZE,2.67872953414917,25.645392846224397,0.032355578740437825,0.038002729415893555,-10.0,40.0,10.0,-0.05236247133313916,-1.3805002259615233,90.87755886941974,4.0019061676208905,1.9802697672725444,-0.013723922561130485,0.5207337767319712,-0.19304140788783672,0.1736056684108914,0.6390464382228135,-0.055098228495723406,1.9311722368001938,0.6423383019864559,-8.508536964654922,6.389137388321994,68.34633946418762,-61.6596519947052,-276.99291706085205,0.0,0.0,0.0,0.0,0.0,0.0,0.0,0.0,0.0,0.0,0.0,0.0,0.0,0.0,0.0,0.0,False,0,6.141844749450684,0.02993310546875
STABILIZE,2.71231746673584,29.773442934821187,0.032335789998372395,0.03258490562438965,-10.0,40.0,10.0,-0.159993125882729,-1.5527418020167891,90.91530932496241,4.000265870859732,2.039482430097487,-0.004202934944737872,0.5206145636315571,-0.1996643406890773,0.13711221239948967,0.7111191184307353,-0.007468233581862271,-2.6201849803328514,1.1584701016545296,-1.277734525501728,12.869444995458965,-30.693206191062927,101.1845350265503,-155.73179721832275,0.0,0.0,0.0,0.0,0.0,0.0,0.0,0.0,0.0,0.0,0.0,0.0,0.0,0.0,0.0,0.0,False,0,6.199120759963989,0.034921142578125
STABILIZE,2.745584726333618,30.05829194705423,0.03231933911641439,0.03242349624633789,-10.0,40.0,10.0,-0.18334463552050345,-1.5407626107079389,90.96736219662708,3.998615032868124,2.1025435237891035,0.004868957256592756,0.5208324115210464,-0.17450172613308296,0.15453609419371803,0.6147436542389214,0.03776499398078889,1.3100615702569485,1.2381644919514656,-4.334091395139694,2.3120262911253096,-8.92098918557167,17.797157168388367,-89.73532915115356,0.0,0.0,0.0,0.0,0.0,0.0,0.0,0.0,0.0,0.0,0.0,0.0,0.0,0.0,0.0,0.0,False,0,6.227867841720581,0.029951416015625
STABILIZE,2.781205654144287,28.07338442488538,0.03249100049336751,0.03470945358276367,-10.0,40.0,10.0,-0.1690354959310325,-1.5026693650463083,90.94443325158333,4.0029573948634845,2.123992463038128,-0.018675281819299946,0.5207024243992048,-0.11836863671814697,0.12018176717694126,0.6929766390886151,-0.07967286086654875,3.066801093518734,-1.7850713804364204,6.1965301632881165,-7.251808209741175,17.325176298618317,17.59118139743805,180.54344654083252,0.0,0.0,0.0,0.0,0.0,0.0,0.0,0.0,0.0,0.0,0.0,0.0,0.0,0.0,0.0,0.0,False,0,6.256595611572266,0.034921875
STABILIZE,2.8147175312042236,29.840379060601318,0.032401116689046223,0.03254103660583496,-10.0,40.0,10.0,-0.06999054925070738,-1.4272386768433916,90.92229660848332,3.999649202011612,2.098595227670626,-0.000818500137198186,0.5206996940288842,-0.19903258845951377,0.12699137326056673,0.7067777979213223,0.009579001551592387,-5.057374015450478,0.6304503884166479,2.1532686427235603,5.071651954034479,22.175000607967377,26.76694095134735,0.8220769464969635,0.0,0.0,0.0,0.0,0.0,0.0,0.0,0.0,0.0,0.0,0.0,0.0,0.0,0.0,0.0,0.0,False,0,6.2852184772491455,0.034921142578125
STABILIZE,2.84816312789917,29.899515255203877,0.0323517640431722,0.03247332572937012,-10.0,40.0,10.0,0.029833305799263663,-1.3456720241665705,90.91662072128305,4.001497338089915,2.0888539988410404,-0.010970299248524305,0.5207378392230888,-0.19422818623865648,0.13441836599720947,0.7001433121396591,-0.0410427622007494,0.08260925533249974,0.6626468151807785,0.9250655770301819,-3.2935859465586717,6.833028793334961,-58.15027356147766,104.9537181854248,0.0,0.0,0.0,0.0,0.0,0.0,0.0,0.0,0.0,0.0,0.0,0.0,0.0,0.0,0.0,0.0,False,0,6.314044713973999,0.029931884765625
STABILIZE,2.8818721771240234,29.664575538754235,0.032344849904378255,0.03276801109313965,-10.0,40.0,10.0,0.02851646667162636,-1.359827484499716,90.949200723624,4.0033953390419885,2.097663078816898,-0.021343799504143925,0.5207826586673362,-0.18757474120580608,0.14102105252033975,0.6902968274734709,-0.09259786657309882,0.08260925533249974,0.6626468151807785,0.9250655770301819,-3.2935859465586717,6.833028793334961,-58.15027356147766,104.9537181854248,0.0,0.0,0.0,0.0,0.0,0.0,0.0,0.0,0.0,0.0,0.0,0.0,0.0,0.0,0.0,0.0,False,1,6.342580795288086,0.029931884765625
STABILIZE,2.9157285690307617,29.536728097293718,0.03236559232076009,0.03293943405151367,-10.0,40.0,10.0,0.027698551518517335,-1.3312040826788967,90.9666723475209,4.004368614402034,2.0704815671042245,-0.02703527762710673,0.5207897428714694,-0.21588920941235867,0.14990365097608802,0.6993835769820081,-0.1206457099346331,-2.3855676874518394,0.421545235440135,2.9444897547364235,-7.029169656008148,-28.70934009552002,-20.738376677036285,99.7928261756897,0.0,0.0,0.0,0.0,0.0,0.0,0.0,0.0,0.0,0.0,0.0,0.0,0.0,0.0,0.0,0.0,False,0,6.400173664093018,0.034921142578125
STABILIZE,2.949244260787964,29.839317601360243,0.03242352803548177,0.03256797790527344,-10.0,40.0,10.0,0.039237302347607625,-1.3308142282876771,90.93343664701962,4.003039598693365,2.0563750219091577,-0.019876536431312722,0.5208094851054266,-0.21015569248031113,0.14983296412665195,0.7019409844944682,-0.08456939851111929,0.11032649781554937,0.21271118894219398,1.4278252609074116,2.0325349502883876,3.661801666021347,-1.4598479494452477,12.005335092544556,0.0,0.0,0.0,0.0,0.0,0.0,0.0,0.0,0.0,0.0,0.0,0.0,0.0,0.0,0.0,0.0,False,0,6.429729700088501,0.0349208984375
STABILIZE,2.982605457305908,29.97344462389412,0.032364638646443684,0.03247690200805664,-10.0,40.0,10.0,0.02744423369364014,-1.3643932525164582,90.90827423011729,4.002904887646849,2.110469247683238,-0.01876737432376267,0.5208175209365813,-0.19444072761457215,0.13941477533129693,0.7103454091901452,-0.07876028779213187,0.6819173693656921,-0.39870506152510643,1.780252531170845,0.17980291563158737,9.086566418409348,-23.05784672498703,33.482831716537476,0.0,0.0,0.0,0.0,0.0,0.0,0.0,0.0,0.0,0.0,0.0,0.0,0.0,0.0,0.0,0.0,False,0,6.458602666854858,0.02993310546875
STABILIZE,3.016179084777832,29.785706169753436,0.032430203755696614,0.032639503479003906,-10.0,40.0,10.0,-0.07528245175358632,-1.4402523216463816,90.96389246052871,4.003239736225244,2.1069929811447903,-0.02066835156927851,0.5208601016750963,-0.20287210990681756,0.12020628277143541,0.7015197756863416,-0.08797036043980602,-0.8686170913279057,-0.8788634091615677,0.9539401158690453,-0.7425064495775011,-54.100072383880615,2.900433726608753,-22.551512718200684,0.0,0.0,0.0,0.0,0.0,0.0,0.0,0.0,0.0,0.0,0.0,0.0,0.0,0.0,0.0,0.0,False,0,6.487098455429077,0.0349208984375
STABILIZE,3.04956316947937,29.952468007312614,0.03237155278523763,0.0325007438659668,-10.0,40.0,10.0,-0.08542058691600088,-1.4507911968140055,90.98918465102527,4.003587801448366,2.1017263192957523,-0.02266952959797268,0.5208953395262044,-0.21265841164732166,0.10149869871798364,0.696347852938507,-0.09764964620225243,-0.8686170913279057,-0.8788634091615677,0.9539401158690453,-0.7425064495775011,-54.100072383880615,2.900433726608753,-22.551512718200684,0.0,0.0,0.0,0.0,0.0,0.0,0.0,0.0,0.0,0.0,0.0,0.0,0.0,0.0,0.0,0.0,False,0,6.515789985656738,0.0349208984375
STABILIZE,3.083416700363159,29.53984843789616,0.03245523770650228,0.03294515609741211,-10.0,40.0,10.0,-0.10139800021024742,-1.4708170980170712,90.93427676028753,4.003722253388841,2.1182358809435105,-0.023310736630838026,0.5209154277309797,-0.21513937081659265,0.10616614605879852,0.698878026985288,-0.10051596012854058,-0.4354414530098438,0.5340122152119875,1.4257011003792286,-0.3269160122869648,-5.559816956520081,24.503691494464874,82.55885243415833,0.0,0.0,0.0,0.0,0.0,0.0,0.0,0.0,0.0,0.0,0.0,0.0,0.0,0.0,0.0,0.0,False,1,6.54458475112915,0.034921142578125
STABILIZE,3.116844892501831,29.916149555641148,0.032410653432210286,0.032543182373046875,-10.0,40.0,10.0,-0.11450950881743893,-1.4798552525579964,90.92734411827996,4.00304867162032,2.1354169562025387,-0.019600285671784505,0.5209639851074394,-0.1940192908667478,0.08958012382454264,0.6870647117334417,-0.08169034880414777,0.014261409523896873,-0.8165391162037849,1.322088297456503,0.9090106667299563,8.694567531347275,-24.71529096364975,52.319514751434326,0.0,0.0,0.0,0.0,0.0,0.0,0.0,0.0,0.0,0.0,0.0,0.0,0.0,0.0,0.0,0.0,False,0,6.602005958557129,0.034921875
STABILIZE,3.150341510772705,29.852272565515083,0.03243521054585775,0.03258776664733887,-10.0,40.0,10.0,-0.10708989566639524,-1.476519772365503,90.95456925231164,4.00150897139526,2.1321143691904543,-0.011394017504886675,0.5210431822135384,-0.19954419061381645,0.08713751489876988,0.6599756288861981,-0.04052332168422647,-0.6536637432873249,0.09530255920253694,-0.3563480917364359,2.2958581661428314,-9.023042768239975,16.518422961235046,3.4361325204372406,0.0,0.0,0.0,0.0,0.0,0.0,0.0,0.0,0.0,0.0,0.0,0.0,0.0,0.0,0.0,0.0,False,0,6.6315906047821045,0.02993212890625
STABILIZE,3.1839582920074463,29.74957974848745,0.032410653432210286,0.032666921615600586,-10.0,40.0,10.0,-0.059976851597233996,-1.4340610753288823,90.99030480204915,4.0029066492529015,2.14762242898964,-0.01883097074323107,0.5211051378276054,-0.18544023169924562,0.09330380952452762,0.6415645266678345,-0.0774480905464893,0.4612510558217764,0.6119833793491125,0.3380216658115387,-2.406041924059831,-0.7779751904308796,19.557321071624756,-14.904287457466125,0.0,0.0,0.0,0.0,0.0,0.0,0.0,0.0,0.0,0.0,0.0,0.0,0.0,0.0,0.0,0.0,False,0,6.66126012802124,0.0349208984375
STABILIZE,3.217390298843384,29.90889643172937,0.03234866460164388,0.032479047775268555,-10.0,40.0,10.0,-0.027938888799937157,-1.4091318453536879,90.96805887592241,4.002476008892902,2.15440684151069,-0.01654105842151962,0.5211329239661013,-0.19104262018373463,0.0887175459942243,0.6401918931718626,-0.06577855216947169,-0.6684514693915844,-0.05442266701720655,1.189431082457304,0.5435957595776858,11.316880583763123,-5.365340411663055,-5.9664420783519745,0.0,0.0,0.0,0.0,0.0,0.0,0.0,0.0,0.0,0.0,0.0,0.0,0.0,0.0,0.0,0.0,False,0,6.688843011856079,0.034921142578125
STABILIZE,3.251375436782837,29.425246069551918,0.032386096318562825,0.033063650131225586,-10.0,40.0,10.0,0.029609510382239964,-1.3319297902782106,90.94716532725134,4.002034215103699,2.1577865269718277,-0.014215532807512586,0.5211608805242203,-0.19669182853805245,0.08416231554043706,0.6389434604482188,-0.0539674519221234,-0.6684514693915844,-0.05442266701720655,1.189431082457304,0.5435957595776858,11.316880583763123,-5.365340411663055,-5.9664420783519745,0.0,0.0,0.0,0.0,0.0,0.0,0.0,0.0,0.0,0.0,0.0,0.0,0.0,0.0,0.0,0.0,False,0,6.7175657749176025,0.034921142578125
STABILIZE,3.2848472595214844,29.876088040458722,0.0323820432027181,0.03249979019165039,-10.0,40.0,10.0,0.0358949919659442,-1.3221631533736213,90.96893997032535,4.00137081420991,2.155726474793687,-0.010728904692413253,0.5211818910001854,-0.19377005957405807,0.08181438072554192,0.640952909714573,-0.03641258631275532,-0.15624858206138015,0.07447139942087233,1.376838143914938,0.8813046446920343,-0.0441625714302063,1.9802294671535492,31.75939917564392,0.0,0.0,0.0,0.0,0.0,0.0,0.0,0.0,0.0,0.0,0.0,0.0,0.0,0.0,0.0,0.0,False,1,6.746350288391113,0.0299140625
STABILIZE,3.3182458877563477,29.940922005054038,0.03237346013387044,0.0325169563293457,-10.0,40.0,10.0,0.03423205434645766,-1.340317369300692,90.98714925465259,4.0014078664959705,2.1601117191417765,-0.010935443134586234,0.5211991934925602,-0.19857191201144023,0.08902001825122836,0.6448256255748781,-0.03732037466368507,-0.9150762110948563,0.34076275769621134,1.6623962670564651,-1.1750873025935615,-19.236525893211365,5.179724097251892,28.472241759300232,0.0,0.0,0.0,0.0,0.0,0.0,0.0,0.0,0.0,0.0,0.0,0.0,0.0,0.0,0.0,0.0,False,0,6.804322957992554,0.0349208984375
STABILIZE,3.3517489433288574,29.848873453934726,0.032431872685750325,0.03257179260253906,-10.0,40.0,10.0,0.03876324453052643,-1.3465379640872812,90.97993657488907,4.0017615526075305,2.1573142974634845,-0.01285256849529413,0.5212352138184738,-0.19909754412145658,0.08621996678486216,0.6393554069546922,-0.046749432314010714,-0.3643698524683714,0.025959807680919766,0.893496535718441,-0.7038052103580338,-9.436973929405212,-21.810707449913025,36.54080629348755,0.0,0.0,0.0,0.0,0.0,0.0,0.0,0.0,0.0,0.0,0.0,0.0,0.0,0.0,0.0,0.0,False,0,6.832290410995483,0.0349208984375
STABILIZE,3.3851816654205322,29.909536271776258,0.03239301045735677,0.032515764236450195,-10.0,40.0,10.0,0.03194255359232823,-1.3499671459374507,90.97087974404963,4.0021341231082905,2.1639376770845393,-0.014831394143358417,0.5212713017066973,-0.19954593529446038,0.08343648651468702,0.6338292444424978,-0.05645493210393899,-0.3643698524683714,0.025959807680919766,0.893496535718441,-0.7038052103580338,-9.436973929405212,-21.810707449913025,36.54080629348755,0.0,0.0,0.0,0.0,0.0,0.0,0.0,0.0,0.0,0.0,0.0,0.0,0.0,0.0,0.0,0.0,False,0,6.861422300338745,0.0349208984375
STABILIZE,3.418907642364502,29.6519925627956,0.032404216130574544,0.03286099433898926,-10.0,40.0,10.0,0.029633416044335007,-1.3563987295363698,90.98445132993045,4.001115719617833,2.18420246791197,-0.009410911370227128,0.5212908916325506,-0.18287544342142853,0.07402957069572769,0.6366774672341139,-0.029253765687771188,0.644195219501853,-0.3674220759421587,1.3906597159802914,1.4919091490608938,2.9534589499235153,2.787245064973831,12.5523641705513,0.0,0.0,0.0,0.0,0.0,0.0,0.0,0.0,0.0,0.0,0.0,0.0,0.0,0.0,0.0,0.0,False,0,6.8898115158081055,0.02993212890625
STABILIZE,3.452580451965332,29.697972130961823,0.0324580987294515,0.032685041427612305,-10.0,40.0,10.0,0.034010073198432245,-1.353447767649807,90.999177217781,4.0011722320839,2.1941903100332842,-0.009699705881972519,0.5213777214697315,-0.17277455427394947,0.06825742010639263,0.6058797697940366,-0.030595008035201352,0.2031088573858142,-0.14885577838867903,-0.45879120007157326,-0.19776311149754747,-12.137313932180405,1.4882520772516727,-20.047269761562347,0.0,0.0,0.0,0.0,0.0,0.0,0.0,0.0,0.0,0.0,0.0,0.0,0.0,0.0,0.0,0.0,False,0,6.918487071990967,0.034921875
STABILIZE,3.4860293865203857,29.896957773786102,0.032332452138264973,0.032459259033203125,-10.0,40.0,10.0,0.03384764276223288,-1.3485271499613416,91.00184782174647,4.0007732030701675,2.1989949945667515,-0.007622115507856407,0.5213911812424332,-0.1776294677707525,0.06425001620642516,0.6117082421613048,-0.020139705879437045,-0.6427410989999771,-0.05184842739254236,1.5602050349116325,0.5003278452069773,-41.85481667518616,4.632782563567162,11.023610830307007,0.0,0.0,0.0,0.0,0.0,0.0,0.0,0.0,0.0,0.0,0.0,0.0,0.0,0.0,0.0,0.0,False,0,6.949485540390015,0.034921142578125
STABILIZE,3.5204458236694336,29.054474923801607,0.032308371861775716,0.03326892852783203,-10.0,40.0,10.0,0.03893047744348596,-1.3412411523859362,90.99130883985714,4.0004576401645595,2.2094561185639625,-0.005975384091974144,0.5214296870402367,-0.17044257034220583,0.0698883863797287,0.6053500328883228,-0.011865334190576574,-0.07326871273107827,0.28821793384850025,0.6331562995910645,-0.6622418550720666,-0.8849781006574631,3.4383591264486313,-19.882799685001373,0.0,0.0,0.0,0.0,0.0,0.0,0.0,0.0,0.0,0.0,0.0,0.0,0.0,0.0,0.0,0.0,False,0,7.007237911224365,0.034921142578125
STABILIZE,3.5536396503448486,30.12608367750045,0.03219202359517415,0.03230643272399902,-10.0,40.0,10.0,0.03669380393371834,-1.3493454920012737,90.9985146894315,3.999831070032349,2.216723433255489,-0.0027260729911970562,0.521454326026948,-0.16890837254474506,0.06293035525760311,0.6055761363575984,0.0043666429467471395,-0.25187411811202765,-0.24942781310528517,1.191433146595955,0.8641416066074088,-4.10500206053257,-13.370643556118011,0.8083667606115341,0.0,0.0,0.0,0.0,0.0,0.0,0.0,0.0,0.0,0.0,0.0,0.0,0.0,0.0,0.0,0.0,False,0,7.036104202270508,0.0349208984375
STABILIZE,3.587150812149048,29.840803665442955,0.03242543538411458,0.03254103660583496,-10.0,40.0,10.0,0.03130051581034703,-1.344894343096541,91.00924491661759,3.9999037940844513,2.2223758504431923,-0.003101660468736958,0.5214989296871936,-0.15541929526035236,0.05468711704749199,0.595851902303334,0.002480411979544684,0.45969407074153423,-0.3245656378567219,0.595554756000638,-0.21431827608625512,17.433899641036987,-1.5588825568556786,0.1796141266822815,0.0,0.0,0.0,0.0,0.0,0.0,0.0,0.0,0.0,0.0,0.0,0.0,0.0,0.0,0.0,0.0,False,0,7.064691066741943,0.02993310546875
