Mode,Time,Freq,North-Vision,East-Vision,Down-Vision,Yaw-Vision,North-Desired,East-Desired,Down-Desired,Roll-UAV,Pitch-UAV,Yaw-UAV,Roll-Control,Pitch-Control,Yaw-Control,Thrust-Control,northVraw,eastVraw,downVraw,yawVraw,zGyro
GUIDED_NOGPS,0.002941608428955078,342.5319722335647,345.0979005824751,-86.66667608423376,-17.76435522454558,-2.048930920441659,347.62758731535416,-84.11827771562282,-18.30263946016292,-0.8387302613263465,0.31781083651480896,-3.9270625133020824,-1.360774855507671,1.3507833550723394,0.10244654602208295,0.49946171576438264,345.0979005824751,-86.66667608423376,-17.76435522454558,-0.16069585401754694,4.411775022507339
GUIDED_NOGPS,0.011144638061523438,122.02676597230304,344.54518890943393,-86.91935555194854,-18.059304143386,-0.2334505071795143,347.6274447817113,-84.11820553758115,-18.302662425442193,-0.8174577972389006,0.36304525839709934,-3.8943403576490208,-0.1423376783810368,0.1894827584659215,0.011672525358975715,0.4997566417179438,343.99247723639274,-87.17203501966334,-18.354253062226427,0.4020565057871721,4.698253920072751
GUIDED_NOGPS,0.05404067039489746,23.31723371136313,344.11428232685574,-87.287040302731,-18.448841447924867,-0.19576036336024827,347.6264585484644,-84.1177061159501,-18.302822259790464,-0.7279522769515561,0.32685912961778335,-3.6773354293207836,-0.13550371313269904,0.15067069239984865,0.009788018168012414,0.5001460191881344,343.2524691616994,-88.02240980429595,-19.227916057002595,0.5158595548784319,3.4377467707849396
GUIDED_NOGPS,0.10036635398864746,21.590297938929726,343.81629100749427,-87.72335838317825,-18.95592554052841,-0.033982920494025674,347.62381633708327,-84.11636811855264,-18.303253303473223,-0.990932595965324,0.4832401526466334,-3.485332195005967,-0.1540945882376251,0.1590585876511084,0.0016991460247012839,0.5006526722370552,342.92231704940997,-87.97563032557548,-19.28560750235621,1.1358192717109148,1.432394487827058
GUIDED_NOGPS,0.14445281028747559,22.688347235294753,343.6441173284134,-87.96249832634687,-19.17442856668905,0.07947708824400487,347.61873972208275,-84.11379735615759,-18.30408715495983,-1.0659503778885724,0.6024024076710262,-3.4324582065370173,-0.15991953927563507,0.16329966669897367,-0.003973854412200244,0.5008703414117293,342.95542261209,-87.88945484916921,-19.009762140708347,0.8361088466900526,1.5469860468532228
GUIDED_NOGPS,0.18487119674682617,24.747346372835356,343.2155854177733,-87.88645939676435,-19.088187957806387,0.14933243498710044,347.6104836640847,-84.10961654602512,-18.305452689511963,-0.9869227413139976,0.48828147258433746,-3.4115279455991594,-0.14993414146062234,0.18698790200892706,-0.007466621749355022,0.5007827352682944,342.9552410292748,-87.79429301554836,-18.96919423035461,0.7030889346757334,0.4583662361046586
GUIDED_NOGPS,0.23115158081054688,21.609764391296956,343.0383883502058,-87.51238146678686,-18.720183768636957,0.1756131825221531,347.5983360428792,-84.10346507545243,-18.307476077772044,-0.8953700319055005,0.7657905644580746,-3.3989245390331932,-0.1292871532101955,0.18685568197828106,-0.008780659126107655,0.5004127076908649,343.1064918985553,-86.853396535643,-18.18159493484793,0.5990729798511722,-0.2291831180523293
GUIDED_NOGPS,0.2716050148010254,24.726192300890173,343.0330928532384,-87.01671671042048,-18.323059123569454,0.16741753816962335,347.5816171904859,-84.0949987653192,-18.310280804351724,-0.7870768490064194,0.6985018886326362,-3.42894193977493,-0.1057154282242619,0.18276330890248632,-0.008370876908481168,0.5000127783192178,343.2259916768625,-86.40246058007004,-17.818388205505837,-0.10944794461481422,-0.7448451336700702
GUIDED_NOGPS,0.3129136562347412,24.21373975291537,343.30829067756383,-86.29368348753029,-17.725704119713537,0.12930593300990018,347.55967942421546,-84.08388963363326,-18.31398768642029,-0.6803245674562637,0.6625195983113628,-3.492210622386993,-0.07219502804404766,0.164150805872658,-0.006465296650495009,0.49941171643329324,344.2983061710369,-85.6251933468778,-17.177129218786853,0.12137273620739109,-1.8334649444186344
GUIDED_NOGPS,0.3554661273956299,23.50316322699586,343.55482286388025,-85.36657055048606,-17.077562998827382,0.07259339384643082,347.5319065797314,-84.06982565907617,-18.31871489229315,-0.6071300725154386,0.5619425014619862,-3.570409885081292,-0.03154334753015678,0.1541044510403223,-0.003629669692321541,0.49875884810653426,344.18808354367206,-84.07205772451034,-16.23717157218946,0.0328845851112618,-1.776169164905552
GUIDED_NOGPS,0.39656662940979004,24.33554391278365,343.6559406502668,-84.22203888260991,-16.40497805740684,-0.000596545422629732,347.49771354411104,-84.0525105445487,-18.324577960020267,-0.6355574265627374,0.6525458145758516,-3.6581989468137004,0.019706814329527943,0.15196943195773366,2.98272711314866e-05,0.4980804000973866,343.46082996120754,-82.9688655764416,-15.80063338124422,-0.15232612661220912,-2.0626480624709638
GUIDED_NOGPS,0.4409294128417969,22.547718243835305,343.6331704791904,-82.92958382134556,-15.82126023484649,-0.09740303865445428,347.4565457889071,-84.03166348071647,-18.331689815974592,-0.6457158922101034,0.750117414747011,-3.7900920341207622,0.07170771001584984,0.15429818265038814,0.004870151932722715,0.4974895704188719,342.99264104317353,-81.74782816308473,-15.425975751105797,0.3322151564376554,-3.6096341093241864
GUIDED_NOGPS,0.4904310703277588,20.204847077638988,343.631737088941,-81.37403195860854,-15.366152371076572,-0.2175620650992815,347.4078789032093,-84.0070189095556,-18.34016079344054,-0.6007668441690726,0.6969422576243461,-3.9706993112488247,0.13530743303838785,0.15205749821962478,0.010878103254964076,0.49702599157763605,343.2188247256155,-79.40540213629926,-14.871847980879709,-0.0498741471960642,-2.979380534680281
GUIDED_NOGPS,0.5312342643737793,24.513614765547835,343.23466412268743,-79.67797630570732,-14.88119952226777,-0.3682959164531942,347.3512181267056,-83.97832628789808,-18.350098651202416,-0.5480033126656068,0.8535030000057321,-4.11666088069882,0.21218764980208973,0.1751455979980812,0.018414795822659712,0.49653110087106533,342.31294133976905,-77.88069861773793,-14.345774834817815,-0.003162868394994689,-3.8388172273765155
GUIDED_NOGPS,0.5694301128387451,26.187230748098848,343.0208472020262,-77.95092569538708,-14.430777889080423,-0.5005593158999373,347.2860978827438,-83.94534985097759,-18.36160859213288,-0.41549294701230494,0.6467975700590513,-4.266605731095402,0.28385775481024933,0.17681798752743924,0.025027965794996866,0.49606916929694755,343.1189989403657,-76.566676332124,-14.074710851543749,-0.19476612302294427,-3.495042550298022
GUIDED_NOGPS,0.6101882457733154,24.54072271110279,343.07518903009475,-76.53392747557007,-14.015442040313678,-0.6316947365737249,347.2120813113928,-83.90786837597489,-18.374793281781383,-0.3295510779244146,0.6303357469422627,-4.411616196703474,0.3283846674613411,0.16481153926777398,0.03158473682868625,0.4956406487585323,343.73253910155023,-75.15440747684822,-13.625840434579475,-0.579243005323093,-3.8388172273765155
GUIDED_NOGPS,0.660841703414917,19.745148807562305,343.2552721548301,-75.0870907350152,-13.66492104752196,-0.7830734369702818,347.1287598025044,-83.86567494556343,-18.389752866962624,-0.1644226903224674,0.5730601284400629,-4.6436069869575425,0.37912198449880585,0.15239977229250923,0.03915367184851409,0.49527516818055933,343.89305666685044,-73.54018839607333,-13.294211856442663,-0.29013914962591514,-4.469070802020421
GUIDED_NOGPS,0.7030041217803955,23.72478081339442,343.60567589523305,-73.10225289024646,-13.220622972171919,-0.970999198035752,347.03575252877425,-83.81857671145504,-18.40658499434499,-0.12296114754381568,0.5572369280106706,-4.770006894624621,0.47535924844813127,0.12948016312920896,0.0485499599017876,0.4948140379778269,344.9708434276302,-70.61216279781782,-12.741816625493627,-0.6394157782445404,-3.552338329811104
GUIDED_NOGPS,0.7409117221832275,26.387900445428695,344.2674060279363,-71.07974150207629,-12.837986115839158,-1.1387127078113957,346.93270597880365,-83.76639465794534,-18.42538482903901,-0.05280670710356105,0.49583694246684096,-4.947360867273642,0.560662072107652,0.08932765399779793,0.05693563539056978,0.49441260128680015,345.6215920032855,-69.08687331233773,-12.477929865581189,-1.3100184049548318,-4.469070802020421
GUIDED_NOGPS,0.7823469638824463,24.13960127077674,344.9488382072119,-69.06878725411751,-12.520622274852597,-1.2966659731860815,346.81929349016093,-83.70896336545947,-18.446245073185807,-0.019333103909772324,0.3969204353594238,-5.131535210695743,0.6345259797281639,0.05862415431862437,0.06483329865930408,0.4940743772016668,346.5261598367435,-67.507325652197,-12.342120333482985,-1.8180771010681553,-4.068000345428845
GUIDED_NOGPS,0.8260166645050049,22.903673932986763,345.7408645100144,-66.99358967651911,-12.387464956348396,-1.4717229609589586,346.6952147824428,-83.64613077409749,-18.469255984545537,0.012663530906960653,0.2362272150867685,-5.2944471752315945,0.714663675061001,0.020236003674412598,0.07358614804794793,0.4939182089718029,347.69267061556286,-64.38657006502264,-12.342344669981026,-2.124901628642192,-4.1252961249419275
GUIDED_NOGPS,0.8691232204437256,23.20512976558653,346.56906774588305,-64.92371123633554,-12.355479455528881,-1.6486100128500725,346.5601954903358,-83.57775794718015,-18.49450539508584,0.014910796546027075,0.25667744179202134,-5.46742214284899,0.7966229956527677,-0.02002397186614477,0.08243050064250362,0.49386097406044305,348.0340728461939,-62.87723799178699,-12.381973363122645,-2.3378842659135017,-3.8388172273765155
GUIDED_NOGPS,0.9079411029815674,25.76702011328312,347.17752627166726,-62.91725051286354,-12.416107681217738,-1.805102024859626,346.4139866966779,-83.50371883479431,-18.5220787295703,0.04474576987194357,0.17109367738788064,-5.593118541031559,0.8766391047393347,-0.04670800666251039,0.0902551012429813,0.4938940289516474,348.0131360565511,-61.487943481780995,-12.524005010549553,-2.6962592287215585,-3.0366763141933633
GUIDED_NOGPS,0.9575624465942383,20.161239773502917,347.7407691616433,-60.920663283620534,-12.500785692928245,-1.9393117663373642,346.25636446551977,-83.42390003733861,-18.552059024146875,0.14563191944104995,0.024266381460585927,-5.780298594575289,0.9440703798634693,-0.07101347381044172,0.09696558831686822,0.49394872666878137,348.4378064531657,-58.39680837729361,-12.596378705112542,-1.9059968205109783,-3.666929888837269
GUIDED_NOGPS,0.9994025230407715,23.903117894124954,348.1230984849277,-59.427186745456076,-12.57225414025821,-2.084533537274767,346.0871293751863,-83.33820056906899,-18.584526944936357,0.20200000323771067,0.012050161243194996,-5.907934339595316,0.996529662276464,-0.0918704539505221,0.10422667686373835,0.49398772719532186,348.4378064531657,-58.39680837729361,-12.596378705112542,-1.9059968205109783,-2.9220847551671985
GUIDED_NOGPS,1.0322012901306152,30.500923542330234,348.31622562007,-57.50530155990098,-12.670329633732827,-2.1993726259148465,345.906106051338,-83.24653162164425,-18.619560806620818,0.21997100467638114,0.1637625365309298,-6.001761501997428,1.0919045507603546,-0.10492795014606009,0.10996863129574233,0.494050768827112,348.65830629127396,-55.72228792511572,-12.818231490973403,-1.945065794015676,-2.864788975654116
GUIDED_NOGPS,1.0781168937683105,21.783499961048065,348.2640677906328,-56.171693028368175,-12.693128959171574,-2.270035524100425,345.71314270003256,-83.14881632767174,-18.657236591032056,0.3766897885638163,0.024725711682269284,-6.139713393985114,1.1143093800225603,-0.10246294718214571,0.11350177620502125,0.4940358923681395,347.77328369900783,-54.3959827826952,-12.664776681428782,-1.3812541867440302,-2.291831180523293
GUIDED_NOGPS,1.1359052658081055,17.322171515889895,348.2081931774118,-54.49957065121206,-12.612503634881678,-2.374315012936711,345.50811064078613,-83.04498952425277,-18.697627965740047,0.5234264244020497,0.09277275194899069,-6.256980911845063,1.178952881749338,-0.10810373689252102,0.11871575064683555,0.4939148756691416,347.7337629904461,-53.38044124582527,-12.354502732242857,-1.9935007462905219,-2.119943841984046
GUIDED_NOGPS,1.1796655654907227,22.853879810600077,348.31966718901833,-52.99202114239839,-12.263193072352308,-2.4884591216311103,345.2909038396349,-82.93499751652831,-18.740806302641396,0.6331534667791574,0.18111996820263626,-6.335770132128922,1.2408678082216444,-0.12629518502549705,0.12442295608155551,0.4935223867697109,348.99517651119805,-51.199639398674705,-11.77029980338529,-2.353228547923436,-1.4896902673401404
GUIDED_NOGPS,1.2252752780914307,21.931230653392454,348.60956143357214,-51.29199488031521,-11.661076500036474,-2.5673909554743766,345.06143844219645,-82.81879784122454,-18.786840696547774,0.7448659597706232,0.04285815638136063,-6.405996856514524,1.3085407744296065,-0.15113225085871124,0.12836954777371884,0.4928742358034887,349.887277675935,-49.29590399644563,-10.858426964481286,-2.7860999657768843,-1.776169164905552
GUIDED_NOGPS,1.2622644901275635,27.039963897753278,349.01962181652704,-49.61340046604784,-11.029207323677204,-2.6375260074003024,344.8196523067312,-82.69635903019835,-18.83579798377438,0.8032973209855832,-0.010344961828219,-6.479438465565086,1.379326162517563,-0.18358738525605764,0.13187630037001513,0.4921934093399028,350.7086082060484,-48.344658003023184,-10.45889520316504,-2.612497646221186,-1.3178029288008934
GUIDED_NOGPS,1.2987360954284668,27.425402948965246,349.56943846586825,-48.4008048027683,-10.469382575304607,-2.6784247806519437,344.565504537204,-82.56766037398303,-18.887742760728372,0.8021020378808309,0.02694787104005062,-6.5070004133002035,1.411576006451723,-0.2203489941061314,0.1339212390325972,0.49158163981457625,350.52236694571366,-47.56185240883605,-10.090825558267506,-2.5260876075999903,-0.9167324722093172
GUIDED_NOGPS,1.3432202339172363,22.481850732188416,349.96997691170213,-47.58624531456589,-10.120316810854623,-2.7195759171577554,344.2989750163453,-82.43269168533377,-18.942737402497343,0.7630815940393711,0.13331077844666261,-6.541964151661499,1.425810561463026,-0.2401741661689642,0.13597879585788777,0.49117757940835727,349.7364552196158,-46.85222553183842,-9.811229671131334,-2.5342175132385165,-1.3178029288008934
GUIDED_NOGPS,1.3889155387878418,21.889796983455977,349.96640977658257,-46.68005921082395,-9.753367949526405,-2.757781368779748,344.02006393871284,-82.29145306277321,-19.00084208143774,0.7842826613056495,0.13498011936849605,-6.580447571879466,1.4598074102832694,-0.24264587996882891,0.1378890684389874,0.49075252586808865,348.9773408356003,-45.62609969179734,-9.358048619180385,-2.2860541648870196,-0.6302535746439055
GUIDED_NOGPS,1.426703929901123,26.471003288124255,349.71282819761126,-45.87539785853016,-9.399622170692231,-2.7887790648333213,343.7287913437531,-82.14395465413715,-19.062114785763328,0.7485225122149601,0.1517578387343977,-6.599318530782565,1.4877062205737979,-0.2392476028728097,0.13943895324166608,0.49033750738492893,348.61936978107855,-45.14786835195465,-9.029588221764984,-2.443795370081446,-0.6875493541569879
GUIDED_NOGPS,1.460068941116333,29.97794343627826,349.44111964314754,-45.15899779560562,-9.053317802727747,-2.8083474272990916,343.42519664886237,-81.99021642011992,-19.126611338133635,0.7653759506311137,0.25286384835762704,-6.588529393214883,1.5109381968806133,-0.2406845293059687,0.14041737136495458,0.48992670646459413,349.35006543372975,-44.70302534306484,-8.772316567237887,-2.21021967881245,-0.6875493541569879
GUIDED_NOGPS,1.508249044418335,20.760489622982384,349.343721571278,-44.70694602470537,-8.729560875489257,-2.810563112997349,343.1093381824488,-81.83026789782018,-19.194385414242404,0.8255625637410611,0.2509180982178197,-6.58683806762166,1.513760354860123,-0.2533226038958811,0.14052815564986745,0.48953517546124686,350.0353765863659,-44.269944379096586,-8.38677783746492,-2.2859507783356747,0.11459155902616465
GUIDED_NOGPS,1.5437233448028564,28.192831984513216,349.3933101566119,-44.351066504392975,-8.355908522437817,-2.8122122509157457,342.7812927169933,-81.66414796428627,-19.265488561406038,0.9335728807589685,0.05060102957921634,-6.586208836444372,1.5219191138070052,-0.2746994868032488,0.1406106125457873,0.48909041996103175,349.98439814628546,-44.080229791017466,-7.908631162610659,-2.8996408958083464,0.5156620156177409
GUIDED_NOGPS,1.5873081684112549,22.94803418429317,349.79435459413156,-43.980494446559725,-7.882893108478368,-2.7993849286176387,342.44115500211126,-81.491904600062,-19.339970217152043,0.9221673186186934,0.13092704242632816,-6.554690501632525,1.5307274425490676,-0.31113539910404225,0.13996924643088193,0.48854292289132634,350.9825630231984,-43.59130916956507,-7.353270325359535,-2.2769972322022056,0.2291831180523293
GUIDED_NOGPS,1.6321067810058594,22.32722936717486,350.17509607939394,-43.753680087852466,-7.483672397157858,-2.772402327651534,342.08903729761397,-81.31359465273204,-19.41787772780749,0.9721754024005881,0.10958419537391927,-6.512496154261124,1.5308699030875212,-0.3401191222757769,0.1386201163825767,0.48806579466935035,350.5230772073902,-43.5895013029748,-7.18911570350339,-2.3393698263066653,0.9740282517223995
GUIDED_NOGPS,1.6640620231628418,31.302177709449676,350.32711942196295,-43.58763844924507,-7.138833088697294,-2.736452964624088,341.72506890656996,-81.12928360046763,-19.499256367087447,1.0276322695928604,-0.08473596717341288,-6.496063146004897,1.5296840696950533,-0.36082305256302394,0.1368226482312044,0.48763957672160985,350.11018214657497,-43.58210487519529,-6.8741132372289675,-2.288198072785036,0.8594366926962349
GUIDED_NOGPS,1.715973138809204,19.26812170102122,350.1380585716693,-43.6052248083707,-6.949005276715023,-2.6975220904832224,341.34939570836656,-80.93904531557209,-19.584149354683444,1.0645083542000533,-0.17914262843791756,-6.436942309209736,1.5198643224458896,-0.35619630175107614,0.13487610452416113,0.4873648559220316,349.0900723348974,-43.64406824694197,-6.78378688941272,-2.1211753318724504,1.260507149287811
GUIDED_NOGPS,1.7714183330535889,18.03908615469309,349.84627262292514,-43.74933622140423,-6.8141293912191605,-2.6203258939584284,340.96217969177127,-80.74296182802637,-19.672597874851906,1.1610982213997292,-0.2613061756151744,-6.314736564579868,1.506135075208712,-0.3586318693636423,0.13101629469792142,0.48714153151636724,348.52546840256457,-44.02183554207541,-6.7844880470158015,-1.9187504300927003,2.119943841984046
GUIDED_NOGPS,1.8104643821716309,25.618763742975812,349.4120662506002,-44.11363673634319,-6.899083140785826,-2.5228888848743343,340.5635984879932,-80.54112308903471,-19.764641095002617,1.1338960325348013,-0.24028157268940575,-6.229313096177811,1.47670579038049,-0.3549179951545121,0.1261444442437167,0.4871344420457832,348.8115311615738,-44.67500642001219,-7.128974485928964,-1.759921832186663,1.7188733853924698
GUIDED_NOGPS,1.8495917320251465,25.56177590882774,349.20964139854624,-44.64041607607994,-7.062916720753761,-2.437479594524183,340.15384490374464,-80.33362673457015,-19.860316184287147,1.2007194017230327,-0.3097851507966324,-6.124064149936146,1.444411549850026,-0.36975580788167794,0.12187397972620916,0.48720260053646663,349.51095294712024,-45.224406266152215,-7.275287629316527,-2.001795634323784,2.6929016371148693
GUIDED_NOGPS,1.8950035572052002,22.02555283071381,349.26440035998087,-45.225090129392605,-7.284443691179814,-2.333088846038211,339.73312645430235,-80.12057784892012,-19.959658332187324,1.2371441602364759,-0.24415471683562612,-5.968049395801538,1.4152495378899472,-0.3943861770498825,0.11665444230191056,0.4873247853589925,350.3839769537482,-45.77585770201337,-7.449068958293964,-1.8440623467984807,3.0366763141933633
GUIDED_NOGPS,1.9371542930603027,23.730955506268955,349.4592749028263,-45.77818767210979,-7.415784800232132,-2.2038397306085065,339.301664896569,-79.902088728232,-20.062700767103674,1.298272005430563,-0.45399370950746193,-5.8858779512180535,1.385066516950104,-0.4242687774782931,0.11019198653042533,0.48735308403312844,350.06444504912446,-46.334299048163736,-7.522997813085917,-1.1622407637729992,2.7501974166279517
GUIDED_NOGPS,1.98530912399292,20.77087336331042,349.4898637550338,-46.712223267251154,-7.504340585380857,-2.0724478738104097,338.8596957621347,-79.67827864405872,-20.169474774943854,1.3376709911624294,-0.4736994455931834,-5.711994568441045,1.334558005301337,-0.4386505947847681,0.1036223936905205,0.487334865810437,348.6784126636023,-48.026513051576345,-7.5409549847627035,-1.7603966771562227,3.666929888837269
GUIDED_NOGPS,2.023498773574829,26.190501167684488,349.274215460079,-47.7184865832775,-7.468487945739095,-1.919124999883764,338.4074678903385,-79.44927360690436,-20.280009717711124,1.2778185770741366,-0.21540943882680433,-5.56618326315279,1.2781917250577268,-0.44487666601308695,0.09595624999418821,0.48718847822802797,347.7332896867996,-48.794647650092415,-7.341511039368675,-1.4052822711181392,3.0366763141933633
GUIDED_NOGPS,2.0721728801727295,20.548629210840893,348.7954217854834,-48.873205400011265,-7.357708880085421,-1.7898040860159963,337.94524296132965,-79.21520612976963,-20.394333052092783,1.2815365478601508,-0.40727542902798625,-5.426387646976023,1.2277849385170603,-0.43822152625253935,0.08949020430079982,0.48696337582799265,347.1169845741424,-49.798455498364994,-7.190660616124897,-0.9380284840633664,3.380450991271857
GUIDED_NOGPS,2.1126549243927,24.707693938983372,347.9649741296479,-49.781299483390455,-7.157659799424227,-1.6210721954364238,337.47329502912925,-78.97621499169756,-20.51247034804862,1.2628216160909043,-0.3782855448695134,-5.282411528140386,1.1833105636767058,-0.4157833617354679,0.08105360977182119,0.4866451894513756,346.23173867457024,-50.75079530171391,-6.940807742779122,-0.6600847860042478,3.724225668350351
GUIDED_NOGPS,2.153592348098755,24.434357086265553,347.21540937073206,-51.100560412381945,-6.923969685401807,-1.4848385618090378,336.99191005469146,-78.73244500131896,-20.634445307399353,1.2388143549319557,-0.2841856017874246,-5.161106514707313,1.1121382056042977,-0.4077940587231594,0.0742419280904519,0.48628952437800244,346.3166212545454,-52.752430437066856,-6.640440697301414,-0.16209130567192176,2.6929016371148693
GUIDED_NOGPS,2.1943352222442627,24.549340950062042,346.6566911517773,-52.470191051260024,-6.7067756452668155,-1.3511778497635654,336.50138543896514,-78.48404676039814,-20.7602797824151,1.2446624909653674,-0.5109060473231816,-5.060409035773815,1.0469181141683532,-0.4103514823104542,0.06755889248817827,0.4859464958628517,345.8848215688286,-53.90734741499924,-6.539078495719922,-0.1022241294218702,3.0366763141933633
GUIDED_NOGPS,2.2383100986480713,22.745313254122763,346.3205462036224,-53.908606185193484,-6.580378309740791,-1.2258085700277137,336.0020295559552,-78.23117642737834,-20.8899937944038,1.1548042020795624,-0.45496124849207653,-4.902465606972324,0.9815774807013488,-0.422718609427284,0.06129042850138569,0.48569038451533697,346.0525649460254,-55.066040703514275,-6.561615736201047,-0.34978218185362664,2.864788975654116
GUIDED_NOGPS,2.280059814453125,23.95896311021238,346.2668760645085,-55.470694406011916,-6.521956974969403,-1.100527960355064,335.4941612857841,-77.97399548092736,-21.023605552299685,1.0803686937830577,-0.5129326925159713,-4.7949238516036505,0.904157862687823,-0.4486150323198297,0.0550263980177532,0.4854983514226697,346.8486338785726,-57.43869509952218,-6.465176692987252,-0.3638041449363669,2.521014298575622
GUIDED_NOGPS,2.334216833114624,18.468160803135046,346.39025510530894,-56.64781030085289,-6.49732304072518,-0.9952033708880761,334.9781095477532,-77.71267048348317,-21.161131471251714,1.0803686937830577,-0.5129326925159713,-4.7949238516036505,0.865406482653117,-0.47555532270947215,0.04976016854440381,0.48533619156947344,346.8486338785726,-57.43869509952218,-6.465176692987252,-0.3638041449363669,2.521014298575622
GUIDED_NOGPS,2.383920192718506,20.123418526212763,346.48726511573244,-58.28505602653987,-6.439348517774341,-0.8479533787980104,334.4542128334044,-77.44737284479943,-21.302586191212022,0.8737495483355011,-0.4511587541150835,-4.5695203519172365,0.7783699031095,-0.501748889959749,0.04239766893990052,0.48513676232656233,346.8016713066633,-59.9777778805752,-6.38769216734853,-0.5635471343667149,2.9220847551671985
GUIDED_NOGPS,2.4338502883911133,20.030487688399013,346.57336403400325,-59.527979552004716,-6.391122873080241,-0.7139091591384061,333.9228187395813,-77.17827858549111,-21.44798259552438,0.7841136141236916,-0.48390588264729806,-4.3975208206906835,0.7267360513097639,-0.5269668820111966,0.03569545795692031,0.48494314027755586,346.3153161601826,-61.16746567591672,-6.320499758904956,-0.5874588183442029,2.7501974166279517
GUIDED_NOGPS,2.4813232421875,21.071186713153214,346.49550045772276,-61.599689994334746,-6.356131975143138,-0.5902953711037847,333.38428350149087,-76.90556810058004,-21.597331829512623,0.7766072895867006,-0.4567136189010079,-4.35414741191381,0.6148091106620932,-0.5433032016859817,0.02951476855518924,0.4847588001456305,345.663247064623,-63.65382642651228,-6.360203999175945,-0.44029555319572466,2.291831180523293
GUIDED_NOGPS,2.511990547180176,32.617906663867046,346.0918662838492,-63.21368011500999,-6.296147728692138,-0.5073427181376806,332.83897152576475,-76.6294259230405,-21.750643319069127,0.7261168770555266,-0.44094463309815257,-4.2537538763983775,0.5270576072809788,-0.5443371661959868,0.025367135906884032,0.484545504409623,344.830463009205,-64.81974824260095,-6.207739427995532,-0.417042380496639,2.177239621497128
GUIDED_NOGPS,2.5574281215667725,22.012375159412837,345.4903100009511,-65.22007675121849,-6.2090589858414456,-0.4506850889019317,332.2872549235209,-76.35004048734473,-21.907924789243225,0.7143424847000709,-0.5118915155543675,-4.160141438068298,0.4476636842174508,-0.5372200724944657,0.022534254445096588,0.4843011341965982,343.84085246408233,-67.18665558454221,-6.059233530352875,0.2158477002203938,1.3750987083139758
GUIDED_NOGPS,2.6022374629974365,22.3222386614014,344.6257168211159,-66.78233207476269,-6.07464556641461,-0.36860877545748144,331.7295130434247,-76.06760389300864,-22.06918228282968,0.6289488450147799,-0.4266356002303874,-4.06792620031031,0.38332538165058877,-0.5197663853858372,0.018430438772874074,0.48400546328358496,342.4787054074872,-68.34059239714493,-5.956963740895436,0.48523492237499966,1.3750987083139758
GUIDED_NOGPS,2.6461310386657715,22.786956852433367,343.81982942965914,-68.29233851640471,-5.949243211695028,-0.30575058235115443,331.16613200475075,-75.78231166813724,-22.234420178957127,0.6390103539924433,-0.46474912301611637,-4.031010735393683,0.31212549380171933,-0.5119475952760348,0.015287529117557722,0.4837148230327379,342.28587920289914,-69.34976756752701,-5.831532363836785,0.9682707621933844,0.5729577951308232
GUIDED_NOGPS,2.6871700286865234,24.371035781106553,342.8894171892035,-69.81769866396978,-5.951241957950579,-0.2505419107973263,330.59750423044414,-75.49436253297031,-22.403641211676515,0.6070651857183235,-0.5228061578480478,-4.005816728866445,0.2366293499053874,-0.494707493186303,0.012527095539866315,0.48354760074627406,341.0111858623451,-71.76273602723741,-6.065229769119529,0.8503582771939335,1.1459155902616465
GUIDED_NOGPS,2.7354462146759033,20.721924420356803,342.1218921709587,-71.33280545730254,-6.028496614175033,-0.21250726619044175,330.02402798018187,-75.20395816342796,-22.576846488549556,0.6240108316882722,-0.6223280971923631,-3.991610362279642,0.1712456246732001,-0.4923030888267336,0.010625363309522087,0.48345165012562547,340.9928379179807,-72.88591277714323,-6.1887277095687985,0.8424152380821539,0.2864788975654116
GUIDED_NOGPS,2.7747392654418945,25.453808388103,341.4106649924007,-72.81535151830468,-6.120137261039815,-0.1765082263076218,329.44610688343437,-74.91130295465612,-22.754035509237184,0.5982658209940843,-0.5959571636937671,-3.989723522521426,0.09183575465508179,-0.4880091304839919,0.008825411315381091,0.4833661017518026,340.28471657129217,-73.79740575053341,-6.106454304431133,1.626283655806077,0.057295779513082325
GUIDED_NOGPS,2.8104608058929443,28.00291091660491,340.6645113451609,-73.8371875392005,-6.093158697478511,-0.16216348278896375,328.8641494725269,-74.61660378457226,-22.935206184087995,0.4902924296863773,-0.6249536645979984,-3.9844433594061828,0.0488305743463544,-0.48079011149492323,0.008108174139448188,0.4831579525133905,338.74793717128836,-74.82824408992484,-5.984294078435619,1.6060247506399605,-0.34377467707849396
GUIDED_NOGPS,2.861459255218506,19.61082304315097,340.0486435815012,-74.85880006720929,-6.052469264449445,-0.17614779133072417,328.278568715701,-74.32006977741085,-23.12035485272669,0.32920610001047607,-0.58305931194155,-4.031166549084125,0.006558972225224204,-0.48411457586553686,0.008807389566536209,0.48293211441172273,339.2065403846006,-75.95075036116958,-6.066659410481599,1.01123359935319,-1.3178029288008934
GUIDED_NOGPS,2.9078023433685303,21.580522340447427,339.5602868053973,-76.2400801297896,-6.081726869600073,-0.20869580171688282,327.68978155017595,-74.021912067269,-23.309476302642544,0.13933123001427186,-0.36820482598480925,-4.058315697261278,-0.07100526564661704,-0.4914369498667256,0.010434790085844142,0.48277225056695755,338.5694019818253,-77.94124593827439,-6.194227119883018,0.8453089855270122,-1.1459155902616465
GUIDED_NOGPS,2.95090913772583,23.201920630179117,338.9741883166122,-77.80115916070697,-6.184182112919345,-0.25360364442765443,327.0982084152102,-73.72234356165195,-23.50256378777782,0.06887126534068476,-0.5712126689912803,-4.135004207488536,-0.15266670099871105,-0.49013515279749803,0.012680182221382723,0.4826816183251415,338.06234547405523,-79.51148118267696,-6.291659808393431,1.06943902491318,-1.6615776058793874
GUIDED_NOGPS,2.995551586151123,22.406427625112183,338.51705757682674,-79.28488141365092,-6.321764007954175,-0.2980995700364607,326.5042727851628,-73.42157870501879,-23.699609047116255,-0.031242579264320922,-0.557646419195754,-4.189040395333445,-0.22121362809450276,-0.4990878541009457,0.014904978501823036,0.48262215496083793,337.99906287236496,-80.40191712000144,-6.479405095586087,1.079844864328237,-1.3178029288008934
GUIDED_NOGPS,3.038522481918335,23.274793571872504,338.36728271704203,-80.10510514089327,-6.416823333188532,-0.35067953270632846,325.9084007025549,-73.11983324232786,-23.90060232327149,-0.13674884487883845,-0.45084157720550105,-4.265109065893523,-0.252404318071084,-0.5247689737605864,0.017533976635316424,0.48251622100991703,337.99906287236496,-80.40191712000144,-6.479405095586087,1.079844864328237,-1.7188733853924698
GUIDED_NOGPS,3.080409288406372,23.881206158331057,338.00170829970654,-80.88461164416584,-6.506027239659555,-0.41474140922346325,325.31102031113113,-72.81732398258248,-24.10553238107551,-0.25088042545567885,-0.43832589588168736,-4.369048750248662,-0.29575127402585993,-0.5297304274569784,0.020737070461173165,0.48240049485858405,337.3786682979231,-81.85000069249469,-6.559271527806498,0.7697651622257524,-2.0626480624709638
GUIDED_NOGPS,3.1250574588775635,22.402358646769144,337.6215865773817,-81.8584780451912,-6.592224340082894,-0.4838833603815361,324.712561388921,-72.51426856237643,-24.314386526167105,-0.33150504563556715,-0.5314335405434202,-4.45400264314528,-0.35019092938070495,-0.5384243038921308,0.024194168019076808,0.4822778378139158,336.6687933702011,-83.32351632307751,-6.737996396856108,0.8300821384102903,-2.119943841984046
GUIDED_NOGPS,3.162611961364746,26.63337630093407,337.3068417676731,-83.00764797243754,-6.644572450997835,-0.5697059566788103,324.1134548813006,-72.21088520943954,-24.527150623580326,-0.43817472458544793,-0.209512210808733,-4.525696577541965,-0.4185090559957889,-0.5529287723369853,0.028485297833940517,0.4821174218274175,336.4886214255123,-83.84942690174043,-6.636449428330908,0.6853187736307405,-2.5783100780887045
GUIDED_NOGPS,3.2047386169433594,23.740492321973363,337.14873699096444,-83.90667875838763,-6.674683107471403,-0.647286618645333,323.51413243405364,-71.9073925061833,-24.743809116332912,-0.48017622583450087,-0.41684537782882036,-4.628290287743789,-0.456953135139321,-0.5740272999579125,0.03236433093226665,0.4819308739911385,337.20853898882126,-84.54709305034498,-6.649603497227206,0.43848926608517047,-2.46371851906254
GUIDED_NOGPS,3.2455406188964844,24.51275517658541,336.716282539442,-84.67290234080225,-6.674398601822688,-0.7290156149519293,322.9150259264332,-71.60400915324642,-24.964345044014745,-0.5444108999664444,-0.5002212835837545,-4.683312157263296,-0.4980805491422988,-0.5749170603703686,0.036450780747596466,0.48171005355780794,335.83679061475266,-85.62218707032139,-6.7371428799099595,0.1880580329501811,-1.8907607239317168
GUIDED_NOGPS,3.2895071506500244,22.750494952837098,336.407907002808,-85.2638223969959,-6.707963085682372,-0.8058863066179299,322.3165670042231,-71.30095373304036,-25.18874006137631,-0.6613698853749792,-0.2640190413761388,-4.809047402146768,-0.5286172835344741,-0.5896683345888677,0.0402943153308965,0.48151922302430605,335.83679061475266,-85.62218707032139,-6.7371428799099595,0.1880580329501811,-2.177239621497128
GUIDED_NOGPS,3.33160400390625,23.76026194441612,336.11214916803584,-86.03105260862957,-6.806515469087671,-0.8828995849379783,321.7191866127993,-70.99844447329498,-25.416974456917146,-0.7247148740066758,-0.4473018316681419,-4.882713980553117,-0.5770468867278888,-0.6028841479264828,0.04414497924689892,0.4813895410121705,335.19000419634034,-86.84878368524595,-6.945260647443101,-0.4641919597060138,-1.5469860468532228
GUIDED_NOGPS,3.380430221557617,20.484100820965136,335.7425759198362,-86.62158418006834,-6.91218136462772,-0.9675194630244205,321.1233145301914,-70.69669901060405,-25.64902717147426,-0.8066207416253233,-0.445937928268255,-4.9958287433976984,-0.6064163463066268,-0.6101290927571382,0.048375973151221024,0.48126315419315346,334.6407551845142,-87.39378178463772,-7.054140566530108,-0.6764034517289446,-2.521014298575622
GUIDED_NOGPS,3.421825647354126,24.171597837738155,334.908656357232,-87.59533811289934,-7.109378831102997,-1.0603738610412783,320.529378900144,-70.39593415397088,-25.88487581681062,-0.8480010158250224,-0.5319667221855043,-5.068754246279101,-0.6707230041859588,-0.5906611848502689,0.053018693052063914,0.48122450301429237,333.0389411758005,-88.54344886881438,-7.328735279335789,-0.9291705446694039,-1.6615776058793874
GUIDED_NOGPS,3.463454008102417,24.022772441679983,334.1966492762147,-88.34355912031587,-7.327491982076341,-1.1172221385835213,319.93780576517827,-70.09636564835385,-26.124496694203575,-0.8595208769121894,-0.5123102915278539,-5.11905645508213,-0.7075680648164216,-0.5893769824522349,0.05586110692917606,0.48120299528787275,332.27675520966596,-89.09344670749554,-7.599600100363132,-0.6601574650362068,-1.1459155902616465
GUIDED_NOGPS,3.5006790161132812,26.87088941707081,333.3499721509411,-89.10091979578057,-7.597362587751669,-1.176240645140229,319.3490185996532,-69.79820793821199,-26.36786481303331,-0.8633342035423193,-0.42468899631693374,-5.154881651052492,-0.753764337884032,-0.5755414973483802,0.058812032257011454,0.48122949777471835,331.60340498838445,-89.66586381103184,-7.8637523835560925,-1.0497773468923413,-1.5469860468532228
GUIDED_NOGPS,3.548036813735962,21.120312602283086,332.5361207795575,-89.67925043811739,-7.780193203039407,-1.2162984917773354,318.7634378428273,-69.50167393105058,-26.6149539093713,-0.8663031480363063,-0.4720230610387684,-5.192374693840808,-0.7798549843278916,-0.5691646640003036,0.060814924588866774,0.4811652392936681,331.1207473394225,-90.27844079582485,-7.877227125199002,-0.5135814653209678,-1.0313240312354819
GUIDED_NOGPS,3.5902211666107178,23.710966516481715,331.59364476882473,-90.57124629314804,-7.954386554702779,-1.2478417011337868,318.18148043191985,-69.20697476096673,-26.865736464568755,-0.8460937388601493,-0.4737645458337101,-5.211658879188693,-0.8380461890673105,-0.551527866553351,0.06239208505668934,0.481088650090134,329.9283751308504,-91.76943427258752,-8.122180155353247,-0.28865413655577754,-0.17188733853924698
GUIDED_NOGPS,3.6320204734802246,23.929574330916207,330.9749656117178,-91.53177653050305,-8.093484991058421,-1.2625865704987391,317.60355933517235,-68.91431955219488,-27.120183723845066,-0.8638782174375401,-0.548992035908819,-5.236032409241884,-0.8906199253998245,-0.5580911447104105,0.06312932852493695,0.4809733012672134,329.9455453902658,-92.54745452309686,-8.281047692623018,-0.17981868401049894,-0.5156620156177409
GUIDED_NOGPS,3.6767351627349854,22.367712621856267,330.43730761505174,-92.56911706897644,-8.282262346498134,-1.244929252480672,317.0300830849101,-68.62391518265252,-27.378265714876246,-0.8661822857045087,-0.49227286438056367,-5.19904351979168,-0.944596946051545,-0.5618931788464849,0.062246462624033605,0.48090399663162187,329.5884652263354,-93.39046241124505,-8.443559191518146,-0.28160137548061925,1.260507149287811
GUIDED_NOGPS,3.729710102081299,18.879824269213803,329.86192690037444,-93.41958998789316,-8.44464980387437,-1.2050054673181119,316.4614553106034,-68.33596604748558,-27.639951266383402,-0.8892481013359063,-0.509032654499894,-5.139205513133668,-0.983386459480466,-0.5614056105554226,0.0602502733659056,0.48080469853749097,328.72650141499827,-94.32085302933761,-8.609342527481955,-0.14442071854371363,1.1459155902616465
GUIDED_NOGPS,3.7658872604370117,27.656879100590157,329.2079581381337,-94.64421294021325,-8.587613437580556,-1.1415489464029427,315.8980742719295,-68.0506738226142,-27.905208026721162,-0.9212815284607074,-0.45031629296964476,-5.084306160132397,-1.0649967411658676,-0.5558843620290801,0.057077447320147134,0.4806824054108594,327.85090352821845,-96.22132338005711,-8.709938593741578,-0.2587270222420699,1.604281826366305
GUIDED_NOGPS,3.809108257293701,23.140859912497035,328.5998530729779,-95.95984858506625,-8.691513506153848,-1.0762789462940578,315.34033239183333,-67.76823722827811,-28.174002482466125,-0.9097861066441644,-0.5889207881881846,-4.991888578020247,-1.1252924645765867,-0.5557862007697212,0.0538139473147029,0.4805175110236877,326.88784980507154,-97.33736934580406,-8.755259397238026,-0.0495304438582167,1.948056503444799
GUIDED_NOGPS,3.8521952629089355,23.21219298925255,327.8603214946765,-97.35429715811166,-8.733184550201345,-0.9821801386376043,314.7886157895894,-67.48885179258235,-28.446299977005324,-0.9421177675757718,-0.5331918873678754,-4.894551979045219,-1.1954345974623053,-0.5456437074520825,0.04910900693188022,0.480286884573196,326.24788749875904,-98.50419874847387,-8.734355659624448,0.014085414829850151,2.635605857601787
GUIDED_NOGPS,3.8930323123931885,24.49300125551111,326.84696113665876,-98.93756445410376,-8.767113541120004,-0.8731160342851828,314.2433038138633,-67.21270961504278,-28.72206472912466,-0.96323927381039,-0.46746647108872363,-4.770136241332028,-1.2778673779130756,-0.5203159296191937,0.043655801714259146,0.48004504881199533,324.5216634362465,-100.9711252680334,-8.81172556649755,-0.3268190274534959,2.9220847551671985
GUIDED_NOGPS,3.931450605392456,26.03540657976412,325.7339826937208,-100.56640813294125,-8.755234499045256,-0.7468348556853517,313.70476857577285,-66.93999913013172,-29.001259851597354,-0.9257454839701339,-0.5832652848337082,-4.6502557492277266,-1.359151206359017,-0.49431596069565414,0.037341742784267586,0.4797539746474479,323.16160920030836,-102.22390038231653,-8.719622271013787,-0.5485061206606616,3.8388172273765155
GUIDED_NOGPS,3.9770724773406982,21.92377935634275,324.7776519841367,-102.2803972808263,-8.783428495547497,-0.625654976741279,313.17337448194974,-66.67090487082342,-29.283847369772403,-0.9290794700587464,-0.5949068086654661,-4.483271284399255,-1.434031621233828,-0.4834971088432095,0.03128274883706395,0.47949958112577507,323.06924998029785,-103.64616619212903,-8.81893764913117,-0.3203013519192126,3.151267873219528
GUIDED_NOGPS,4.018547058105469,24.11642201254607,323.69530722268445,-103.65659689017122,-8.775905863033588,-0.47290757567306607,312.64947776760096,-66.40560723213967,-29.569788240163014,-0.9307346169937109,-0.6586445331744384,-4.334097818492061,-1.4974139935964819,-0.45744388142197684,0.023645378783653304,0.4792061176228706,321.4761259978104,-105.09972409606813,-8.78915766895582,0.06707242262588409,3.6096341093241864
GUIDED_NOGPS,4.058123350143433,25.273742882106596,322.3548814044987,-105.63620771083178,-8.822722307329894,-0.32349401266454936,312.13342602957005,-66.14428223469547,-29.85904236903506,-0.9713574872474791,-0.5419963213731391,-4.202664061406682,-1.6062269034561363,-0.4172867774521204,0.016174700633227467,0.4789636799382948,319.54575840783014,-108.1627328442982,-8.860071603902703,0.3180948125591385,3.8388172273765155
GUIDED_NOGPS,4.100482940673828,23.616709553544784,321.072924557148,-107.5998063973729,-8.805060538038338,-0.2009713184365862,311.625557759399,-65.88710128824451,-30.15156863099554,-1.0000837687926718,-0.41696170448812214,-4.029765079643802,-1.6915045962012463,-0.38969316944663984,0.01004856592182931,0.4786534919070428,318.1118791994928,-109.5369622517524,-8.765952341256508,0.30067783318133934,2.7501974166279517
GUIDED_NOGPS,4.144974231719971,22.479922821309895,319.6811037402007,-109.56750321909108,-8.771769830697973,-0.06395313131825875,311.126201876389,-65.63423095522468,-30.44732488758101,-1.0620395609802111,-0.41309346954036774,-3.895007154866743,-1.7801176405960615,-0.35247849242585655,0.0031976565659129377,0.478324444943117,316.2025051155721,-111.00281456122272,-8.689285546934727,1.0760766794541041,3.151267873219528
GUIDED_NOGPS,4.180311441421509,28.305657346857515,317.9914665359157,-111.5247333015313,-8.744594341043092,0.08218007927776236,310.63567726066276,-65.38583271430386,-30.746268005846026,-1.0901242316302457,-0.6087620608402485,-3.812361439022766,-1.8826965413308365,-0.2908019558496734,-0.004109003963888118,0.47799832633519707,314.62106395887315,-114.03442309161885,-8.778545134938062,1.3741519963220554,3.380450991271857
GUIDED_NOGPS,4.229832887649536,20.20319258595609,316.6204541281283,-113.02388691482012,-8.748791938936945,0.17180688305633468,310.154292286225,-65.14206272392529,-31.04835387695163,-1.236146525730831,-0.6168487913741321,-3.6978277043781147,-1.9276488412916937,-0.27145753423993646,-0.008590344152816735,0.4777004380619853,314.62106395887315,-114.03442309161885,-8.778545134938062,1.3741519963220554,1.604281826366305
GUIDED_NOGPS,4.27081561088562,24.403933205329608,315.1807044180604,-114.96401350507779,-8.890206292671238,0.27194131286017226,309.6823443540245,-64.90307158585323,-31.353537434753733,-1.397194915840327,-0.6690175628112779,-3.6419337050789613,-2.0344301963083495,-0.2275195081756442,-0.013597065643008614,0.4775366688579175,312.3470098574905,-116.8231943319957,-9.11352860813761,1.5396569942889329,1.088619810748564
GUIDED_NOGPS,4.318055868148804,21.171164077248452,313.787045707539,-116.31785913154424,-9.112109096349892,0.3055385346181101,309.2201194250157,-64.66900410871847,-31.66177267439165,-1.6150478548427034,-0.41522598266529265,-3.632878154899994,-2.081124220777646,-0.19423685588313444,-0.015276926730905506,0.4774503364219582,311.14358564688575,-118.09595997101819,-9.444253545974027,1.6409192773358825,-0.5156620156177409
GUIDED_NOGPS,4.366111993789673,20.812822230492493,312.3322097516954,-118.35634538504907,-9.552300775646204,0.31870632934243687,308.7678915532195,-64.4399990715641,-31.97301267087646,-1.7807472836118607,-0.4425732063283775,-3.6680532022387364,-2.187915624214751,-0.1531953422511063,-0.015935316467121843,0.47757928810476974,308.92832533635425,-120.14988185213338,-10.099120172826998,1.6643676994453642,-0.5156620156177409
GUIDED_NOGPS,4.411887168884277,21.86651652121326,310.9695130345217,-119.7126130606248,-9.930850117855654,0.29861095005438226,308.32592241878524,-64.21618898739084,-32.287209597679535,-1.9158669949715188,-0.1834428728506753,-3.7334010371228334,-2.241005518180089,-0.1172341070885516,-0.014930547502719113,0.4776436405201761,307.8075803730044,-120.89199735872289,-10.249176634765957,2.078086034127196,-1.604281826366305
GUIDED_NOGPS,4.450406312942505,25.96706371808524,309.20032916925413,-121.00868070739453,-10.146319357539477,0.2310908659692386,307.89446086105187,-63.997699866702725,-32.6043147453209,-1.9633780042815392,-0.3274759810772001,-3.795855006232961,-2.308658316685801,-0.04909877436226703,-0.011554543298461931,0.4775420046122186,305.77514463253533,-121.98416291132736,-10.090661265025497,1.166278739432883,-2.5783100780887045
GUIDED_NOGPS,4.501284837722778,19.656776503559428,307.8859561242631,-121.62010772712586,-10.143499721605643,0.15194461222975145,307.4737424116095,-63.78465098105268,-32.92427853995777,-2.2511635426483836,-0.083792974181128,-3.994122591233737,-2.32136898878087,-0.03063959256215877,-0.007597230611487572,0.4772192211816479,305.77514463253533,-121.98416291132736,-10.090661265025497,1.166278739432883,-2.807493196141034
GUIDED_NOGPS,4.545374155044556,22.69387136743119,306.52828946394885,-122.19094790562873,-10.071004556211243,0.008139483159866484,307.06398882736096,-63.577154626588126,-33.24705056197294,-2.4318167101099317,0.13975164683398464,-4.164036353442498,-2.3567856701135628,0.01157592524470457,-0.0004069741579933242,0.4768239539942383,304.3552523453145,-122.60451789423155,-10.031691138582758,0.871063708314324,-4.1252961249419275
GUIDED_NOGPS,4.586786508560181,24.15294605426821,305.3913993635382,-122.41968255122146,-9.977302114715265,-0.14754533737898481,306.66540762358295,-63.375315887596486,-33.57257956456328,-2.5749352133179095,0.08935936491127681,-4.372891158543617,-2.368876920206753,0.03701491563734367,0.007377266868949241,0.476404722550152,303.2438748343012,-122.6703668481055,-9.80955394053756,0.7780825490788175,-4.469070802020421
GUIDED_NOGPS,4.626089334487915,25.449947210659808,304.1873376878177,-122.57635291629295,-9.728025736560523,-0.3181288755240217,306.27819160698766,-63.179232400050765,-33.9008134923281,-2.6664648708379577,0.23091524890320264,-4.547432373915062,-2.3840134893332356,0.07292976948865774,0.015906443776201085,0.4758272122442324,301.7872719944018,-122.45417400654185,-9.34283213056127,0.07052786460855032,-4.583662361046586
GUIDED_NOGPS,4.673159837722778,21.24870941430967,303.2101072322961,-122.41885380478709,-9.409490204447328,-0.4813584458239202,305.9025184087842,-62.98899411515521,-34.23169949985771,-2.7572786391556243,0.5349237672092968,-4.759069200442492,-2.3798350240105437,0.08908186860110873,0.02406792229119601,0.4751777907045896,300.8889923549271,-122.13202055971398,-9.07608454224317,-0.008100200211686115,-4.469070802020421
GUIDED_NOGPS,4.71201753616333,25.73840045655656,301.90486827382443,-121.9345385370783,-8.943471760633864,-0.6681168927985386,305.5385500177402,-62.8046830628908,-34.565183970321776,-2.8029399478610406,0.44364149060324976,-4.845139402381585,-2.36173872997004,0.13828055078916465,0.03340584463992693,0.4743782877903121,299.24894984017703,-121.21742104497912,-8.41149860909717,-0.8612385817006611,-3.552338329811104
GUIDED_NOGPS,4.760174989700317,20.7683021633318,300.7133794700261,-121.36012765622836,-8.536792057153072,-0.8118868115333835,305.1864323132429,-62.62637311556084,-34.901212534057834,-2.6922834127874293,0.421954786214813,-5.089597422305042,-2.348196613757183,0.16533749828581648,0.04059434057666918,0.47363557952309526,298.39780832632306,-120.73094136399206,-8.122793020118888,-0.6225139212420174,-3.724225668350351
GUIDED_NOGPS,4.805495738983154,22.07063776047148,299.6290235835546,-120.75487928854618,-8.145123514101458,-0.9716201440426349,304.8462945983609,-62.45412975133655,-35.239730087159664,-2.6220741907615754,0.47384117201846115,-5.21180316693491,-2.332171723923272,0.19435454204191013,0.048581007202131744,0.47290539342694177,297.8220954019437,-120.31627545666743,-7.901078913088326,-0.7063455621115793,-2.807493196141034
GUIDED_NOGPS,4.844133138656616,25.885332707950184,298.60067765018954,-120.19153020330994,-7.927766791309598,-1.1101395041952298,304.51824913290534,-62.288009817802674,-35.58068081006583,-2.4501946147323204,0.37691310373316395,-5.337724107586442,-2.317842346192539,0.2242236479849834,0.05550697520976149,0.47234708598124375,296.64554232757655,-119.52737378927046,-7.759428440721594,-0.8228023952088108,-3.20856365273261
GUIDED_NOGPS,4.889959812164307,21.82612179904147,297.51803017039197,-119.62535432915077,-7.769726880978545,-1.2167026553736393,304.2023906664918,-62.1280612955029,-35.92400818614807,-2.328608069439396,0.3198716326534487,-5.4427711363607685,-2.3055419852537287,0.25396466583980726,0.060835132768681965,0.4718457186948305,295.4757549559391,-119.03241374151452,-7.648673289125725,-1.1719740574771151,-2.46371851906254
GUIDED_NOGPS,4.9356067180633545,21.911409928900174,296.6852153134324,-119.12575062969039,-7.70008132645372,-1.3361760648646912,303.8987959716011,-61.97432306148569,-36.26965502029974,-2.2433647472766984,0.2259134159966377,-5.545131339470341,-2.295697385041716,0.27017443376508155,0.06680880324323456,0.471430426306154,295.084875555379,-118.81746435828627,-7.692142249513852,-1.1854485928212313,-2.6929016371148693
GUIDED_NOGPS,4.975085496902466,25.336643651498402,295.71047769022556,-118.64873281624189,-7.662858863341053,-1.4538218366805375,303.6075233766413,-61.82682465284961,-36.61756345752427,-2.262047022203976,0.3564628770279111,-5.600638579307742,-2.283855546765367,0.3037576903824885,0.07269109183402687,0.4710452954058168,293.5241202102889,-118.09632034892502,-7.647761051383594,-1.268660910263094,-2.5783100780887045
GUIDED_NOGPS,5.011544942855835,27.433833917639056,294.8508826518946,-118.33670168537873,-7.662554784093675,-1.5380877253798717,303.3286122990089,-61.68558603028909,-36.96767500152367,-2.2357796087599877,0.32387775204507274,-5.671036058422595,-2.2829241716230197,0.325530917014629,0.0769043862689936,0.47069487978257,293.5241202102889,-118.09632034892502,-7.647761051383594,-1.268660910263094,-2.119943841984046
GUIDED_NOGPS,5.048877239227295,26.792789339874542,294.02659094999876,-117.97452852887686,-7.718311282610728,-1.623739801652502,303.06208277815017,-61.55061734163982,-37.31993053328689,-2.184369628650948,0.10570806301993703,-5.786052175177378,-2.274477192144986,0.34740285834023876,0.0811869900826251,0.47039838074932383,292.5240838180973,-117.73094488878063,-7.859411745065006,-1.3496410294098098,-2.521014298575622
GUIDED_NOGPS,5.09440016746521,21.970864784733607,293.0956763489201,-117.61093243462132,-7.956377907138433,-1.7054296495887578,302.80793500862296,-61.42191868542449,-37.67427032967831,-2.12966173438985,0.17375232852230812,-5.920608609373922,-2.2685674405687637,0.37483589803130024,0.08527148247943789,0.47028210757746014,290.8211819505457,-117.00553206615842,-8.36196092496671,-1.4415620061990921,-2.177239621497128
GUIDED_NOGPS,5.137338399887085,23.293406788697354,292.0329366093664,-117.0851718956355,-8.251122155823301,-1.7984323407490113,302.5661488731577,-61.29947987439833,-38.030634082026175,-2.110575411084484,0.19785307789552123,-6.002846648301814,-2.2506080979868295,0.4123609178075163,0.08992161703745057,0.4702204880737971,289.7711768576107,-116.51903873196754,-8.531993797438203,-1.4821725435422621,-1.8907607239317168
GUIDED_NOGPS,5.181113958358765,22.84877538568814,291.1834594415178,-116.55053058388292,-8.52444976570892,-1.8900271149605967,302.3366834757192,-61.18328019909454,-38.38896091471109,-2.1281040243722638,0.24225507047271633,-6.112046005204685,-2.236101046577589,0.43273269068119613,0.09450135574802984,0.4701354888509978,289.27673437104573,-116.1270209535229,-8.679394574721861,-1.3122576457410844,-2.635605857601787
GUIDED_NOGPS,5.221309423446655,24.884037163164326,290.0166741393094,-115.93957449229934,-8.590525707857386,-1.9941899492886306,302.119476674568,-61.07328819137008,-38.74918940375442,-2.1781755008473924,0.40552604682681676,-6.221965093291347,-2.2152398821298944,0.4808596031053567,0.09970949746443153,0.46984133630410296,287.69019369924683,-115.17266379140769,-8.560188751412099,-1.5213512283797002,-2.7501974166279517
GUIDED_NOGPS,5.271219730377197,20.03737746268942,288.8405194998171,-115.25985766245138,-8.565626239555874,-2.104371391082836,301.9144446153216,-60.969461387951114,-39.11125759540673,-2.338757943989447,0.5209963711614061,-6.383432045930918,-2.1960978429242357,0.5157808392125518,0.1052185695541418,0.46945436864414913,286.6433106206361,-114.4798882424237,-8.457295392533666,-1.9080615097775677,-3.323155211758775
GUIDED_NOGPS,5.313640832901001,23.57979952439045,287.62450657135804,-114.25010499882376,-8.328340416600335,-2.268700808176262,301.7214812640161,-60.87174609397857,-39.47510302473627,-2.507657423106461,0.5837871539749795,-6.552069843425356,-2.151726690828945,0.5622305571383616,0.1134350404088131,0.4688532373918641,284.74111730825024,-113.09776296264003,-7.967537105855253,-2.1968816555327493,-3.9534087864026803
GUIDED_NOGPS,5.359610080718994,21.757397186371747,286.48398599159606,-113.32328995713154,-8.162659075270442,-2.427622538111491,301.54045794016787,-60.780077146553836,-39.8406627342174,-2.7034620845812127,0.6649178484836835,-6.73806229782715,-2.123847000935773,0.5982662153733608,0.12138112690557455,0.46832199634105304,284.06857395880064,-112.39221866633102,-8.063144727422419,-2.1304675889131346,-4.354479242994256
GUIDED_NOGPS,5.399181842803955,25.280445540078716,285.33056971209265,-112.3048942960196,-8.063384572144548,-2.6120436887713887,301.37122284983434,-60.69437767828424,-40.20787329231908,-2.8688064502352355,0.6380421213167411,-6.945102407043161,-2.083828095980623,0.6416006212849933,0.13060218443856944,0.4678555112798255,283.5096529735287,-111.4247012590879,-8.159471883155978,-2.4513299114196485,-4.755549699585833
GUIDED_NOGPS,5.4431915283203125,22.725471923018574,284.3107623125141,-111.41714776821372,-8.184183234716533,-2.803021705675328,301.2136006186762,-60.61455888082851,-40.57667081209321,-2.935352129545023,0.536282121080483,-7.116285303777075,-2.05862962628614,0.6719032111844155,0.1401510852837664,0.46760751242262333,282.59115670135407,-110.4345233792224,-8.32993309357121,-2.736152291766629,-5.385803274229739
GUIDED_NOGPS,5.486504793167114,23.092827097143612,283.3389340204791,-110.38468256431328,-8.335193236003441,-3.008072343703276,301.0673918250184,-60.54051976844271,-40.94699096976326,-3.091499005151389,0.8342000316376298,-7.356288759701214,-2.0186432569952215,0.7052039117823486,0.15040361718516382,0.46738820226624017,281.78416916046103,-109.2948230546297,-8.516174731283138,-2.4579862454243226,-5.099324376664327
GUIDED_NOGPS,5.52998948097229,23.001645205870094,282.407992080884,-108.83906310953098,-8.53569812456915,-3.222886967964848,300.93237253291136,-60.47214694152534,-41.31876902331252,-3.1585667670458597,0.7159357330456821,-7.62321767510719,-1.9497178660350738,0.737130223404184,0.16114434839824243,0.4672169291012566,280.08640761027505,-106.78784289474103,-8.760986548853108,-2.8527176915812475,-5.385803274229739
GUIDED_NOGPS,5.573949337005615,22.753210118314627,281.6810495902195,-107.1975476792066,-8.764722170273137,-3.4409731848640046,300.8082938251932,-60.40931435016337,-41.69193983107267,-3.388006054758105,0.9194350295072767,-7.882250891832631,-1.8869235387969874,0.7573960163272553,0.17204865924320023,0.46707278233920047,280.4338615054782,-105.50997708824923,-9.017005230683171,-3.365742948952274,-5.500394833255903
GUIDED_NOGPS,5.6132423877716064,25.452881598669798,280.83106796460567,-104.93055132038006,-8.967940072026378,-3.6602050047498427,300.6948813365505,-60.35188305767751,-42.0664378703122,-3.450827786866355,0.9902094496869489,-8.103475596407467,-1.7799274450588365,0.7926938455188313,0.18301025023749215,0.46690150220171417,279.25974484545935,-102.49383397815014,-9.125828436542859,-4.0093936432964625,-4.698253920072751
GUIDED_NOGPS,5.652944087982178,25.195857462094818,280.0761868331894,-102.97807003516225,-9.124753556375326,-3.8473000786413287,300.59183478657997,-60.2997010041678,-42.44219725582486,-3.464708652250525,0.9641638039475746,-8.257002881023721,-1.7136606370596883,0.8173561250258514,0.19236500393206646,0.46668255630055044,278.81675104427296,-100.93039903908758,-9.231427001899952,-4.188981912837832,-4.755549699585833
GUIDED_NOGPS,5.695891380310059,23.311661099470328,279.36249118806757,-100.93149655662027,-9.146982585271031,-4.007242633991383,300.49882751284974,-60.25260277005937,-42.8191517585181,-3.5023506785401115,1.2200156466236707,-8.45387113101829,-1.636898902941138,0.8410657158365237,0.20036213169956915,0.46632783082675294,278.2156909348516,-99.37025665262331,-9.083692317370286,-4.396392023910252,-3.323155211758775
GUIDED_NOGPS,5.741669178009033,21.847722928028585,278.8912894124634,-99.38630514177494,-9.041833060209427,-4.143735755813585,300.4155060039613,-60.21040933964797,-43.197234824001534,-3.456085965310207,1.3584471459571388,-8.581958522297187,-1.5924503278379305,0.8515478863279388,0.20718678779067928,0.4658445982362079,277.73039873225423,-97.85825973361415,-8.810379861358049,-4.364466586412249,-2.2345354010102105
GUIDED_NOGPS,5.785210609436035,22.9715368564027,278.2195803573586,-97.8152833217597,-8.773835574480918,-4.240382808006203,300.3414894326104,-60.17292786464522,-43.57637959117535,-3.4047041597314935,1.5372149677643518,-8.651977352799925,-1.5299886772041937,0.8817936697958443,0.21201914040031014,0.4651974559833056,277.07531622995424,-96.21733357904176,-8.427434544714423,-4.561366138187509,-1.0313240312354819
GUIDED_NOGPS,5.832626819610596,21.095349702755172,277.50289471783447,-95.87164372978675,-8.220091630657373,-4.274358239035799,300.27636918864863,-60.13995142772477,-43.95651891081883,-3.3280011353522503,1.8632933213826381,-8.641674012436962,-1.4502678861286282,0.9089004193024202,0.21371791195178994,0.46426357271983854,275.6763166478386,-93.53933787670451,-7.422460485899653,-4.55354185295613,0.6302535746439055
GUIDED_NOGPS,5.882808208465576,19.930831626616232,276.75665067042735,-94.0152115768566,-7.576456401458112,-4.254054983682897,300.2197084121449,-60.111258806067255,-44.33758536417871,-3.100218381957145,1.8048759940719885,-8.584361041337738,-1.3832134749430782,0.9375011505673674,0.21270274918414486,0.4632388710372794,275.0855308072372,-92.28896327482367,-6.879474173760264,-4.3479146133689,1.8907607239317168
GUIDED_NOGPS,5.928182125091553,22.04198920577864,275.9478632667252,-92.02030333119149,-6.6681881973898,-4.166759755237554,300.171041526447,-60.08661423490635,-44.7195112815577,-2.8853203535444454,2.0766880678477,-8.438974488438493,-1.2986860278393275,0.9720816750727711,0.20833798776187773,0.4619486769158321,274.1717539163412,-90.23260884204646,-5.702629932509489,-4.8099413221357565,3.495042550298022
GUIDED_NOGPS,5.975551128387451,21.116378355518858,275.16657025555594,-90.60935909506127,-5.902874390030359,-4.006848665977181,300.1298737712432,-60.065767171074114,-45.10222876090289,-2.5547400514894743,2.0261361302531435,-8.203810221541309,-1.2583468961306752,1.0018528972196248,0.20034243329885904,0.4608006456291275,273.82393367640765,-89.30650516831385,-5.126519063821327,-4.515265110468135,5.557690612768986
GUIDED_NOGPS,6.011754751205444,27.62445581658796,274.1309011979167,-89.10496392801561,-4.980815591178121,-3.78557930302806,300.09568073562275,-60.04845205654668,-45.48566968639422,-2.2904734157559226,2.075672930982307,-7.986729734245378,-1.1886681651348552,1.0545975574994861,0.189278965151403,0.4594951459047839,271.89697094175807,-87.77577777368673,-4.113297777203551,-4.629858768016646,5.958761069360562
GUIDED_NOGPS,6.0534586906433105,23.98417182264207,273.27899433650254,-88.1454550556058,-4.36508934343653,-3.5569756813929074,300.06790789113876,-60.034388081989576,-45.86976574703293,-1.9689085365185452,1.9493229690735339,-7.689548203458123,-1.1700210644920577,1.0810604152312517,0.17784878406964538,0.4584953235964036,271.41678234076755,-87.35408222481699,-3.8554511892847154,-4.338452913555045,7.7349302342661135
GUIDED_NOGPS,6.0937340259552,24.834237264050397,272.28140976772363,-87.35639778606156,-3.8464401940185966,-3.2469851433851202,300.0459701248683,-60.023278950303606,-46.25444845522999,-1.6626950410493007,1.8999991848691098,-7.304990623939833,-1.1434065380724507,1.1256295184576535,0.16234925716925602,0.4575919917387886,270.0976079633426,-86.93933335968114,-3.5705716155675282,-4.122600999993139,9.339212060632418
