E-kp,E-ki,E-kd,E-I-Tot,E-P,E-I,E-D,E-PID,N-kp,N-ki,N-kd,N-I-Tot,N-P,N-I,N-D,N-PID,D-kp,D-ki,D-kd,D-I-Tot,D-P,D-I,D-D,D-PID,Y-kp,Y-ki,Y-kd,Y-I-Tot,Y-P,Y-I,Y-D,Y-PID,errorN,desiredN,actualN,errorE,desiredE,actualE,errorD,desiredD,actualD,errorY,desiredY,actualY,roll,pitch,yaw-rate,thrust,dt,Time,Mode
0.2,0.015,0.15,-0.0006667257360255939,-0.004035544041842678,-1.000088604038391e-05,-0.09159847239472753,-0.09564401732261059,0.2,0.015,0.15,-9.511785381420851e-05,-0.0005757274205747127,-1.4267678072131275e-06,-0.013067817298884125,-0.013644971487266051,0.002,8e-05,0,-0.023535165931473024,-0.001424531760461228,-1.8828132745178421e-06,-0.0,-0.0014264145737357457,0.2,0.02,0.0,0.0005444444295080764,0.0032954022244784196,1.0888888590161528e-05,0.0,0.0033062911130685812,-0.0028786371028735633,0.0,0.0028786371028735633,-0.02017772020921339,0.0,0.02017772020921339,-0.712265880230614,0.0,0.712265880230614,0.016477011122392096,0,-0.016477011122392096,-0.0956400893728228,0.013672476046956693,-0.0033062911130685812,0.4,0.03304266929626465,0.033425092697143555,STABILIZE
0.2,0.015,0.15,-0.001342869838289084,-0.004044141051978846,-2.014304757433626e-05,-0.045895649229455125,-0.049959933329008305,0.2,0.015,0.15,-7.08212748580438e-05,0.00014532226495851328,-1.062319122870657e-06,0.0015524592121374872,0.0016967191579731298,0.002,8e-05,0,-0.04700866601565641,-0.0014039928028105626,-3.760693281252513e-06,-0.0,-0.001407753496091815,0.2,0.02,0.0,0.0010012725604093547,0.0027323722734427878,2.0025451208187094e-05,0.0,0.002752397724650975,0.0007266113247925664,0.0,-0.0007266113247925664,-0.02022070525989423,0.0,0.02022070525989423,-0.7019964014052813,0.0,0.7019964014052813,0.013661861367213937,0,-0.013661861367213937,-0.0499603364820376,-0.00168480644038728,-0.002752397724650975,0.4,0.03343820571899414,0.06669950485229492,STABILIZE
0.2,0.015,0.15,-0.0019951222255018444,-0.0039000724156702167,-2.9926833382527665e-05,-0.02952029600224191,-0.03345029525129466,0.2,0.015,0.15,-9.393850961194765e-05,-0.00013822699825683272,-1.4090776441792146e-06,-0.001084342279192682,-0.001223978355093694,0.002,8e-05,0,-0.0704001736317983,-0.0013986698309299804,-5.632013890543864e-06,-0.0,-0.0014043018448205242,0.2,0.02,0.0,0.0014411261797956745,0.0026300570170879585,2.882252359591349e-05,0.0,0.002658879540683872,-0.0006911349912841636,0.0,0.0006911349912841636,-0.019500362078351083,0.0,0.019500362078351083,-0.6993349154649902,0.0,0.6993349154649902,0.013150285085439792,0,-0.013150285085439792,-0.03345001344792086,0.0012316556931370633,-0.002658879540683872,0.4,0.033448219299316406,0.10020709037780762,STABILIZE
0.2,0.015,0.15,-0.0026692742340883304,-0.004011603047750718,-4.0039113511324954e-05,-0.02276241563050107,-0.026814057791763112,0.2,0.015,0.15,-0.00017963368961946435,-0.0005099369888647273,-2.694505344291965e-06,-0.00288690754065589,-0.003399539034864909,0.002,8e-05,0,-0.09382489947005014,-0.0013939096875567748,-7.505991957604012e-06,-0.0,-0.0014014156795143788,0.2,0.02,0.0,0.001745377562002813,0.00181047561469654,3.490755124005626e-05,0.0,0.0018453831659365962,-0.0025496849443236366,0.0,0.0025496849443236366,-0.020058015238753592,0.0,0.020058015238753592,-0.6969548437783873,0.0,0.6969548437783873,0.009052378073482699,0,-0.009052378073482699,-0.026813520350999608,0.0034037754473690146,-0.0018453831659365962,0.4,0.03361010551452637,0.13381028175354004,STABILIZE
0.2,0.015,0.15,-0.003339442631060304,-0.004011059009672206,-5.009163946590456e-05,-0.018207490391888966,-0.022268641041027076,0.2,0.015,0.15,-0.00021460847295415474,-0.00020932935727766035,-3.219127094312321e-06,-0.0009601394964300167,-0.0011726879808019895,0.002,8e-05,0,-0.11671483269735172,-0.0013699970532332164,-9.33718661578814e-06,-0.0,-0.0013793342398490047,0.2,0.02,0.0,0.0020375855167781153,0.001748908714578466,4.0751710335562306e-05,0.0,0.0017896604249140284,-0.0010466467863883017,0.0,0.0010466467863883017,-0.020055295048361028,0.0,0.020055295048361028,-0.6849985266166082,0.0,0.6849985266166082,0.00874454357289233,0,-0.00874454357289233,-0.022268461804771357,0.0011760866311084446,-0.0017896604249140284,0.4,0.033416032791137695,0.16718554496765137,STABILIZE
0.2,0.015,0.15,-0.004060866643390961,-0.004317061563702221,-6.0912999650864415e-05,-0.0012611545499777899,-0.005639129113330876,0.2,0.015,0.15,-0.00012417143727837617,0.0005411827773652262,-1.8625715591756425e-06,0.00502176945176315,0.0055610896575692004,0.002,8e-05,0,-0.13904781779645145,-0.0013364244872108308,-1.1123825423716118e-05,0.0,-0.001347548312634547,0.2,0.02,0.0,0.0024277727396371453,0.0023349129411572404,4.8555454792742906e-05,-0.0,0.0023834683959499834,0.0027059138868261307,0.0,-0.0027059138868261307,-0.021585307818511104,0.0,0.021585307818511104,-0.6682122436054154,0.0,0.6682122436054154,0.011674564705786202,0,-0.011674564705786202,-0.0056402621216248795,-0.005559940515482392,-0.0023834683959499834,0.4,0.033421993255615234,0.20064353942871094,STABILIZE
0.2,0.015,0.15,-0.004769570669292968,-0.0042356262281549924,-7.154356003939451e-05,-0.0008575607456533165,-0.005164730533847703,0.2,0.015,0.15,1.812474608720152e-05,0.0008504445077230739,2.718711913080228e-07,0.0031734678856022856,0.004024184264516667,0.002,8e-05,0,-0.16140819812761947,-0.0013363859938804962,-1.2912655850209559e-05,0.0,-0.0013492986497307057,0.2,0.02,0.0,0.0026154880915492252,0.0011218957970136998,5.2309761830984504e-05,-0.0,0.0011742055588446843,0.004252222538615369,0.0,-0.004252222538615369,-0.02117813114077496,0.0,0.02117813114077496,-0.668192996940248,0.0,0.668192996940248,0.005609478985068498,0,-0.005609478985068498,-0.005165124492338382,-0.004023678598085153,-0.0011742055588446843,0.4,0.03346395492553711,0.23409032821655273,STABILIZE
0.2,0.015,0.15,-0.005464207256433268,-0.004154481375154405,-8.196310884649902e-05,-0.0011396595820532861,-0.0053761040660541895,0.2,0.015,0.15,0.00021164470328321978,0.0011574038465226306,3.1746705492482968e-06,0.005821953375168723,0.006982531892240602,0.002,8e-05,0,-0.18375958732646003,-0.0013367915231429534,-1.4700766986116803e-05,0.0,-0.0013514922901290702,0.2,0.02,0.0,0.0026022771099465866,-7.901221736911439e-05,5.2045542198931735e-05,-0.0,-2.6966675170182653e-05,0.005787019232613153,0.0,-0.005787019232613153,-0.02077240687577202,0.0,0.02077240687577202,-0.6683957615714766,0.0,0.6683957615714766,-0.0003950610868455719,0,0.0003950610868455719,-0.005376055920554051,-0.006982568960939608,2.6966675170182653e-05,0.4,0.033440351486206055,0.26754021644592285,STABILIZE
0.2,0.015,0.15,-0.006449973923242408,-0.005320762703056667,-9.674960884863612e-05,-0.00536323458371572,-0.010780746895621023,0.2,0.015,0.15,0.0003685448174070131,0.0008468822323212618,5.528172261105196e-06,0.006223823148496968,0.007076233553079335,0.002,8e-05,0,-0.20842228654970968,-0.0013311909866919698,-1.6673782923976777e-05,0.0,-0.0013478647696159465,0.2,0.02,0.0,0.002637652784166916,0.00019094332799493563,5.2753055683338326e-05,-0.0,0.00024369638367827395,0.004234411161606309,0.0,-0.004234411161606309,-0.026603813515283334,0.0,0.026603813515283334,-0.6655954933459849,0.0,0.6655954933459849,0.000954716639974678,0,-0.000954716639974678,-0.010780864805041687,-0.0070760539130635194,-0.00024369638367827395,0.4,0.037053585052490234,0.3045923709869385,STABILIZE
0.2,0.015,0.15,-0.007327714472503065,-0.005246671507480094,-0.00010991571708754598,-0.005033518037458073,-0.010390105262025714,0.2,0.015,0.15,0.0005847716876933179,0.0012924905434052736,8.771575315399768e-06,0.00687214575711776,0.008173407875838434,0.002,8e-05,0,-0.23037157496366567,-0.0013120130570242962,-1.8429725997093256e-05,0.0,-0.0013304427830213895,0.2,0.02,0.0,0.0025960756848953837,-0.0002485260391528758,5.192151369790768e-05,-0.0,-0.00019660452545496813,0.006462452717026368,0.0,-0.006462452717026368,-0.02623335753740047,0.0,0.02623335753740047,-0.6560065285121481,0.0,0.6560065285121481,-0.001242630195764379,0,0.001242630195764379,-0.010389927994807749,-0.008173633214397525,0.00019660452545496813,0.4,0.03345894813537598,0.3380603790283203,STABILIZE
0.2,0.015,0.15,-0.0081239597231703,-0.004703828392952886,-0.0001218593958475545,-0.001255020230464169,-0.00608070801926461,0.2,0.015,0.15,0.0007560809418837446,0.0010120114790779144,1.134121412825617e-05,0.002261100184801707,0.0032844528780078775,0.002,8e-05,0,-0.2525670922986621,-0.0013112028555165164,-2.0205367383892968e-05,0.0,-0.0013314082229004094,0.2,0.02,0.0,0.0024811007550711917,-0.0006792157804791978,4.9622015101423835e-05,-0.0,-0.000629593765377774,0.0050600573953895715,0.0,-0.0050600573953895715,-0.023519141964764425,0.0,0.023519141964764425,-0.6556014277582581,0.0,0.6556014277582581,-0.003396078902395989,0,0.003396078902395989,-0.006080513330000913,-0.0032848132925760594,0.000629593765377774,0.4,0.03385519981384277,0.37191104888916016,STABILIZE
0.2,0.015,0.15,-0.008909385961173273,-0.004493955312712992,-0.0001336407894175991,-0.000719429325520207,-0.005347025427650798,0.2,0.015,0.15,0.000758018738538393,1.1087446726068713e-05,1.1370281078075895e-05,-0.003420368473031788,-0.003397910745227643,0.002,8e-05,0,-0.27523707549281456,-0.001297103234970999,-2.2018966039425166e-05,0.0,-0.0013191222010104243,0.2,0.02,0.0,0.002407460931745323,-0.0004213432901146357,4.814921863490646e-05,-0.0,-0.00037319407147972923,5.5437233630343564e-05,0.0,-5.5437233630343564e-05,-0.02246977656356496,0.0,0.02246977656356496,-0.6485516174854995,0.0,0.6485516174854995,-0.0021067164505731784,0,0.0021067164505731784,-0.005347150362286956,0.003397714137412408,0.00037319407147972923,0.4,0.03495478630065918,0.40689802169799805,STABILIZE
0.2,0.015,0.15,-0.00962329379164982,-0.0040798523970094125,-0.0001443494068747473,0.0006914791163156363,-0.0035327226875685237,0.2,0.015,0.15,0.000802023637143193,0.00025147992974542316,1.2030354557147895e-05,-0.0037669156765441094,-0.003503405392241538,0.002,8e-05,0,-0.2978267961009834,-0.0012909611274257923,-2.3826143688078673e-05,0.0,-0.001314787271113871,0.2,0.02,0.0,0.002154933508039813,-0.0014431479400188235,4.3098670160796255e-05,-0.0,-0.0014000492698580272,0.0012573996487271158,0.0,-0.0012573996487271158,-0.020399261985047063,0.0,0.020399261985047063,-0.6454805637128962,0.0,0.6454805637128962,-0.007215739700094117,0,0.007215739700094117,-0.003533163872876782,0.0035029604589613627,0.0014000492698580272,0.4,0.034996747970581055,0.44185709953308105,STABILIZE
0.2,0.015,0.15,-0.01036940448690818,-0.0044561106027765736,-0.00015554106730362267,0.003727420856694283,-0.0008842308133859126,0.2,0.015,0.15,0.0008739092756907794,0.00042933355352631886,1.3108639135361691e-05,-0.001713198059963421,-0.0012707558673017403,0.002,8e-05,0,-0.3193980684627578,-0.0012883339710523635,-2.5551845477020626e-05,0.0,-0.0013138858165293841,0.2,0.02,0.0,0.0019829987482443295,-0.001026872166529115,3.965997496488659e-05,-0.0,-0.0009872121915642284,0.0021466677676315942,0.0,-0.0021466677676315942,-0.02228055301388287,0.0,0.02228055301388287,-0.6441669855261818,0.0,0.6441669855261818,-0.005134360832645575,0,0.005134360832645575,-0.0008843446841768038,0.0012706766249487476,0.0009872121915642284,0.4,0.03348708152770996,0.4753575325012207,STABILIZE
0.2,0.015,0.15,-0.011073587801862607,-0.004211788629961237,-0.00016610381702793908,0.0044912472404203185,0.00011335479343114237,0.2,0.015,0.15,0.0008374456754315005,-0.00021809232584475756,1.2561685131472506e-05,-0.006615144886369319,-0.006820675527082604,0.002,8e-05,0,-0.340644660113611,-0.00127077923092063,-2.7251572809088882e-05,0.0,-0.0012980308037297188,0.2,0.02,0.0,0.0017159969342068228,-0.0015969637176293677,3.431993868413646e-05,-0.0,-0.0015626437789452313,-0.0010904616292237877,0.0,0.0010904616292237877,-0.021058943149806185,0.0,0.021058943149806185,-0.6353896154603149,0.0,0.6353896154603149,-0.007984818588146838,0,0.007984818588146838,0.00011240425361672464,0.006820691258128185,0.0015626437789452313,0.4,0.033438682556152344,0.5088183879852295,STABILIZE
0.2,0.015,0.15,-0.011741759019170059,-0.003992297799705855,-0.0001761263852875509,0.0030696951391487454,-0.0010987290458446602,0.2,0.015,0.15,0.0006922505390663696,-0.0008675354586125156,1.0383758085995544e-05,-0.00828274345364949,-0.00913989515417601,0.002,8e-05,0,-0.36173251055543215,-0.0012599911031586693,-2.8938600844434573e-05,0.0,-0.001288929704003104,0.2,0.02,0.0,0.0013496124785690217,-0.0021891332912895686,2.6992249571380433e-05,-0.0,-0.002162141041718188,-0.0043376772930625775,0.0,0.0043376772930625775,-0.019961488998529273,0.0,0.019961488998529273,-0.6299955515793346,0.0,0.6299955515793346,-0.010945666456447843,0,0.010945666456447843,-0.001100475092330186,0.009139685088484926,0.002162141041718188,0.4,0.03347301483154297,0.542283296585083,STABILIZE
0.2,0.015,0.15,-0.012491224361810925,-0.004488192984622788,-0.00018736836542716388,-5.8185409351813175e-05,-0.004733746759401765,0.2,0.015,0.15,0.0007683336170970498,0.00045562552080468635,1.1525004256455747e-05,0.001955317960726564,0.002422468485787706,0.002,8e-05,0,-0.3827580089852967,-0.0012591175226141806,-3.062064071882374e-05,0.0,-0.0012897381633330044,0.2,0.02,0.0,0.001061164745119886,-0.0017273768645992144,2.1223294902397722e-05,-0.0,-0.0017061535696968166,0.0022781276040234315,0.0,-0.0022781276040234315,-0.02244096492311394,0.0,0.02244096492311394,-0.6295587613070903,0.0,0.6295587613070903,-0.008636884322996072,0,0.008636884322996072,-0.004733381537709734,-0.0024231820330404257,0.0017061535696968166,0.4,0.03339719772338867,0.5756642818450928,STABILIZE
0.2,0.015,0.15,-0.013155752555101069,-0.003937687821638695,-0.00019733628832651603,0.0006134528139566087,-0.003521571296008602,0.2,0.015,0.15,0.0007463287262862916,-0.00013039084185880405,1.1194930894294374e-05,-0.0016793784449514039,-0.0017985743559159135,0.002,8e-05,0,-0.40397980339192596,-0.0012575057346260441,-3.231838427135408e-05,0.0,-0.0012898241188973982,0.2,0.02,0.0,0.0005707108401934256,-0.00290620381197408,1.1414216803868511e-05,-0.0,-0.0028947895951702113,-0.0006519542092940202,0.0,0.0006519542092940202,-0.019688439108193474,0.0,0.019688439108193474,-0.628752867313022,0.0,0.628752867313022,-0.0145310190598704,0,0.0145310190598704,-0.0035220273266135574,0.001797681177855908,0.0028947895951702113,0.4,0.0337522029876709,0.6094357967376709,STABILIZE
0.2,0.015,0.15,-0.01380988134747254,-0.003908895995610185,-0.00020714822021208808,0.002427880077455535,-0.0016881641383667385,0.2,0.015,0.15,0.000843756641106501,0.0005822027566172244,1.2656349616597514e-05,0.000717654178118959,0.0013125132843527809,0.002,8e-05,0,-0.42500343543383007,-0.001256315148639908,-3.400027483470641e-05,0.0,-0.0012903154234746143,0.2,0.02,0.0,5.2720426117893056e-05,-0.003095370023392073,1.054408522357861e-06,-0.0,-0.0030943156148697153,0.0029110137830861216,0.0,-0.0029110137830861216,-0.019544479978050925,0.0,0.019544479978050925,-0.628157574319954,0.0,0.628157574319954,-0.015476850116960365,0,0.015476850116960365,-0.0016878095380784576,-0.001312969246723403,0.0030943156148697153,0.4,0.03346872329711914,0.6429023742675781,STABILIZE
0.2,0.015,0.15,-0.01445703808991066,-0.0038647826371107545,-0.0002168555713486599,0.0015294768541854011,-0.0025521613542740127,0.2,0.015,0.15,0.0010591336854004988,0.0012862192520527846,1.5887005281007482e-05,0.00677515120492746,0.008077257462261251,0.002,8e-05,0,-0.44592366713768095,-0.0012493441380023583,-3.5673893371014476e-05,0.0,-0.0012850180313733728,0.2,0.02,0.0,-0.0004884105891587766,-0.003231603126569225,-9.76821178317553e-06,-0.0,-0.0032413713383524006,0.006431096260263922,0.0,-0.006431096260263922,-0.019323913185553772,0.0,0.019323913185553772,-0.6246720690011791,0.0,0.6246720690011791,-0.016158015632846124,0,0.016158015632846124,-0.0025498833808092715,-0.0080779768775466,0.0032413713383524006,0.4,0.03348994255065918,0.6763961315155029,STABILIZE
0.2,0.015,0.15,-0.01504820646729472,-0.003538055263741713,-0.00022572309700942078,0.0020124510234378807,-0.0017513273373132529,0.2,0.015,0.15,0.0011208703422654243,0.00036948475619300904,1.6813055133981365e-05,0.00557055962439024,0.005956857435717231,0.002,8e-05,0,-0.4665398104634838,-0.0012338456724406857,-3.732318483707871e-05,0.0,-0.0012711688572777644,0.2,0.02,0.0,-0.001015569819485308,-0.003154969990005268,-2.031139638970616e-05,-0.0,-0.003175281386394974,0.0018474237809650452,0.0,-0.0018474237809650452,-0.017690276318708564,0.0,0.017690276318708564,-0.6169228362203428,0.0,0.6169228362203428,-0.01577484995002634,0,0.01577484995002634,-0.0017496872106756787,-0.005957339390758123,0.003175281386394974,0.4,0.033417701721191406,0.7098393440246582,STABILIZE
0.2,0.015,0.15,-0.015716581727772305,-0.004000526619368069,-0.00023574872591658455,0.0021636377371665066,-0.002072637608118147,0.2,0.015,0.15,0.0012081180425321356,0.0005222167366670964,1.8121770637982032e-05,0.0003133484994698968,0.0008536870067749752,0.002,8e-05,0,-0.48734909029670875,-0.0012455290137940015,-3.8987927223736706e-05,0.0,-0.0012845169410177382,0.2,0.02,0.0,-0.001425711963005941,-0.0024548852417226757,-2.851423926011882e-05,-0.0,-0.0024833994809827947,0.002611083683335482,0.0,-0.002611083683335482,-0.020002633096840344,0.0,0.020002633096840344,-0.6227645068970008,0.0,0.6227645068970008,-0.012274426208613378,0,0.012274426208613378,-0.002072454675915802,-0.0008541310065773624,0.0024833994809827947,0.4,0.033414363861083984,0.7432193756103516,STABILIZE
0.2,0.015,0.15,-0.016432928922492138,-0.004286069962200509,-0.00024649393383738207,-0.0015642457843336435,-0.006096809680371535,0.2,0.015,0.15,0.0013259594736079656,0.0007050723751830615,1.9889392104119483e-05,0.0037382461658047334,0.004463207933091915,0.002,8e-05,0,-0.5080391119257995,-0.0012379315627306566,-4.064312895406396e-05,0.0,-0.0012785746916847206,0.2,0.02,0.0,-0.0018093624089762393,-0.0022954688237471744,-3.618724817952479e-05,0.0,-0.002331656071926699,0.0035253618759153076,0.0,-0.0035253618759153076,-0.021430349811002544,0.0,0.021430349811002544,-0.6189657813653283,0.0,0.6189657813653283,-0.011477344118735872,0,0.011477344118735872,-0.006095915499647593,-0.004464429140869289,0.002331656071926699,0.4,0.033426761627197266,0.7766637802124023,STABILIZE
0.2,0.015,0.15,-0.017166238401551334,-0.00438196462663167,-0.00025749357602327,-0.0021230560504625433,-0.0067625142531174826,0.2,0.015,0.15,0.0012722972657718816,-0.00032066392599528225,1.9084458986578225e-05,-0.0040524960914382945,-0.0043540755584469985,0.002,8e-05,0,-0.5287464223770835,-0.0012373861855245675,-4.229971379016668e-05,0.0,-0.0012796858993147343,0.2,0.02,0.0,-0.0021207375053538887,-0.0018606532397363743,-4.2414750107077774e-05,0.0,-0.001903067989843452,-0.001603319629976411,0.0,0.001603319629976411,-0.021909823133158347,0.0,0.021909823133158347,-0.6186930927622838,0.0,0.6186930927622838,-0.00930326619868187,0,0.00930326619868187,-0.006763221146651752,0.004352977453854454,0.001903067989843452,0.4,0.033469438552856445,0.8101468086242676,STABILIZE
0.2,0.015,0.15,-0.017807526878658525,-0.003834132288974962,-0.00026711290317987785,0.0001358950282239551,-0.003965350163930885,0.2,0.015,0.15,0.0010323068018485212,-0.0014348537664755703,1.5484602027727816e-05,-0.01220188985491964,-0.013621259019367483,0.002,8e-05,0,-0.5494925644380279,-0.0012403692875684162,-4.395940515504223e-05,0.0,-0.0012843286927234584,0.2,0.02,0.0,-0.00263086914877518,-0.0030499724780529655,-5.2617382975503606e-05,0.0,-0.0031025898610284692,-0.007174268832377852,0.0,0.007174268832377852,-0.01917066144487481,0.0,0.01917066144487481,-0.6201846437842081,0.0,0.6201846437842081,-0.015249862390264827,0,0.015249862390264827,-0.00396897546194488,0.013620203118080366,0.0031025898610284692,0.4,0.03345155715942383,0.8435766696929932,STABILIZE
0.2,0.015,0.15,-0.01838977095397239,-0.0034812667912548015,-0.0002758465643095858,0.00025168429122751434,-0.003505429064336873,0.2,0.015,0.15,0.0007594910899897646,-0.0016311789472730294,1.1392366349846469e-05,-0.00896737826659474,-0.010587164847517922,0.002,8e-05,0,-0.5700401984961896,-0.0012285534386412555,-4.560321587969517e-05,0.0,-0.0012741566545209507,0.2,0.02,0.0,-0.003027337294544187,-0.002370503107158273,-6.054674589088374e-05,0.0,-0.0024310498530491567,-0.008155894736365146,0.0,0.008155894736365146,-0.017406333956274007,0.0,0.017406333956274007,-0.6142767193206278,0.0,0.6142767193206278,-0.011852515535791365,0,0.011852515535791365,-0.0035076191076274708,0.01058643946893494,0.0024310498530491567,0.4,0.03345012664794922,0.8770437240600586,STABILIZE
0.2,0.015,0.15,-0.01891401836311047,-0.003135462764977834,-0.000283710275446657,0.0038789188682325695,0.0004597458278080783,0.2,0.015,0.15,0.00045498671521520124,-0.0018212052405718793,6.824800728228018e-06,-0.010505399341616442,-0.012319779781460094,0.002,8e-05,0,-0.590394812072988,-0.0012173857581955973,-4.723158496583905e-05,0.0,-0.0012646173431614363,0.2,0.02,0.0,-0.003311333737798757,-0.0016985496879705357,-6.622667475597515e-05,0.0,-0.001764776362726511,-0.009106026202859396,0.0,0.009106026202859396,-0.01567731382488917,0.0,0.01567731382488917,-0.6086928790977987,0.0,0.6086928790977987,-0.008492748439852678,0,0.008492748439852678,0.0004579197058772866,0.012319847792599922,0.001764776362726511,0.4,0.03343987464904785,0.9105398654937744,STABILIZE
0.2,0.015,0.15,-0.019939010132075607,-0.006121496620443614,-0.0002990851519811341,-0.00821471016946935,-0.014635291941894099,0.2,0.015,0.15,-0.0004858198872804776,-0.005618722620068398,-7.287298309207164e-06,-0.028335713115422614,-0.03396172303380022,0.002,8e-05,0,-0.6101832280709385,-0.0011818116527675842,-4.8814658245675087e-05,0.0,-0.0012306263110132593,0.2,0.02,0.0,-0.0030983133499896142,0.0012722088347849056,-6.196626699979228e-05,0.0,0.0012102425677851135,-0.028093613100341988,0.0,0.028093613100341988,-0.03060748310221807,0.0,0.03060748310221807,-0.5909058263837921,0.0,0.5909058263837921,0.006361044173924527,0,-0.006361044173924527,-0.01463152138166032,0.03396334765165301,-0.0012102425677851135,0.4,0.03348827362060547,0.9439666271209717,STABILIZE
0.2,0.015,0.15,-0.02182978137551089,-0.011299218347570136,-0.0003274467206326633,-0.030991424930220876,-0.042618089998423675,0.2,0.015,0.15,-0.0030810821655158343,-0.015509245368950604,-4.6216232482737515e-05,-0.06806787310387256,-0.0836233347053059,0.002,8e-05,0,-0.6305758486377392,-0.0012186597044113402,-5.044606789101914e-05,0.0,-0.0012691057723023594,0.2,0.02,0.0,-0.0017196047492466008,0.008239140282863855,-3.4392094984932014e-05,0.0,0.008204748187878922,-0.07754622684475301,0.0,0.07754622684475301,-0.056496091737850675,0.0,0.056496091737850675,-0.60932985220567,0.0,0.60932985220567,0.04119570141431927,0,-0.04119570141431927,-0.042557953757526044,0.08365395552107285,-0.008204748187878922,0.4,0.03346729278564453,0.9774415493011475,STABILIZE
0.2,0.015,0.15,-0.023285505688868106,-0.008698827206547083,-0.0003492825853330216,-0.021793783512138242,-0.030841893304018347,0.2,0.015,0.15,-0.006003041950314578,-0.017460464896560803,-9.004562925471867e-05,-0.07181652024733061,-0.08936703077314613,0.002,8e-05,0,-0.6504501864784882,-0.0011876110684893918,-5.2036014918279056e-05,0.0,-0.001239647083407671,0.2,0.02,0.0,-0.00018009991813352946,0.009199466125981265,-3.6019983626705894e-06,0.0,0.009195864127618594,-0.087302324482804,0.0,0.087302324482804,-0.04349413603273541,0.0,0.04349413603273541,-0.5938055342446958,0.0,0.5938055342446958,0.045997330629906324,0,-0.045997330629906324,-0.030770139085772176,0.08939176199419684,-0.009195864127618594,0.4,0.033469438552856445,1.0109434127807617,STABILIZE
0.2,0.015,0.15,-0.024354021989348544,-0.006374355966846318,-0.00036531032984022814,-0.012975960115486839,-0.019715626412173386,0.2,0.015,0.15,-0.009584533568124597,-0.021365797090725145,-0.00014376800352186895,-0.08840942036664563,-0.10991898546089265,0.002,8e-05,0,-0.6704443998492852,-0.0011927776230014665,-5.363555198794282e-05,0.0,-0.0012464131749894093,0.2,0.02,0.0,0.0017173474639093332,0.011319438960419736,3.434694927818666e-05,0.0,0.011353785909697923,-0.10682898545362572,0.0,0.10682898545362572,-0.03187177983423159,0.0,0.03187177983423159,-0.5963888115007332,0.0,0.5963888115007332,0.056597194802098676,0,-0.056597194802098676,-0.019607038024063335,0.10993840707186571,-0.011353785909697923,0.4,0.03352546691894531,1.0444309711456299,STABILIZE
0.2,0.015,0.15,-0.025716910187592316,-0.008149881197662747,-0.00038575365281388473,-0.022490165147510465,-0.031025799997987095,0.2,0.015,0.15,-0.014268904108331731,-0.02801188200008974,-0.00021403356162497597,-0.11736402158981267,-0.14558993715152738,0.002,8e-05,0,-0.6904468889545647,-0.0011961209296231245,-5.5235751116365186e-05,0.0,-0.0012513566807394896,0.2,0.02,0.0,0.004881512847101409,0.01892126734680257,9.763025694202819e-05,0.0,0.0190188976037446,-0.1400594100004487,0.0,0.1400594100004487,-0.04074940598831373,0.0,0.04074940598831373,-0.5980604648115623,0.0,0.5980604648115623,0.09460633673401285,0,-0.09460633673401285,-0.03078536086272858,0.14564096821242425,-0.0190188976037446,0.4,0.03344559669494629,1.0778841972351074,STABILIZE
0.2,0.015,0.15,-0.027170166043029152,-0.008690019385511123,-0.00040755249064543725,-0.01153757666421897,-0.02063514854037553,0.2,0.015,0.15,-0.018595204062776087,-0.025869932215312787,-0.0002789280609416413,-0.09074811166235625,-0.11689697193861068,0.002,8e-05,0,-0.7099950884395454,-0.0011689217135495934,-5.6799607075163634e-05,0.0,-0.001225721320624757,0.2,0.02,0.0,0.006354965417153122,0.008810789476249317,0.00012709930834306244,0.0,0.00893788878459238,-0.12934966107656393,0.0,0.12934966107656393,-0.043450096927555616,0.0,0.043450096927555616,-0.5844608567747966,0.0,0.5844608567747966,0.044053947381246586,0,-0.044053947381246586,-0.020545261954155732,0.11691280346880241,-0.00893788878459238,0.4,0.033446550369262695,1.1113481521606445,STABILIZE
0.2,0.015,0.15,-0.028699775317190653,-0.009151285967852743,-0.0004304966297578598,0.009599173641931505,1.7391044320903132e-05,0.2,0.015,0.15,-0.022535611039743265,-0.023574511272309053,-0.00033803416559614896,-0.03611919342840465,-0.06003173886630986,0.002,8e-05,0,-0.7290465272781226,-0.0011398019602518994,-5.832372218224981e-05,0.0,-0.0011981256824341493,0.2,0.02,0.0,0.006216169035256787,-0.0008303855131454638,0.00012432338070513573,-0.0,-0.0007060621324403282,-0.11787255636154526,0.0,0.11787255636154526,-0.04575642983926371,0.0,0.04575642983926371,-0.5699009801259497,0.0,0.5699009801259497,-0.004151927565727319,0,0.004151927565727319,1.3040855948673444e-05,0.060031739968930735,0.0007060621324403282,0.4,0.03342938423156738,1.1447687149047852,STABILIZE
0.2,0.015,0.15,-0.030254884543558472,-0.00930484150785525,-0.00045382326815337706,-0.0027440889089038064,-0.012502753684912434,0.2,0.015,0.15,-0.02454794596784196,-0.012040606054671355,-0.0003682191895176294,0.024384569848518133,0.01197574460432915,0.002,8e-05,0,-0.7477635101038501,-0.001119912066275988,-5.982108080830801e-05,0.0,-0.001179733147084296,0.2,0.02,0.0,0.00911091107211549,0.017320401295545733,0.0001822182214423098,0.0,0.017502619516988043,-0.06020303027335677,0.0,0.06020303027335677,-0.046524207539276254,0.0,0.046524207539276254,-0.559956033137994,0.0,0.559956033137994,0.08660200647772866,0,-0.08660200647772866,-0.012520840616142524,-0.011956833142553502,-0.017502619516988043,0.4,0.03342580795288086,1.1781914234161377,STABILIZE
0.2,0.015,0.15,-0.03109478957486433,-0.005020367579575879,-0.00046642184362296495,0.006062939082411919,0.0005761496592130754,0.2,0.015,0.15,-0.026048002410390746,-0.00896629315340227,-0.0003907200361558612,0.055639925373231335,0.046282912183673204,0.002,8e-05,0,-0.7669869420634257,-0.001149042939152142,-6.135895536507406e-05,0.0,-0.001210401894517216,0.2,0.02,0.0,0.012856235676133648,0.022386943185429456,0.000257124713522673,0.0,0.02264406789895213,-0.04483146576701135,0.0,0.04483146576701135,-0.025101837897879394,0.0,0.025101837897879394,-0.574521469576071,0.0,0.574521469576071,0.11193471592714727,0,-0.11193471592714727,0.0004857289620519697,-0.04628394944261823,-0.02264406789895213,0.4,0.03345990180969238,1.2116608619689941,STABILIZE
0.2,0.015,0.15,-0.03257404920956626,-0.008843874825022772,-0.0004886107381434939,-0.0031183794317465735,-0.01245086499491284,0.2,0.015,0.15,-0.026705416235569778,-0.003930402372734446,-0.00040058124353354663,0.1080275344312774,0.1036965508150094,0.002,8e-05,0,-0.7868580628622006,-0.0011880112243628106,-6.294864502897605e-05,0.0,-0.0012509598693917867,0.2,0.02,0.0,0.017063419105325273,0.02515299055069402,0.00034126838210650544,0.0,0.025494258932800527,-0.01965201186367223,0.0,0.01965201186367223,-0.04421937412511386,0.0,0.04421937412511386,-0.5940056121814052,0.0,0.5940056121814052,0.1257649527534701,0,-0.1257649527534701,-0.012678450043711608,-0.10366897122350778,-0.025494258932800527,0.4,0.033452749252319336,1.245107889175415,STABILIZE
0.2,0.015,0.15,-0.03443697982126821,-0.011136492619163852,-0.0005165546973190232,-0.010974838785169033,-0.02262788610165191,0.2,0.015,0.15,-0.027747759218845255,-0.006231066721953551,-0.0004162163882826788,0.088106457888698,0.08145917477846178,0.002,8e-05,0,-0.8061958410698465,-0.0011560013181796957,-6.449566728558773e-05,0.0,-0.0012204969854652835,0.2,0.02,0.0,0.020708662648439253,0.02179105735766307,0.0004141732529687851,0.0,0.022205230610631854,-0.031155333609767754,0.0,0.031155333609767754,-0.05568246309581926,0.0,0.05568246309581926,-0.5780006590898479,0.0,0.5780006590898479,0.10895528678831533,0,-0.10895528678831533,-0.02278275018261131,-0.08141599768555341,-0.022205230610631854,0.4,0.03345632553100586,1.278569221496582,STABILIZE
0.2,0.015,0.15,-0.03580845808197315,-0.00801576951345429,-0.0005371268712295972,0.004774477756893832,-0.0037784186277900556,0.2,0.015,0.15,-0.02863875580580181,-0.005207536628868739,-0.00042958133708702713,0.08229335102705515,0.07665623306109938,0.002,8e-05,0,-0.8256551374765565,-0.001137321963893193,-6.605241099812453e-05,0.0,-0.0012033743748913175,0.2,0.02,0.0,0.024360022799707275,0.021340813209924366,0.0004872004559941455,0.0,0.02182801366591851,-0.026037683144343692,0.0,0.026037683144343692,-0.04007884756727145,0.0,0.04007884756727145,-0.5686609819465965,0.0,0.5686609819465965,0.10670406604962182,0,-0.10670406604962182,-0.003921171753332577,-0.07664906344193179,-0.02182801366591851,0.4,0.03421950340270996,1.3128070831298828,STABILIZE
0.2,0.015,0.15,-0.036651346050562715,-0.005035506463945817,-0.0005497701907584407,0.018816883166706367,0.013231606512002109,0.2,0.015,0.15,-0.02935911475698141,-0.004303504487192929,-0.00044038672135472115,0.03458496072741851,0.02984106951887086,0.002,8e-05,0,-0.8443302090058352,-0.0011156695421538842,-6.754641672046683e-05,0.0,-0.001183215958874351,0.2,0.02,0.0,0.027833462469095183,0.020750714874476398,0.0005566692493819037,0.0,0.0213073841238583,-0.021517522435964644,0.0,0.021517522435964644,-0.025177532319729082,0.0,0.025177532319729082,-0.5578347710769421,0.0,0.5578347710769421,0.10375357437238197,0,-0.10375357437238197,0.013177547400753121,-0.029864980921129766,-0.0213073841238583,0.4,0.033477783203125,1.3462636470794678,STABILIZE
0.2,0.015,0.15,-0.035943397535798435,0.004233554021357576,-0.0005391509630369765,0.04118163263448584,0.04487603569280644,0.2,0.015,0.15,-0.02975789254891568,-0.002384703533467471,-0.0004463683882337352,0.029408750766899434,0.026577678845198228,0.002,8e-05,0,-0.8635499254938004,-0.0011493449923271584,-6.908399403950403e-05,-0.0,-0.0012184289863666625,0.2,0.02,0.0,0.030804656518079506,0.017767832338061337,0.0006160931303615902,-0.0,0.018383925468422928,-0.011923517667337354,0.0,0.011923517667337354,0.02116777010678788,0.0,-0.02116777010678788,-0.5746724961635792,0.0,0.5746724961635792,0.08883916169030667,0,-0.08883916169030667,0.044834772120155165,-0.026647228772131108,-0.018383925468422928,0.4,0.03344464302062988,1.379701852798462,STABILIZE
0.2,0.015,0.15,-0.035291823070101404,0.003896241036427422,-0.000529377346051521,0.05681321486724266,0.06018007855761856,0.2,0.015,0.15,-0.02919769649319763,0.003349822584589041,-0.00043796544739796445,0.03254633613016108,0.03545819326735215,0.002,8e-05,0,-0.8824754204403964,-0.0011316939801614932,-7.059803363523172e-05,0.0,-0.001202292013796725,0.2,0.02,0.0,0.03366709757319717,0.017116631928436942,0.0006733419514639434,-0.0,0.017789973879900885,0.016749112922945203,0.0,-0.016749112922945203,0.01948120518213711,0.0,-0.01948120518213711,-0.5658469900807466,0.0,0.5658469900807466,0.0855831596421847,0,-0.0855831596421847,0.06012704725742058,-0.03554804513739048,-0.017789973879900885,0.4,0.033446311950683594,1.413196086883545,STABILIZE
0.2,0.015,0.15,-0.034675006452279104,0.003688056633283017,-0.0005201250967841865,0.06615848960360084,0.06932642114009967,0.2,0.015,0.15,-0.027701525028874,0.008945876187656836,-0.00041552287543311,0.06795611838605657,0.0764864716982803,0.002,8e-05,0,-0.9012258377624912,-0.0011211209131447074,-7.20980670209993e-05,0.0,-0.0011932189801657066,0.2,0.02,0.0,0.036447889603268877,0.016626851799964194,0.0007289577920653775,-0.0,0.01735580959202957,0.04472938093828418,0.0,-0.04472938093828418,0.018440283166415085,0.0,-0.018440283166415085,-0.5605604565723536,0.0,0.5605604565723536,0.08313425899982096,0,-0.08313425899982096,0.06921536889120641,-0.07658698146682963,-0.01735580959202957,0.4,0.033449411392211914,1.4466161727905273,STABILIZE
0.2,0.015,0.15,-0.033850291242670846,0.004927817741195301,-0.0005077543686400627,0.058034750910132576,0.062454814282687815,0.2,0.015,0.15,-0.026295990394796288,0.008398315473001395,-0.0003944398559219443,0.06101568157234398,0.06901955718942343,0.002,8e-05,0,-0.9197636769053582,-0.0011076683386867213,-7.358109415242866e-05,0.0,-0.00118124943283915,0.2,0.02,0.0,0.03831237254472135,0.011140611947013525,0.000766247450894427,-0.0,0.011906859397907952,0.04199157736500697,0.0,-0.04199157736500697,0.024639088705976503,0.0,-0.024639088705976503,-0.5538341693433606,0.0,0.5538341693433606,0.05570305973506762,0,-0.05570305973506762,0.062387683840408666,-0.06908024324463781,-0.011906859397907952,0.4,0.03347182273864746,1.4801380634307861,STABILIZE
0.2,0.015,0.15,-0.0335252045720984,0.0019435711249785569,-0.000502878068581476,0.03130016634219056,0.03274085939858764,0.2,0.015,0.15,-0.023855807056841413,0.014588939826266812,-0.00035783710585262117,0.0847236538594647,0.0989547565798789,0.002,8e-05,0,-0.9384371134844004,-0.0011164146495221013,-7.507496907875204e-05,-0.0,-0.0011914896186008533,0.2,0.02,0.0,0.04083809640041115,0.015100354459147858,0.000816761928008223,-0.0,0.01591711638715608,0.07294469913133406,0.0,-0.07294469913133406,0.009717855624892784,0.0,-0.009717855624892784,-0.5582073247610506,0.0,0.5582073247610506,0.07550177229573929,0,-0.07550177229573929,0.03261043293193022,-0.09899781506646119,-0.01591711638715608,0.4,0.033452510833740234,1.5135784149169922,STABILIZE
0.2,0.015,0.15,-0.0336901166585926,-0.0009861653191582443,-0.000505351749878889,-0.023411533608290427,-0.02490305067732756,0.2,0.015,0.15,-0.020471532535938676,0.020237777800127504,-0.0003070729880390801,0.10145259523573337,0.1213833000478218,0.002,8e-05,0,-0.9571681892854319,-0.0011201081581215923,-7.657345514283455e-05,0.0,-0.0011966816132644269,0.2,0.02,0.0,0.043988095596391656,0.0188368240830029,0.0008797619119278331,0.0,0.019716585994930733,0.10118888900063752,0.0,-0.10118888900063752,-0.004930826595791221,0.0,0.004930826595791221,-0.5600540790607962,0.0,0.5600540790607962,0.0941841204150145,0,-0.0941841204150145,-0.02510254960249488,-0.12134219986052405,-0.019716585994930733,0.4,0.033445119857788086,1.5469810962677002,STABILIZE
0.2,0.015,0.15,-0.03269164684930477,0.005971178320346738,-0.0004903747027395715,0.009306652317703522,0.014787455935310688,0.2,0.015,0.15,-0.017953544335863676,0.015058398773119527,-0.0002693031650379551,0.05250360153755116,0.06729269714563273,0.002,8e-05,0,-0.9755469884668461,-0.0010991127243430837,-7.804375907734769e-05,0.0,-0.0011771564834204315,0.2,0.02,0.0,0.04647824885256442,0.014891936640733523,0.0009295649770512884,-0.0,0.01582150161778481,0.07529199386559764,0.0,-0.07529199386559764,0.029855891601733686,0.0,-0.029855891601733686,-0.5495563621715419,0.0,0.5495563621715419,0.07445968320366761,0,-0.07445968320366761,0.01469999212907669,-0.06731185760011148,-0.01582150161778481,0.4,0.03344297409057617,1.5804288387298584,STABILIZE
0.2,0.015,0.15,-0.03198598928216457,0.004220124841712156,-0.0004797898392324685,0.00238621170398441,0.006126546706464097,0.2,0.015,0.15,-0.012926671676679012,0.030062782818474444,-0.00019390007515018517,0.09470807762496576,0.12457696036829002,0.002,8e-05,0,-0.9943595603232017,-0.0011250698004876343,-7.954876482585615e-05,-0.0,-0.0012046185653134904,0.2,0.02,0.0,0.04892779905698061,0.014649325891270458,0.0009785559811396121,-0.0,0.01562788187241007,0.15031391409237221,0.0,-0.15031391409237221,0.021100624208560778,0.0,-0.021100624208560778,-0.5625349002438171,0.0,0.5625349002438171,0.07324662945635228,0,-0.07324662945635228,0.005967283198992896,-0.1245846907142768,-0.01562788187241007,0.4,0.03344249725341797,1.613898754119873,STABILIZE
0.2,0.015,0.15,-0.030066599626918898,0.011474083318803535,-0.00045099899440378347,0.029353412829497244,0.040376497153897,0.2,0.015,0.15,-0.010361465579078705,0.015334764576503623,-0.00015542198368618057,0.031128997546806272,0.04630834013962372,0.002,8e-05,0,-1.0129025931064222,-0.0011084997908397303,-8.103220744851378e-05,-0.0,-0.0011895319982882441,0.2,0.02,0.0,0.05126697283317538,0.013983546661234737,0.0010253394566635075,0.0,0.015008886117898244,0.07667382288251812,0.0,-0.07667382288251812,0.057370416594017676,0.0,-0.057370416594017676,-0.5542498954198651,0.0,0.5542498954198651,0.06991773330617368,0,-0.06991773330617368,0.04031995728541782,-0.04635757687161636,-0.015008886117898244,0.4,0.03345608711242676,1.6473326683044434,STABILIZE
0.2,0.015,0.15,-0.030253799530865166,-0.0011191101915200869,-0.0004538069929629775,-0.013728374394935914,-0.015301291579418978,0.2,0.015,0.15,-0.00831347286030067,0.012243219549948465,-0.00012470209290451004,-0.01049086952918073,0.001627647927863225,0.002,8e-05,0,-1.031728481779652,-0.0011254409556043902,-8.253827854237217e-05,-0.0,-0.0012079792341467624,0.2,0.02,0.0,0.058373165621304124,0.04248192763167246,0.0011674633124260825,0.0,0.043649390944098546,0.06121609774974232,0.0,-0.06121609774974232,-0.005595550957600434,0.0,0.005595550957600434,-0.5627204778021951,0.0,0.5627204778021951,0.21240963815836228,0,-0.21240963815836228,-0.015307220511447468,-0.0015709111971710854,-0.043649390944098546,0.4,0.03345513343811035,1.6807997226715088,STABILIZE
0.2,0.015,0.15,-0.03247705820148869,-0.013224919140603489,-0.00048715587302233034,-0.05459662763601139,-0.0683087026496372,0.2,0.015,0.15,-0.006810809560819777,0.008938501351088347,-0.00010216214341229665,-0.05056911429167318,-0.04173277508399713,0.002,8e-05,0,-1.050643218368722,-0.0011251316154143676,-8.405145746949776e-05,-0.0,-0.0012091830728838654,0.2,0.02,0.0,0.06990342105943502,0.06858702401777621,0.0013980684211887004,0.0,0.0699850924389649,0.04469250675544174,0.0,-0.04469250675544174,-0.06612459570301744,0.0,0.06612459570301744,-0.5625658077071838,0.0,0.5625658077071838,0.34293512008888105,0,-0.34293512008888105,-0.068057695447541,0.04214087640590546,-0.0699850924389649,0.4,0.03362226486206055,1.714444637298584,STABILIZE
0.2,0.015,0.15,-0.03527595667300079,-0.016724980488463045,-0.0005291393500950119,-0.10148814749298586,-0.11874226733154392,0.2,0.015,0.15,-0.0031995338091349973,0.021579388141491757,-4.799300713702496e-05,0.029313945351469497,0.05084534048582423,0.002,8e-05,0,-1.0692970150657104,-0.0011146684632127339,-8.554376120525684e-05,-0.0,-0.0012002122244179907,0.2,0.02,0.0,0.08111006522738887,0.06696595355562039,0.0016222013045477774,0.0,0.06858815486016817,0.10789694070745878,0.0,-0.10789694070745878,-0.08362490244231521,0.0,0.08362490244231521,-0.557334231606367,0.0,0.557334231606367,0.3348297677781019,0,-0.3348297677781019,-0.11903737222916023,-0.05015056044484039,-0.06858815486016817,0.4,0.03346967697143555,1.7478914260864258,STABILIZE
0.2,0.015,0.15,-0.0363695527806417,-0.006543890388139769,-0.0005455432917096254,-0.04794271343501666,-0.05503214711486605,0.2,0.015,0.15,0.0011898755416510048,0.026265468082345325,1.7848133124765073e-05,-0.016954862824216484,0.009328453391253606,0.002,8e-05,0,-1.0878846903384252,-0.0011122544118904358,-8.703077522707402e-05,0.0,-0.0011992851871175099,0.2,0.02,0.0,0.09023805793651335,0.05462033316953183,0.001804761158730267,0.0,0.0564250943282621,0.1313273404117266,0.0,-0.1313273404117266,-0.03271945194069884,0.0,0.03271945194069884,-0.5561272059452179,0.0,0.5561272059452179,0.27310166584765916,0,-0.27310166584765916,-0.05507598607961839,-0.009066036405327988,-0.0564250943282621,0.4,0.033423423767089844,1.7813208103179932,STABILIZE
0.2,0.015,0.15,-0.03766853787633045,-0.00776797106123983,-0.0005650280681449567,-0.08595578701008429,-0.09428878613946907,0.2,0.015,0.15,0.005788820490087035,0.027501833077418304,8.683230735130552e-05,0.05462317128469541,0.08221183666946502,0.002,8e-05,0,-1.1072402423022323,-0.0011574679958083506,-8.85792193841786e-05,-0.0,-0.0012460472151925293,0.2,0.02,0.0,0.10096009443837652,0.06411811000792812,0.0020192018887675305,0.0,0.06613731189669565,0.13750916538709151,0.0,-0.13750916538709151,-0.03883985530619915,0.0,0.03883985530619915,-0.5787339979041753,0.0,0.5787339979041753,0.3205905500396406,0,-0.3205905500396406,-0.09474731261926936,-0.0816829727155407,-0.06613731189669565,0.4,0.03344464302062988,1.8147838115692139,STABILIZE
0.2,0.015,0.15,-0.03926438160730917,-0.009539114765484488,-0.0005889657241096375,-0.037432956770380485,-0.04756103725997461,0.2,0.015,0.15,0.011200469845248586,0.032347994523114376,0.00016800704767872877,0.09021032849884676,0.12272633006963987,0.002,8e-05,0,-1.1267403083277718,-0.0011656114200985375,-9.013922466622176e-05,-0.0,-0.0012557506447647593,0.2,0.02,0.0,0.11249551768063379,0.06895269507926295,0.002249910353612676,0.0,0.07120260543287563,0.16173997261557188,0.0,-0.16173997261557188,-0.047695573827422434,0.0,0.047695573827422434,-0.5828057100492687,0.0,0.5828057100492687,0.34476347539631474,0,-0.34476347539631474,-0.04829864774085034,-0.12243792298145267,-0.07120260543287563,0.4,0.03345894813537598,1.8482599258422852,STABILIZE
0.2,0.015,0.15,-0.04061701756840654,-0.008052982480145007,-0.0006092552635260981,0.023210864457813115,0.01454862671414201,0.2,0.015,0.15,0.014917706212479544,0.022130743378715942,0.00022376559318719314,0.05933209737651814,0.08168660634842129,0.002,8e-05,0,-1.1459942116215884,-0.0011462902832608496,-9.167953692972708e-05,-0.0,-0.0012379698201905767,0.2,0.02,0.0,0.123661112930895,0.06647490198160638,0.0024732222586179003,-0.0,0.06894812424022428,0.11065371689357971,0.0,-0.11065371689357971,-0.040264912400725036,0.0,0.040264912400725036,-0.5731451416304247,0.0,0.5731451416304247,0.3323745099080319,0,-0.3323745099080319,0.014074518160723828,-0.08176962843582478,-0.06894812424022428,0.4,0.03359341621398926,1.8817977905273438,STABILIZE
0.2,0.015,0.15,-0.042115430300737465,-0.008958255495736697,-0.000631731454511062,0.0348378506974507,0.02524786374720294,0.2,0.015,0.15,0.019442903878766016,0.02705387907392189,0.00029164355818149025,0.024754544782428698,0.052100067414532075,0.002,8e-05,0,-1.1656618181493497,-0.0011758271967645922,-9.325294545194798e-05,-0.0,-0.00126908014221654,0.2,0.02,0.0,0.13745716711704845,0.08247966369074868,0.002749143342340969,0.0,0.08522880703308965,0.13526939536960944,0.0,-0.13526939536960944,-0.04479127747868348,0.0,0.04479127747868348,-0.5879135983822961,0.0,0.5879135983822961,0.41239831845374336,0,-0.41239831845374336,0.024872211882445233,-0.05228044304011646,-0.08522880703308965,0.4,0.03345322608947754,1.915271520614624,STABILIZE
0.2,0.015,0.15,-0.04374276703013886,-0.009730414138232377,-0.0006561415054520828,-0.014316318439929459,-0.024702874083613918,0.2,0.015,0.15,0.026767057510182414,0.04379367020858393,0.0004015058626527362,0.07879381371692062,0.12298898978815728,0.002,8e-05,0,-1.1855650090976688,-0.0011900812358036296,-9.484520072781351e-05,-0.0,-0.0012849264365314432,0.2,0.02,0.0,0.1507474079584891,0.07946698740809287,0.003014948159169782,0.0,0.08248193556726265,0.21896835104291962,0.0,-0.21896835104291962,-0.04865207069116188,0.0,0.04865207069116188,-0.5950406179018148,0.0,0.5950406179018148,0.3973349370404643,0,-0.3973349370404643,-0.02555517765189832,-0.122814724248692,-0.08248193556726265,0.4,0.03344845771789551,1.9487230777740479,STABILIZE
0.2,0.015,0.15,-0.043663149926748454,0.00047606862245177796,-0.0006549472489012268,0.03694578192559284,0.036766903299143394,0.2,0.015,0.15,0.03455092059607071,0.04654342872135383,0.0005182638089410607,0.08558027594582895,0.13264196847612383,0.002,8e-05,0,-1.2052925727522843,-0.0011796050915504719,-9.642340582018275e-05,-0.0,-0.0012760284973706547,0.2,0.02,0.0,0.16421923713914224,0.08055449001315873,0.0032843847427828448,0.0,0.08383887475594158,0.23271714360676912,0.0,-0.23271714360676912,0.0023803431122588897,0.0,-0.0023803431122588897,-0.5898025457752359,0.0,0.5898025457752359,0.40277245006579365,0,-0.40277245006579365,0.03583356857119719,-0.132897149491187,-0.08383887475594158,0.4,0.0334477424621582,1.9821689128875732,STABILIZE
0.2,0.015,0.15,-0.0441785002670333,-0.003078584848256859,-0.0006626775040054995,0.028959992298413863,0.025218729946151507,0.2,0.015,0.15,0.04061758948811956,0.03624088987722336,0.0006092638423217934,0.01769566731520145,0.0545458210347466,0.002,8e-05,0,-1.2258713312395007,-0.0012293278789660617,-9.806970649916006e-05,-0.0,-0.0013273975854652218,0.2,0.02,0.0,0.1802341081555771,0.09566916989078345,0.003604682163111542,0.0,0.09927385205389498,0.1812044493861168,0.0,-0.1812044493861168,-0.015392924241284293,0.0,0.015392924241284293,-0.6146639394830309,0.0,0.6146639394830309,0.4783458494539172,0,-0.4783458494539172,0.02476246911305156,-0.05475446151572209,-0.09927385205389498,0.4,0.03347969055175781,2.0156679153442383,STABILIZE
0.2,0.015,0.15,-0.04533216801863986,-0.006689985780676486,-0.0006799825202795978,0.006617600853103796,-0.0007523674478522877,0.2,0.015,0.15,0.04505213707903247,0.02571542828134631,0.000675782056185487,0.017540384739083596,0.04393159507661539,0.002,8e-05,0,-1.2479302879241299,-0.001279173369899796,-9.98344230339304e-05,-0.0,-0.0013790077929337263,0.2,0.02,0.0,0.1993363440323003,0.11077165519834037,0.003986726880646006,0.0,0.11475838207898638,0.12857714140673154,0.0,-0.12857714140673154,-0.03344992890338243,0.0,0.03344992890338243,-0.6395866849498979,0.0,0.6395866849498979,0.5538582759917018,0,-0.5538582759917018,-0.001176997057907689,-0.043922269757811494,-0.11475838207898638,0.4,0.03448939323425293,2.050144910812378,STABILIZE
0.2,0.015,0.15,-0.04642980759248781,-0.006563591079736477,-0.0006964471138873171,0.01124358449902028,0.003983546305396485,0.2,0.015,0.15,0.05405528481342108,0.053836415492767686,0.0008108292722013162,0.12158265882271468,0.1762299035876837,0.002,8e-05,0,-1.2707226788312063,-0.0013629240162971463,-0.0001016578143064965,-0.0,-0.001464581830603643,0.2,0.02,0.0,0.214012890969774,0.08776182533436981,0.00428025781939548,0.0,0.09204208315376529,0.26918207746383843,0.0,-0.26918207746383843,-0.03281795539868238,0.0,0.03281795539868238,-0.6814620081485732,0.0,0.6814620081485732,0.438809126671849,0,-0.438809126671849,0.0026337570457086886,-0.17625524356317945,-0.09204208315376529,0.4,0.033446311950683594,2.083604335784912,STABILIZE
0.2,0.015,0.15,-0.046849965402103635,-0.002513362972078979,-0.0007027494810315546,0.03287753521878958,0.029661422765679048,0.2,0.015,0.15,0.06355394405975573,0.056820503838693553,0.0009533091608963359,0.05990086987797003,0.11767468287755992,0.002,8e-05,0,-1.2952167235525254,-0.0014652214865481176,-0.00010361733788420204,-0.0,-0.0015688388244323196,0.2,0.02,0.0,0.23877711662347162,0.1481383574593624,0.004775542332469433,0.0,0.15291389979183184,0.28410251919346774,0.0,-0.28410251919346774,-0.012566814860394893,0.0,0.012566814860394893,-0.7326107432740588,0.0,0.7326107432740588,0.740691787296812,0,-0.740691787296812,0.02813774596497139,-0.11804828775899026,-0.15291389979183184,0.4,0.03343391418457031,2.1170449256896973,STABILIZE
0.2,0.015,0.15,-0.04802182744841119,-0.007008021085143103,-0.0007203274117261679,-0.033053899411331265,-0.040782247908200536,0.2,0.015,0.15,0.07240971004280666,0.052959642246170925,0.0010861456506420998,0.030252610895894073,0.08429839879270709,0.002,8e-05,0,-1.3185865979839069,-0.0013975755362016808,-0.00010548692783871256,-0.0,-0.0015030624640403932,0.2,0.02,0.0,0.26554707796817667,0.16009090331347936,0.005310941559363533,0.0,0.1654018448728429,0.2647982112308546,0.0,-0.2647982112308546,-0.03504010542571551,0.0,0.03504010542571551,-0.6987877681008404,0.0,0.6987877681008404,0.8004545165673967,0,-0.8004545165673967,-0.04195592620414073,-0.08372043979705854,-0.1654018448728429,0.4,0.033443450927734375,2.1504709720611572,STABILIZE
0.2,0.015,0.15,-0.04935658876133916,-0.007982255368335618,-0.0007403488314200873,-0.021497535673719096,-0.0302201398734748,0.2,0.015,0.15,0.08361993875848538,0.06704038203632412,0.0012542990813772805,0.1395665116797391,0.2078611927974405,0.002,8e-05,0,-1.3422735479159797,-0.001416547523691902,-0.00010738188383327838,-0.0,-0.0015239294075251803,0.2,0.02,0.0,0.29240534459462597,0.16062013551537055,0.0058481068918925195,0.0,0.16646824240726307,0.3352019101816206,0.0,-0.3352019101816206,-0.03991127684167809,0.0,0.03991127684167809,-0.7082737618459509,0.0,0.7082737618459509,0.8031006775768527,0,-0.8031006775768527,-0.03313061444664626,-0.20741719965213778,-0.16646824240726307,0.4,0.03344321250915527,2.1839566230773926,STABILIZE
0.2,0.015,0.15,-0.05148155629204309,-0.012729240786514343,-0.0007722233443806463,-0.02711794374907053,-0.04061940787996552,0.2,0.015,0.15,0.09327859791567339,0.05785848315808837,0.0013991789687351009,0.1440915604598307,0.20334922258665417,0.002,8e-05,0,-1.3645139051695654,-0.001332269122084945,-0.00010916111241356524,-0.0,-0.0014414302344985103,0.2,0.02,0.0,0.318850564956455,0.15841539824688056,0.006377011299129099,0.0,0.16479240954600965,0.28929241579044185,0.0,-0.28929241579044185,-0.06364620393257171,0.0,0.06364620393257171,-0.6661345610424725,0.0,0.6661345610424725,0.7920769912344027,0,-0.7920769912344027,-0.04342660807399812,-0.20276827250411486,-0.16479240954600965,0.4,0.033387184143066406,2.217337131500244,STABILIZE
0.2,0.015,0.15,-0.05361166795706183,-0.012729240786514343,-0.0008041750193559274,-0.027684798628883785,-0.041218214434754055,0.2,0.015,0.15,0.10296063881365868,0.05785848315808837,0.00154440958220488,0.01797457369211643,0.07737746643240968,0.002,8e-05,0,-1.3868081020151772,-0.001332269122084945,-0.00011094464816121418,0.0,-0.0014432137702461592,0.2,0.02,0.0,0.3453598040684815,0.15841539824688056,0.00690719608136963,0.0,0.1653225943282502,0.28929241579044185,0.0,-0.28929241579044185,-0.06364620393257171,0.0,0.06364620393257171,-0.6661345610424725,0.0,0.6661345610424725,0.7920769912344027,0,-0.7920769912344027,-0.04228393505228584,-0.07680027571032624,-0.1653225943282502,0.4,0.033468008041381836,2.250795602798462,STABILIZE
0.2,0.015,0.15,-0.056613695169524025,-0.017966688658056337,-0.0008492054275428604,-0.06936500777812224,-0.08818090186372143,0.2,0.015,0.15,0.11196409119620235,0.053884330272983706,0.0016794613679430351,-0.013251964293554425,0.04231182734737232,0.002,8e-05,0,-1.4068856160609988,-0.0012016095070409775,-0.00011255084928487992,0.0,-0.0013141603563258575,0.2,0.02,0.0,0.3697836736541348,0.14617324548184116,0.007395673473082696,-0.0,0.15356891895492386,0.2694216513649185,0.0,-0.2694216513649185,-0.08983344329028169,0.0,0.08983344329028169,-0.6008047535204888,0.0,0.6008047535204888,0.7308662274092057,0,-0.7308662274092057,-0.08871344370084609,-0.04118357796148756,-0.15356891895492386,0.4,0.033417701721191406,2.2842295169830322,STABILIZE
0.2,0.015,0.15,-0.05980497833400022,-0.019080843537983103,-0.0008970746750100033,-0.05420183459836613,-0.07417975281135925,0.2,0.015,0.15,0.12205201658200308,0.06031621638968718,0.0018307802487300463,0.03290713620508704,0.09505413284350427,0.002,8e-05,0,-1.4264711885592845,-0.0011710312911168868,-0.00011411769508474277,0.0,-0.0012851489862016295,0.2,0.02,0.0,0.39311171830183095,0.13947955948397803,0.007862234366036619,-0.0,0.14734179385001464,0.30158108194843586,0.0,-0.30158108194843586,-0.09540421768991551,0.0,0.09540421768991551,-0.5855156455584434,0.0,0.5855156455584434,0.6973977974198902,0,-0.6973977974198902,-0.07533121750157593,-0.09414420623445277,-0.14734179385001464,0.4,0.03345012664794922,2.317674160003662,STABILIZE
0.2,0.015,0.15,-0.06317133190464312,-0.020128889589156554,-0.0009475699785696467,-0.05453222611348883,-0.07560868568121504,0.2,0.015,0.15,0.13323196924863806,0.06684979106211765,0.001998479538729571,-0.0009477000225299248,0.0679005705783173,0.002,8e-05,0,-1.4455299148750942,-0.0011396039948579195,-0.00011564239319000755,0.0,-0.001255246388047927,0.2,0.02,0.0,0.4152341355214406,0.13227953758099617,0.008304682710428812,-0.0,0.14058422029142498,0.33424895531058824,0.0,-0.33424895531058824,-0.10064444794578276,0.0,0.10064444794578276,-0.5698019974289598,0.0,0.5698019974289598,0.6613976879049809,0,-0.6613976879049809,-0.07638744555912873,-0.06702327204973633,-0.14058422029142498,0.4,0.033447980880737305,2.3511099815368652,STABILIZE
0.2,0.015,0.15,-0.0668050470220538,-0.020327712670475936,-0.0010020757053308068,-0.03403943737266902,-0.05536922574847576,0.2,0.015,0.15,0.14727615140081896,0.07856590025824396,0.002209142271012284,0.08946085527552561,0.17023589780478185,0.002,8e-05,0,-1.4652444654761396,-0.00110287049781486,-0.00011721955723809118,0.0,-0.0012200900550529512,0.2,0.02,0.0,0.43689028797228624,0.12114875006560986,0.008737805759445725,-0.0,0.1298865558250556,0.3928295012912198,0.0,-0.3928295012912198,-0.10163856335237968,0.0,0.10163856335237968,-0.55143524890743,0.0,0.55143524890743,0.6057437503280493,0,-0.6057437503280493,-0.057165869739974076,-0.16964101920896996,-0.1298865558250556,0.4,0.0357513427734375,2.386855363845825,STABILIZE
0.2,0.015,0.15,-0.06999551923018273,-0.019003124645967706,-0.0010499327884527408,-0.02812229336727243,-0.04817535080169288,0.2,0.015,0.15,0.1599655062133676,0.07558047067935089,0.002399482593200514,0.07612446961490539,0.1541044228874568,0.002,8e-05,0,-1.4834527652713234,-0.0010845246973705776,-0.00011867622122170588,0.0,-0.0012032009185922836,0.2,0.02,0.0,0.4566773950130832,0.11785617831784434,0.009133547900261664,-0.0,0.126989726218106,0.37790235339675443,0.0,-0.37790235339675443,-0.09501562322983853,0.0,0.09501562322983853,-0.5422623486852888,0.0,0.5422623486852888,0.5892808915892217,0,-0.5892808915892217,-0.04975772222355884,-0.15360080291933842,-0.126989726218106,0.4,0.03357839584350586,2.4204769134521484,STABILIZE
0.2,0.015,0.15,-0.07274703940704794,-0.01648225779275117,-0.001091205591105719,0.0067121618296890695,-0.01086130155416782,0.2,0.015,0.15,0.17171170629353244,0.07036252157419504,0.0025756755944029864,0.07052044374410661,0.14345864091270463,0.002,8e-05,0,-1.5012724190545126,-0.0010674394827324745,-0.00012010179352436101,0.0,-0.0011875412762568356,0.2,0.02,0.0,0.4746272630820012,0.10752396269717523,0.009492545261640024,-0.0,0.11701650795881526,0.3518126078709752,0.0,-0.3518126078709752,-0.08241128896375585,0.0,0.08241128896375585,-0.5337197413662372,0.0,0.5337197413662372,0.5376198134858762,0,-0.5376198134858762,-0.012206909927646281,-0.14335041288391615,-0.11701650795881526,0.4,0.03338766098022461,2.453831911087036,STABILIZE
0.2,0.015,0.15,-0.07594944009786957,-0.019139949024774422,-0.0011392416014680434,-0.00020491434933650327,-0.02048410497557897,0.2,0.015,0.15,0.185369490131107,0.08162916251916501,0.002780542351966605,0.09218143834413953,0.17659114321527114,0.002,8e-05,0,-1.5183216380647837,-0.0010189892342456382,-0.00012146573104518271,0.0,-0.001140454965290821,0.2,0.02,0.0,0.4929020981278215,0.10922412433136822,0.00985804196255643,-0.0,0.11908216629392465,0.408145812595825,0.0,-0.408145812595825,-0.0956997451238721,0.0,0.0956997451238721,-0.5094946171228191,0.0,0.5094946171228191,0.546120621656841,0,-0.546120621656841,-0.022166345654106037,-0.17638787809560394,-0.11908216629392465,0.4,0.0334630012512207,2.487287759780884,STABILIZE
0.2,0.015,0.15,-0.07962194787331348,-0.0219502872142152,-0.0011943292180997022,-0.008102748636763087,-0.03124736506907799,0.2,0.015,0.15,0.20102221657517144,0.0935551024371147,0.0030153332486275715,0.1163414251594949,0.21291186084523717,0.002,8e-05,0,-1.5346185470753935,-0.0009740533046075808,-0.0001227694837660315,0.0,-0.0010968227883736124,0.2,0.02,0.0,0.5115393347818975,0.11139328286018885,0.01023078669563795,-0.0,0.1216240695558268,0.4677755121855735,0.0,-0.4677755121855735,-0.10975143607107599,0.0,0.10975143607107599,-0.4870266523037904,0.0,0.4870266523037904,0.5569664143009442,0,-0.5569664143009442,-0.03331555054097891,-0.212598053623483,-0.1216240695558268,0.4,0.0334620475769043,2.520782709121704,STABILIZE
0.2,0.015,0.15,-0.08277673399652156,-0.018877022470046526,-0.0012416510099478235,0.006523365252506632,-0.013595308227487718,0.2,0.015,0.15,0.21684635725898718,0.09468555001560858,0.0032526953588848076,0.07225789284734463,0.17019613822183802,0.002,8e-05,0,-1.5506850400792374,-0.0009613569275498016,-0.000124054803206339,0.0,-0.0010854117307561406,0.2,0.02,0.0,0.5287314381177817,0.10287091051637715,0.010574628762355634,-0.0,0.11344553927873278,0.47342775007804283,0.0,-0.47342775007804283,-0.09438511235023263,0.0,0.09438511235023263,-0.4806784637749008,0.0,0.4806784637749008,0.5143545525818857,0,-0.5143545525818857,-0.015122621335231994,-0.17006723433800697,-0.11344553927873278,0.4,0.03342461585998535,2.5541720390319824,STABILIZE
0.2,0.015,0.15,-0.08639281349591672,-0.02153507320653584,-0.0012958922024387508,-0.01126602545126002,-0.034096990860234606,0.2,0.015,0.15,0.23144390641195456,0.08693373298284475,0.0034716585961793184,0.050970603756311315,0.14137599533533537,0.002,8e-05,0,-1.5669643829164255,-0.0009694942818922522,-0.00012535715063331405,0.0,-0.0010948514325255661,0.2,0.02,0.0,0.5446698584005135,0.09491910994837832,0.01089339716801027,-0.0,0.1058125071163886,0.43466866491422373,0.0,-0.43466866491422373,-0.10767536603267919,0.0,0.10767536603267919,-0.4847471409461261,0.0,0.4847471409461261,0.4745955497418916,0,-0.4745955497418916,-0.035266861153169175,-0.141088714457191,-0.1058125071163886,0.4,0.03358316421508789,2.5877726078033447,STABILIZE
0.2,0.015,0.15,-0.08973909001811488,-0.019994018308574835,-0.0013460863502717231,-0.015685609933454674,-0.03702571459230124,0.2,0.015,0.15,0.24622885570008884,0.08834014308062083,0.0036934328355013326,0.08071564767202817,0.1727492235881503,0.002,8e-05,0,-1.5833270499731462,-0.0009776701433337708,-0.0001266661639978517,0.0,-0.0011043363073316224,0.2,0.02,0.0,0.5596271063239857,0.0893696282551529,0.011192542126479714,-0.0,0.10056217038163262,0.44170071540310407,0.0,-0.44170071540310407,-0.09997009154287417,0.0,0.09997009154287417,-0.4888350716668854,0.0,0.4888350716668854,0.4468481412757645,0,-0.4468481412757645,-0.03837184115580531,-0.17245521041039305,-0.10056217038163262,0.4,0.03347277641296387,2.6212868690490723,STABILIZE
0.2,0.015,0.15,-0.09318250186041574,-0.020606987171295332,-0.0013977375279062361,-0.006523561746904021,-0.02852828644610559,0.2,0.015,0.15,0.2597679120037501,0.08102404601552604,0.003896518680056251,-0.0026249866529435575,0.08229557804263873,0.002,8e-05,0,-1.5993669657510385,-0.0009599035892344078,-0.0001279493572600831,0.0,-0.001087852946494491,0.2,0.02,0.0,0.573985990132491,0.08593027729098889,0.01147971980264982,-0.0,0.0974099970936387,0.4051202300776302,0.0,-0.4051202300776302,-0.10303493585647665,0.0,0.10303493585647665,-0.4799517946172039,0.0,0.4799517946172039,0.4296513864549444,0,-0.4296513864549444,-0.029144599217049764,-0.08207933740839188,-0.0974099970936387,0.4,0.03341984748840332,2.654665946960449,STABILIZE
