E-kp,E-ki,E-kd,E-I-Tot,E-P,E-I,E-D,E-PID,N-kp,N-ki,N-kd,N-I-Tot,N-P,N-I,N-D,N-PID,D-kp,D-ki,D-kd,D-I-Tot,D-P,D-I,D-D,D-PID,Y-kp,Y-ki,Y-kd,Y-I-Tot,Y-P,Y-I,Y-D,Y-PID,errorN,desiredN,actualN,errorE,desiredE,actualE,errorD,desiredD,actualD,errorY,desiredY,actualY,roll,pitch,yaw-rate,thrust,dt,Time,Mode
0.16,0.015,0.11,1.3203313110338766,6.397124691327937,0.019804969665508147,13.75,20.166929660993446,0.17,0.015,0.08,-0.32820887579166674,-1.689589312583612,-0.004923133136875001,-10.0,-11.694512445720488,0.002,8e-05,0,0.31091699423614977,0.018830262186466728,2.4873359538891983e-05,0.0,0.01885513554600562,0.2,0.02,0.0,-0.0002076367427391044,-0.0012575235119993598,-4.152734854782088e-06,-0.0,-0.001261676246854142,-9.93876066225654,-10,-0.06123933774346002,39.982029320799604,40,0.017970679200397008,9.415131093233363,10,0.5848689067666369,-0.006287617559996799,0,0.006287617559996799,3.9995610174011964,4.00043893442766,0.001261676246854142,0.5188551355460056,0.03302311897277832,0.03331494331359863,STABILIZE
0.16,0.015,0.11,2.715525191644235,6.397143820630546,0.04073287787466352,6.8751884401379275,13.313065138643138,0.17,0.015,0.08,-0.674939631125481,-1.6891680421375672,-0.010124094466882215,-4.997159442193808,-6.696451578798257,0.002,8e-05,0,0.638765618357013,0.018790352626291425,5.110124946856104e-05,0.0,0.018841453875759986,0.2,0.02,0.0,-0.0003362685802074353,-0.0007372419486215958,-6.725371604148706e-06,-0.0,-0.0007439673202257445,-9.936282600809218,-10,-0.06371739919078198,39.98214887894091,40,0.01785112105908736,9.395176313145711,10,0.6048236868542878,-0.003686209743107979,0,0.003686209743107979,3.9997426457340626,4.000257337709198,0.0007439673202257445,0.51884145387576,0.03489542007446289,0.06813812255859375,STABILIZE
0.16,0.015,0.11,4.053563303984704,6.397285446155556,0.06080344955977055,4.584428800429532,11.04251769614486,0.17,0.015,0.08,-1.0074447695050517,-1.6890968234322281,-0.015111671542575774,-3.331105801368616,-5.03531429634342,0.002,8e-05,0,0.9531286378997845,0.01878748773281171,7.625029103198277e-05,0.0,0.018863738023843692,0.2,0.02,0.0,-0.0003577821396565871,-0.00012857292655730525,-7.155642793131742e-06,-0.0,-0.000135728569350437,-9.9358636672484,-10,-0.06413633275160041,39.983034038472226,40,0.016965961527772824,9.393743866405854,10,0.606256133594145,-0.0006428646327865262,0,0.0006428646327865262,3.9999551193302723,4.000044880166165,0.000135728569350437,0.5188637380238437,0.03346514701843262,0.10163378715515137,STABILIZE
0.16,0.015,0.11,5.393518917280183,6.396746174217713,0.08090278375920273,3.4355561283859513,9.913205086362867,0.17,0.015,0.08,-1.3403121077557985,-1.6883746685782657,-0.020104681616336977,-2.4957944551086633,-4.204273805303266,0.002,8e-05,0,1.2683032865421366,0.018807453469997903,0.00010146426292337094,0.0,0.018908917732921273,0.2,0.02,0.0,-0.00047063016688219566,-0.0006733993455276562,-9.412603337643913e-06,-0.0,-0.0006828119488653001,-9.93161569751921,-10,-0.06838430248079093,39.97966358886071,40,0.020336411139293603,9.403726734998951,10,0.5962732650010485,-0.0033669967276382805,0,0.0033669967276382805,3.999764932378238,4.000235053808376,0.0006828119488653001,0.5189089177329212,0.03351593017578125,0.1351308822631836,STABILIZE
0.16,0.015,0.11,7.114407640298353,6.397066834624527,0.10671611460447529,2.7494692710649113,9.253252220293914,0.17,0.015,0.08,-1.7678171251466783,-1.6884890725617667,-0.026517256877200173,-1.9968857255019274,-3.7118920549408942,0.002,8e-05,0,1.6734827955096627,0.018827193503393107,0.00013387862364077304,0.0,0.01896107212703388,0.2,0.02,0.0,-0.0005021431387696016,-0.00014642912745094694,-1.0042862775392033e-05,-0.0,-0.00015647199022633895,-9.93228866212804,-10,-0.0677113378719599,39.981667716403294,40,0.018332283596706463,9.413596751696554,10,0.5864032483034461,-0.0007321456372547347,0,0.0007321456372547347,3.9999525678102605,3.7119431680457393,0.00015647199022633895,0.5189610721270339,0.04304194450378418,0.1781907081604004,STABILIZE
0.16,0.015,0.11,8.07941621525044,6.3969328620260795,0.12119124322875659,-0.0012939306129761121,6.51683017464186,0.17,0.015,0.08,-2.0076115981812164,-1.6889186360967965,-0.030114173972718244,0.0014392579323050541,-1.7175935521372097,0.002,8e-05,0,1.9008642824796074,0.01884107747807594,0.0001520691425983686,0.0,0.01899314662067431,0.2,0.02,0.0,-0.000613130817296121,-0.0009196559834734223,-1.226261634592242e-05,-0.0,-0.0009319185998193447,-9.934815506451743,-10,-0.06518449354825694,39.980830387663,40,0.019169612336999278,9.420538739037971,10,0.5794612609620294,-0.004598279917367111,0,0.004598279917367111,3.9998621414340345,1.7179145671033993,0.0009319185998193447,0.5189931466206743,0.024136781692504883,0.20235109329223633,STABILIZE
0.16,0.015,0.11,9.416147050572187,6.396594992349849,0.1412422057585828,-0.0027587371377882242,6.535078460970643,0.17,0.015,0.08,-2.3398518867437086,-1.6892196370348087,-0.035097778301155624,-0.0005442390642189047,-1.7248616544001834,0.002,8e-05,0,2.2159982960836255,0.01884994907046282,0.00017727986368669006,0.0,0.01902722893414951,0.2,0.02,0.0,-0.0008568273316201551,-0.0014576867889067439,-1.7136546632403103e-05,-0.0,-0.001474823335539147,-9.936586100204757,-10,-0.06341389979524266,39.978718702186555,40,0.021281297813447213,9.42497453523141,10,0.5750254647685905,-0.007288433944533719,0,0.007288433944533719,3.999780552868176,1.7253704691218301,0.001474823335539147,0.5190272289341495,0.03343605995178223,0.23577260971069336,STABILIZE
0.16,0.015,0.11,10.755695242153458,6.396257215553385,0.16133542863230185,-0.004726695196573118,6.552865948989114,0.17,0.015,0.08,-2.672869554337197,-1.6895217653821344,-0.040093043315057954,-0.0015931490012252175,-1.7312079576984176,0.002,8e-05,0,2.531958307185997,0.018858611373046473,0.00020255666457487978,0.0,0.019061168037621354,0.2,0.02,0.0,-0.0011912623336318747,-0.0019961322670163993,-2.3825246672637496e-05,-0.0,-0.002019957513689037,-9.93836332577726,-10,-0.061636674222740336,39.976607597208655,40,0.02339240279134191,9.429305686523236,10,0.5706943134767638,-0.009980661335081995,0,0.009980661335081995,3.9996983708476175,1.7319047130362686,0.002019957513689037,0.5190611680376214,0.03350830078125,0.26927685737609863,STABILIZE
0.16,0.015,0.11,12.109351235895833,6.396940756349379,0.18164026853843748,0.0002616293735973385,6.578842654261415,0.17,0.015,0.08,-3.0094219340190183,-1.6898401417693731,-0.045141329010285274,-0.004506091567381805,-1.7394875623470403,0.002,8e-05,0,2.851260487977495,0.01886148644244385,0.00022810083903819964,0.0,0.019089587281482048,0.2,0.02,0.0,-0.0012917434936195915,-0.0005935518611653074,-2.583486987239183e-05,-0.0,-0.0006193867310376992,-9.940236128055135,-10,-0.059763871944865044,39.98087972718362,40,0.01912027281638097,9.430743221221924,10,0.5692567787780763,-0.0029677593058265363,0,0.0029677593058265363,3.999909894098917,1.7396947486986447,0.0006193867310376992,0.519089587281482,0.03385758399963379,0.3031318187713623,STABILIZE
0.16,0.015,0.11,13.447028508530332,6.397155390593433,0.201705427627955,0.00011935991717657704,6.598980178138564,0.17,0.015,0.08,-3.341929415589497,-1.689530016794706,-0.050128941233842456,-0.0033835146540765236,-1.743042472682625,0.002,8e-05,0,3.166919253513141,0.018869631476558107,0.00025335354028105134,0.0,0.019122985016839157,0.2,0.02,0.0,-0.0014442108256094459,-0.0009114279978826384,-2.8884216512188918e-05,-0.0,-0.0009403122143948273,-9.93841186349827,-10,-0.06158813650172949,39.98222119120896,40,0.01777880879104422,9.434815738279053,10,0.5651842617209483,-0.004557139989413192,0,0.004557139989413192,3.999861350809117,1.7433606155580739,0.0009403122143948273,0.5191229850168392,0.03345680236816406,0.33660411834716797,STABILIZE
0.16,0.015,0.11,14.798055111458108,6.397354051273048,0.22197082667187162,0.0016909705549679652,6.621015848499887,0.17,0.015,0.08,-3.6776730405374494,-1.6891693781288175,-0.05516509560806174,-0.0007039751637906193,-1.74503844890067,0.002,8e-05,0,3.4857593388310564,0.018872064649731495,0.00027886074710648456,0.0,0.01915092539683798,0.2,0.02,0.0,-0.0016521942952059084,-0.001231048938023653,-3.3043885904118166e-05,-0.0,-0.0012640928239277714,-9.93629045958128,-10,-0.06370954041872144,39.98346282045655,40,0.016537179543446152,9.436032324865748,10,0.563967675134252,-0.006155244690118265,0,0.006155244690118265,3.9998125086834606,1.745468155974488,0.0012640928239277714,0.5191509253968379,0.033789634704589844,0.37041473388671875,STABILIZE
0.16,0.015,0.11,16.136158766786842,6.396869633161567,0.24204238150180263,0.001090273846644739,6.640002288510014,0.17,0.015,0.08,-4.01020705181677,-1.6890509600412662,-0.060153105777251546,0.00047630072759474214,-1.748727765090923,0.002,8e-05,0,3.8009183447166586,0.018832912031315294,0.00030407346757733273,-0.0,0.019136985498892627,0.2,0.02,0.0,-0.0018910484696580386,-0.0014273175037879848,-3.7820969393160776e-05,0.0,-0.0014651384731811457,-9.935593882595683,-10,-0.06440611740431706,39.980435207259795,40,0.019564792740203295,9.416456015657648,10,0.5835439843423519,-0.007136587518939924,0,0.007136587518939924,3.999782152775661,1.7492259793226232,0.0014651384731811457,0.5191369854988926,0.03346896171569824,0.40387797355651855,STABILIZE
0.16,0.015,0.11,17.473198725769855,6.396705860082021,0.2620979808865478,0.0018029833454406576,6.660606824314009,0.17,0.015,0.08,-4.342390516562908,-1.6885695114183246,-0.06513585774844362,0.0026798326370870047,-1.7510255365296812,0.002,8e-05,0,4.115819085930196,0.018831967241623792,0.00032926552687441576,-0.0,0.019161232768498206,0.2,0.02,0.0,-0.002183653516912021,-0.0017498620814246245,-4.367307033824042e-05,0.0,-0.0017935351517628648,-9.932761831872497,-10,-0.06723816812750241,39.979411625512626,40,0.020588374487377988,9.415983620811895,10,0.5840163791881045,-0.008749310407123121,0,0.008749310407123121,3.9997325642807415,1.7516363332071125,0.0017935351517628648,0.5191612327684982,0.03344321250915527,0.4373133182525635,STABILIZE
0.16,0.015,0.11,18.810118647708634,6.396541987158326,0.2821517797156295,-0.001646761769052911,6.677047005104902,0.17,0.015,0.08,-4.674457726216821,-1.6880868686632304,-0.07011686589325232,0.004923224242142004,-1.7532805103143407,0.002,8e-05,0,4.430677298306804,0.018830632097133322,0.0003544541838645444,-0.0,0.019185086280997868,0.2,0.02,0.0,-0.002529896509929751,-0.0020707652401737286,-5.059793019859502e-05,-0.0,-0.0021213631703723237,-9.929922756842531,-10,-0.07007724315746847,39.97838741973953,40,0.021612580260466592,9.41531604856666,10,0.5846839514333395,-0.010353826200868643,0,0.010353826200868643,3.9996831022496506,1.7540033151128094,0.0021213631703723237,0.5191850862809979,0.03344106674194336,0.4708216190338135,STABILIZE
0.16,0.015,0.11,20.149669457588345,6.396724858134494,0.30224504186382517,-0.001778403383080843,6.697191496615239,0.17,0.015,0.08,-5.007229443048013,-1.6883940989983157,-0.0751084416457202,0.0031878030665841144,-1.7603147375774517,0.002,8e-05,0,4.746280705262026,0.01883866725782963,0.0003797024564209621,-0.0,0.01921836971425059,0.2,0.02,0.0,-0.0028215695835866,-0.0017410242923864918,-5.6431391671732e-05,-0.0,-0.0017974556840582238,-9.931729994107739,-10,-0.06827000589226115,39.97953036334059,40,0.020469636659414172,9.419333628914814,10,0.5806663710851863,-0.008705121461932459,0,0.008705121461932459,3.9997325038796205,1.7609224493830595,0.0017974556840582238,0.5192183697142506,0.033505916595458984,0.5043199062347412,STABILIZE
0.16,0.015,0.11,21.486582601894042,6.397193692629675,0.3222987390284106,-0.0006588942428456206,6.71883353741524,0.17,0.015,0.08,-5.339259901967134,-1.6880805716647924,-0.08008889852950701,0.0030657762418332506,-1.765103693952466,0.002,8e-05,0,5.061562025136448,0.018857953483134304,0.0004049249620109159,-0.0,0.01926287844514522,0.2,0.02,0.0,-0.0031235477754987325,-0.0018062252144428405,-6.247095550997465e-05,-0.0,-0.0018686961699528153,-9.92988571567525,-10,-0.07011428432475106,39.982460578935466,40,0.017539421064532934,9.428976741567151,10,0.5710232584328487,-0.009031126072214202,0,0.009031126072214202,3.9997217295744227,1.765734163563369,0.0018686961699528153,0.5192628784451452,0.033437490463256836,0.5377106666564941,STABILIZE
0.16,0.015,0.11,22.82935607859955,6.397410326149009,0.34244034117899325,0.002218204757910586,6.7420688720859125,0.17,0.015,0.08,-5.672730240451982,-1.6880589227373881,-0.08509095360677973,0.002793446308904704,-1.770356430035263,0.002,8e-05,0,5.378369345792374,0.018867166165067124,0.0004302695476633899,0.0,0.019297435712730515,0.2,0.02,0.0,-0.0034687356130175847,-0.002055734152589751,-6.93747122603517e-05,-0.0,-0.0021251088648501027,-9.929758369043459,-10,-0.07024163095654165,39.983814538431304,40,0.016185461568698163,9.433583082533563,10,0.5664169174664364,-0.010278670762948756,0,0.010278670762948756,3.999682339626887,1.7710739881337523,0.0021251088648501027,0.5192974357127305,0.03358292579650879,0.5713081359863281,STABILIZE
0.16,0.015,0.11,24.167058161664645,6.397912336967969,0.3625058724249697,0.004954907533443484,6.765373116926382,0.17,0.015,0.08,-6.004981496525536,-1.6883965342035452,-0.09007472244788303,0.00048869551141053,-1.7779825611400177,0.002,8e-05,0,5.694014087909895,0.018870675833380677,0.0004555211270327916,0.0,0.019326196960413468,0.2,0.02,0.0,-0.003727967001227082,-0.0015498029398244592,-7.455934002454163e-05,0.0,-0.0016243622798490008,-9.931744318844382,-10,-0.06825568115561848,39.986952106049806,40,0.01304789395019183,9.435337916690338,10,0.5646620833096613,-0.007749014699122296,0,0.007749014699122296,3.999759498707935,1.7785235281585856,0.0016243622798490008,0.5193261969604135,0.03345346450805664,0.6047444343566895,STABILIZE
0.16,0.015,0.11,25.517922865996354,6.397806285623327,0.3827688429899453,0.005197069162173644,6.7857721977754455,0.17,0.015,0.08,-6.34062415709299,-1.688983183441299,-0.09510936235639485,-0.002504034388001356,-1.7865965801856951,0.002,8e-05,0,6.012837656178641,0.018874682846974557,0.00048102701249429133,0.0,0.01935570985946885,0.2,0.02,0.0,-0.003936408509304971,-0.0012339951461175956,-7.872817018609942e-05,0.0,-0.001312723316303695,-9.935195196713522,-10,-0.0648048032864784,39.986289285145794,40,0.013710714854207108,9.437341423487279,10,0.562658576512721,-0.0061699757305879776,0,0.0061699757305879776,3.999807584669284,1.7870273153909229,0.001312723316303695,0.5193557098594689,0.0337831974029541,0.6385297775268555,STABILIZE
0.16,0.015,0.11,26.8606515307465,6.397696445168424,0.4029097729611975,0.003996852311682961,6.8046030704413045,0.17,0.015,0.08,-6.674367239871309,-1.689571524940739,-0.10011550859806963,-0.0032900107725733416,-1.792977044311382,0.002,8e-05,0,6.329811482527942,0.018878556547607707,0.0005063849186022354,0.0,0.01938494146620994,0.2,0.02,0.0,-0.004090568334230204,-0.0009181562420277547,-8.181136668460409e-05,0.0,-0.0009999676087123588,-9.93865602906317,-10,-0.06134397093683022,39.98560278230265,40,0.01439721769734926,9.439278273803854,10,0.5607217261961454,-0.004590781210138773,0,0.004590781210138773,3.999856326224162,1.7932975355450993,0.0009999676087123588,0.51938494146621,0.03358030319213867,0.6721293926239014,STABILIZE
0.16,0.015,0.11,28.198221126751907,6.39723309046514,0.4229733169012786,0.00016447323629017733,6.820370880602709,0.17,0.015,0.08,-7.006811580586952,-1.6893656898191043,-0.10510217370880427,-0.003593416498614083,-1.7980612800265225,0.002,8e-05,0,6.645539809166836,0.018875538372017494,0.0005316431847333469,0.0,0.019407181556750842,0.2,0.02,0.0,-0.004147243267651304,-0.0003388260698397927,-8.294486535302608e-05,0.0,-0.0004217709351928188,-9.937445234230024,-10,-0.06255476576997605,39.98270681540713,40,0.017293184592871637,9.437769186008747,10,0.5622308139912519,-0.0016941303491989634,0,0.0016941303491989634,3.999946832901232,1.7981795518507107,0.0004217709351928188,0.5194071815567508,0.03345370292663574,0.7055625915527344,STABILIZE
0.16,0.015,0.11,29.536928192161664,6.397247845138813,0.44305392288242496,-0.0006619059366754602,6.839639862084563,0.17,0.015,0.08,-7.33968598740471,-1.69011776010275,-0.11009528981107065,-0.005768147704940019,-1.8059811976187607,0.002,8e-05,0,6.961566499382543,0.0188773660349844,0.0005569253199506034,0.0,0.019434291354935004,0.2,0.02,0.0,-0.004042308820444724,0.0006268097065615819,-8.084617640889448e-05,0.0,0.0005459635301526874,-9.941869177074999,-10,-0.05813082292500079,39.98279903211758,40,0.01720096788241909,9.4386830174922,10,0.5613169825077993,0.0031340485328079093,0,-0.0031340485328079093,4.000098780222669,1.8057623970538343,-0.0005459635301526874,0.519434291354935,0.03348207473754883,0.7390573024749756,STABILIZE
0.16,0.015,0.11,30.872927907984455,6.3972474658002305,0.4630939186197668,-0.0027268253318173106,6.85761455908818,0.17,0.015,0.08,-7.672024950842941,-1.6908184761314327,-0.11508037426264411,-0.006792009367524466,-1.8126908597616012,0.002,8e-05,0,7.276885621984938,0.018873268030078043,0.0005821508497587952,0.0,0.019455418879836837,0.2,0.02,0.0,-0.003774593192202802,0.0016023984736319747,-7.549186384405605e-05,0.0,0.0015269066097879187,-9.94599103606725,-10,-0.054008963932750335,39.98279666125144,40,0.017203338748559043,9.43663401503902,10,0.5633659849609793,0.008011992368159873,0,-0.008011992368159873,4.000253439689382,1.812131499454862,-0.0015269066097879187,0.5194554188798368,0.033414363861083984,0.772498607635498,STABILIZE
0.16,0.015,0.11,32.21296314345325,6.397353819228954,0.48319444715179877,-0.0018588555618026367,6.87868941081895,0.17,0.015,0.08,-8.005315486103944,-1.6905813452650402,-0.12007973229155916,-0.0044917233076017015,-1.815152800864201,0.002,8e-05,0,7.592665504614217,0.01884423991906601,0.0006074132403691375,-0.0,0.01945165315943515,0.2,0.02,0.0,-0.0033382166076580903,0.0026040876910062866,-6.676433215316181e-05,0.0,0.002537323358853125,-9.944596148617883,-10,-0.05540385138211728,39.98346137018096,40,0.016538629819039165,9.422119959533005,10,0.5778800404669948,0.013020438455031431,0,-0.013020438455031431,4.000412389316469,1.8142437559182774,-0.002537323358853125,0.5194516531594352,0.03351473808288574,0.8060195446014404,STABILIZE
0.16,0.015,0.11,33.55106870279057,6.3971065866337256,0.5032660305418586,-0.0024248338913225908,6.897947783284262,0.17,0.015,0.08,-8.338010629570103,-1.689929595747907,-0.12507015944355154,-0.0010098993290452404,-1.8160096545205038,0.002,8e-05,0,7.908292982737231,0.018861578269498153,0.0006326634386189785,-0.0,0.019494241708117133,0.2,0.02,0.0,-0.0029745507009158235,0.0021732306086778407,-5.949101401831647e-05,0.0,0.002113739594659524,-9.940762327928864,-10,-0.0592376720711366,39.981916166460785,40,0.01808383353921174,9.430789134749077,10,0.5692108652509232,0.010866153043389204,0,-0.010866153043389204,4.000344334562661,1.8152510212761488,-0.002113739594659524,0.5194942417081171,0.033467769622802734,0.8394653797149658,STABILIZE
0.16,0.015,0.11,34.88799436240941,6.39697990556143,0.5233199154361411,-0.0010412822915162137,6.919258538706055,0.17,0.015,0.08,-8.670444794719637,-1.6900607563900238,-0.13005667192079456,-0.001958156250702433,-1.8220755845615209,0.002,8e-05,0,8.223754966192676,0.018867952329791236,0.0006579003972954141,-0.0,0.01952585272708665,0.2,0.02,0.0,-0.0026385838257833,0.002009436102237875,-5.2771676515666004e-05,0.0,0.001956664425722209,-9.941533861117787,-10,-0.058466138882214046,39.98112440975894,40,0.018875590241059517,9.433976164895618,10,0.5660238351043815,0.010047180511189375,0,-0.010047180511189375,4.00031945107808,1.821374131028981,-0.001956664425722209,0.5195258527270866,0.033438920974731445,0.872891902923584,STABILIZE
0.16,0.015,0.11,36.2257933154532,6.396871183506464,0.543386899731798,-0.0015486378620295977,6.938709445376233,0.17,0.015,0.08,-9.003135576470342,-1.6902325452786202,-0.13504703364705511,-0.0003272926522150303,-1.8256068715778904,0.002,8e-05,0,8.539613516922685,0.01887901818722289,0.0006831690813538149,0.0,0.019562187268576704,0.2,0.02,0.0,-0.002334389228632166,0.0018181858046262347,-4.668778457264332e-05,0.0,0.0017714980200535914,-9.942544383991883,-10,-0.05745561600811715,39.9804448969154,40,0.0195551030846018,9.439509093611445,10,0.560490906388555,0.009090929023131173,0,-0.009090929023131173,4.000289612563275,1.824972182026557,-0.0017714980200535914,0.5195621872685767,0.03346133232116699,0.9063527584075928,STABILIZE
0.16,0.015,0.11,37.56325893962006,6.397054956017392,0.5634488840943009,-0.0007917051711038287,6.959712134940589,0.17,0.015,0.08,-9.335766273467396,-1.6903970172718599,-0.14003649410201094,0.0011836581081202688,-1.8292498532657504,0.002,8e-05,0,8.855599379701292,0.018891877415340038,0.0007084479503761034,0.0,0.01960032536571614,0.2,0.02,0.0,-0.0020907722417379117,0.0014565152416091986,-4.1815444834758234e-05,-0.0,0.0014146997967744404,-9.943511866305057,-10,-0.056488133694943335,39.9815934751087,40,0.018406524891296752,9.445938707670019,10,0.5540612923299818,0.0072825762080459926,0,-0.0072825762080459926,4.0002324743678255,1.8287414187593152,-0.0014146997967744404,0.5196003253657161,0.03345203399658203,0.9398059844970703,STABILIZE
0.16,0.015,0.11,38.90365629495295,6.397535210340639,0.5835548444242943,0.000741811361551375,6.981831866126484,0.17,0.015,0.08,-9.669150671556642,-1.6906485363633126,-0.1450372600733496,-0.00018842064371919976,-1.8358742170803815,0.002,8e-05,0,9.172297222392295,0.018894449392130305,0.0007337837777913837,0.0,0.01962823316992169,0.2,0.02,0.0,-0.0019148891076216153,0.0010493330008982868,-3.829778215243231e-05,-0.0,0.0010110352187458545,-9.944991390372426,-10,-0.05500860962757396,39.98459506462899,40,0.015404935371010654,9.447224696065152,10,0.5527753039348472,0.005246665004491434,0,-0.005246665004491434,4.000168097130103,1.8355079230673554,-0.0010110352187458545,0.5196282331699217,0.033522844314575195,0.9734890460968018,STABILIZE
0.16,0.015,0.11,40.247056647113375,6.3966731373633845,0.6037058497067006,-0.001770019187285272,6.9986089678828,0.17,0.015,0.08,-10.00383261945136,-1.6932065047505918,-0.1500574892917704,-0.009185912123833047,-1.8524499061661952,0.002,8e-05,0,9.489889949611625,0.018902935967289976,0.00075919119596893,0.0,0.019662127163258908,0.2,0.02,0.0,-0.0016551598022262024,0.0015458938470362393,-3.310319604452405e-05,-0.0,0.0015127906509917154,-9.960038263238774,-10,-0.03996173676122627,39.97920710852115,40,0.02079289147885082,9.451467983644989,10,0.5485320163550105,0.007729469235181196,0,-0.007729469235181196,4.000249867776551,1.8519102705608677,-0.0015127906509917154,0.5196621271632589,0.03360247611999512,1.0070221424102783,STABILIZE
0.16,0.015,0.11,41.58219971520303,6.396705592621758,0.6237329957280454,-0.001115482157830934,7.0193231061919725,0.17,0.015,0.08,-10.336502239016461,-1.693443212943801,-0.15504753358524692,-0.009483848626509077,-1.8579745951555569,0.002,8e-05,0,9.805605977296581,0.018907547515322424,0.0007844484781837265,0.0,0.01969199599350615,0.2,0.02,0.0,-0.0014206083952330423,0.0014046774581030312,-2.8412167904660846e-05,-0.0,0.0013762652901983703,-9.9614306643753,-10,-0.038569335624700274,39.979409953885984,40,0.020590046114014715,9.453773757661212,10,0.5462262423387879,0.007023387290515156,0,-0.007023387290515156,4.000227722763613,1.8574842562662257,-0.0013762652901983703,0.5196919959935061,0.03339576721191406,1.0403847694396973,STABILIZE
0.16,0.015,0.11,42.92016747730194,6.397359290300232,0.643802512159529,0.002017334835394231,7.043179137295155,0.17,0.015,0.08,-10.669799488058926,-1.6932292447962058,-0.16004699232088387,-0.008398848786545543,-1.8616750859036353,0.002,8e-05,0,10.121934617963646,0.018906172718475132,0.0008097547694370917,0.0,0.019715927487912226,0.2,0.02,0.0,-0.00102982239429858,0.002335630316005841,-2.05964478859716e-05,0.0,0.002315033868119869,-9.960172028212975,-10,-0.039827971787025754,39.98349556437645,40,0.016504435623554664,9.453086359237567,10,0.5469136407624331,0.011678151580029203,0,-0.011678151580029203,4.000379367613935,1.8608597584565687,-0.002315033868119869,0.5197159274879122,0.0334630012512207,1.0739078521728516,STABILIZE
0.16,0.015,0.11,44.256734456038124,6.397042492397173,0.6638510168405718,-4.106420028332655e-05,7.060852445037461,0.17,0.015,0.08,-11.00262766027736,-1.6925344886262383,-0.1650394149041604,-0.005980090933810487,-1.8635539944642094,0.002,8e-05,0,10.438093793601288,0.01891491142130835,0.0008350475034881031,0.0,0.019749958924796453,0.2,0.02,0.0,-0.0006215397888721743,0.0024426396295240058,-1.2430795777443488e-05,0.0,0.0024302088337465623,-9.956085227213165,-10,-0.04391477278683383,39.98151557748233,40,0.01848442251767042,9.457455710654175,10,0.5425442893458242,0.012213198147620029,0,-0.012213198147620029,4.000397145260451,1.8627013100536378,-0.0024302088337465623,0.5197499589247965,0.033429622650146484,1.1072711944580078,STABILIZE
0.16,0.015,0.11,45.59328734859447,6.397340077840504,0.683899310228917,-0.0007868400001665963,7.080452548069253,0.17,0.015,0.08,-11.335531526557837,-1.693016012527735,-0.17003297289836755,-0.006629692240357341,-1.8696786776664598,0.002,8e-05,0,10.754266979293856,0.01891682891521158,0.0008603413583435085,0.0,0.01977717027355509,0.2,0.02,0.0,-0.00016457098148688624,0.0027340714330219016,-3.291419629737725e-06,0.0,0.002730780013392164,-9.958917720751382,-10,-0.04108227924861762,39.98337548650315,40,0.016624513496848785,9.45841445760579,10,0.5415855423942101,0.013670357165109507,0,-0.013670357165109507,4.000445977905988,1.8687242534885673,-0.002730780013392164,0.5197771702735551,0.03342771530151367,1.1406660079956055,STABILIZE
0.16,0.015,0.11,46.93235501083253,6.39769543591376,0.7039853251624879,0.004199777658156373,7.105880538734404,0.17,0.015,0.08,-11.669260414037339,-1.69411847548832,-0.1750389062105601,-0.002563432984214398,-1.8717208146830946,0.002,8e-05,0,11.070928281282471,0.018911502976976823,0.0008856742625025978,0.0,0.01979717723947942,0.2,0.02,0.0,0.0003442775810842404,0.0030389223581984122,6.885551621684808e-06,0.0,0.003045807909820097,-9.965402796990118,-10,-0.0345972030098828,39.985596474461,40,0.014403525539002806,9.455751488488412,10,0.5442485115115887,0.01519461179099206,0,-0.01519461179099206,4.000496232217589,1.870659964860216,-0.003045807909820097,0.5197971772394794,0.03348875045776367,1.1741929054260254,STABILIZE
0.16,0.015,0.11,48.27082052399277,6.398052588225793,0.7240623078598915,0.005533307717309598,7.127648203802994,0.17,0.015,0.08,-12.00303519687748,-1.695208340635374,-0.1800455279531622,-0.004960864065885431,-1.8802147326544214,0.002,8e-05,0,11.387426489382344,0.018911321954058716,0.0009109941191505875,0.0,0.019822316073209303,0.2,0.02,0.0,0.0008973566803891107,0.003304744433091601,1.7947133607782213e-05,0.0,0.003322691566699383,-9.971813768443376,-10,-0.028186231556624027,39.987828676411205,40,0.012171323588795552,9.455660977029357,10,0.5443390229706426,0.016523722165458003,0,-0.016523722165458003,4.000542075088667,1.8790610810551103,-0.003322691566699383,0.5198223160732093,0.03347182273864746,1.2076389789581299,STABILIZE
0.16,0.015,0.11,49.60829819204186,6.397614127753532,0.7441244728806279,0.001044880675364145,7.142783481309524,0.17,0.015,0.08,-12.3366716109609,-1.6956409106615038,-0.1850500741644135,-0.006779804091330928,-1.8874707889172482,0.002,8e-05,0,11.703726197737524,0.018912124021938703,0.0009362980958190019,0.0,0.019848422117757704,0.2,0.02,0.0,0.0015655691686534412,0.003995361714615473,3.1311383373068824e-05,0.0,0.0040266730979885415,-9.974358298008845,-10,-0.02564170199115525,39.98508829845957,40,0.014911701540429955,9.456062010969351,10,0.5439379890306483,0.019976808573077362,0,-0.019976808573077362,4.000657844468171,1.8860760298861727,-0.0040266730979885415,0.5198484221177577,0.033449411392211914,1.2410831451416016,STABILIZE
0.16,0.015,0.11,50.95937416066704,6.397226697720738,0.7643906124100056,0.0007714297936783987,7.162388739924422,0.17,0.015,0.08,-12.674018366625077,-1.6971391353665861,-0.19011027549937615,-0.012908737750635736,-1.9001581486165982,0.002,8e-05,0,12.023273151802233,0.01891283644655304,0.0009618618521441787,-0.0,0.01987469829869722,0.2,0.02,0.0,0.0023313048062579985,0.004532114198271873,4.662609612515997e-05,0.0,0.004578740294397033,-9.98317138450933,-10,-0.01682861549067014,39.98266686075461,40,0.017333139245385484,9.45641822327652,10,0.5435817767234795,0.022660570991359364,0,-0.022660570991359364,4.000751202676392,1.8985759937483295,-0.004578740294397033,0.5198746982986973,0.033791542053222656,1.2749643325805664,STABILIZE
0.16,0.015,0.11,52.29558650299431,6.397033204902552,0.7844337975449146,-0.0012487132068472802,7.180218289240619,0.17,0.015,0.08,-13.007766285719514,-1.6976596691925911,-0.1951164942857927,-0.013018875631190563,-1.9057950391095744,0.002,8e-05,0,12.339339979243869,0.018914377659755423,0.0009871471983395096,-0.0,0.019901524858094932,0.2,0.02,0.0,0.0030632441147017122,0.004380142204730736,6.126488229403425e-05,0.0,0.00444140708702477,-9.986233348191712,-10,-0.013766651808286939,39.98145753064095,40,0.018542469359049605,9.457188829877712,10,0.5428111701222885,0.02190071102365368,0,-0.02190071102365368,4.000728177941305,1.9042659418582024,-0.00444140708702477,0.5199015248580949,0.03342080116271973,1.3083033561706543,STABILIZE
0.16,0.015,0.11,53.63354694389373,6.3972787051190885,0.8045032041584058,-0.0016990053468951907,7.2000829039306,0.17,0.015,0.08,-13.342026178241762,-1.698107603731665,-0.20013039267362642,-0.011180331808336006,-1.9094183282136274,0.002,8e-05,0,12.65569821864255,0.018907807045603603,0.001012455857491404,-0.0,0.019920262903095006,0.2,0.02,0.0,0.0037621091009607923,0.004176911698658978,7.524218201921584e-05,0.0,0.004252153880678194,-9.988868257245088,-10,-0.011131742754911852,39.9829919069943,40,0.017008093005700668,9.4539035228018,10,0.5460964771982001,0.02088455849329489,0,-0.02088455849329489,4.000695725465236,1.9079601841658849,-0.004252153880678194,0.519920262903095,0.033463239669799805,1.341766357421875,STABILIZE
0.16,0.015,0.11,54.969676787530894,6.397414095532821,0.8245451518129634,-0.002609071691914293,7.2193501756538705,0.17,0.015,0.08,-13.675842660229625,-1.6982143761664996,-0.20513763990344436,-0.008416520245569738,-1.9117685363155137,0.002,8e-05,0,12.971121644435383,0.018878164048181843,0.0010376897315548307,-0.0,0.019915853779736675,0.2,0.02,0.0,0.004348988527386865,0.0035124867662337093,8.69797705477373e-05,0.0,0.0035994665367814465,-9.989496330391173,-10,-0.01050366960882783,39.98383809708013,40,0.016161902919871334,9.439082024090922,10,0.5609179759090788,0.017562433831168546,0,-0.017562433831168546,4.000585811758284,1.9105423573436606,-0.0035994665367814465,0.5199158537797367,0.033416748046875,1.3752026557922363,STABILIZE
0.16,0.015,0.11,56.30677843987162,6.397639543203487,0.8446016765980743,0.00012030997719459802,7.242361529778757,0.17,0.015,0.08,-14.009862217052829,-1.698072294106569,-0.21014793325579242,-0.006799489820835712,-1.915019717183197,0.002,8e-05,0,13.286856207824721,0.018883716921966887,0.0010629484966259777,-0.0,0.019946665418592864,0.2,0.02,0.0,0.004785018738633858,0.0026078459672659597,9.570037477267717e-05,-0.0,0.002703546342038637,-9.988660553568051,-10,-0.011339446431948697,39.985247145021795,40,0.014752854978207832,9.441858460983443,10,0.5581415390165575,0.013039229836329798,0,-0.013039229836329798,4.000435711798664,1.9141093576298958,-0.002703546342038637,0.5199466654185929,0.03343987464904785,1.4086356163024902,STABILIZE
0.16,0.015,0.11,57.69618414504812,6.397661534997495,0.8654427621757218,0.0017838114824247392,7.264888108655641,0.17,0.015,0.08,-14.356978347129077,-1.6982276842343462,-0.21535467520693616,-0.003047458480132745,-1.9166298179214152,0.002,8e-05,0,13.614989379971096,0.01888653693784577,0.0010891991503976877,-0.0,0.019975736088243455,0.2,0.02,0.0,0.005199409814837381,0.0023851329374100175,0.00010398819629674762,-0.0,0.0024891211337067652,-9.989574613143212,-10,-0.010425386856787242,39.98538459373434,40,0.014615406265661176,9.443268468922884,10,0.5567315310771151,0.011925664687050088,0,-0.011925664687050088,4.00039884473343,1.915797207953105,-0.0024891211337067652,0.5199757360882434,0.03474783897399902,1.443378210067749,STABILIZE
0.16,0.015,0.11,59.033379126056055,6.39762995729174,0.8855006868908408,0.002450046674735287,7.285580690857317,0.17,0.015,0.08,-14.691003872940732,-1.6979815767954476,-0.22036505809411097,-0.0008889342290265576,-1.9192355691185852,0.002,8e-05,0,13.930950716591624,0.018895932728764858,0.00111447605732733,-0.0,0.020010408786092188,0.2,0.02,0.0,0.005422004085827918,0.0013312155263785416,0.00010844008171655836,-0.0,0.0014396556080951,-9.988126922326162,-10,-0.011873077673838089,39.985187233073376,40,0.014812766926623472,9.44796636438243,10,0.552033635617571,0.006656077631892708,0,-0.006656077631892708,4.000222931506342,1.9187708742892542,-0.0014396556080951,0.5200104087860922,0.03344225883483887,1.4768216609954834,STABILIZE
0.16,0.015,0.11,60.37214011276119,6.397323301763079,0.9055821016914177,0.00018199086855102836,7.303087394323048,0.17,0.015,0.08,-15.02542039496118,-1.6978992474686185,-0.2253813059244177,0.0006023322580430016,-1.922678221134993,0.002,8e-05,0,14.247529676458022,0.018909816398460125,0.0011398023741166418,0.0,0.020049618772576768,0.2,0.02,0.0,0.0055678468563257035,0.0008711444419173511,0.00011135693712651407,-0.0,0.0009825013790438653,-9.987642632168344,-10,-0.012357367831656486,39.98327063601924,40,0.016729363980758236,9.454908199230063,10,0.5450918007699362,0.004355722209586755,0,-0.004355722209586755,4.000146153696381,1.9223741288039828,-0.0009825013790438653,0.5200496187725767,0.033483028411865234,1.5103363990783691,STABILIZE
0.16,0.015,0.11,61.710576022860565,6.397819938570673,0.9256586403429085,0.001665021090786994,7.325143600004369,0.17,0.015,0.08,-15.35950829012101,-1.6967744342914328,-0.23039262435181515,0.0040658124199249085,-1.923101246223323,0.002,8e-05,0,14.564120919952167,0.018916611497047032,0.0011651296735961734,0.0,0.020081741170643205,0.2,0.02,0.0,0.005716616494635776,0.0008889119671813962,0.00011433232989271552,-0.0,0.0010032442970741118,-9.981026084067251,-10,-0.018973915932749386,39.986374616066705,40,0.01362538393329751,9.458305748523516,10,0.5416942514764834,0.004444559835906981,0,-0.004444559835906981,4.0001491671651,1.9227909516258006,-0.0010032442970741118,0.5200817411706432,0.033472299575805664,1.5438158512115479,STABILIZE
0.16,0.015,0.11,63.06732273056163,6.397985404367825,0.9460098409584243,0.0014085689580360682,7.3454038142842855,0.17,0.015,0.08,-15.69822239290218,-1.6970970820444802,-0.2354733358935327,0.002770915319945632,-1.9297995026180672,0.002,8e-05,0,14.884783991302788,0.018901811577797713,0.0011907827193042232,0.0,0.020092594297101935,0.2,0.02,0.0,0.00586321937296774,0.0008641656088809969,0.00011726438745935481,-0.0,0.0009814299963403516,-9.982924012026354,-10,-0.017075987973645863,39.9874087772989,40,0.012591222701099549,9.450905788898856,10,0.5490942111011433,0.0043208280444049845,0,-0.0043208280444049845,4.000145519969944,1.9294978464277497,-0.0009814299963403516,0.520092594297102,0.03392934799194336,1.57774019241333,STABILIZE
0.16,0.015,0.11,64.40505871521287,6.398165678050795,0.9660758807281931,0.002062514793406568,7.366304073572394,0.17,0.015,0.08,-16.03225174975104,-1.6974564790129278,-0.2404837762462656,0.0021806651583039754,-1.9357595901008895,0.002,8e-05,0,15.201055682595976,0.018908427217597737,0.0012160844546076782,0.0,0.020124511672205414,0.2,0.02,0.0,0.006014623677755466,0.0009051765796059867,0.00012029247355510932,-0.0,0.001025469053161096,-9.985038111840751,-10,-0.014961888159249424,39.988535487817465,40,0.011464512182533514,9.454213608798868,10,0.545786391201132,0.004525882898029934,0,-0.004525882898029934,4.000152896186696,1.9354436178294498,-0.001025469053161096,0.5201245116722054,0.03345298767089844,1.6111738681793213,STABILIZE
0.16,0.015,0.11,65.86730906259265,6.398291681908516,0.9880096359388898,0.002666163621269475,7.388967481468675,0.17,0.015,0.08,-16.397444377948528,-1.6978262439428344,-0.24596166566922792,0.000536295211753046,-1.9432516144003091,0.002,8e-05,0,15.54694370521064,0.018918549600046682,0.0012437554964168515,0.0,0.020162305096463533,0.2,0.02,0.0,0.006070589527328913,0.00030610851831766334,0.00012141179054657825,-0.0,0.0004275203088642416,-9.987213199663731,-10,-0.012786800336268873,39.98932301192822,40,0.010676988071775811,9.45927480002334,10,0.5407251999766585,0.0015305425915883167,0,-0.0015305425915883167,4.000051908667901,1.9431447616767235,-0.0004275203088642416,0.5201623050964636,0.03656601905822754,1.6477386951446533,STABILIZE
0.16,0.015,0.11,67.5215309233842,6.397224152275758,1.012822963850763,0.00037765142466707923,7.410424767551188,0.17,0.015,0.08,-16.81050106972981,-1.6972132497913857,-0.25215751604594716,0.0016993325149430544,-1.9476714333223897,0.002,8e-05,0,15.938538079644495,0.01892972346545514,0.0012750830463715598,0.0,0.020204806511826698,0.2,0.02,0.0,0.006133679396369445,0.0003049772551343879,0.00012267358792738888,-0.0,0.00042765084306177676,-9.983607351714033,-10,-0.016392648285967343,39.982650951723485,40,0.01734904827651736,9.464861732727568,10,0.5351382672724317,0.0015248862756719393,0,-0.0015248862756719393,4.000051834468359,1.947564975487699,-0.00042765084306177676,0.5202048065118267,0.041373491287231445,1.6891188621520996,STABILIZE
0.16,0.015,0.11,68.85909178873573,6.396142898188493,1.032886376831036,-0.006105866802364017,7.422923408217165,0.17,0.015,0.08,-17.144421724049312,-1.69658969869982,-0.2571663258607397,0.00029056740127475766,-1.9534654571592849,0.002,8e-05,0,16.255415242699243,0.018941115770627896,0.0013004332194159396,0.0,0.020241548990043837,0.2,0.02,0.0,0.006185853609147524,0.00031186778969623393,0.00012371707218295048,-0.0,0.0004355848618791844,-9.979939404116587,-10,-0.02006059588341302,39.975893113678076,40,0.024106886321927534,9.470557885313948,10,0.5294421146860523,0.0015593389484811694,0,-0.0015593389484811694,4.0000531632507785,1.953356594040621,-0.0004355848618791844,0.5202415489900438,0.03345918655395508,1.7225873470306396,STABILIZE
0.16,0.015,0.11,70.19805214413016,6.392949976276654,1.0529707821619523,-0.019877428012661087,7.426043330425945,0.17,0.015,0.08,-17.478909111197126,-1.696845388615242,-0.26218363666795685,0.00046744772895205194,-1.9585615775542466,0.002,8e-05,0,16.572790346033436,0.018941591055672388,0.001325823227682675,0.0,0.020267414283355063,0.2,0.02,0.0,0.007005396480531885,0.004891198383008661,0.0001401079296106377,0.0,0.005031306312619299,-9.981443462442599,-10,-0.018556537557400794,39.955937351729084,40,0.04406264827091438,9.470795527836193,10,0.5292044721638067,0.0244559919150433,0,-0.0244559919150433,4.00083562327951,1.9568540488675783,-0.005031306312619299,0.5202674142833551,0.03351092338562012,1.756112813949585,STABILIZE
0.16,0.015,0.11,71.55089863262965,6.392485091118361,1.0732634794894447,-0.022506169418057068,7.443242401189748,0.17,0.015,0.08,-17.816610575434364,-1.6954425859440894,-0.26724915863151544,0.005377726376926712,-1.957314018198678,0.002,8e-05,0,16.893324320225393,0.018932383206793517,0.0013514659456180316,0.0,0.02028384915241155,0.2,0.02,0.0,0.007174684534706631,0.0009999022169329685,0.00014349369069413263,0.0,0.0011433959076271013,-9.973191682024055,-10,-0.026808317975944972,39.95303181948975,40,0.04696818051024724,9.466191603396759,10,0.5338083966032405,0.004999511084664843,0,-0.004999511084664843,4.000170775940338,1.9569649790300097,-0.0011433959076271013,0.5202838491524115,0.03386092185974121,1.7899675369262695,STABILIZE
0.16,0.015,0.11,72.88665466881221,6.390608837909333,1.093299820032183,-0.030694155337135754,7.45321450260438,0.17,0.015,0.08,-18.15028056645489,-1.6961379786336954,-0.2722542084968233,0.004372443455680501,-1.9640197436748383,0.002,8e-05,0,17.20910586283991,0.018884776321583103,0.0013767284690271928,-0.0,0.020261504790610296,0.2,0.02,0.0,0.007763436267452217,0.003520929275913227,0.00015526872534904433,0.0,0.0036761980012622714,-9.977282227257032,-10,-0.022717772742968538,39.94130523693333,40,0.05869476306667014,9.442388160791552,10,0.5576118392084483,0.017604646379566134,0,-0.017604646379566134,4.000603274001088,1.9627906148125813,-0.0036761980012622714,0.5202615047906103,0.03344297409057617,1.8233976364135742,STABILIZE
0.16,0.015,0.11,74.22389127934696,6.393681146225887,1.1133583691902043,-0.014522540843338427,7.492516974572753,0.17,0.015,0.08,-18.484528344258273,-1.6980097646262644,-0.27726792516387405,-0.002286427270854719,-1.9775641170609932,0.002,8e-05,0,17.524588382156395,0.018855064801425132,0.0014019670705725117,-0.0,0.020257031871997642,0.2,0.02,0.0,0.008549364388905759,0.004697162204541354,0.00017098728777811516,0.0,0.004868149492319469,-9.988292733095673,-10,-0.011707266904327863,39.96050716391179,40,0.03949283608820908,9.427532400712566,10,0.5724675992874327,0.02348581102270677,0,-0.02348581102270677,4.000810276818689,1.9759243320504931,-0.004868149492319469,0.5202570318719977,0.03346395492553711,1.8568832874298096,STABILIZE
0.16,0.015,0.11,75.61459167617284,6.39217581678129,1.1342188751425926,-0.01602520582303895,7.510369486100844,0.17,0.015,0.08,-18.831862275735613,-1.6962555593154496,-0.28247793413603417,0.0007025093576050297,-1.9780309840938788,0.002,8e-05,0,17.852899102072374,0.018862975888146574,0.00142823192816579,-0.0,0.020291207816312364,0.2,0.02,0.0,0.009878271999900093,0.007635191513142077,0.00019756543999800184,0.0,0.007832756953140079,-9.977973878326173,-10,-0.02202612167382723,39.95109885488306,40,0.04890114511694204,9.431487944073288,10,0.5685120559267124,0.038175957565710385,0,-0.038175957565710385,4.001317066439811,1.9753653605986163,-0.007832756953140079,0.5202912078163123,0.03481006622314453,1.8916575908660889,STABILIZE
0.16,0.015,0.11,76.95081983939535,6.39068074506973,1.1542622975909302,-0.009069050545142421,7.535873992115518,0.17,0.015,0.08,-19.16532566612186,-1.694507913921247,-0.28747988499182786,0.006337299565323361,-1.9756504993477517,0.002,8e-05,0,18.168547950595006,0.018870383385650655,0.0014534838360476005,-0.0,0.020323867221698256,0.2,0.02,0.0,0.01164088403396943,0.010537394639241096,0.0002328176806793886,0.0,0.010770212319920485,-9.967693611301453,-10,-0.03230638869854712,39.94175465668581,40,0.05824534331418792,9.435191692825327,10,0.5648083071746735,0.05268697319620548,0,-0.05268697319620548,4.001815040014066,1.9719714199476202,-0.010770212319920485,0.5203238672216982,0.03345441818237305,1.9251329898834229,STABILIZE
0.16,0.015,0.11,78.28795373227562,6.390549265546155,1.1743193059841344,-0.007721291167852467,7.557147280362437,0.17,0.015,0.08,-19.499573419412474,-1.697308263054304,-0.2924936012911871,-0.005434592386320265,-1.9952364567318113,0.002,8e-05,0,18.48462089091045,0.01888254896673927,0.0014787696712728361,-0.0,0.020361318638012108,0.2,0.02,0.0,0.013438787795740433,0.010740877022007697,0.0002687757559148087,0.0,0.011009652777922506,-9.98416625326061,-10,-0.015833746739389348,39.940932909663466,40,0.05906709033653161,9.441274483369636,10,0.5587255166303648,0.05370438511003848,0,-0.05370438511003848,4.001868414324308,1.9914863074360227,-0.011009652777922506,0.5203613186380122,0.033477783203125,1.9586374759674072,STABILIZE
0.16,0.015,0.11,79.62375490766884,6.390505885533892,1.1943563236150325,-0.00018546730478388775,7.58467674184414,0.17,0.015,0.08,-19.83416438526673,-1.7007346784995652,-0.297512465779001,-0.013119953821651074,-2.011367098100217,0.002,8e-05,0,18.80063430638689,0.01889770001620353,0.0015040507445109512,0.0,0.020401750760714484,0.2,0.02,0.0,0.01507889764185108,0.00980790762274824,0.0003015779528370216,0.0,0.010109485575585261,-10.004321638232735,-10,0.004321638232735195,39.94066178458682,40,0.059338215413179775,9.448850008101765,10,0.5511499918982345,0.0490395381137412,0,-0.0490395381137412,4.001720066578178,2.0079427561725027,-0.010109485575585261,0.5204017507607145,0.03344464302062988,1.992053508758545,STABILIZE
0.16,0.015,0.11,80.95952241818664,6.387476143576814,1.2143928362727996,-0.02525977027459671,7.576609209575016,0.17,0.015,0.08,-20.167412327090098,-1.6931476401229661,-0.3025111849063515,0.01348580400536188,-1.9821730210239559,0.002,8e-05,0,19.116554601825467,0.018883650546376102,0.0015293243681460374,0.0,0.02041297491452214,0.2,0.02,0.0,0.018416126384007695,0.019947772355910595,0.0003683225276801539,0.0,0.02031609488359075,-9.95969200072333,-10,-0.040307999276671204,39.92172589735509,40,0.07827410264491357,9.441825273188051,10,0.5581747268119488,0.09973886177955296,0,-0.09973886177955296,4.0034444480508355,1.975206935145322,-0.02031609488359075,0.5204129749145221,0.03345966339111328,2.0255186557769775,STABILIZE
0.16,0.015,0.11,82.29371274405787,6.380070624924854,1.234405691160868,-0.049746787741441735,7.56472952834428,0.17,0.015,0.08,-20.50058932247369,-1.6928233662948133,-0.30750883983710536,0.009655034168270593,-1.9906771719636482,0.002,8e-05,0,19.432365118788436,0.018877492244238427,0.001554589209503075,0.0,0.0204320814537415,0.2,0.02,0.0,0.023014345574207815,0.027485736680038942,0.0004602869114841563,0.0,0.027946023591523098,-9.957784507616548,-10,-0.04221549238345228,39.875441405780336,40,0.1245585942196629,9.438746122119213,10,0.5612538778807865,0.1374286834001947,0,-0.1374286834001947,4.004763293473262,1.9810771227356034,-0.027946023591523098,0.5204320814537415,0.03345894813537598,2.0590085983276367,STABILIZE
0.16,0.015,0.11,83.92514571727956,6.380610154850605,1.2588771857591934,-0.04178854832375463,7.597698792286044,0.17,0.015,0.08,-20.90720193555909,-1.6896733723656285,-0.31360802903338636,0.011985291079474799,-1.99129611031954,0.002,8e-05,0,19.819918190492036,0.018946725864963748,0.001585593455239363,0.0,0.02053231932020311,0.2,0.02,0.0,0.025233923352596586,0.010851089766425551,0.0005046784670519317,0.0,0.011355768233477483,-9.93925513156252,-10,-0.06074486843747951,39.87881346781628,40,0.12118653218372069,9.473362932481873,10,0.5266370675181267,0.05425544883212775,0,-0.05425544883212775,4.001883836752072,1.98750747322274,-0.011355768233477483,0.5205323193202032,0.040909767150878906,2.099900007247925,STABILIZE
0.16,0.015,0.11,85.26208951877075,6.381188016522921,1.2789313427815612,-0.03887828085245225,7.62124107845203,0.17,0.015,0.08,-21.239771980735615,-1.6865548002865698,-0.3185965797110342,0.028613831007207283,-1.976537548990397,0.002,8e-05,0,20.138637624336805,0.019015464876073578,0.0016110910099469446,0.0,0.020626555886020522,0.2,0.02,0.0,0.024268488386974978,-0.005759985971816295,0.00048536976773949956,-0.0,-0.005274616204076796,-9.920910589920998,-10,-0.07908941007900155,39.882425103268254,40,0.11757489673174852,9.507732438036788,10,0.4922675619632119,-0.028799929859081475,0,0.028799929859081475,3.999005981005269,1.9785479136106494,0.005274616204076796,0.5206265558860205,0.03352212905883789,2.1333999633789062,STABILIZE
0.16,0.015,0.11,86.59842109554583,6.386305433128304,1.2989763164331873,-0.017683019993379394,7.6675987295681125,0.17,0.015,0.08,-21.573007291791814,-1.69205863398771,-0.3235951093768772,0.022784025405653052,-1.992869717958934,0.002,8e-05,0,20.45685323069407,0.0190093358106704,0.0016365482584555257,0.0,0.020645884069125927,0.2,0.02,0.0,0.022066927233496673,-0.013151528221155302,0.0004413385446699335,-0.0,-0.012710189676485368,-9.953286082280647,-10,-0.04671391771935257,39.9144089570519,40,0.08559104294810013,9.5046679053352,10,0.4953320946648007,-0.0657576411057765,0,0.0657576411057765,3.9977101747731,1.9974591538435398,0.012710189676485368,0.5206458840691259,0.033479928970336914,2.1670148372650146,STABILIZE
0.16,0.015,0.11,87.9327249816308,6.38334281642378,1.3189908747244619,-0.017412641532267247,7.6849210496159746,0.17,0.015,0.08,-21.91079641554122,-1.716990999185659,-0.3286619462331183,-0.06872029088815251,-2.1143732363069296,0.002,8e-05,0,20.77593515832167,0.01908119799220325,0.0016620748126657337,0.0,0.020743272804868984,0.2,0.02,0.0,0.017866264637296576,-0.025120092288675205,0.0003573252927459315,-0.0,-0.024762766995929275,-10.099947054033287,-10,0.09994705403328714,39.89589260264862,40,0.10410739735137776,9.540598996101625,10,0.4594010038983754,-0.12560046144337603,0,0.12560046144337603,3.995355387229556,2.1231367153687497,0.024762766995929275,0.520743272804869,0.03344464302062988,2.200377941131592,STABILIZE
0.16,0.015,0.11,89.26759624249507,6.387650910772066,1.339013943637426,0.030736602370610995,7.757401456780103,0.17,0.015,0.08,-22.25212449489946,-1.7354126000483296,-0.33378186742349186,-0.12148620828200685,-2.1906806757538284,0.002,8e-05,0,21.09504290256831,0.01908750428722719,0.001687603432205465,0.0,0.020775107719432657,0.2,0.02,0.0,0.01797217988859159,0.0006335345505165014,0.0003594435977718318,-0.0,0.0009929781482883333,-10.208309412048997,-10,0.20830941204899672,39.92281819232541,40,0.07718180767459176,9.543752143613595,10,0.45624785638640564,0.0031676727525825066,0,-0.0031676727525825066,4.000121108557798,2.190459527129316,-0.0009929781482883333,0.5207751077194327,0.03343629837036133,2.2338030338287354,STABILIZE
0.16,0.015,0.11,90.60080901392466,6.380579117614919,1.3590121352088698,-0.00016204416488360367,7.739429208658905,0.17,0.015,0.08,-22.59378518264577,-1.737339054033281,-0.3389067777396865,-0.1341565172937293,-2.2104023490666966,0.002,8e-05,0,21.413938136335027,0.019077377528204063,0.0017131150509068023,0.0,0.020790492579110864,0.2,0.02,0.0,0.014630342916361254,-0.01999198445329738,0.0002926068583272251,-0.0,-0.019699377594970154,-10.219641494313416,-10,0.21964149431341634,39.87861948509324,40,0.1213805149067637,9.538688764102032,10,0.46131123589796774,-0.0999599222664869,0,0.0999599222664869,3.9961375807641084,2.217377500644477,0.019699377594970154,0.5207904925791109,0.0334317684173584,2.2672412395477295,STABILIZE
0.16,0.015,0.11,91.93496976229117,6.373162608108049,1.3790245464343676,-0.032978219548484025,7.719208934993932,0.17,0.015,0.08,-22.936679959885453,-1.740350206272775,-0.3440501993982818,-0.15137347973359014,-2.235773885404647,0.002,8e-05,0,21.733133615752017,0.019059591362848887,0.0017386506892601615,0.0,0.020798242052109048,0.2,0.02,0.0,0.007729348706127453,-0.04120676454587713,0.00015458697412254905,-0.0,-0.041052177571754576,-10.237354154545734,-10,0.23735415454573514,39.83226630067531,40,0.16773369932469523,9.529795681424444,10,0.4702043185755555,-0.20603382272938564,0,0.20603382272938564,3.991934382737467,2.2501432733441282,0.041052177571754576,0.520798242052109,0.03349447250366211,2.300724983215332,STABILIZE
0.16,0.015,0.11,93.26901842723883,6.378256965941948,1.3990352764085825,-0.03306352978436604,7.744228712566165,0.17,0.015,0.08,-23.280039996048508,-1.7442511750345782,-0.3492005999407276,-0.1468724819752032,-2.240324256950509,0.002,8e-05,0,22.051842631185288,0.01904735609734593,0.0017641474104948232,0.0,0.020811503507840754,0.2,0.02,0.0,0.006692367048650175,-0.006197427101186326,0.0001338473409730035,0.0,-0.006063579760213322,-10.260301029615166,-10,0.26030102961516555,39.86410603713718,40,0.1358939628628257,9.523678048672965,10,0.4763219513270359,-0.03098713550593163,0,0.03098713550593163,3.9987877860127723,2.2424872393652366,0.006063579760213322,0.5208115035078408,0.033464908599853516,2.3341851234436035,STABILIZE
0.16,0.015,0.11,94.78689682085339,6.383799372394804,1.4218034523128007,-0.0008514537527193804,7.804751370954884,0.17,0.015,0.08,-23.670942463052413,-1.7467855905990568,-0.3550641369457862,-0.08297956228614124,-2.1848292898309842,0.002,8e-05,0,22.41407279749481,0.019043066279857034,0.001793125823799585,-0.0,0.020836192103656618,0.2,0.02,0.0,0.012228758255259188,0.029105766030702238,0.0002445751651051838,0.0,0.02935034119580742,-10.275209356465039,-10,0.2752093564650394,39.89874607746752,40,0.10125392253247795,9.521533139928517,10,0.4784668600714835,0.14552883015351117,0,-0.14552883015351117,4.005536464253382,2.1746624242028645,-0.02935034119580742,0.5208361921036566,0.03804326057434082,2.372250556945801,STABILIZE
0.16,0.015,0.11,96.12269313047909,6.3851569778176565,1.4418403969571862,-0.012990785836451881,7.8140065889383905,0.17,0.015,0.08,-24.017002227125836,-1.7575649597395595,-0.3602550334068875,-0.06143509413770414,-2.1792550872841514,0.002,8e-05,0,22.731043333368024,0.01893913965689641,0.001818483466669442,-0.0,0.02075762312356585,0.2,0.02,0.0,0.018486261073123105,0.037388875733974244,0.0003697252214624621,0.0,0.037758600955436705,-10.338617410232702,-10,0.33861741023270164,39.90723111136035,40,0.09276888863964983,9.469569828448204,10,0.5304301715517962,0.1869443786698712,0,-0.1869443786698712,4.007089158182308,2.1661923307572812,-0.037758600955436705,0.5207576231235659,0.033472537994384766,2.405700445175171,STABILIZE
0.16,0.015,0.11,97.46038951771673,6.392645744427596,1.461905842765751,0.04684949642660123,7.901401083619948,0.17,0.015,0.08,-24.364579724918347,-1.764833240863289,-0.3654686958737752,-0.07644347492975094,-2.206745411666815,0.002,8e-05,0,23.048850591372712,0.01898440141962267,0.001843908047309817,-0.0,0.02082830946693249,0.2,0.02,0.0,0.02624611582054272,0.04635394371037476,0.0005249223164108545,0.0,0.046878866026785614,-10.38137200507817,-10,0.38137200507816954,39.95403590267247,40,0.04596409732752655,9.492200709811335,10,0.5077992901886638,0.23176971855187378,0,-0.23176971855187378,4.008893853804359,2.1905468223350475,-0.046878866026785614,0.5208283094669325,0.03348088264465332,2.439189910888672,STABILIZE
0.16,0.015,0.11,98.79687119741185,6.385658558339059,1.4819530679611777,0.048605604820325575,7.916217231120562,0.17,0.015,0.08,-24.71174928099747,-1.7624355972799235,-0.370676239214962,-0.06124356568971938,-2.1943554021846046,0.002,8e-05,0,23.366657035111498,0.018980838534752974,0.00186933256280892,-0.0,0.020850171097561893,0.2,0.02,0.0,0.03419373230745559,0.04746676105731315,0.0006838746461491119,0.0,0.048150635703462265,-10.367268219293667,-10,0.36726821929366776,39.910365989619116,40,0.08963401038088661,9.490419267376486,10,0.509580732623513,0.23733380528656575,0,-0.23733380528656575,4.009055240032256,2.17776759858959,-0.048150635703462265,0.5208501710975619,0.03348708152770996,2.472679615020752,STABILIZE
0.16,0.015,0.11,100.34015796070958,6.380771811940356,1.5051023694106436,0.010310827909872457,7.896185009260872,0.17,0.015,0.08,-25.112061315385624,-1.7585477589842105,-0.3766809197307843,-0.04081684227886144,-2.1760455209938563,0.002,8e-05,0,23.734821738747936,0.019027369207902326,0.001898785739099835,-0.0,0.02092615494700216,0.2,0.02,0.0,0.03620650360001116,0.010402339533433547,0.0007241300720002232,0.0,0.01112646960543377,-10.34439858226006,-10,0.34439858226006054,39.87982382462722,40,0.12017617537277314,9.513684603951162,10,0.4863153960488381,0.05201169766716773,0,-0.05201169766716773,4.001973712152875,2.1724135234054227,-0.01112646960543377,0.5209261549470021,0.038698434829711914,2.5113799571990967,STABILIZE
0.16,0.015,0.11,101.67400349301224,6.375877602466443,1.5251100523951835,-0.02982592461444709,7.87116173024718,0.17,0.015,0.08,-25.4575220185844,-1.754534952425013,-0.381862830278766,-0.02326355241111255,-2.1596613351148912,0.002,8e-05,0,24.054041297127444,0.01907365567498964,0.0019243233037701958,0.0,0.020997978978759834,0.2,0.02,0.0,0.03172522233453426,-0.026776058545532656,0.0006345044466906852,-0.0,-0.02614155409884197,-10.320793837794193,-10,0.3207938377941937,39.84923501541527,40,0.15076498458473128,9.536827837494819,10,0.4631721625051815,-0.13388029272766327,0,0.13388029272766327,3.9949427079256363,2.169002038445796,0.02614155409884197,0.5209979789787599,0.033472299575805664,2.5448553562164307,STABILIZE
0.16,0.015,0.11,103.07506647431507,6.384403247596996,1.5461259971147259,-0.0020161246961156805,7.928513120015606,0.17,0.015,0.08,-25.81758434499649,-1.7432885327479375,-0.3872637651749473,0.03719162102740461,-2.09336067689548,0.002,8e-05,0,24.38791600771891,0.019017621040566465,0.001951033280617513,0.0,0.02096865432118398,0.2,0.02,0.0,0.028326750263116426,-0.01935781654641594,0.0005665350052623285,-0.0,-0.01879128154115361,-10.254638427929043,-10,0.2546384279290438,39.902520297481225,40,0.09747970251877677,9.508810520283232,10,0.49118947971676785,-0.09678908273207969,0,0.09678908273207969,3.9964580048595204,2.1001148394710625,0.01879128154115361,0.520968654321184,0.03511214256286621,2.5799684524536133,STABILIZE
0.16,0.015,0.11,104.41216063096313,6.3903138447403025,1.566182409464447,-0.008495310153323747,7.948000944051426,0.17,0.015,0.08,-26.15624181085293,-1.7196885122468013,-0.3923436271627939,0.12397074718709189,-1.9880613922225032,0.002,8e-05,0,24.715702581588673,0.01958219500385626,0.0019772562065270938,0.0,0.021559451210383353,0.2,0.02,0.0,0.023065349232802262,-0.03143197103919158,0.00046130698465604526,-0.0,-0.03097066405453553,-10.11581477792236,-10,0.11581477792236054,39.93946152962689,40,0.06053847037311376,9.79109750192813,10,0.2089024980718705,-0.15715985519595788,0,0.15715985519595788,3.9945317924587727,1.9990257272686074,0.03097066405453553,0.5215594512103834,0.0334780216217041,2.6134464740753174,STABILIZE
0.16,0.015,0.11,105.75531226678616,6.426174586843956,1.5863296840017924,0.16763930307500474,8.180143573920754,0.17,0.015,0.08,-26.489493192329853,-1.6940583776311489,-0.3973423978849478,0.18936425568173157,-1.9020365198343652,0.002,8e-05,0,25.03740753331443,0.01923956433979937,0.0020029926026651546,0.0,0.021242556942464526,0.2,0.02,0.0,0.01707484162820775,-0.035826230174070946,0.000341496832564155,-0.0,-0.03548473334150679,-9.965049280183228,-10,-0.03495071981677228,40.163591167774726,40,-0.16359116777472826,9.619782169899684,10,0.38021783010031485,-0.17913115087035472,0,0.17913115087035472,3.9940338796476844,1.9145329171915766,0.03548473334150679,0.5212425569424646,0.033442020416259766,2.6469290256500244,STABILIZE
0.16,0.015,0.11,107.09828164611218,6.422601064197708,1.6064742246916828,0.170315780865849,8.19939106975524,0.17,0.015,0.08,-26.820691191731044,-1.6829122816723339,-0.40231036787596564,0.21126458443446616,-1.8739580651138334,0.002,8e-05,0,25.358271784824154,0.019181218080374148,0.0020286617427859323,0.0,0.02120987982316008,0.2,0.02,0.0,0.006124689264906011,-0.06545985085766035,0.00012249378529812023,-0.0,-0.06533735707236223,-9.899484009837257,-10,-0.10051599016274254,40.14125665123567,40,-0.14125665123567513,9.590609040187074,10,0.409390959812927,-0.3272992542883017,0,0.3272992542883017,3.989229903186961,1.8967771638556095,0.06533735707236223,0.52120987982316,0.03345608711242676,2.680346965789795,STABILIZE
0.16,0.015,0.11,108.43689832593584,6.405573559591093,1.6265534748890376,0.12039841683224872,8.152525451312378,0.17,0.015,0.08,-27.153079073408833,-1.689957998918692,-0.4072961861011325,0.18014881860293208,-1.9171053664168922,0.002,8e-05,0,25.676694191475832,0.019046510658843507,0.0020541355353180667,-0.0,0.021100646194161573,0.2,0.02,0.0,0.0053037113762227925,-0.004910698424745197,0.00010607422752445585,0.0,-0.004804624197220741,-9.94092940540407,-10,-0.05907059459592934,40.03483474744433,40,-0.03483474744433107,9.523255329421753,10,0.4767446705782475,-0.024553492123725984,0,0.024553492123725984,3.9991780777791055,1.91881934745183,0.004804624197220741,0.5211006461941615,0.03343629837036133,2.7137882709503174,STABILIZE
0.16,0.015,0.11,109.78237615964825,6.415897292596038,1.6467356423947237,0.12931762542931421,8.191950560420077,0.17,0.015,0.08,-27.483006107816475,-1.671582045711057,-0.4122450916172471,0.20154737336161932,-1.8822797639666848,0.002,8e-05,0,25.991685634243964,0.018775418425798208,0.0020793348507395174,-0.0,0.020854753276537727,0.2,0.02,0.0,0.0010560502339944317,-0.02531866090567025,2.1121004679888635e-05,-0.0,-0.025297539900990363,-9.832835563006217,-10,-0.1671644369937822,40.09935807872524,40,-0.09935807872523825,9.387709212899104,10,0.6122907871008963,-0.12659330452835124,0,0.12659330452835124,3.9958313992495387,1.8911130422610791,0.025297539900990363,0.5208547532765377,0.0335536003112793,2.747380495071411,STABILIZE
