Mode,Time,Freq,North-Vision,East-Vision,Down-Vision,Yaw-Vision,North-Desired,East-Desired,Down-Desired,Roll-UAV,Pitch-UAV,Yaw-UAV,Roll-Control,Pitch-Control,Yaw-Control,Thrust-Control,northVraw,eastVraw,downVraw,N-Velocity,E-Velocity,D-Velocity,N-Acceleration,E-Acceleration,D-Acceleration,yawVraw,yawRate,Landing-State,Q-Size
GUIDED_NOGPS,0.004542350769042969,221.11360641045917,-4.403252691795582,29.07188549675679,68.44883033618,-6.770411333488926,-4.378029990636272,29.333284416872974,67.87267922471055,-0.6024272738284733,0.3084954723431165,108.41204099724399,2.0443055992189234,-0.6521542238580036,-10.0,0.49884752536733995,-3.4395331109604843,29.137032525555366,70.78360098951129,-4.308870807290077,-14.876584708690643,24.91667866706848,-18.339340388774872,-22.972114384174347,29.244035482406616,-7.015002894183,-0.9686740766773102,False,3
GUIDED_NOGPS,0.009702920913696289,193.85764466629692,-4.427369494226184,27.749725281030972,71.65511083790341,-6.738564025203222,-4.554917198621865,28.858029073481315,68.66632115685525,-0.6024272738284733,0.3084954723431165,108.41204099724399,4.173760924602435,1.2351215569121754,-1.6720140247435995,0.4940209636405766,-3.3151219840610966,28.594408984622145,71.63260742312397,-2.7625788003206253,-16.256386041641235,27.014049887657166,-27.336859703063965,-32.23081827163696,223.66714477539062,-6.9042071691514515,0.42449636363799825,False,2
GUIDED_NOGPS,0.04875588417053223,25.609222070936188,-4.421476744908049,27.64785781645822,71.8094897077487,-6.753636645105446,-4.790990450192532,28.337828405094292,69.43810695173026,-0.6251644399669167,0.3987477244058138,108.44910843386965,-0.2449664047804731,0.4338492038085283,-4.2068494120224456,0.4952483824335976,-3.5637442222023905,28.106388169057517,72.8105141607406,-2.7625788003206253,-16.256386041641235,27.014049887657166,-27.336859703063965,-32.23081827163696,223.66714477539062,-7.0967885740742815,0.42449636363799825,False,2
GUIDED_NOGPS,0.05384373664855957,196.74018481167033,-4.497009385341321,27.213667556543122,72.75478738617016,-6.780314543830774,-5.08246392030256,27.776384753584832,70.18787902665684,-0.6251644399669167,0.3987477244058138,108.44910843386965,-0.415688445928725,2.656548543176529,-6.161840468000008,0.4948562845620473,-3.6460414436633752,27.886915466780465,73.20088477325186,-6.061334535479546,-16.17087870836258,28.58854830265045,-56.90197944641113,-35.69525182247162,53.21909785270691,-7.106771549346744,-0.8267700664811254,False,1
GUIDED_NOGPS,0.07608866691589355,44.96418348859896,-4.534260731099841,27.13104811262276,72.89810776101106,-6.845266642428108,-5.42565602970648,27.17729004948927,70.91549138699206,-0.7557033355493178,0.372696475776886,108.50777975884006,-0.5846468682656225,0.9758047170186498,-5.278758385453387,0.4960213512842802,-3.620247984512349,27.602732862906755,73.56792495965217,-6.381546705961227,-16.792991757392883,29.160121083259583,-44.08822953701019,-32.37617611885071,83.77885222434998,-7.097248028455397,-3.2588937082168843,False,1
GUIDED_NOGPS,0.08636283874511719,97.3675975578615,-4.502315693326715,26.932876721325528,73.2944888406855,-6.910638306487011,-5.816988249491574,26.544027130604757,71.62080949432813,-0.7557033355493178,0.372696475776886,108.50777975884006,-0.9629560920349218,2.703586168804757,-6.682114344744108,0.496637844610327,-3.4682743859715313,26.395024581962225,75.74083078327743,-1.7412485554814339,-16.32158011198044,28.80644202232361,93.42098832130432,-29.82061505317688,-62.76201009750366,-7.10241942369564,-4.009248472037553,False,0
GUIDED_NOGPS,0.11301994323730469,37.522512770506616,-4.458921982857481,26.822467376977684,73.51348423626848,-6.9635034641172675,-6.252983905610384,25.879971060586705,72.30371013469164,-0.74923061073282,0.4784357548957641,108.59647659540184,-0.5071295778497592,1.2926165235416347,-4.970527581424861,0.49756307245111314,-3.3831356178617424,25.98793327832523,76.59068207297227,-1.7412485554814339,-16.32158011198044,28.80644202232361,93.42098832130432,-29.82061505317688,-62.76201009750366,-7.129070316460176,-4.009248472037553,False,0
GUIDED_NOGPS,0.14017176628112793,36.83640866655542,-4.459746526061011,26.634475500873666,73.76915339870203,-7.018955504434446,-6.730266983413214,25.18839044754618,72.96408128674287,-0.6872464839323956,0.6663977583777548,108.66736029860823,-0.46039590030796074,1.3047929083396015,-5.0313298146269085,0.49837073417634126,-3.344731860116699,26.21841972060839,76.09562027981124,-4.790917783975601,-20.00737339258194,24.882178008556366,-1.3051837682724,-59.603917598724365,-53.56292724609375,-7.200174940344611,-4.39729499756125,False,0
GUIDED_NOGPS,0.16318297386169434,43.46744323422424,-4.545924012734294,26.24527989327224,74.41553524217711,-7.055138162553456,-7.245560932180637,24.47244876264733,73.60182198997505,-0.09960246087132743,0.8839670310861641,108.79530340214092,-0.32746701433710035,1.3789061540036147,-4.858070564157682,0.49835194441991715,-3.344731860116699,26.21841972060839,76.09562027981124,-9.869366884231567,-21.3889479637146,26.158493757247925,-132.94302225112915,-25.095224380493164,-37.63933181762695,-7.200174940344611,-1.6414259386955867,False,0
GUIDED_NOGPS,0.2033836841583252,24.87695282380992,-4.668027891023908,25.86946058318007,75.0176720444402,-7.09408718136099,-7.795687469656006,23.735205658704807,74.21684221291365,0.436437241854473,1.3362507387018898,108.93026794014037,-0.24284162846129642,0.92697750798165,-4.644089845757082,0.4983751363580085,-4.333220126567847,25.480858589286,77.2235335195791,-9.869366884231567,-21.3889479637146,26.158493757247925,-132.94302225112915,-25.095224380493164,-37.63933181762695,-7.363681674563128,-1.6414259386955867,False,0
GUIDED_NOGPS,0.23022174835205078,37.27077557403853,-4.788166394222381,25.26338093376782,76.06775742270602,-7.136962289058149,-8.377565386577952,22.979618288781182,74.80906272131563,0.4612531333781277,1.414458752576063,108.96393394255936,-0.09299667598733674,1.3459284804973382,-4.923441263014812,0.49745671360297744,-3.96452833486069,24.948590690651102,78.12101484630199,-6.9070495665073395,-20.259585976600647,27.220728993415833,-34.3022882938385,-1.4120819047093391,-11.802878975868225,-7.424418502915993,-0.35444167464211623,False,0
GUIDED_NOGPS,0.2639021873474121,29.693977387770705,-4.930934694164236,24.878245614013085,76.69002437915081,-7.174773820847137,-8.988209351212905,22.208542624784375,75.37841494636872,0.17385905022808956,1.654355913681244,109.05634640202963,-0.3041668157518308,1.2113363517819575,-4.756416561483151,0.4973473695818905,-3.96452833486069,24.948590690651102,78.12101484630199,-11.712851375341415,-18.80258321762085,23.405268788337708,-55.97721338272095,-23.582379519939423,-44.40597891807556,-7.424418502915993,-1.2953756850573601,False,0
GUIDED_NOGPS,0.2997896671295166,27.869499926909327,-5.111945280822705,24.364554425474708,77.5172870455078,-7.225280067804274,-9.624728713887581,21.42473477606505,75.92484085289075,-0.0264014559064496,1.6979513036061429,109.09792859369666,-0.19984389255551516,1.1567850146751273,-4.896921287180021,0.49678111449300405,-4.298684882108548,23.80992700203836,79.75406139162956,-11.712851375341415,-18.80258321762085,23.405268788337708,-55.97721338272095,-23.582379519939423,-44.40597891807556,-7.596326415546984,-1.2953756850573601,False,0
GUIDED_NOGPS,0.3318610191345215,31.183025292552006,-5.283059905382,23.6683895173449,78.5029780642609,-7.241025740344374,-10.284326311521507,20.630852308014056,76.44829280752889,-0.20369689169984895,1.6612598475499518,109.14207210630246,-0.04648091494956627,1.3284419734722548,-4.540184304390465,0.49585134269563763,-2.878197107811849,19.626221873470428,83.3296598101806,-14.409689605236053,-19.15697604417801,23.879072070121765,-65.66154360771179,-35.444775223731995,45.070648193359375,-7.454870626521292,0.9148126989864707,False,0
GUIDED_NOGPS,0.3668069839477539,28.61970754607548,-5.475536467593601,23.072518534110767,79.32220872549155,-7.247504514246319,-10.964297272159516,19.829455560659838,76.94873344695887,-0.13690457852800003,1.5997595436026877,109.14485199329465,-0.1436099757408572,1.305876612290633,-4.422574922669139,0.49520711953064506,-4.490640783726739,20.559390154597885,83.20875465540382,-12.002016603946686,-19.583775103092194,20.950208604335785,-34.112316370010376,-31.07832372188568,-63.74220848083496,-7.663386367372215,1.7423141293173163,False,0
GUIDED_NOGPS,0.39825987815856934,31.79646883125744,-5.751183759159521,22.462940664947666,80.16232920474522,-7.282797878075697,-11.662027819504253,19.023008967265845,77.42613554608437,-0.11715588695570152,1.4381839482666312,109.0664687423796,-0.16193233428186318,1.3123783268053555,-4.818887381651069,0.49447480350999906,-5.243165377498542,21.685115246059887,82.48787788186499,-14.783191680908203,-21.761606633663177,21.708926558494568,8.349739015102386,-31.91145658493042,-77.46886610984802,-7.771504188723176,-0.047885389053901585,False,0
GUIDED_NOGPS,0.4323616027832031,29.330181884296135,-6.030535290469033,21.82750737544725,80.94127042490878,-7.285668437517347,-12.374994077448694,18.213882372927976,77.8804818862362,0.016691061340807098,1.2879068731999512,108.98928077456928,-0.13512312108319868,1.3007753751133766,-4.405056787194119,0.49381725981861097,-4.923001202438197,19.621190989131485,84.60064276084094,-17.14993417263031,-22.366400063037872,19.388778507709503,-28.34663689136505,-41.87591373920441,-18.358664214611053,-7.720665399284059,1.786652835922983,False,0
GUIDED_NOGPS,0.46620941162109375,29.547964409752797,-6.363841923184425,21.138136231091703,81.7421759873216,-7.276546245537134,-13.100760874608632,17.404352353171973,78.31176512337167,0.2574254542278435,1.2743250420353809,108.9644257161796,-0.09894649182994869,1.2616928932483806,-4.257985394697516,0.4930687382558642,-5.905870641223525,19.027875295243852,85.05349235146295,-17.13191866874695,-22.81734347343445,17.653848230838776,21.038971841335297,-25.08760392665863,-7.6047345995903015,-7.666541380398456,2.425356631815569,False,0
GUIDED_NOGPS,0.5129356384277344,21.40234929123251,-6.701467149302094,20.478587413619785,82.50003018004618,-7.26426957999307,-13.836980548855205,16.596603532550844,78.71998765627377,0.3376537099924596,1.1762872814533682,108.83398959359987,-0.11330570147463653,1.1099694223408736,-4.2534780407283765,0.49235534332430314,-6.232627248700194,18.875220494476302,85.51805141182413,-17.13191866874695,-22.81734347343445,17.653848230838776,21.038971841335297,-25.08760392665863,-7.6047345995903015,-7.664317309595303,2.425356631815569,False,0
GUIDED_NOGPS,0.533947229385376,47.60682383119757,-7.1787584739793155,19.63479441591625,83.45935282040969,-7.215686234941464,-14.581391751847388,15.792729903242297,79.10516149475053,0.4690284499745409,1.1327568850472902,108.72197449121165,0.07340988736979522,1.366272082877475,-3.3981532875529536,0.4911997767204768,-6.635724829760205,19.412804488821575,84.89352200154951,-19.416823983192444,-23.77449721097946,15.596723556518555,14.467005431652069,-30.257222056388855,67.96579957008362,-7.752870736222846,5.129647090277057,False,0
GUIDED_NOGPS,0.5689599514007568,28.564159141366677,-7.468941114463408,19.242029190907413,83.82475175044584,-7.192587234313926,-15.331818253564506,14.99473614364614,79.46730812783422,0.35401873652210436,0.992558180987787,108.50659130592447,-0.3367573279340317,1.4735458487516062,-4.052638979815806,0.49118102138752356,-7.813814137398732,18.797206720226562,86.59963309208328,-17.274996638298035,-22.838851809501648,14.060565829277039,88.01369667053223,-16.008375585079193,-2.9822170734405518,-7.578953945264806,2.5782508432731275,False,0
GUIDED_NOGPS,0.6030435562133789,29.344751350292448,-7.894760054013336,18.620637521288607,84.39872105800877,-7.16594639550732,-16.086167746838736,14.204538936981718,79.80645839198067,0.4450255644055294,1.0569728412765311,108.38321759894653,-0.17114189223641893,1.2702662365252526,-3.9870199494126326,0.4906988574270762,-8.063873443412172,18.26652360035057,86.8081788085029,-19.50453370809555,-23.189444839954376,9.382495284080505,-28.594329953193665,-14.885526895523071,-71.21801376342773,-7.561303710746552,2.7527483027452018,False,0
GUIDED_NOGPS,0.6356737613677979,30.650482669921004,-8.358981543283086,17.95951426383577,84.99001187246692,-7.1325427995921835,-16.842430651887618,13.423968289885313,80.1226523392686,0.3409487426584618,1.073767529393652,108.19775747241317,-0.1406534822995747,1.2490259290260757,-3.869949242125155,0.49013596082832595,-8.984471697935069,17.20749912081964,87.54044255768406,-19.50453370809555,-23.189444839954376,9.382495284080505,-28.594329953193665,-14.885526895523071,-71.21801376342773,-7.423495164502798,2.7527483027452018,False,0
GUIDED_NOGPS,0.6678459644317627,31.090566765006745,-8.806670373972903,17.41950729716219,85.42389808490726,-7.058785824189127,-17.598678920846563,12.654768851007574,80.4159391055988,0.3272498377826492,1.0955250969947274,108.08987463447282,-0.24740068288129707,1.3278272060199878,-3.315230521529666,0.489841914789751,-8.31850398746271,18.367667264595134,87.46011960370679,-22.9362890124321,-23.57064038515091,5.8053720742464066,-42.87359416484833,-21.925298869609833,-42.75152087211609,-7.28650060571397,5.128074866107485,False,0
GUIDED_NOGPS,0.7015390396118164,29.68620123435819,-9.269676940570651,16.876794185464075,85.83226130483634,-6.977556646628429,-18.35306484230134,11.898601229610943,80.68637677889343,0.2860178000322805,1.1281944254034275,107.88251009127124,-0.23822098686106935,1.2918100697750532,-3.22129653335047,0.4895522061001906,-8.31850398746271,18.367667264595134,87.46011960370679,-23.454338312149048,-22.919945418834686,3.4906383603811264,-44.49244737625122,-28.103837370872498,-80.55739998817444,-7.28650060571397,5.565591598015938,False,0
GUIDED_NOGPS,0.7348601818084717,30.01162025243997,-9.752966858356015,16.17772225641886,86.29345768361587,-6.876077868086681,-19.103819845820627,11.157043314167044,80.93403226729536,0.20652805847167213,1.0320631413734944,107.66838366079133,-0.09361644477922235,1.2555231902116049,-2.9132506809087886,0.4891107694604087,-8.83063199415233,14.438037097145532,89.05270911713407,-23.454338312149048,-22.919945418834686,3.4906383603811264,-44.49244737625122,-28.103837370872498,-80.55739998817444,-6.814627226575316,5.565591598015938,False,0
GUIDED_NOGPS,0.7694816589355469,28.887385929267538,-10.285496158873226,15.47173611485229,86.75313387252176,-6.7301053995787985,-19.849253306488457,10.431591590954145,81.15898116736739,0.20734597362478116,1.1157148160161678,107.34724865658485,-0.08770427955939139,1.1613640575471649,-2.349473998533248,0.488625839862346,-11.435187870247677,13.916713525977812,88.32191977583662,-20.58066725730896,-23.972640931606293,7.793334126472473,-18.56481283903122,-25.828370451927185,27.2685706615448,-6.761566084897236,8.4361484976694,False,0
GUIDED_NOGPS,0.803490161895752,29.408946851773944,-10.780288178658571,14.638306306610179,87.23584109400343,-6.594947730682976,-20.58775134943678,9.723662462654538,81.36130763229153,0.01367563954395225,1.0451410326433648,107.0513648617399,0.05026043724026076,1.2262014449971659,-2.3669861644084818,0.4880490985353848,-9.488081692526695,11.274514390787408,89.94764048195614,-22.761280834674835,-24.291151762008667,4.276786744594574,11.849680542945862,-31.4589262008667,-2.8450585901737213,-6.489268854665298,6.791120487960278,False,0
GUIDED_NOGPS,0.836066722869873,30.702534934961314,-11.323557580568487,13.786448540717092,87.63702960998873,-6.417196379350378,-21.317775654377932,9.03459356695199,81.54110424006831,0.05065108205922784,1.0351480390008132,106.8196302035797,0.08442729616055818,1.152528971670468,-1.6590743465132909,0.4875904908785743,-10.873926939971607,8.433871629305733,90.08696864203264,-25.535848736763,-23.52863699197769,4.072540253400803,-2.195747196674347,-26.252219080924988,-2.4791523814201355,-6.248203413901608,9.39072719833392,False,0
GUIDED_NOGPS,0.8685634136199951,30.778912762709876,-11.71420747951703,12.938657386893707,88.01269849867825,-6.25928354550879,-22.03786226013716,8.365645095129128,81.698471861716,0.14384623851970152,1.0912323231013745,106.61423958504825,0.13345523670185655,1.4367824235152777,-1.8179707748940517,0.4871374209992386,-11.172534349315912,8.11436868315977,90.22227031335191,-15.26585966348648,-23.896437883377075,3.2036192715168,54.718440771102905,-30.103036761283875,1.1149249970912933,-6.143448152055344,7.9020183130642945,False,0
GUIDED_NOGPS,0.9084944725036621,25.04391024492769,-12.30560858572737,12.249584500004314,88.34627771910402,-6.116389965385454,-22.74662036918513,7.718001110664883,81.83351952946998,0.11505282902157228,1.0468306506892968,106.29028371271455,-0.04625221923284467,1.0338463115818581,-2.2381490232787407,0.48671955708672693,-13.106318836419339,11.565081686909348,89.19331008501817,-24.031423032283783,-24.440540373325348,4.49536107480526,64.60258960723877,-24.90895390510559,120.77226638793945,-5.982272282678776,6.60001990583296,False,0
GUIDED_NOGPS,0.9420640468597412,29.795016054328986,-13.020760792682664,11.398544967237124,88.74879404174597,-5.945259404223679,-23.442731152170413,7.092770867831913,81.94636430498191,0.11786377203014987,1.1136895582055533,106.11207041689057,0.1080497536148215,0.8047941444780522,-1.519533125266336,0.4861220215202385,-13.130088376771342,11.13589453039944,89.27750944370538,-26.22457444667816,-25.455379486083984,2.5983309373259544,-3.5720139741897583,-30.058827996253967,167.38948822021484,-5.853568233410807,6.910490850310945,False,0
GUIDED_NOGPS,0.9785006046295166,27.446220692453164,-13.69751760729374,10.633877054559688,89.00736132995402,-5.748563839039771,-24.124946552452023,6.490990130293987,82.03713114751909,0.1436627839074632,1.0843353261435427,105.73227774809202,0.0470678865567975,0.8555652810787494,-1.3004324196670827,0.4857660025586443,-14.708612896631507,9.566729954838802,89.90886287552848,-26.39014422893524,-26.0269433259964,-0.14444850385189056,-62.25300431251526,-13.295574486255646,-175.26558637619019,-5.389279130215692,8.647581272295376,False,0
GUIDED_NOGPS,1.0125353336334229,29.386281790793806,-14.515782142141257,9.765929338636191,89.31023086590699,-5.552925343126243,-24.792088090631886,5.913622489703446,82.10595278216368,0.14024566161004698,1.1397308283549905,105.525056638863,0.1498546474904551,0.5572889395349164,-1.032023343080159,0.4852782949513472,-16.8879217979327,7.6501035739061205,89.96482447752754,-28.089797496795654,-25.573906302452087,1.5786414965987206,-42.69070029258728,-27.70792245864868,45.8731472492218,-4.786704930045285,6.582676774869829,False,0
GUIDED_NOGPS,1.0460562705993652,29.839742175994765,-15.196789410598667,9.014606480386247,89.57889993604802,-5.364692903885935,-25.443045669087386,5.361560684298606,82.15296956801204,0.08566060403230336,1.0899700187653916,105.27333001700218,0.09822474523763947,0.7742528070414453,-0.9688112599143301,0.4848151105861094,-15.383155940828457,8.023694316189953,90.77229268961071,-28.089797496795654,-25.573906302452087,1.5786414965987206,-42.69070029258728,-27.70792245864868,45.8731472492218,-4.58517143080404,6.582676774869829,False,0
GUIDED_NOGPS,1.078979730606079,30.377438021915943,-15.8648368622286,8.304753935890519,89.84828147614373,-5.171327459585607,-26.076776376503837,4.835627917501146,82.17832936637394,0.11763069182472319,0.9173319715731475,104.97345739168195,0.0904823359174301,0.7643681910505516,-0.7572608162864092,0.4843068332093187,-15.383155940828457,8.023694316189953,90.77229268961071,-29.15961742401123,-25.477993488311768,3.288280963897705,-97.58691191673279,-22.747141122817993,60.815972089767456,-4.58517143080404,7.392277026438012,False,0
GUIDED_NOGPS,1.1124730110168457,29.862899780708,-16.620417035863237,7.554392861966355,90.06399371795784,-4.944753437145589,-26.692303292407022,4.336579176513585,82.18218740897186,0.024440551284421252,0.8397211723645274,104.72703782680622,0.1382307853841136,0.5599064462715884,-0.25349233177232255,0.4838620638357189,-17.019478280907464,6.298682456711058,90.8763297660697,-31.692904233932495,-25.169071555137634,0.6505746394395828,-51.53838396072388,-22.849464416503906,21.240058541297913,-4.18380585711419,8.803533274066984,False,0
GUIDED_NOGPS,1.146759271621704,29.17269344461833,-17.360400775082084,6.826027715006956,90.286317517938,-4.730442550089479,-27.288714291695644,3.8651025509166494,82.16470616614032,0.11283163015914298,0.8379005000638958,104.50468101837646,0.14410341280250097,0.5495809369369447,-0.3412413390916571,0.48336014816264394,-17.019478280907464,6.298682456711058,90.8763297660697,-31.496065855026245,-24.831408262252808,1.7147131264209747,30.90457320213318,-17.263565957546234,56.96974992752075,-4.18380585711419,8.247316819006997,False,0
GUIDED_NOGPS,1.180130958557129,29.96830477714743,-18.11100830103419,6.079573593205633,90.51101754299633,-4.537667851086015,-27.86516084917394,3.421820551266741,82.12605521502506,0.05695523994144383,0.7250310904209062,104.28869677644231,0.1961146685617319,0.4700451643232695,-0.4118308896874252,0.48281106186271855,-17.384168792603596,5.9281637386235335,90.92146798165375,-31.258991360664368,-25.23518204689026,1.9798275083303452,-23.617511987686157,-17.78424084186554,37.48392462730408,-4.0615180677183425,6.573820580837261,False,0
GUIDED_NOGPS,1.2136492729187012,29.839317601360243,-18.939686339269446,5.295079117059228,90.76533440667164,-4.330588647675886,-28.420856844084028,3.0072914276932785,82.06641110778241,0.050586408705524284,0.6468246773723197,104.1996857511787,0.2526275349024629,0.26897355559985237,-0.1266420034664293,0.48215981854103096,-22.07436671894287,4.452275554563832,89.8707398135263,-25.659185647964478,-26.473814249038696,8.345329016447067,6.363990902900696,-36.05555593967438,103.9904236793518,-3.3792945658269087,6.210276932074162,False,0
GUIDED_NOGPS,1.2470033168792725,29.98544445874262,-19.848359352141493,4.4865694714926345,90.99293011622726,-4.127184121159687,-28.95507736463859,2.622010488496226,81.9859572397785,0.04587240423945189,0.5939818516414582,103.92814475053568,0.3019417115130639,0.05234845891798616,-0.040071545878042514,0.4815196552889715,-23.624326689399094,3.10424080313957,90.50589950586667,-28.425684571266174,-26.254740357398987,5.732222273945808,14.554141461849213,-16.587649285793304,95.9969162940979,-3.1564964526322044,5.811550978896328,False,0
GUIDED_NOGPS,1.2834208011627197,27.46221436521967,-20.6940799489647,3.5523098977842182,91.16778704583069,-3.921276683265425,-29.46715751255321,2.2664114187434024,81.8848837177886,0.010874301488894988,0.5276581534796957,103.75902243649699,0.4280973562180469,0.141445830967869,-0.08888043021258918,0.48094077649961464,-21.57327728117542,-0.6675009759361573,91.85081354267666,-32.15601146221161,-26.15547776222229,-0.43988050892949104,-24.462564289569855,-13.275070488452911,-42.454993724823,-2.6449488449716396,5.0637037482747,False,0
GUIDED_NOGPS,1.3163232803344727,30.39526929097339,-21.571030684794035,2.6000748016357305,91.37598671807785,-3.742659032512918,-29.95649120757906,1.940867598867964,81.76338722819631,-0.11964703837290501,0.4581689294418967,103.57766725365481,0.5338886502300981,-0.05086405249522559,-0.07647357047995307,0.4802560544057078,-21.57327728117542,-0.6675009759361573,91.85081354267666,-32.15409219264984,-25.4147469997406,0.9634259156882763,42.39957630634308,-18.13463270664215,-162.89660930633545,-2.6449488449716396,2.942049130026221,False,0
GUIDED_NOGPS,1.3521013259887695,27.95419949080924,-22.411188143033208,1.8353299001486005,91.54318909003828,-3.5750104486246523,-30.4225299920352,1.6456934232658291,81.62167090519294,-0.013450029857930266,0.3359479769689547,103.46328890581378,0.38020123657897603,0.007837230573995328,-0.26505084789900746,0.4796099043704077,-23.169097018155966,0.8938451880770002,92.06715425339586,-32.15409219264984,-25.4147469997406,0.9634259156882763,42.39957630634308,-18.13463270664215,-162.89660930633545,-2.309360517134602,2.942049130026221,False,0
GUIDED_NOGPS,1.3839848041534424,31.368898129520076,-23.326766773947185,1.024826795528915,91.67111349322121,-3.395301141755479,-30.864781835341283,1.3811456188930293,81.4599441989767,-0.03925480470735578,0.26396258559378044,103.3615190871806,0.5029149589928438,-0.2976881680930186,0.2175975843921898,0.47900455908130224,-25.207527577222734,0.6575097090626935,90.70730234209162,-29.789060354232788,-26.107582449913025,1.6542524099349976,-36.73919439315796,-26.80930495262146,85.12732982635498,-2.2290423432317334,3.2696023776184067,False,0
GUIDED_NOGPS,1.4197580814361572,27.96072183298113,-24.20207577175769,0.3095278302763923,91.73245303521314,-3.248572586745003,-31.28280993854991,1.147424563863236,81.27842274395206,-0.032834426887543795,0.0994329334416936,103.23495568186026,0.42231639619669886,-0.2126110423864528,-0.2898375127103783,0.47848925547235666,-25.207527577222734,0.6575097090626935,90.70730234209162,-34.03262794017792,-27.016738057136536,-0.10109981521964073,-14.388445019721985,-27.821525931358337,20.25698721408844,-2.2290423432317334,2.636838284982793,False,0
GUIDED_NOGPS,1.4505679607391357,32.465412212735984,-25.208785062733682,-0.5066858461975976,91.75984576574746,-3.0714363575927885,-31.676231538879257,0.9446756060450561,81.0773282269289,0.006425927348512621,0.08910611430345744,103.16079348785226,0.6050013441118526,-0.6752543499448866,0.4303439145677379,0.4780056435518587,-26.688728619728092,-1.6042853383845062,90.42024710567692,-38.03575932979584,-26.719382405281067,-1.7807886004447937,-100.93536376953125,-21.38736844062805,-50.37426948547363,-2.0972525057537132,4.2300428746946785,False,0
GUIDED_NOGPS,1.4853014945983887,28.79635300094745,-26.2106909001278,-1.2773883313755117,91.8134093988342,-2.9297455726486086,-32.044716714245446,0.772990381659568,80.85688825532198,0.055127203843113384,-0.07895954812628615,103.06114102786177,0.5611630654729642,-0.6389698320579139,-0.12061678866781422,0.4774272936284014,-28.697019254704863,-2.3656177681838333,91.24111727661523,-37.05383837223053,-26.52486264705658,-0.9698569774627686,-72.54992723464966,-12.147131562232971,-39.786601066589355,-1.6342219779531733,1.6367788487390393,False,0
GUIDED_NOGPS,1.5197358131408691,29.04361073026161,-27.367395861389728,-2.088408823690822,91.84621544171576,-2.7708764318449908,-32.38798718779519,0.6324081338776502,80.61733622534999,0.09274756562642628,-0.11266258297718516,103.01442253393888,0.6336867309287868,-1.0184785728451657,0.1738068870033005,0.4768514907873738,-31.766025675375282,-2.741063940637093,90.56397523829577,-37.05383837223053,-26.52486264705658,-0.9698569774627686,-72.54992723464966,-12.147131562232971,-39.786601066589355,-1.3067358314765873,1.6367788487390393,False,0
GUIDED_NOGPS,1.5580451488494873,26.10589736408054,-28.450873622288984,-2.912880731329256,91.85276123998617,-2.5943173380804083,-32.70581513243823,0.522917031417446,80.35891119023503,0.18503249265828997,-0.2698821184483601,102.97271739886679,0.6502612682731915,-0.8645516876804288,0.28359823538637685,0.47628625980373224,-32.04774433913186,-3.3087299707570765,90.62171763613506,-33.242109417915344,-27.290990948677063,-2.4648651480674744,-32.973286509513855,-21.23098075389862,-114.80704545974731,-1.274896705500367,3.103774135750371,False,0
GUIDED_NOGPS,1.586491346359253,35.1587982832618,-29.41945823956599,-3.7460926484554835,92.04603271025839,-2.496417698643158,-32.998021975379835,0.4444554871417452,80.08185772840179,0.26841576221092295,-0.42139385692922576,102.93031558449934,0.9077718011786559,-1.160619626987015,-0.11910707465780734,0.4753184248770859,-30.929416102741214,-4.777375241819321,91.19967881408674,-33.04038643836975,-27.42343246936798,8.990713208913803,-37.19591200351715,-16.262464225292206,144.52767372131348,-1.4106013234178003,-0.8636949229078605,False,0
GUIDED_NOGPS,1.6220853328704834,28.09896227615915,-30.360034505327512,-4.532859884407272,92.14081726153442,-2.370163089520694,-33.2644772026533,0.3969134766554987,79.78642581167676,0.3116160683810189,-0.6638680270639113,102.88775667578099,0.7763357993646756,-0.9145822161164279,-0.002668085876977644,0.4745028274230771,-33.009386854044436,-7.087457037615632,91.59595259272498,-36.262330412864685,-27.920332551002502,3.8062486797571182,-32.78326988220215,-27.215704321861267,61.01726293563843,-1.299266653604532,2.4700343932805033,False,0
GUIDED_NOGPS,1.6608812808990479,25.77889774620013,-31.382254590399533,-5.390393116302334,92.25170958438974,-2.2359880809985233,-33.50509716365253,0.38013385690310386,79.4728706734877,0.39746034046897216,-0.8479232690623606,102.8777094675119,0.8336766022889485,-1.0485059853391356,0.04084761210215371,0.47361424382882306,-33.63300422120525,-6.875940545919139,91.83181644084314,-32.66877830028534,-26.520681381225586,2.434117905795574,41.47886037826538,-5.547913908958435,81.16472959518433,-1.0755319239878758,1.2887066456630774,False,0
GUIDED_NOGPS,1.7057576179504395,22.287958254289617,-32.34752090340379,-6.213430687507581,92.34723111963496,-2.116024635195236,-33.71984387566446,0.3939136847658915,79.14145267706272,0.501696711166183,-0.9552500869155907,102.87934871291272,0.7887479092901217,-0.9074735531672711,-0.19273103703163574,0.4727132893571612,-34.53337853204293,-8.090449960263312,91.92872045755054,-32.66877830028534,-26.520681381225586,2.434117905795574,41.47886037826538,-5.547913908958435,81.16472959518433,-1.0479780407155188,1.2887066456630774,False,0
GUIDED_NOGPS,1.7220730781555176,61.294246591357464,-33.6619173870954,-7.306411051683101,92.50077483730739,-1.9697963841951707,-33.90872382840155,0.4380055356595989,78.79243718362966,0.5805495375866877,-0.932833832946432,102.89268124217257,2.2217651365381896,-4.078778187773554,2.3445027247945407,0.47168998075988294,-35.7421835661334,-8.36842245570121,91.69223110484486,-32.95804560184479,-26.20168924331665,3.0903033912181854,-3.57445627450943,-10.962168872356415,45.656293630599976,-0.9875391988217578,0.25499017162361665,False,0
GUIDED_NOGPS,1.7558627128601074,29.600095978094412,-34.099291919564486,-7.663171134159568,92.51228274043584,-1.948120962015028,-34.07178678853441,0.512118822131665,78.42609442061537,0.6809034793492752,-1.0970360629051812,102.90309728065685,0.6884042995711108,-0.4902515196393412,-0.9120970253513061,0.4708962291909257,-37.44774243439048,-8.068461021389188,91.32138871360044,-24.877366423606873,-27.422234416007996,5.311916396021843,-17.525234818458557,-18.572382628917694,24.388183653354645,-0.835297631303664,-0.9748716195754505,False,0
GUIDED_NOGPS,1.7955613136291504,25.191922832054008,-35.10327924934482,-8.49949776685068,92.5738092783121,-1.8691282446025022,-34.20912460422424,0.6159211124587145,78.04269934984495,0.7922611760298706,-1.313627551345221,102.90601377143244,1.0249899773721838,-1.3910438186323206,-0.32646444971178523,0.46996018385773486,-38.17366973818649,-9.731107232650784,91.64651016636363,-29.90538477897644,-26.868948340415955,1.4824370853602886,19.175881147384644,-13.458782434463501,62.85805106163025,-0.9201595443122719,-0.9834324079264153,False,0
GUIDED_NOGPS,1.8254215717315674,33.49547995527871,-36.22442723401146,-9.547920242437147,92.69929629311196,-1.7804001756901395,-34.320870009655216,0.7490394492440089,77.64253153574106,0.8371492859769002,-1.3864881674295089,102.93670864156248,1.5621707262807463,-2.2702232242283924,0.15722561734372498,0.4688739889768177,-37.25472279707134,-11.390736416200358,92.49697389206884,-29.90538477897644,-26.868948340415955,1.4824370853602886,19.175881147384644,-13.458782434463501,62.85805106163025,-1.0742436960852335,-0.9834324079264153,False,0
GUIDED_NOGPS,1.8556137084960938,33.16022326581598,-36.92059415316233,-10.218277074221174,92.74484735999238,-1.7263253254997357,-34.407195429567246,0.9110616680148489,77.22587501352311,0.9662307899451498,-1.6682765862616704,102.98238894673152,1.20676122182061,-1.3967460288742413,-0.3374137429873292,0.467911122096814,-37.25472279707134,-11.390736416200358,92.49697389206884,-27.75183618068695,-25.324517488479614,0.7834440097212791,51.49906873703003,-2.0735451951622963,-95.45474648475647,-1.0742436960852335,-0.19570647750543316,False,0
GUIDED_NOGPS,1.8897459506988525,29.297811554822893,-37.78137238652118,-11.041863606451455,92.78554518437537,-1.6636428413057975,-34.46831178378821,1.1015377158199229,76.79301815740669,0.8819387850677877,-1.9037047759372534,103.00647219374498,1.3228859070482566,-1.6817361430009448,-0.26653539223727407,0.4669201687822587,-39.75195350497563,-13.791373021239547,92.10866527503538,-27.75183618068695,-25.324517488479614,0.7834440097212791,51.49906873703003,-2.0735451951622963,-95.45474648475647,-1.0163257881052221,-0.19570647750543316,False,0
GUIDED_NOGPS,1.9305145740509033,24.53225400798966,-38.656004180687354,-11.89173219373273,92.85774750555461,-1.6222725062836614,-34.50446729176669,1.3199809698268439,76.34425354880275,1.0298535751769955,-1.9427435759121074,103.10199921947678,1.2695576997934792,-1.5812503917788352,-0.5672223145915483,0.46582440782645457,-39.75195350497563,-13.791373021239547,92.10866527503538,-26.06549561023712,-24.810582399368286,2.4293532595038414,25.11541247367859,-2.630838006734848,-19.35129314661026,-1.0163257881052221,-1.856073597986523,False,0
GUIDED_NOGPS,1.9630260467529297,30.76356168402523,-39.55698369195493,-12.70302023391309,92.91444014905737,-1.5996440201408337,-34.515946277104334,1.5658695559194484,75.87987784451686,1.0773449476931518,-1.9989820728775232,103.1778894513448,1.4892170198857284,-2.065993164853171,-0.6812781261754335,0.4647379818797134,-41.032797981147894,-14.31140308646155,92.46188941912911,-28.08069884777069,-24.299851059913635,0.9226912632584572,-15.684956312179565,-7.524485886096954,-22.808149456977844,-1.0754923883944751,-2.496650146372162,False,0
GUIDED_NOGPS,1.9967172145843506,29.68620123435819,-40.45535074622231,-13.504079620706955,92.93371786127074,-1.5869267651078611,-34.503067972088424,1.8386476672952554,75.40019164494852,1.1298825493454785,-2.014265901805896,103.23296126662261,1.514215190929919,-2.123402492834341,-0.8008818750519626,0.46369288601864767,-41.9153632956301,-15.51926825447794,92.74848708251943,-29.251310229301453,-23.700661957263947,-1.8890732899308205,-32.78542160987854,4.463443160057068,-73.28927516937256,-1.2257399392081267,-2.3407709288038965,False,0
GUIDED_NOGPS,2.028001308441162,31.967074927404788,-41.23343181578382,-14.181843729750238,93.0067876239213,-1.5844701189822816,-34.46618532222438,2.1377268830630136,74.90549936229047,1.2335718645788536,-2.0168434444439294,103.33182825485855,1.532971682343665,-2.126441853874995,-0.9192741426213483,0.46251205519290184,-43.92392530625824,-15.926243049510784,92.86182428498194,-25.328683853149414,-23.21028560400009,2.7533868327736855,29.461726546287537,1.868431642651558,38.73324990272522,-0.9520553604351234,-3.048267109356382,False,0
GUIDED_NOGPS,2.0593392848968506,31.915264038959062,-41.95999424043236,-14.991075509697279,92.9971800713947,-1.590951709035293,-34.405683790768215,2.4624874868398727,74.39610908872788,1.2871845806952225,-2.097554082318678,103.36811021972966,1.724922350103748,-2.1352483490383554,-1.037072741068161,0.46146572630472754,-45.09175788823647,-19.778994715629672,92.14898873250013,-21.54345214366913,-24.059677124023438,-0.6010482087731361,15.121689438819885,-3.0953094363212585,-44.47738826274872,-1.3622349920550816,-2.3264132308382948,False,0
GUIDED_NOGPS,2.093046188354492,29.673389977997722,-42.770359058855284,-15.817789044726387,93.0616685568866,-1.5580987107747968,-34.32198016325917,2.8122797853490233,73.87233246463776,1.3895817095149956,-2.2163383290611924,103.40137324098761,1.7361829318249429,-2.2978842038895064,-0.5443931963827244,0.46023753046127336,-46.215401758286006,-19.188583655147,91.96487675179159,-20.697762072086334,-24.059484899044037,4.4790856540203094,9.228615462779999,3.813253715634346,-63.98700475692749,-1.1071058236472084,-0.5781405085220831,False,0
GUIDED_NOGPS,2.1348745822906494,23.90938577739775,-43.63557022522559,-16.726597401418438,93.21116815751373,-1.558057369544016,-34.21552135205194,3.1864254270170136,73.33448454678808,1.518494913353228,-2.313104180353702,103.47268724611172,1.6701440609880123,-2.184263231438252,-0.9344362891409164,0.45879678895885595,-45.48334181848875,-20.551409211922092,93.81960889790848,-23.73184859752655,-23.2034832239151,4.580149799585342,-11.109691858291626,4.708493873476982,46.424055099487305,-1.5900149385180526,-1.6129744655427813,False,0
GUIDED_NOGPS,2.166140079498291,31.989261417370876,-44.69097904655239,-17.767073879474975,93.25834270324903,-1.5108982342464499,-34.08678320084961,3.5842187205711795,72.78288367653718,1.6404379091434622,-2.4933046343393253,103.51816264560566,2.147098801120764,-3.140109606962504,-0.30846876301597626,0.4575475730224836,-47.37102844317923,-20.350393597155374,92.25442674508213,-19.602160155773163,-21.886293590068817,0.5381415132433176,0.5999252200126648,3.4271232783794403,-54.64470386505127,-1.2117908318113895,-0.027187567991235756,False,0
GUIDED_NOGPS,2.1970720291137695,32.33501395377523,-45.15539677261273,-18.477915717647516,93.35406516509741,-1.5322289884139313,-33.93626928923582,4.0049279536370435,72.21785134803298,1.7382105730083137,-2.5080023476595463,103.55839245981704,1.9502520237392489,-2.1266851392352013,-1.195472169368371,0.45617381633120774,-46.277877630230726,-22.81980614421471,93.79369035834814,-12.816707789897919,-20.832186937332153,3.238943964242935,99.0129292011261,13.816183805465698,87.95511722564697,-1.7997971651263127,-1.4077492656552892,False,0
GUIDED_NOGPS,2.2291653156280518,31.161711169556753,-45.7477226436274,-19.15733610426621,93.4483041304949,-1.5203543933082304,-33.764509737207256,4.447796711335759,71.63971207641222,1.6794073400095584,-2.641434361963977,103.54253959075344,1.9455821064796643,-2.43088683014136,-0.763349051111042,0.4547733915590983,-47.77831419880249,-21.88827186615741,94.0872697990701,-15.147724747657776,-19.744062423706055,2.082470618188381,59.0096652507782,19.743946194648743,179.4006586074829,-1.3745861139305302,-0.5128328009993599,False,0
GUIDED_NOGPS,2.2627909183502197,29.74282898049199,-46.421359026995674,-19.92810129991761,93.51986416552806,-1.5157017233865593,-33.572060009706554,4.912045194881596,71.04879326599986,1.9082854849928046,-2.8336512531337683,103.59770702867964,2.0352056118137853,-2.606738232848036,-0.8542588889570425,0.4533877833039973,-48.908114242447226,-23.328602779899406,93.43837511659014,-15.147724747657776,-19.744062423706055,2.082470618188381,59.0096652507782,19.743946194648743,179.4006586074829,-1.5906291278364613,-0.5128328009993599,False,0
GUIDED_NOGPS,2.29593825340271,30.17463183718103,-47.12013250363556,-20.73666016254983,93.67132644211736,-1.49505230593797,-33.359499721154236,5.396871540179223,70.44542507850825,1.9602638649068365,-3.0367354021598727,103.54620740233774,2.155576729231807,-2.7899893391298405,-0.6482058884761245,0.4518164436373014,-48.96136551155652,-23.952881960896445,93.85494763362775,-14.806365966796875,-18.71913969516754,6.140781939029694,12.919346988201141,11.833886802196503,129.10621166229248,-1.610187356956407,0.5626016147168925,False,0
GUIDED_NOGPS,2.329556703567505,29.753589467113105,-47.712388836220846,-21.489789708523144,93.78763465009615,-1.4760337776115664,-33.12743143998168,5.9014531364212,69.82994030123645,1.9727266122645826,-3.003448048352993,103.56221736575225,2.1699167007095195,-2.6872852095486177,-0.6582855193996011,0.4502887210444089,-49.39856296782865,-24.127362380382607,93.58702148813217,-10.155625641345978,-18.33403706550598,4.947701469063759,111.16998195648193,21.167650818824768,84.49463844299316,-1.4873610240958515,0.2561871622756614,False,0
GUIDED_NOGPS,2.3632614612579346,29.672130451699623,-48.29668080796669,-22.26790868669727,93.89952886366424,-1.5062739537171597,-32.87647949316337,6.424947944685439,69.2026742152695,1.9748674496825585,-3.0373723172999765,103.53805215646874,2.2435392028285324,-2.756613047549856,-1.26010420689571,0.4487433330305921,-49.343498454359064,-25.339538203527397,93.7612728905543,-10.800982266664505,-17.605814337730408,4.2177025228738785,29.929813742637634,22.2857803106308,83.60693454742432,-1.663601501091709,-2.5830627115434015,False,0
GUIDED_NOGPS,2.3977415561676025,29.005850541486286,-48.83152376881139,-23.06806633298783,93.98703260234133,-1.5119418648081837,-32.6072887707495,6.966495816532575,68.56396446367768,2.0610834334717483,-2.908268508495219,103.53971189243705,2.3161217464030965,-2.746726956550938,-0.9729056932783687,0.44722076577339237,-49.77053520236488,-26.792527758185912,93.97771840789787,-8.213315904140472,-17.06622987985611,2.171335183084011,148.981773853302,13.20992112159729,56.171202659606934,-1.9410606617635482,-0.011697325943668301,False,0
GUIDED_NOGPS,2.4355387687683105,26.46031555771451,-49.313827500423365,-23.857368605632853,94.02972453531405,-1.5062391598774778,-32.32052353039867,7.5252198126032575,67.91415091971584,2.036916943527774,-2.893467915450624,103.51088849413959,2.2793265715579127,-2.6312158687766702,-0.8433457202908106,0.44575684891473666,-49.88247436825817,-27.57681611608735,93.30541147528139,-6.354266405105591,-16.264738142490387,1.3041680678725243,30.23143708705902,6.4269304275512695,-41.2444531917572,-1.9455088968184444,0.8160897850533411,False,0
GUIDED_NOGPS,2.4646177291870117,34.39645727406921,-49.752083701274955,-24.54405243857376,94.11459743020407,-1.5054584807158347,-32.016866201909885,8.100227521215924,67.25357555502262,1.949023081080288,-2.946789494753621,103.45110384833448,2.562129751663222,-3.0195019306786497,-0.8924567757965509,0.4442039247112172,-51.08600628019877,-27.036650641824025,93.0971057751873,-3.6320939660072327,-14.849941432476044,5.229674279689789,74.35197830200195,19.72998082637787,163.3452296257019,-1.659363487087328,-0.2402346151388619,False,0
GUIDED_NOGPS,2.500471830368042,27.892481413010227,-50.05964322187038,-25.14261719399437,94.2068365686264,-1.4579200695545396,-31.697016191755367,8.690612376963745,66.5825823078197,1.862131762336913,-2.805405859594827,103.40002086353195,2.30378842804883,-2.563729643361942,-0.3475044283090488,0.4425977576901007,-50.86584840981014,-28.32980573769293,93.73379457014995,-3.4654807299375534,-14.285360276699066,5.103651806712151,43.11683773994446,11.620085686445236,70.87229490280151,-1.7499447242379338,3.464671513096913,False,0
GUIDED_NOGPS,2.5321860313415527,31.53659453525617,-50.4738556251385,-25.781585059095065,94.2225675597021,-1.4325760954356848,-31.361688687613437,9.29545497931247,65.90151695111126,1.7406098903976923,-2.8470896503257683,103.31974565021679,2.5345765026181244,-3.005341152696422,-0.5395952237717372,0.4411323770775539,-51.32933567670285,-27.712097887035334,93.58859177021557,-4.47036474943161,-13.366001844406128,-0.5743114277720451,18.429970741271973,14.840224385261536,-11.42134964466095,-1.493988703520341,1.006919080604562,False,0
GUIDED_NOGPS,2.564922571182251,30.549575731089988,-50.807047706933,-26.336632748359,94.27002547166003,-1.3548413244089803,-31.011613462900282,9.913824411197648,65.21072696088297,1.6946704649270097,-2.8793622941540784,103.25037824900615,2.4907900430239893,-2.8926645218590967,0.1392200779412608,0.4395799612175343,-51.566259639502704,-27.562252111235352,93.50174183659696,-2.0886365324258804,-12.468770891427994,2.408967912197113,15.340813994407654,9.920260310173035,52.23245620727539,-1.4233848204182467,4.5238729170335725,False,0
GUIDED_NOGPS,2.5989768505096436,29.3696143854465,-51.04913775605128,-26.95572834814592,94.26976867415283,-1.328484351844424,-30.647533681302953,10.544779557621968,64.51056138430152,1.6487604946471226,-2.7733680035192356,103.18254081016957,2.575589815942873,-2.7603945925468176,-0.48621871364761604,0.4380994042817587,-51.241216501934126,-29.63306490521626,92.80930164237404,2.29595173150301,-11.996222287416458,1.1801505461335182,-2.7131929993629456,18.264345824718475,9.963484853506088,-1.803900347106956,2.108062541800154,False,0
GUIDED_NOGPS,2.632483720779419,29.848023796985526,-51.300661572191224,-27.545285805754972,94.30477784427949,-1.242874069166273,-30.27020470131169,11.187370424252844,63.801370707913776,1.6154383495641578,-2.8114753364460294,103.07957570843163,2.619074091876126,-2.854812110825709,0.2690432597242004,0.4365286557223419,-51.894031514980675,-28.976400431655335,93.5717222632979,3.0580388382077217,-12.365037947893143,1.3686689548194408,52.085405588150024,11.141692847013474,53.28424572944641,-1.4549798179383182,5.100784418391876,False,0
GUIDED_NOGPS,2.668595790863037,27.69413209552925,-51.54498375502274,-28.11128592166828,94.27533529810887,-1.1971839232088513,-29.88039288075251,11.840639456019783,63.08350672584608,1.6533708723368812,-2.7311023660483738,103.0037127973203,2.5928044134924377,-2.8420722580030695,-0.21118633863049086,0.4350618839711628,-52.12390162109463,-29.752719005669213,92.87910873977333,1.9480256363749504,-11.266709864139557,-0.7363499607890844,122.10359573364258,21.17040902376175,150.08115768432617,-1.2949064260650394,2.02248923612318,False,0
GUIDED_NOGPS,2.7018754482269287,30.056353369449937,-51.7164503559774,-28.66158907542684,94.26179101036351,-1.1426111199074356,-29.478874381319827,12.503622855711807,62.3573224080035,1.6642012044829944,-2.7028339206209835,102.97540849339977,2.726428628225909,-2.868177976206585,-0.028771018603836795,0.4335517742977093,-51.80301745334917,-30.380988052982637,92.70121591108963,4.2695049196481705,-10.557757318019867,1.0117094963788986,3.3942103385925293,0.5444310139864683,-94.03856992721558,-1.3308486177417576,2.8188154419262657,False,0
GUIDED_NOGPS,2.753906726837158,19.220617819713222,-51.77566771455938,-29.178495891374038,94.23049973524645,-1.090365191228351,-29.066433973108644,13.175351902574565,61.623171768269174,1.711345304568538,-2.6577064338878857,102.77737398860442,2.3824887244734345,-2.410767540058952,-0.250963209687648,0.43201086795306354,-51.072552086425034,-31.19545519383086,93.09005471219497,6.541499495506287,-10.54440438747406,-0.8808335289359093,56.07714653015137,16.86013638973236,66.11430644989014,-1.1704666637462775,2.4684576867992885,False,0
GUIDED_NOGPS,2.767202377319336,75.24360009328525,-51.80157632298038,-29.676066216502615,94.22127925481281,-1.0404307577020264,-28.64386383914711,13.854854270908557,60.88140973270349,1.6839336209951612,-2.5672687528613936,102.77214206370019,3.929445042247962,-3.921302990272087,0.8557535180115702,0.43050978929618583,-50.64762473931547,-31.3745464027799,93.64980260134743,6.541499495506287,-10.54440438747406,-0.8808335289359093,56.07714653015137,16.86013638973236,66.11430644989014,-1.1883353327734043,2.4684576867992885,False,0
GUIDED_NOGPS,2.806701898574829,25.318290746877697,-51.59080077533278,-29.783506499190896,94.06712301254663,-0.9944244693414227,-28.211962379929524,14.541155348665644,60.13239200774353,1.7273990238824182,-2.5439722582629494,102.6764306228608,2.386735765219122,-2.2522024213786738,-0.1313439526537235,0.4292126998990074,-51.06375543129559,-31.209671954657587,93.41607865215873,8.883318305015564,-9.724140167236328,-8.057574927806854,61.70012950897217,14.742502570152283,-86.76672577857971,-1.0574497997228922,3.823054953942067,False,0
GUIDED_NOGPS,2.835049629211426,35.28094008394808,-51.62382636966267,-30.26660250780228,93.99886342223051,-0.9588529980763926,-27.771533017948165,15.23327955604692,59.376474948402105,1.7388993548974272,-2.421573560789028,102.64381646957399,3.068971493027398,-2.969327525551621,-0.07275158255008496,0.427758966064639,-50.85825457390111,-31.561040692838617,93.19792816543661,7.806918770074844,-8.741513639688492,-4.0207576006650925,6.0937561094760895,11.271996051073074,-11.572948098182678,-1.2152452098461968,1.4943362140937755,False,0
GUIDED_NOGPS,2.8686437606811523,29.782110726889293,-51.52347563864321,-30.61093900718004,93.91159655851834,-0.8981543543456623,-27.323383002226183,15.93025166410008,58.61401542646725,1.799906604563981,-2.4841952964206437,102.57099982283249,2.815778110054611,-2.6151602516588857,0.19069203904578247,0.42631460880196537,-50.42882947074381,-31.76164613229153,93.39848203140045,10.82957312464714,-7.8800782561302185,-5.387410148978233,47.44383692741394,11.497464776039124,-69.06002163887024,-1.1190046403517273,3.787307451373513,False,0
GUIDED_NOGPS,2.906576633453369,26.362855831903406,-51.34188044318141,-31.03937736412775,93.85114749051718,-0.8679968565945062,-26.86832221285023,16.63109811331692,57.845370698701444,1.9780731562808216,-2.3697674297081277,102.5605428032132,2.8169445481495825,-2.4399524841214593,-0.2049429860183195,0.4247882081485022,-50.17388962118328,-31.90656746124337,92.72764265090993,18.94749402999878,-7.88411945104599,-1.8757591024041176,63.27030062675476,6.550666689872742,-33.964741230010986,-0.6453583815374618,-0.28343748262989665,False,0
GUIDED_NOGPS,2.934911012649536,35.301429124513945,-51.27371249692563,-31.49422948943491,93.76917066212198,-0.8525397541248579,-26.407161965502194,17.33484833223068,57.07089827504075,2.128038497244914,-2.360612414899372,102.57453103063338,3.1983876877506066,-2.8793301726268252,-0.29357440769832743,0.4233199317418309,-50.17388962118328,-31.90656746124337,92.72764265090993,12.057673931121826,-5.927961319684982,-3.5211078822612762,41.67308211326599,30.479440093040466,-16.526275873184204,-0.6453583815374618,-1.6130964484524895,False,0
GUIDED_NOGPS,2.968625545501709,29.66373634145479,-51.21700494305259,-31.755483163332297,93.62240538502303,-0.8093198314650134,-25.940713815992872,18.04053605601319,56.290955786794314,2.1942292201612728,-2.381642567353841,102.56780329430092,2.877253208921278,-2.8035465257893026,0.026281753133237218,0.4219527110306416,-50.17388962118328,-31.90656746124337,92.72764265090993,5.798697471618652,-5.165616795420647,-7.75616392493248,-10.63307672739029,21.834036707878113,-52.74484157562256,-0.6453583815374618,1.4725287007343941,False,0
GUIDED_NOGPS,3.0039310455322266,28.328981405809923,-51.09619643289133,-32.09687421309726,93.48814680038976,-0.7860789616375522,-25.469788364793665,18.747200645072713,55.50590085484342,2.345325811206649,-2.217429024894279,102.636344242622,2.958085482995385,-2.7011265686828265,-0.20800283651584922,0.42054397523404485,-49.83592013686231,-32.32199792161026,91.68226589929347,11.208239942789078,-4.858453571796417,-3.9616622030735016,-3.7897825241088867,22.359226644039154,-15.953871607780457,-0.4971697386237718,-0.7511210256681797,False,0
GUIDED_NOGPS,3.0368268489837646,30.4027602603691,-50.803351604313335,-32.48174967710294,93.4355234050224,-0.7875681352129039,-24.99519406156921,19.453888403651387,54.71609095784102,2.4304412807658204,-2.14524288999053,102.71923541838927,3.1128926993188837,-2.455493727564126,-0.4906599382934104,0.4189677691958644,-47.35308778654962,-33.8323429474367,92.7344391576254,15.821550786495209,-3.826485201716423,-1.2639906257390976,50.09766221046448,31.67775273323059,17.36323833465576,-1.0823369107467096,-0.7533424913348735,False,0
GUIDED_NOGPS,3.069049119949341,31.03879938726125,-50.49129111279077,-32.76680316930107,93.33171494369273,-0.8270761648812777,-24.51773600970995,20.159653898422032,53.92188330041077,2.4529168720033936,-2.0759365335955873,102.80399806598913,3.081285222919728,-2.4485613099941044,-0.9869690466597821,0.417485438741332,-48.38898121327918,-33.188565349151546,91.00863942094387,18.7173068523407,-3.3976025879383087,-0.05458605010062456,74.35078620910645,41.95103645324707,197.89531230926514,-0.6946736734914511,-4.127023558330199,False,0
GUIDED_NOGPS,3.102647066116333,29.767526365842926,-50.12575687155211,-33.04883336077606,93.22822477761592,-0.8751969397306635,-24.038214770864812,20.863561277086408,53.12363468134642,2.4517587280522535,-2.0897587020415775,102.88443720384437,3.0812681123267773,-2.357491644484934,-1.098153741099262,0.4159881525294622,-47.18510349743051,-33.5942856782847,90.94153849276256,18.7173068523407,-3.3976025879383087,-0.05458605010062456,74.35078620910645,41.95103645324707,197.89531230926514,-0.8565518869397278,-4.127023558330199,False,0
GUIDED_NOGPS,3.136159658432007,29.8422898775516,-49.72630328397083,-33.336761635996965,93.17101321016933,-0.9176224329264432,-23.557425169473554,21.564685586971795,52.321701361811094,2.541121721501527,-2.095572900572551,103.0287659311959,3.1283907143264753,-2.3108251954842127,-1.0569633738510043,0.4143891932768143,-46.84730632271561,-34.14650353562456,90.41098539458432,20.033074915409088,-2.2705717012286186,4.471907019615173,51.98509693145752,24.18922483921051,98.29207062721252,-0.985693791972349,-3.309766664702432,False,0
GUIDED_NOGPS,3.170177459716797,29.40008271240616,-49.319925240242405,-33.57577485315733,93.04017541176378,-0.9594097306578085,-23.076155097299157,22.262114093629176,51.51643893353656,2.5765392405558045,-2.1861249872676414,103.15312318541433,3.1065582647529792,-2.306705450543047,-1.065839182049717,0.4129270718309665,-46.643442795971644,-34.00906709289998,90.94452846652146,19.697341322898865,-0.8029328659176826,-2.3704996332526207,48.84922802448273,37.69055902957916,60.37435531616211,-0.7723439019367966,-3.756716314741495,False,0
GUIDED_NOGPS,3.204094409942627,29.488965289349167,-48.8180904415691,-33.763919371857774,92.8719329756102,-1.0468934100783278,-22.595184317960495,22.954947599430273,50.70820218702245,2.727704987266527,-2.1534574731279394,103.30281361126433,3.1034621936861506,-2.1427013776456247,-1.6637415313199557,0.4115331050327271,-45.67033435874258,-33.985622221039506,90.95667141321692,23.35774451494217,1.3488969765603542,-5.098455771803856,85.01453399658203,14.134128391742706,-54.778993129730225,-0.9363794121556308,-6.306790920141028,False,0
GUIDED_NOGPS,3.2378997802734375,29.58464587756484,-48.30741405074116,-33.90794868209359,92.67217443812527,-1.1401106748736667,-22.115283271464893,23.642301762164738,49.897344979735664,2.7726843442719997,-2.0976006129823985,103.48718773771965,3.0914639515724414,-2.1294362173298516,-1.784562627173425,0.410194964284364,-45.487746301793365,-34.03563813447728,90.12482793453668,23.568880558013916,2.6868777349591255,-5.080655589699745,40.26328921318054,37.977367639541626,-14.673218131065369,-1.1435273083579085,-6.016649179953941,False,0
GUIDED_NOGPS,3.2715554237365723,29.71711975967295,-47.75907382073811,-33.991273802433646,92.4577615942571,-1.183894030499749,-21.63721187874033,24.32330841363797,49.08422010430952,2.96890799516365,-2.127335414647226,103.68094654409458,3.070781758158391,-2.0568033714180642,-1.2304913641599242,0.4088807110828888,-44.02942010836653,-33.487722582211845,90.22067593627092,22.24237620830536,4.0921371430158615,-6.572404503822327,77.57455706596375,33.28717350959778,-25.105294585227966,-1.0505331043615664,-2.8840697885960984,False,0
GUIDED_NOGPS,3.3052561283111572,29.676749237616125,-47.19478747742453,-34.027577249258854,92.2721728100261,-1.2588066689857356,-21.161718346168314,24.99711687826886,48.26917915674311,2.9872338195936172,-2.1648387027192966,103.837282744007,3.0518656052275626,-2.022378583476919,-1.6436568708095791,0.4075030681330357,-44.19326145738943,-33.240135951838994,90.0122779749754,24.271033704280853,5.370500311255455,-4.297000914812088,82.28873014450073,30.33537268638611,79.00446653366089,-1.2721858525954355,-4.380398390215108,False,0
GUIDED_NOGPS,3.3427200317382812,26.695078252789287,-46.55361271282246,-34.049661714900566,92.09837876225333,-1.3083065850037605,-20.689537970116458,25.662895291685768,47.4525724046005,3.0582720558299807,-2.0657194243708945,104.04486585326202,3.0045523575871598,-1.8994791192794749,-1.313831705639,0.4060837202367402,-42.47255793655185,-33.62100751239754,90.45105782864997,24.656015634536743,7.1273863315582275,-4.870608448982239,46.23900055885315,45.34917175769806,38.05080950260162,-1.371868495341907,-2.3497500662415245,False,0
GUIDED_NOGPS,3.382401466369629,25.207517233504216,-45.77407799726202,-34.05877046469006,91.96478489269627,-1.4278689988530344,-20.22139194147014,26.319831919325896,46.634748655210046,3.0608871645084497,-1.9757103377148202,104.27194915259744,3.0128499594393885,-1.661875006930545,-2.1160122792356453,0.4045775380521415,-42.09106907004684,-33.03350383732725,90.08136139803548,31.544730067253113,7.247836142778397,-0.8832551538944244,79.4428825378418,47.59838581085205,119.66499090194702,-1.4728154345567566,-6.571593939167837,False,0
GUIDED_NOGPS,3.4161276817321777,29.651573314104333,-44.99797584649429,-33.99617038986924,91.70417695143479,-1.56737694421722,-19.757986150166378,26.967136475031015,45.81605512386385,3.0014034739136317,-1.955766185338383,104.43409101330437,3.0073748547771277,-1.6080652908388404,-2.516228479240232,0.40333136563938293,-40.47103673662279,-32.55587553175448,89.42592434504473,26.770836114883423,9.36112329363823,-7.673533260822296,37.64607012271881,28.082174062728882,-15.819993615150452,-1.9597077740190743,-6.413334614117233,False,0
GUIDED_NOGPS,3.4558215141296387,25.19525205439954,-44.24958237520171,-33.86162336520973,91.47849754347799,-1.6767852339872165,-19.300009989724803,27.604041439646313,44.9968373020166,2.994107978106412,-1.9000032402939295,104.54636566288104,2.9123483883244665,-1.679874114337177,-2.1106829062398624,0.4019969652618106,-40.47103673662279,-32.55587553175448,89.42592434504473,28.23982536792755,11.105036735534668,-6.301742792129517,64.4892156124115,43.88384819030762,76.28913521766663,-1.9597077740190743,-4.8538914360293095,False,0
GUIDED_NOGPS,3.4839284420013428,35.5983466725512,-43.369143528373804,-33.71843157216626,91.20293665427795,-1.816907578261945,-18.848135161781926,28.22980337961634,44.17743882548537,2.9785372812328985,-1.8749765734013566,104.62881287635227,3.083980490316616,-1.1805308709689006,-3.092617192422579,0.4008039911027331,-39.81962508710724,-32.34482165234334,89.24095839173178,31.892627477645874,12.366101890802383,-8.280257880687714,38.492366671562195,28.025522828102112,-43.180060386657715,-2.2511222659503063,-5.538413421534811,False,0
GUIDED_NOGPS,3.515610456466675,31.591702694967086,-42.6272203239173,-33.474128486913095,90.98073588917575,-1.9290050889330816,-18.40301448062155,28.843704265583856,43.35820134264847,2.79453540008734,-1.6766092036056746,104.991939883576,2.9206374659964562,-1.517780674330711,-2.5674966627050417,0.39948877126871796,-39.01228442456928,-31.639103861806518,89.3819459291621,31.892627477645874,12.366101890802383,-8.280257880687714,38.492366671562195,28.025522828102112,-43.180060386657715,-2.211913271213627,-5.538413421534811,False,0
GUIDED_NOGPS,3.5486292839050293,30.286626181518844,-41.83467267096857,-33.24161792485626,90.72845726329695,-2.0709795428955267,-17.965280677709156,29.445052790985866,42.539464382644965,2.724172925691984,-1.6002523844399863,105.1180798171678,2.926502898380634,-1.4132281588717939,-2.9639258676322813,0.39822866785829925,-38.280109871238665,-31.650666956500473,88.21204902694507,30.240893363952637,13.42763900756836,-6.281014531850815,97.35337495803833,31.584173440933228,-61.304229497909546,-2.443320376511411,-6.392785563112427,False,0
GUIDED_NOGPS,3.5819151401519775,30.046448987778845,-41.03126317736789,-33.01140309046576,90.41810067544223,-2.1755319347248547,-17.53554520622344,30.03318569065274,41.72156522357386,2.801760886455567,-1.3447905028768157,105.39884157319034,2.9310396160159473,-1.3636117661524672,-2.5590612796673486,0.3970836334593789,-37.93100955341315,-32.001993819269174,87.65935785284641,29.984721541404724,14.44881558418274,-8.717244118452072,31.70100450515747,19.12614554166794,-20.222564041614532,-2.555719985756912,-3.582471785712123,False,0
GUIDED_NOGPS,3.631425619125366,20.19998169900645,-40.155198602910055,-32.79178827523741,90.11475210527625,-2.3419479481876975,-17.11439704558906,30.60746905940356,40.90483876069348,2.55544825672904,-1.2109294673151438,105.60618562582441,2.837012589589962,-1.4553658000553766,-2.7493493108822014,0.39586192011053456,-36.2088750609787,-32.562085498311454,87.42106952679433,30.792957544326782,15.168426930904388,-7.9542189836502075,119.90834474563599,11.21891736984253,-88.64302635192871,-3.0210627067360605,-6.50185002377919,False,0
