Mode,Time,Freq,time2delay,actualDelay,North-Desired,East-Desired,Down-Desired,Roll-UAV,Pitch-UAV,Yaw-UAV,Roll-Control,Pitch-Control,Yaw-Control,Thrust-Control,North-Pos,East-Pos,Down-Pos,Yaw-Ang,North-Vel,East-Vel,Down-Vel,Yaw-Vel,North-Acc,East-Acc,Down-Acc,North-Avg,East-Avg,Down-Avg,Yaw-Avg,North-Dif,East-Dif,Down-Dif,Yaw-Dif,North-One,East-One,Down-One,Yaw-One,North-Two,East-Two,Down-Two,Yaw-Two,Landing-State,Q-Size,Kalman-Time,Kalman-Dt
STABILIZE,0.04257798194885254,23.492237033717934,0.0333128293355306,0.041556358337402344,0.0,0.0,0.0,-0.719650395458817,-1.170254730312366,-8.728516452639088,-0.01561042330216219,0.014955249846301186,0.022989207410178472,0.4,0.08866335297223513,0.09225075486660281,0.12330259325894509,0.09195682964071389,-0.11697618756443262,0.060525297885760665,1.4917682856321335,-0.0005738959728397433,-2.3659598082304,-0.012292145402170718,19.739624857902527,0.0,0.0,0.0,0.0,0.0,0.0,0.0,0.0,0.0,0.0,0.0,0.0,0.0,0.0,0.0,0.0,False,0,0.1452796459197998,0.02993701171875
STABILIZE,0.07880496978759766,27.602458638798584,0.03221705754597982,0.035399675369262695,0.0,0.0,0.0,-0.7204094535911877,-1.1687651087430684,-8.728451565841974,-0.007311251357907717,0.0066122171882764666,0.02934432706411149,0.4,0.11194002579047946,0.11859269152789483,0.17976940854329387,0.11737730825644596,-0.3322814591228962,0.045038750977255404,1.7762990668416023,0.026386348114974915,-4.244089499115944,0.1332929590716958,24.4320347905159,0.0,0.0,0.0,0.0,0.0,0.0,0.0,0.0,0.0,0.0,0.0,0.0,0.0,0.0,0.0,0.0,False,0,0.20298290252685547,0.034925048828125
STABILIZE,0.11223030090332031,29.917856684308887,0.03250292142232259,0.03265500068664551,0.0,0.0,0.0,-0.7205929082034259,-1.1685599896245564,-8.72851816018638,-0.005384542582695926,0.004800510494800021,0.03226087442441334,0.4,0.1217932045901235,0.13037712457144515,0.2142364013487227,0.12904349769765336,-0.13616153737530112,0.025410164380446076,2.225438505411148,0.030821121907976756,-6.480391323566437,0.3237709170207381,32.915905117988586,0.0,0.0,0.0,0.0,0.0,0.0,0.0,0.0,0.0,0.0,0.0,0.0,0.0,0.0,0.0,0.0,False,0,0.23189949989318848,0.03492578125
STABILIZE,0.14577150344848633,29.813441376123965,0.032544883092244466,0.03266286849975586,0.0,0.0,0.0,-0.7190537677626458,-1.168890400025656,-8.729170443252118,-0.005391901314924603,0.004691198739312883,0.034187925789601774,0.4,0.1299132436365025,0.14075831345806433,0.24270738874210646,0.1367517031584071,-0.08494533249177039,0.09938139701262116,1.362935546785593,-0.2283397072971525,-0.3690923098474741,2.0180104300379753,18.041452765464783,0.0,0.0,0.0,0.0,0.0,0.0,0.0,0.0,0.0,0.0,0.0,0.0,0.0,0.0,0.0,0.0,False,0,0.26057982444763184,0.029937255859375
STABILIZE,0.1791534423828125,29.95738845359941,0.03244784673055013,0.03256511688232422,0.0,0.0,0.0,-0.7191730826297096,-1.168531388207407,-8.7289467545568,-0.004717219327676143,0.003991301174620351,0.03488528812414567,0.4,0.13360568750275523,0.14657139699726235,0.26451594859622163,0.1395411524965827,-0.08494533249177039,0.09938139701262116,1.362935546785593,-0.2283397072971525,-0.3690923098474741,2.0180104300379753,18.041452765464783,0.0,0.0,0.0,0.0,0.0,0.0,0.0,0.0,0.0,0.0,0.0,0.0,0.0,0.0,0.0,0.0,False,0,0.28919506072998047,0.029937255859375
STABILIZE,0.21261382102966309,29.885028643087182,0.0325045903523763,0.032640695571899414,0.0,0.0,0.0,-0.7189711118015182,-1.1684246665016256,-8.72902871682684,-0.004577642234011456,0.003814484186052182,0.03542302965784992,0.4,0.1359826550930551,0.1509954915321561,0.2885038965997284,0.1416921186313997,-0.11084319557994604,0.05377907073125243,1.6688959673047066,-0.1532006761759232,2.71364226937294,0.187021866440773,25.253698229789734,0.0,0.0,0.0,0.0,0.0,0.0,0.0,0.0,0.0,0.0,0.0,0.0,0.0,0.0,0.0,0.0,False,0,0.3178071975708008,0.034925048828125
STABILIZE,0.24603724479675293,29.919564007818185,0.03246501286824544,0.032576799392700195,0.0,0.0,0.0,-0.7194383394294294,-1.1687214595654039,-8.728214216768315,-0.005043010650009682,0.004747851715392486,0.03672657440379132,0.4,0.14263828230535724,0.15713641424791247,0.3176874523903956,0.14690629761516527,0.19924077205359936,0.05661926115863025,1.6217738389968872,0.03162840491114731,2.2700436413288116,0.07534202886745334,21.159841120243073,0.0,0.0,0.0,0.0,0.0,0.0,0.0,0.0,0.0,0.0,0.0,0.0,0.0,0.0,0.0,0.0,False,0,0.3466935157775879,0.03492578125
STABILIZE,0.27966904640197754,29.73692457124221,0.032480748494466145,0.032791852951049805,0.0,0.0,0.0,-0.7205678819634201,-1.1694678711756392,-8.728743556428991,-0.005263783626746498,0.003756196123196411,0.037960454974353866,0.4,0.14364208911865906,0.16365259820460676,0.37108873489358524,0.15184181989741546,-0.1342671108432114,0.1489127054810524,1.8970878794789314,-0.08776869122681755,-3.11320498585701,0.10610446333885193,23.48114401102066,0.0,0.0,0.0,0.0,0.0,0.0,0.0,0.0,0.0,0.0,0.0,0.0,0.0,0.0,0.0,0.0,False,0,0.4040234088897705,0.034925048828125
STABILIZE,0.3131873607635498,29.8321016806902,0.03250006039937337,0.03264570236206055,0.0,0.0,0.0,-0.7206248179934546,-1.1697941194302133,-8.728173235633296,-0.004515967233628313,0.0037761696499300753,0.038327810099414654,0.4,0.14460762007626576,0.16568235708135157,0.4002588435569148,0.15331124039765862,-0.06513805128633976,-0.02805931435432285,1.7421096563339233,-0.03916523184567209,0.9392238222062588,-0.1723745372146368,23.206304013729095,0.0,0.0,0.0,0.0,0.0,0.0,0.0,0.0,0.0,0.0,0.0,0.0,0.0,0.0,0.0,0.0,False,0,0.4325230121612549,0.034926025390625
STABILIZE,0.34671616554260254,29.823828891606702,0.032449992497762044,0.032607316970825195,0.0,0.0,0.0,-0.7203069473927846,-1.169735102326916,-8.727890636556387,-0.004627326362762784,0.003867795129536194,0.03866435346275701,0.4,0.1459059563051968,0.1680079236107011,0.4264109561257516,0.15465741385102805,0.038412658614106476,0.08268646779470146,1.544319000095129,0.029037642121810068,-2.723584696650505,1.8309436738491058,20.835375785827637,0.0,0.0,0.0,0.0,0.0,0.0,0.0,0.0,0.0,0.0,0.0,0.0,0.0,0.0,0.0,0.0,False,0,0.46147584915161133,0.02993701171875
STABILIZE,0.38008904457092285,29.96530734718372,0.03240016301472982,0.032515525817871094,0.0,0.0,0.0,-0.7194558951500304,-1.1698453458489884,-8.728014433735092,-0.0038687258382679858,0.002885380474426068,0.03816524405365533,0.4,0.1422294727750251,0.1663496579415955,0.448240407448182,0.15266097621462132,-0.18225302919745445,-0.023421818332280964,1.7611682415008545,-0.04508038244020809,-3.549424931406975,-2.116924524307251,21.270856261253357,0.0,0.0,0.0,0.0,0.0,0.0,0.0,0.0,0.0,0.0,0.0,0.0,0.0,0.0,0.0,0.0,False,0,0.48992443084716797,0.0349248046875
STABILIZE,0.41370344161987305,29.75021279010384,0.032464059193929036,0.032582998275756836,0.0,0.0,0.0,-0.7186068706196861,-1.1699327509260233,-8.727999919583107,-0.004386793238941251,0.0030373628739706077,0.03877623348711612,0.4,0.13975199521052312,0.167424825114724,0.4740412140127143,0.15510493394846447,-0.15970744425430894,0.08872584439814091,1.6219396144151688,0.21148406774581718,-5.069724470376968,-0.1230648485943675,18.936417996883392,0.0,0.0,0.0,0.0,0.0,0.0,0.0,0.0,0.0,0.0,0.0,0.0,0.0,0.0,0.0,0.0,False,0,0.5189669132232666,0.034926025390625
STABILIZE,0.4470973014831543,29.945624857208134,0.03228453000386556,0.03239011764526367,0.0,0.0,0.0,-0.7199257374597332,-1.1699916613076147,-8.727427891240119,-0.004285773014951538,0.0028263479602937624,0.03928461038259062,0.4,0.13654665228910093,0.1678764357390307,0.4989200894511531,0.1571384415303625,-0.15970744425430894,0.08872584439814091,1.6219396144151688,0.21148406774581718,-5.069724470376968,-0.1230648485943675,18.936417996883392,0.0,0.0,0.0,0.0,0.0,0.0,0.0,0.0,0.0,0.0,0.0,0.0,0.0,0.0,0.0,0.0,False,1,0.5474460124969482,0.034926025390625
STABILIZE,0.4816398620605469,28.94859477665507,0.03231504758199056,0.033667564392089844,0.0,0.0,0.0,-0.7192809249134017,-1.170332850600998,-8.726796952515539,-0.0033058340460064358,0.0016420862166112824,0.03834842574184918,0.4,0.12764021491084937,0.1633518883572001,0.541775231548942,0.1533937029673967,-0.05989362834952772,-0.02376550401095301,1.818988099694252,0.022063405329418806,-3.906233236193657,-0.11750885751098394,27.79761254787445,0.0,0.0,0.0,0.0,0.0,0.0,0.0,0.0,0.0,0.0,0.0,0.0,0.0,0.0,0.0,0.0,False,0,0.6046240329742432,0.03492578125
STABILIZE,0.5150494575500488,29.930879949762012,0.03244927724202474,0.03257441520690918,0.0,0.0,0.0,-0.7196541840793723,-1.1700540935054968,-8.726808905346585,-0.0038681398589083746,0.0031695602671504897,0.03812808484287018,0.4,0.1275856400641364,0.16225594834522242,0.5681515065753524,0.15251233937148073,0.15843515284359455,0.07608450832776725,1.892511360347271,0.08110135937982728,3.9190195500850677,1.8215499818325043,25.963199138641357,0.0,0.0,0.0,0.0,0.0,0.0,0.0,0.0,0.0,0.0,0.0,0.0,0.0,0.0,0.0,0.0,False,0,0.633347749710083,0.034926025390625
STABILIZE,0.5485682487487793,29.834223647990214,0.03248623212178548,0.032630205154418945,0.0,0.0,0.0,-0.7193324714972942,-1.1719926932910167,-8.724869131622302,-0.0037627574773029656,0.0031391561272819343,0.03781960947995701,0.4,0.12738707751354686,0.16077781622698628,0.5937237129918825,0.15127843791982803,0.15843515284359455,0.07608450832776725,1.892511360347271,0.08110135937982728,3.9190195500850677,1.8215499818325043,25.963199138641357,0.0,0.0,0.0,0.0,0.0,0.0,0.0,0.0,0.0,0.0,0.0,0.0,0.0,0.0,0.0,0.0,False,0,0.6620593070983887,0.034926025390625
STABILIZE,0.5820310115814209,29.885454519544552,0.03242925008138021,0.03258633613586426,0.0,0.0,0.0,-0.7194812415551535,-1.172192796489357,-8.72501512691581,-0.0038033925351179834,0.0019535603716013023,0.03722690459649763,0.4,0.12140447059963742,0.15969448078078408,0.6114567797851288,0.1489076183859905,-0.21772461477667093,0.12454190291464329,1.4276158064603806,0.02597172761790737,-3.603252023458481,-0.058370595797896385,23.652373254299164,0.0,0.0,0.0,0.0,0.0,0.0,0.0,0.0,0.0,0.0,0.0,0.0,0.0,0.0,0.0,0.0,False,0,0.6908292770385742,0.02989990234375
STABILIZE,0.6155192852020264,29.860348559061396,0.032399686177571614,0.032639503479003906,0.0,0.0,0.0,-0.7188431524762862,-1.1719018731193969,-8.725265282594162,-0.0030561369686203685,0.002179872803365578,0.035425946788288545,0.4,0.11724878316010681,0.1550782711045164,0.6302005328465626,0.14170378715315418,-0.033429625909775496,-0.02306766400579363,1.9752591848373413,-0.21162838217246013,3.6688804626464844,-0.0861459004227072,30.619749426841736,0.0,0.0,0.0,0.0,0.0,0.0,0.0,0.0,0.0,0.0,0.0,0.0,0.0,0.0,0.0,0.0,False,0,0.7196416854858398,0.034925048828125
STABILIZE,0.6493701934814453,29.540264533122983,0.032514365514119466,0.03307914733886719,0.0,0.0,0.0,-0.7190581967134358,-1.172126415588361,-8.724469565555856,-0.0029289330721440315,0.001686295858783959,0.03368036594671679,0.4,0.11112507034106021,0.1503694182048812,0.6754616122469191,0.13472146378686717,-0.1785977161489427,0.06331308395601809,1.841156929731369,-0.09153987612337694,-3.3332891762256622,-0.1766649540513754,21.09367996454239,0.0,0.0,0.0,0.0,0.0,0.0,0.0,0.0,0.0,0.0,0.0,0.0,0.0,0.0,0.0,0.0,False,0,0.7769196033477783,0.034926025390625
STABILIZE,0.6828529834747314,29.865664096155626,0.032567532857259114,0.0326695442199707,0.0,0.0,0.0,-0.7194481578263612,-1.1715265328801634,-8.724139155154758,-0.003044226351054251,0.0027131358129979075,0.03313135036343556,0.4,0.11084151628124617,0.14684049439404698,0.6963206868113696,0.13252540145374225,0.19180208910256624,0.01828708773246035,1.8584920093417168,0.09282852738047473,3.335827961564064,-0.054252741392701864,27.787896990776062,0.0,0.0,0.0,0.0,0.0,0.0,0.0,0.0,0.0,0.0,0.0,0.0,0.0,0.0,0.0,0.0,False,0,0.8054909706115723,0.029935791015625
STABILIZE,0.716332197189331,29.870556061987237,0.032500537236531575,0.03263258934020996,0.0,0.0,0.0,-0.7188042524145288,-1.1725528755246637,-8.725989282646184,-0.002775003991934303,0.0026097188182463444,0.032406020940688285,0.4,0.11008266562371459,0.14242622505937902,0.7100820070165806,0.12962408376275314,0.19180208910256624,0.01828708773246035,1.8584920093417168,0.09282852738047473,3.335827961564064,-0.054252741392701864,27.787896990776062,0.0,0.0,0.0,0.0,0.0,0.0,0.0,0.0,0.0,0.0,0.0,0.0,0.0,0.0,0.0,0.0,False,0,0.834282636642456,0.029935791015625
STABILIZE,0.7497942447662354,29.885028643087182,0.032463820775349934,0.03259730339050293,0.0,0.0,0.0,-0.7183453490796686,-1.1708516248128016,-8.725424938266011,-0.0027355451430019174,0.0015989473713489402,0.03233258500421937,0.4,0.10447030840878022,0.13837102138442278,0.7197080869103959,0.1293303400168775,-0.1200137659907341,0.0375234114471823,1.6252890229225159,0.2542547523490767,-1.3434413820505142,-0.1510248752310872,22.7328360080719,0.0,0.0,0.0,0.0,0.0,0.0,0.0,0.0,0.0,0.0,0.0,0.0,0.0,0.0,0.0,0.0,False,0,0.8652915954589844,0.03492626953125
STABILIZE,0.7833788394927979,29.7772476855796,0.03245499928792318,0.032791852951049805,0.0,0.0,0.0,-0.7183909726088902,-1.1719619574397517,-8.725793768481193,-0.0029080095847199136,0.0012572899556429254,0.03199780119260234,0.4,0.09784272769226716,0.13564677013053758,0.7355028847302439,0.12799120477040937,-0.2087656408548355,0.08026740979403257,1.6639355570077896,0.14640263691977712,-6.990785896778107,0.0418051378801465,25.616750121116638,0.0,0.0,0.0,0.0,0.0,0.0,0.0,0.0,0.0,0.0,0.0,0.0,0.0,0.0,0.0,0.0,False,0,0.8918612003326416,0.029936767578125
STABILIZE,0.8168818950653076,29.84632462819327,0.03252557118733724,0.03265380859375,0.0,0.0,0.0,-0.7186937420881921,-1.1728013236557229,-8.72664412703286,-0.00242053480402774,0.0011023062961811074,0.03153820641352208,0.4,0.09129152704603842,0.13088392465791715,0.7441833083128822,0.1261528256540883,-0.1812109723687172,-0.008371550939045846,1.6548532992601395,0.15371463457075343,-3.6607760936021805,-0.10473817819729447,23.191623389720917,0.0,0.0,0.0,0.0,0.0,0.0,0.0,0.0,0.0,0.0,0.0,0.0,0.0,0.0,0.0,0.0,False,0,0.920621395111084,0.034925048828125
STABILIZE,0.8505008220672607,29.74536015942471,0.03248575528462728,0.032596588134765625,0.0,0.0,0.0,-0.7196709927480329,-1.1723497841185615,-8.726807197799292,-0.0018694272279580141,0.00021385555794758475,0.02914763319220715,0.4,0.08119652635976793,0.12402342051783091,0.7767410924037779,0.1165905327688286,-0.2264202106744051,0.11732716811820865,1.735871098935604,-0.0440781055403616,-2.674074098467827,-0.02780396316666156,22.485946118831635,0.0,0.0,0.0,0.0,0.0,0.0,0.0,0.0,0.0,0.0,0.0,0.0,0.0,0.0,0.0,0.0,False,0,0.977731466293335,0.034926025390625
STABILIZE,0.8839712142944336,29.87587523416743,0.03229215939839681,0.03254270553588867,0.0,0.0,0.0,-0.7196950051318337,-1.1733723915033594,-8.72712224027476,-0.002644996591539116,0.0005800850185904953,0.027995042750754057,0.4,0.07408364069040305,0.12177468907605406,0.7903648370728542,0.11198017100301623,-0.2264202106744051,0.11732716811820865,1.735871098935604,-0.0440781055403616,-2.674074098467827,-0.02780396316666156,22.485946118831635,0.0,0.0,0.0,0.0,0.0,0.0,0.0,0.0,0.0,0.0,0.0,0.0,0.0,0.0,0.0,0.0,False,0,1.0065085887908936,0.034926025390625
STABILIZE,0.9176809787750244,29.66688357617768,0.032404216130574544,0.032848358154296875,0.0,0.0,0.0,-0.7198515658742151,-1.1730095377037024,-8.72710857989642,-0.0024885171275323874,0.0015743554883098066,0.027067680327011998,0.4,0.07274082286643117,0.1190263088408407,0.7997190907295266,0.10827072130804799,0.12399498373270035,0.08654908160679042,1.531762070953846,0.01340731449519124,4.773538559675217,-0.10898987529799342,20.742523670196533,0.0,0.0,0.0,0.0,0.0,0.0,0.0,0.0,0.0,0.0,0.0,0.0,0.0,0.0,0.0,0.0,False,0,1.0350732803344727,0.02993603515625
STABILIZE,0.9510931968688965,29.92789000121301,0.03245356877644857,0.032562971115112305,0.0,0.0,0.0,-0.7201827766881078,-1.1719624910482807,-8.726865254407238,-0.0021671889241555034,0.0010150191240251352,0.02615944984771389,0.4,0.06882919552686492,0.11506193817837645,0.8021606980388785,0.10463779939085556,-0.03775054938159883,0.0338549172738567,1.5091309323906898,0.03506461705368519,-1.1626088991761208,1.8493227660655975,25.173571705818176,0.0,0.0,0.0,0.0,0.0,0.0,0.0,0.0,0.0,0.0,0.0,0.0,0.0,0.0,0.0,0.0,False,0,1.0638232231140137,0.03492578125
STABILIZE,0.9845662117004395,29.874811248183708,0.03247502644856771,0.032625675201416016,0.0,0.0,0.0,-0.7200387023853029,-1.1720273778453958,-8.72701722611627,-0.0021615633591353873,0.00025096193105950045,0.02553333472221841,0.4,0.061649804231462685,0.1115580560703584,0.8110546663325029,0.10213333888887365,-0.2417512470856309,0.03603366785682738,1.5787307173013687,0.08133853503071334,-3.8228046149015427,-0.16470156842842698,24.262821674346924,0.0,0.0,0.0,0.0,0.0,0.0,0.0,0.0,0.0,0.0,0.0,0.0,0.0,0.0,0.0,0.0,False,0,1.0926165580749512,0.0648623046875
STABILIZE,1.0179872512817383,29.91999086914341,0.032480748494466145,0.03261995315551758,0.0,0.0,0.0,-0.7204764214615655,-1.1716699668527337,-8.726732065718423,-0.002406416063864279,-0.0001094436256440631,0.02527451114542402,0.4,0.053596098565893646,0.10968778000720739,0.8514415552952492,0.10109804458169608,-0.2417512470856309,0.03603366785682738,1.5787307173013687,0.08133853503071334,-3.8228046149015427,-0.16470156842842698,24.262821674346924,0.0,0.0,0.0,0.0,0.0,0.0,0.0,0.0,0.0,0.0,0.0,0.0,0.0,0.0,0.0,0.0,False,0,1.1212513446807861,0.0648623046875
STABILIZE,1.051511287689209,29.831889500561886,0.032482417424519856,0.03259634971618652,0.0,0.0,0.0,-0.7204323987579306,-1.1725372941556196,-8.726687669488818,-0.0023676826722208496,-0.00010238895739756286,0.025518964506271367,0.4,0.046561956557361235,0.10785677940406341,0.8865695252865616,0.10207585802508547,-0.1431673765182495,0.07139439112506807,1.5675608068704605,0.2042956805105622,0.188334914855659,-0.15923324972391129,23.15160185098648,0.0,0.0,0.0,0.0,0.0,0.0,0.0,0.0,0.0,0.0,0.0,0.0,0.0,0.0,0.0,0.0,False,0,1.156362533569336,0.03492578125
STABILIZE,1.0858640670776367,29.111544521332345,0.03242519696553548,0.03348112106323242,0.0,0.0,0.0,-0.7210853755147545,-1.172409654995505,-8.726275296817677,-0.001680657837225736,0.0008964823249842727,0.025452203642631104,0.4,0.0452361812728415,0.10275896885279585,0.8891496929791577,0.10180881457052442,0.08922229171730578,-0.008219551091315225,1.7250286415219307,0.21996796310776637,4.5853640884160995,-0.2063059713691473,24.101270735263824,0.0,0.0,0.0,0.0,0.0,0.0,0.0,0.0,0.0,0.0,0.0,0.0,0.0,0.0,0.0,0.0,False,1,1.1850061416625977,0.034879150390625
STABILIZE,1.1192777156829834,29.923833169242183,0.032433541615804036,0.03266406059265137,0.0,0.0,0.0,-0.7186389404922734,-1.1721764680683724,-8.728326061115974,-0.0012652680175763435,3.43253034385377e-06,0.022963561806104215,0.4,0.03971648450932401,0.09636495463068956,0.8826338801919267,0.09185424722441686,0.059728306951001287,0.10302490554749966,1.5172455459833145,-0.09330200489828074,0.0031678471714258194,-0.19864423666149378,23.893439769744873,0.0,0.0,0.0,0.0,0.0,0.0,0.0,0.0,0.0,0.0,0.0,0.0,0.0,0.0,0.0,0.0,False,0,1.2426977157592773,0.03492578125
STABILIZE,1.1528334617614746,29.801367040400166,0.03259781201680501,0.03271937370300293,0.0,0.0,0.0,-0.7183939608166521,-1.1720176661701698,-8.729709174422903,-0.0015495329381729774,0.000329390241679867,0.022046545283283144,0.4,0.03648065682934829,0.0921553381368406,0.8828767798576546,0.08818618113313258,-0.03475047997198999,0.011990099301328883,1.5980148687958717,0.025102279221119128,-2.6704423129558563,-0.29596006497740746,20.300644636154175,0.0,0.0,0.0,0.0,0.0,0.0,0.0,0.0,0.0,0.0,0.0,0.0,0.0,0.0,0.0,0.0,False,0,1.2715089321136475,0.034926025390625
STABILIZE,1.1862990856170654,29.88162206833661,0.032486947377522786,0.03261828422546387,0.0,0.0,0.0,-0.7177810580603492,-1.172180630214898,-8.729364249869816,-0.001551822349812566,-4.8304680590302184e-05,0.01999226457157845,0.4,0.03179212146062381,0.08847560411309209,0.8827311235566875,0.0799690582863138,-0.11948267929255962,0.033218745375052094,1.5870161354541779,-0.2222345853962189,0.27818260714411736,-0.23180407006293535,22.15043306350708,0.0,0.0,0.0,0.0,0.0,0.0,0.0,0.0,0.0,0.0,0.0,0.0,0.0,0.0,0.0,0.0,False,0,1.3002514839172363,0.02993701171875
STABILIZE,1.2230119705200195,27.238216461236735,0.03247073491414388,0.03589367866516113,0.0,0.0,0.0,-0.7182371866308591,-1.171214265169047,-8.729114094191464,-0.0013714784598097517,0.00035935798682839665,0.01943112143794431,0.4,0.029489427411877826,0.08400972832439041,0.8782507493570897,0.07772448575177723,-0.011978877591900527,-0.011400062794564292,1.622539758682251,0.09183833004370139,4.763302952051163,-0.1388409174978733,23.996911942958832,0.0,0.0,0.0,0.0,0.0,0.0,0.0,0.0,0.0,0.0,0.0,0.0,0.0,0.0,0.0,0.0,False,0,1.3288044929504395,0.034925048828125
STABILIZE,1.2564868927001953,29.873960113960113,0.03250149091084798,0.03268098831176758,0.0,0.0,0.0,-0.717842689845438,-1.1708719019369,-8.728205679031854,-0.0014726258146388201,0.00015495613362404703,0.018334517256100025,0.4,0.02664705802045976,0.08093511795574472,0.8772274955765028,0.0733380690244001,-0.03648102283477783,0.04972158349119127,1.5266126953065395,-0.03548271267629724,-0.36404896527528763,1.7999360337853432,24.735352396965027,0.0,0.0,0.0,0.0,0.0,0.0,0.0,0.0,0.0,0.0,0.0,0.0,0.0,0.0,0.0,0.0,False,0,1.3581745624542236,0.034926025390625
STABILIZE,1.2900159358978271,29.825313413307356,0.03252724011739095,0.03267526626586914,0.0,0.0,0.0,-0.718633764489543,-1.1707091513355834,-8.727624259178755,-0.0005637078520581682,0.00019366257399844447,0.018180900100326438,0.4,0.024336343942720162,0.07378492773918208,0.8705059286857987,0.07272360040130575,0.22105718962848186,-0.006697949720546603,1.487793866544962,0.07909708572461199,4.83783446252346,-0.31713054049760103,18.527008593082428,0.0,0.0,0.0,0.0,0.0,0.0,0.0,0.0,0.0,0.0,0.0,0.0,0.0,0.0,0.0,0.0,False,0,1.415450096130371,0.0399150390625
STABILIZE,1.323484182357788,29.879493353470014,0.03242972691853841,0.03256058692932129,0.0,0.0,0.0,-0.7191394652923884,-1.1708071218614908,-8.727159806315195,-0.0010921302557987285,0.0010270596109992931,0.017724567038191752,0.4,0.02639132998539778,0.07009690433269027,0.8733901679469667,0.07089826815276701,0.22105718962848186,-0.006697949720546603,1.487793866544962,0.07909708572461199,4.83783446252346,-0.31713054049760103,18.527008593082428,0.0,0.0,0.0,0.0,0.0,0.0,0.0,0.0,0.0,0.0,0.0,0.0,0.0,0.0,0.0,0.0,False,0,1.4441425800323486,0.0399150390625
STABILIZE,1.3569138050079346,29.91209590574878,0.03243306477864583,0.03257632255554199,0.0,0.0,0.0,-0.7194911666737912,-1.169888034531301,-8.727372395953111,-0.0012189155227038447,-0.000520582921420308,0.01647322691485326,0.4,0.020620471390975885,0.06748839077715617,0.8783800336137383,0.06589290765941304,-0.21685895044356585,0.04864220099989325,1.6444826498627663,-0.09765204832699872,-1.3692104257643223,-0.21845262963324785,22.14192897081375,0.0,0.0,0.0,0.0,0.0,0.0,0.0,0.0,0.0,0.0,0.0,0.0,0.0,0.0,0.0,0.0,False,0,1.4735586643218994,0.029936279296875
STABILIZE,1.3904139995574951,29.852272565515083,0.03249076207478841,0.03262066841125488,0.0,0.0,0.0,-0.719034664577311,-1.1705153447178842,-8.728345697909837,-0.001111320097230859,0.0003182091654092503,0.015298362187606142,0.4,0.01966086063102066,0.06466885030567991,0.8694368576005158,0.06119344875042457,0.025398971047252417,0.031386129558086395,1.402760948985815,-0.08101719597460538,4.416170716285706,-0.2509632147848606,20.01364231109619,0.0,0.0,0.0,0.0,0.0,0.0,0.0,0.0,0.0,0.0,0.0,0.0,0.0,0.0,0.0,0.0,False,0,1.5015811920166016,0.029936767578125
STABILIZE,1.42384672164917,29.91060273269247,0.032433541615804036,0.03257560729980469,0.0,0.0,0.0,-0.7185384620062801,-1.1700422473961551,-8.728626589439456,-0.0012337960962808703,-0.0003318185966344497,0.014370068580923398,0.4,0.015637518902473828,0.06279645292722161,0.8703428110486569,0.05748027432369359,-0.1511615002527833,0.07617761148139834,1.9237905740737915,-0.036907604195984954,-1.7618177458643913,-0.0812303158454597,27.42941975593567,0.0,0.0,0.0,0.0,0.0,0.0,0.0,0.0,0.0,0.0,0.0,0.0,0.0,0.0,0.0,0.0,False,0,1.5307073593139648,0.034925048828125
STABILIZE,1.4584050178527832,28.93521437687558,0.03246334393819173,0.03371477127075195,0.0,0.0,0.0,-0.7184451338745743,-1.171114587095847,-8.728831495114555,-0.0013323420677024546,-0.0007520533957657186,0.013745296516320681,0.4,0.0098898040872674,0.06160408980218702,0.8721205565762464,0.054981186065282725,-0.24428393226116896,0.10738455457612872,1.7009943723678589,0.02504845146076561,-1.2563737109303474,1.764683797955513,24.009449779987335,0.0,0.0,0.0,0.0,0.0,0.0,0.0,0.0,0.0,0.0,0.0,0.0,0.0,0.0,0.0,0.0,False,0,1.5597994327545166,0.034926025390625
STABILIZE,1.4918324947357178,29.915722803914296,0.03249052365620931,0.03261113166809082,0.0,0.0,0.0,-0.7180891102640874,-1.171994507560015,-8.727921372407652,0.00045781245696749606,8.559286408598532e-05,0.012066459797580845,0.4,0.009097251975376256,0.051831633768767996,0.8622533201375635,0.04826583919032338,0.15890926588326693,-0.23051584139466286,1.409728266298771,-0.09247809331932812,7.542852312326431,-0.4349208436906338,18.963830173015594,0.0,0.0,0.0,0.0,0.0,0.0,0.0,0.0,0.0,0.0,0.0,0.0,0.0,0.0,0.0,0.0,False,0,1.6174290180206299,0.034926025390625
STABILIZE,1.525759220123291,29.474873683248887,0.032500298817952473,0.0331873893737793,0.0,0.0,0.0,-0.7187487037666697,-1.1720481885780232,-8.727929056370467,5.8050876080795245e-05,-0.00028124180561061956,0.011566404394043092,0.4,0.00657265843047178,0.045114132127398246,0.8656129873759979,0.04626561757617237,-0.08008767617866397,-0.22628167644143105,1.78327988833189,0.035009908839258974,-0.3421511733904481,-0.37290574982762337,19.97978985309601,0.0,0.0,0.0,0.0,0.0,0.0,0.0,0.0,0.0,0.0,0.0,0.0,0.0,0.0,0.0,0.0,False,0,1.6461310386657715,0.034924560546875
STABILIZE,1.5592916011810303,29.822344517679515,0.03259018262227376,0.032711029052734375,0.0,0.0,0.0,-0.7222045660432845,-1.1752245467071964,-8.727350197838309,0.00022537418908325188,-0.00033391465912954634,0.011093513805191463,0.4,0.004133157198073311,0.03849187643720635,0.8688971210243891,0.04437405522076585,-0.08008767617866397,-0.22628167644143105,1.78327988833189,0.035009908839258974,-0.3421511733904481,-0.37290574982762337,19.97978985309601,0.0,0.0,0.0,0.0,0.0,0.0,0.0,0.0,0.0,0.0,0.0,0.0,0.0,0.0,0.0,0.0,True,0,1.67466139793396,0.034924560546875
STABILIZE,1.5927619934082031,29.877790599934464,0.032495768864949544,0.03262138366699219,0.0,0.0,0.0,-0.7244311543518558,-1.1847901199180935,-8.727678900692116,-0.0019922921140439255,-0.0010816454482436937,0.010840299266493882,0.4,-0.001654849003971521,0.04353329860556003,0.8673510606159796,0.04336119706597553,-0.27747710701078176,0.4379470366984606,1.5099730342626572,0.07952808133341038,-3.608393669128418,1.9187316298484802,20.772860944271088,0.0,0.0,0.0,0.0,0.0,0.0,0.0,0.0,0.0,0.0,0.0,0.0,0.0,0.0,0.0,0.0,True,0,1.7033424377441406,0.034926025390625
STABILIZE,1.6262428760528564,29.868854326895686,0.032469781239827473,0.032602548599243164,0.0,0.0,0.0,-0.7283087274488661,-1.1571402334974126,-8.7048259415029,-0.0007652424835093555,-0.0008654219837211734,0.010369357626309857,0.4,-0.005684611503969867,0.04195532956323478,0.8630023835659759,0.04147743050523943,-0.18036128021776676,0.047334967530332506,1.3544684275984764,0.023500386417339574,-16.51918590068817,5.400318652391434,9.413541853427887,0.0,0.0,0.0,0.0,0.0,0.0,0.0,0.0,0.0,0.0,0.0,0.0,0.0,0.0,0.0,0.0,True,0,1.732100009918213,0.029937255859375
STABILIZE,1.659602403640747,29.975158297957492,0.03243711789449056,0.03255009651184082,0.0,0.0,0.0,-0.7223515218321456,-1.1728560718907888,-8.720641244526064,-0.0014810715779260827,0.000506743196533456,0.020227065133928412,0.4,-0.0025022136905058267,0.04406473041475464,0.8351266839916136,0.08090826053571365,0.2145011443644762,0.25223903357982635,0.23065120913088322,2.4238147166104387,8.468536287546158,2.1558258682489395,-56.870222091674805,0.0,0.0,0.0,0.0,0.0,0.0,0.0,0.0,0.0,0.0,0.0,0.0,0.0,0.0,0.0,0.0,True,0,1.7607858180999756,0.0349248046875
STABILIZE,1.693049669265747,29.897170880526904,0.03252247174580892,0.032643795013427734,0.0,0.0,0.0,-0.7252748961577639,-1.1738838019174642,-8.712791649622426,-0.0035741252024002993,0.00881891469202439,0.0047472779252544055,0.4,0.040940117297076216,0.05614270650032822,0.8706977613539114,0.018989111701017622,1.2992857955396175,0.4741950426250696,2.625803090631962,-1.6862135167957704,-25.275418162345886,-1.095709390938282,-18.107950687408447,0.0,0.0,0.0,0.0,0.0,0.0,0.0,0.0,0.0,0.0,0.0,0.0,0.0,0.0,0.0,0.0,True,0,1.8181872367858887,0.034926025390625
STABILIZE,1.7265739440917969,29.830404324170548,0.032520564397176106,0.03264760971069336,0.0,0.0,0.0,-0.721582165055167,-1.1636950806665092,-8.725578617522338,0.0018680772242917,-0.009902937616938444,0.012549809299595847,0.4,-0.012532492948251178,0.040176543225795426,0.8813702762590855,0.05019923719838339,-3.086857683956623,-0.814113300293684,2.2034229710698128,1.9456760749435702,-95.60720324516296,-12.005294114351273,19.187436997890472,0.0,0.0,0.0,0.0,0.0,0.0,0.0,0.0,0.0,0.0,0.0,0.0,0.0,0.0,0.0,0.0,True,0,1.8468866348266602,0.02993701171875
STABILIZE,1.7599756717681885,29.938357435509428,0.032439263661702473,0.032561302185058594,0.0,0.0,0.0,-0.7161097427869588,-1.1696875044461374,-8.768493549851174,-0.009655381250713902,0.004105270095910056,0.01505851000753115,0.4,0.009143470923415815,0.08249665963520038,0.8675619859342675,0.0602340400301246,1.3004058040678501,2.610047347843647,1.038946770131588,0.7101859944250009,114.80342149734497,87.67079710960388,9.389244019985199,0.0,0.0,0.0,0.0,0.0,0.0,0.0,0.0,0.0,0.0,0.0,0.0,0.0,0.0,0.0,0.0,True,0,1.8755595684051514,0.034926025390625
STABILIZE,1.7934210300445557,29.899941544647056,0.0324738343556722,0.03260397911071777,0.0,0.0,0.0,-0.7206530458846337,-1.1695470586813292,-8.714017668578444,0.01018890496120051,0.008519715880137023,0.017218805137318074,0.4,0.04963341022776825,0.022528409037192623,0.8751512844551379,0.0688752205492723,2.412431314587593,-3.427140787243843,2.0165715366601944,0.6104565880846463,34.7772479057312,-154.87964153289795,30.15742003917694,0.0,0.0,0.0,0.0,0.0,0.0,0.0,0.0,0.0,0.0,0.0,0.0,0.0,0.0,0.0,0.0,True,0,1.9042141437530518,0.034925048828125
STABILIZE,1.826833963394165,29.927249375668925,0.03248575528462728,0.0326075553894043,0.0,0.0,0.0,-0.7253174247575178,-1.16693120295092,-8.738272524094805,0.01181319393004667,0.009612100646570365,0.01939243742905185,0.4,0.09050999097876972,-0.03808447191780155,0.8826740540883327,0.0775697497162074,2.412431314587593,-3.427140787243843,2.0165715366601944,0.6104565880846463,34.7772479057312,-154.87964153289795,30.15742003917694,0.0,0.0,0.0,0.0,0.0,0.0,0.0,0.0,0.0,0.0,0.0,0.0,0.0,0.0,0.0,0.0,True,0,1.932903528213501,0.034925048828125
STABILIZE,1.860339641571045,29.844838014188433,0.03252533276875814,0.03265261650085449,0.0,0.0,0.0,-0.7200017233142496,-1.1701757562500876,-8.79362181580765,0.0042591091022316716,-0.0008587669596672714,0.02071404803408596,0.4,0.07520133514131166,-0.054264734948462755,0.8863054345915717,0.08285619213634383,-0.8881756104528904,-0.805380754172802,1.7937874421477318,0.4100336515139078,-54.782938957214355,76.4383316040039,57.71344304084778,0.0,0.0,0.0,0.0,0.0,0.0,0.0,0.0,0.0,0.0,0.0,0.0,0.0,0.0,0.0,0.0,True,0,1.9615156650543213,0.029936767578125
STABILIZE,1.893707513809204,29.96937543318114,0.03246572812398275,0.03256940841674805,0.0,0.0,0.0,-0.7386884805531698,-1.1655597223099226,-8.677397609343421,0.0018672258152811602,-0.0015602792726043973,0.025465170584378045,0.4,0.05837362320358615,-0.056746310505591036,0.8676866463522533,0.10186068233751218,0.08833994506858289,-4.059337079524994,1.3826455920934677,4.5480206239573295,31.62761628627777,-151.2513279914856,17.713487148284912,0.0,0.0,0.0,0.0,0.0,0.0,0.0,0.0,0.0,0.0,0.0,0.0,0.0,0.0,0.0,0.0,True,0,2.0193700790405273,0.034926025390625
STABILIZE,1.9347739219665527,24.35108538518256,0.03252867062886556,0.04021096229553223,0.0,0.0,0.0,-0.7308675937883878,-1.1684412083660218,-8.743468590505893,0.0018958937243546631,0.0014260807236740256,0.019691483904344824,0.4,0.058164067575355506,-0.059545999196601654,0.8644538149380024,0.0787659356173793,0.04225815646350384,-0.0637891236692667,1.3940135017037392,-1.2734140655548305,-6.555949151515961,79.80406284332275,32.38813877105713,0.0,0.0,0.0,0.0,0.0,0.0,0.0,0.0,0.0,0.0,0.0,0.0,0.0,0.0,0.0,0.0,True,0,2.048086166381836,0.029935791015625
STABILIZE,1.9682340621948242,29.88651926379319,0.0324588139851888,0.032593727111816406,0.0,0.0,0.0,-0.7263721553757558,-1.1667546852495576,-8.763101969275095,-0.002810689674570131,-0.0008750538695910214,0.015247008173536919,0.4,0.0467916486143312,-0.03852233866206553,0.8548655894274907,0.060988032694147674,-0.5875902250409126,1.263339165598154,1.2680748477578163,-0.9174734845550138,-9.958764910697937,-72.98569679260254,29.480203986167908,0.0,0.0,0.0,0.0,0.0,0.0,0.0,0.0,0.0,0.0,0.0,0.0,0.0,0.0,0.0,0.0,True,0,2.0787241458892822,0.034926025390625
STABILIZE,2.001695156097412,29.886306308874037,0.03245094617207845,0.03258371353149414,0.0,0.0,0.0,-0.7284883934405492,-1.1665646138915609,-8.733172934105745,0.007472047511233375,0.003461043366073036,0.029414006633223175,0.4,0.05792760665773183,-0.07040544556100682,0.8560888177764695,0.1176560265328927,0.73057496920228,-1.8404489383101463,1.6453877091407776,3.4863281219643194,40.7065212726593,4.70627062022686,3.5460084676742554,0.0,0.0,0.0,0.0,0.0,0.0,0.0,0.0,0.0,0.0,0.0,0.0,0.0,0.0,0.0,0.0,True,0,2.1074278354644775,0.03492626953125
STABILIZE,2.0350711345672607,29.9608123263306,0.03243687947591146,0.03254961967468262,0.0,0.0,0.0,-0.7202333094157953,-1.1762524901772833,-8.734657646476576,0.008289827445647137,0.0037687791288483438,0.043743839560590324,0.4,0.06915025368715666,-0.10238844890663928,0.8572537936698766,0.1749753582423613,0.73057496920228,-1.8404489383101463,1.6453877091407776,3.4863281219643194,40.7065212726593,4.70627062022686,3.5460084676742554,0.0,0.0,0.0,0.0,0.0,0.0,0.0,0.0,0.0,0.0,0.0,0.0,0.0,0.0,0.0,0.0,True,0,2.14133358001709,0.03492626953125
STABILIZE,2.068514823913574,29.900367846245974,0.03250315984090169,0.03264641761779785,0.0,0.0,0.0,-0.7230615947015624,-1.1878434279205008,-8.707676691707734,0.004053326957401864,-0.003184999167365689,0.04250020063469662,0.4,0.04503661709943452,-0.1096539555753413,0.8577987483240536,0.17000080253878647,-1.3577097095549107,-0.38308827206492424,1.6121357679367065,-0.2129437938972826,14.086823165416718,-51.944345235824585,5.934816598892212,0.0,0.0,0.0,0.0,0.0,0.0,0.0,0.0,0.0,0.0,0.0,0.0,0.0,0.0,0.0,0.0,True,0,2.1700055599212646,0.0647978515625
STABILIZE,2.102160930633545,29.7236482177025,0.03253033955891927,0.032654762268066406,0.0,0.0,0.0,-0.7241813721994743,-1.1911929953781575,-8.692003115109847,0.0010054958122633483,0.019673753824079113,0.03439272989121339,0.4,0.13577491300834404,-0.101391928692347,0.8874667012549545,0.13757091956485357,2.0128244534134865,1.042617205530405,1.6980135813355446,-1.9904872385407313,-39.44038152694702,2.9197823256254196,25.426140427589417,0.0,0.0,0.0,0.0,0.0,0.0,0.0,0.0,0.0,0.0,0.0,0.0,0.0,0.0,0.0,0.0,True,0,2.2274818420410156,0.029937255859375
STABILIZE,2.1355788707733154,29.92212535848303,0.032318862279256184,0.03246593475341797,0.0,0.0,0.0,-0.7250969910742262,-1.1974295984206138,-8.672424377854005,0.005058650378312779,-0.00029278030585758045,0.03203018807059682,0.4,0.11766795595725545,-0.11374494791490711,0.8902121747323108,0.12812075228238728,-0.8338653482496738,-0.8396586403250694,2.11159884929657,-0.24273249002352962,-45.22306025028229,-49.838486313819885,46.42515778541565,0.0,0.0,0.0,0.0,0.0,0.0,0.0,0.0,0.0,0.0,0.0,0.0,0.0,0.0,0.0,0.0,True,0,2.2565200328826904,0.034925048828125
STABILIZE,2.1689255237579346,29.988660331896213,0.03235462506612142,0.03247499465942383,0.0,0.0,0.0,-0.7255247850318511,-1.2016890751417628,-8.652016626387653,0.005571361126813251,-0.0004714476364940406,0.029872974304997402,0.4,0.10091261334148283,-0.1270852797950197,0.8977835640260524,0.11949189721998961,-0.8338653482496738,-0.8396586403250694,2.11159884929657,-0.24273249002352962,-45.22306025028229,-49.838486313819885,46.42515778541565,0.0,0.0,0.0,0.0,0.0,0.0,0.0,0.0,0.0,0.0,0.0,0.0,0.0,0.0,0.0,0.0,True,0,2.285098075866699,0.034925048828125
STABILIZE,2.202449321746826,29.831677323451803,0.03246596654256185,0.032613277435302734,0.0,0.0,0.0,-0.7270747043649152,-1.196227164961574,-8.672055547638825,0.001346561334188194,0.007360794597730814,0.020328977425747907,0.4,0.12458472843713407,-0.11817591761293166,0.8991807138729999,0.08131590970299163,1.4308231882750988,0.38560444954782724,1.764194294810295,-1.8825141140372887,39.08954560756683,65.37796258926392,31.13248348236084,0.0,0.0,0.0,0.0,0.0,0.0,0.0,0.0,0.0,0.0,0.0,0.0,0.0,0.0,0.0,0.0,True,0,2.3139374256134033,0.044905029296875
STABILIZE,2.237187623977661,28.789435029411965,0.03239110310872396,0.032511234283447266,0.0,0.0,0.0,-0.7300853236850099,-1.1944664702595917,-8.664799325419333,-0.0011638833817067254,0.006548103190981969,0.011693983245607591,0.4,0.14137570156910353,-0.09806774165103133,0.9101900839329112,0.046775932982430365,0.8988638408482075,1.07688307762146,1.8006611615419388,-1.6173054458068041,-32.62204825878143,10.279736667871475,33.68556201457977,0.0,0.0,0.0,0.0,0.0,0.0,0.0,0.0,0.0,0.0,0.0,0.0,0.0,0.0,0.0,0.0,True,0,2.3425471782684326,0.019956787109375
STABILIZE,2.2693324089050293,31.10278599660371,0.031085999806722005,0.03130841255187988,0.0,0.0,0.0,-0.7348974053986954,-1.1923550880324116,-8.65626329650411,0.004489296550400379,0.0020827101770690293,0.01522336115884371,0.4,0.13423350841953,-0.10807062403814378,0.8910802359514584,0.06089344463537484,-0.027452639187686145,-0.8352260105311871,1.4242803677916527,0.9444790920378922,-5.385687947273254,-36.69922649860382,34.218499064445496,0.0,0.0,0.0,0.0,0.0,0.0,0.0,0.0,0.0,0.0,0.0,0.0,0.0,0.0,0.0,0.0,True,0,2.3713181018829346,0.034927001953125
STABILIZE,2.302774429321289,29.902925911138993,0.03251031239827474,0.03265047073364258,0.0,0.0,0.0,-0.7437442079211544,-1.177482244393003,-8.672143486324389,0.0017754406369719716,-0.007357748349276748,0.00992217496284439,0.4,0.0817971909063199,-0.10351241669544957,0.8996181826679931,0.03968869985137756,-1.3428187929093838,-0.01600606628926471,1.9012397155165672,-0.3770389553047067,-53.196924924850464,4.047459736466408,24.103279411792755,0.0,0.0,0.0,0.0,0.0,0.0,0.0,0.0,0.0,0.0,0.0,0.0,0.0,0.0,0.0,0.0,True,0,2.4301788806915283,0.034925048828125
STABILIZE,2.3363845348358154,29.752956281788453,0.032515796025594075,0.03266787528991699,0.0,0.0,0.0,-0.7410872643340194,-1.1983967105184052,-8.644639168310393,0.001969357180988294,0.002245623187564676,0.008552388710798475,0.4,0.08277390245760716,-0.10049141760342759,0.9045739814536131,0.0342095548431939,0.2241315320134163,0.015395246737170964,1.9420821219682693,-0.1035514307895055,58.89210104942322,-1.335733663290739,28.474944829940796,0.0,0.0,0.0,0.0,0.0,0.0,0.0,0.0,0.0,0.0,0.0,0.0,0.0,0.0,0.0,0.0,True,0,2.4588723182678223,0.02993701171875
STABILIZE,2.369805097579956,29.92233882416728,0.032379897435506184,0.032584190368652344,0.0,0.0,0.0,-0.7472027382404138,-1.206382695762031,-8.604323122960746,0.004743611057172158,0.008151347184269804,0.004868818747832947,0.4,0.11258042763430423,-0.11144312885462644,0.8943538386714546,0.019475274991331788,1.9012758508324623,-0.8270109072327614,1.3381212949752808,-0.6807884333504428,4.839298501610756,-26.83100402355194,53.20121645927429,0.0,0.0,0.0,0.0,0.0,0.0,0.0,0.0,0.0,0.0,0.0,0.0,0.0,0.0,0.0,0.0,True,0,2.4875423908233643,0.0399150390625
STABILIZE,2.4032480716705322,29.90164682398232,0.03247812589009603,0.03259587287902832,0.0,0.0,0.0,-0.7325108946140106,-1.2008801246119396,-8.617957034317739,0.0008716608276112922,0.005189455544075263,-0.005963304299327924,0.4,0.1241999432270139,-0.1020676231198587,0.9020789952699401,-0.023853217197311698,0.7667625322937965,0.4189624451100826,1.8286814913153648,-2.2348391770886415,-72.69288897514343,13.470326364040375,34.306347370147705,0.0,0.0,0.0,0.0,0.0,0.0,0.0,0.0,0.0,0.0,0.0,0.0,0.0,0.0,0.0,0.0,True,0,2.5162198543548584,0.02993603515625
STABILIZE,2.436786413192749,29.81577263744544,0.032477410634358723,0.032666921615600586,0.0,0.0,0.0,-0.7202074827629963,-1.2029587432754447,-8.681879920986242,0.00010850969917418044,0.0007767060848950592,-0.005487953215818515,0.4,0.112790880010074,-0.09009391386338408,0.8901558337463374,-0.02195181286327406,-0.4387505352497101,0.4833412356674671,1.2457898817956448,0.21671336462804208,-5.942153185606003,-12.297306209802628,4.414059594273567,0.0,0.0,0.0,0.0,0.0,0.0,0.0,0.0,0.0,0.0,0.0,0.0,0.0,0.0,0.0,0.0,True,0,2.5456488132476807,0.029936767578125
STABILIZE,2.4704296588897705,29.724701463449204,0.032453330357869466,0.03275585174560547,0.0,0.0,0.0,-0.7402466174575789,-1.173505900357292,-8.692568313263665,-0.00012326449763314906,0.0005494724229616762,-0.004978919633682575,0.4,0.10163038097539535,-0.0784149926076737,0.8788393569618748,-0.0199156785347303,-0.4387505352497101,0.4833412356674671,1.2457898817956448,0.21671336462804208,-5.942153185606003,-12.297306209802628,4.414059594273567,0.0,0.0,0.0,0.0,0.0,0.0,0.0,0.0,0.0,0.0,0.0,0.0,0.0,0.0,0.0,0.0,True,0,2.5797219276428223,0.029936767578125
STABILIZE,2.5037927627563477,29.97087448015663,0.03242615063985189,0.03254580497741699,0.0,0.0,0.0,-0.7415413651921196,-1.1644713743543633,-8.633101271254949,0.005681814082307976,-0.015270026221819555,0.017703297545286566,0.4,0.014485742680902233,-0.09652376712490725,0.867230408355841,0.07081319018114626,-4.93621751666069,-1.2576357461512089,1.1953412555158138,5.442649473616178,-92.89806485176086,-51.10962390899658,16.66407287120819,0.0,0.0,0.0,0.0,0.0,0.0,0.0,0.0,0.0,0.0,0.0,0.0,0.0,0.0,0.0,0.0,True,0,2.608130693435669,0.069852294921875
STABILIZE,2.5377280712127686,29.470938729623384,0.03249505360921224,0.03308534622192383,0.0,0.0,0.0,-0.730744010053093,-1.178415952596885,-8.742199882867563,-0.002735455474275008,-0.003421359973007239,0.0073730181485616025,0.4,-0.004238792905623912,-0.07102542068842327,0.8782195568603596,0.02949207259424641,-0.5206562578678131,1.4151309616863728,0.6742445286363363,-2.3367812445549627,141.22846126556396,85.78899502754211,59.530895948410034,0.0,0.0,0.0,0.0,0.0,0.0,0.0,0.0,0.0,0.0,0.0,0.0,0.0,0.0,0.0,0.0,True,1,2.6367881298065186,0.03492578125
STABILIZE,2.5711793899536133,29.891844123264633,0.03247788747151693,0.03259468078613281,0.0,0.0,0.0,-0.727267657208968,-1.1691548564125824,-8.73590244845281,0.0026733996014923784,0.0012135933369874859,0.018648090942979523,0.4,0.0022008199090747527,-0.07542591717650429,0.8774234839179279,0.0745923637719181,-3.9726734161376953,-1.2327952310442924,2.5773687288165092,2.0208141322292343,-226.47600173950195,-25.81641376018524,-56.340986490249634,0.0,0.0,0.0,0.0,0.0,0.0,0.0,0.0,0.0,0.0,0.0,0.0,0.0,0.0,0.0,0.0,True,0,2.694497585296631,0.034926025390625
STABILIZE,2.6049230098724365,29.63732590922902,0.03247025807698568,0.0326085090637207,0.0,0.0,0.0,-0.7337538289603943,-1.1688637195992104,-8.670969547560793,-0.0017760241803386355,-0.0060781082847582504,0.0270874715473544,0.4,-0.027849046190215457,-0.057419001999741856,0.8770028693472685,0.1083498861894176,-1.524885930120945,0.8127491921186447,1.7090188339352608,1.965006577511764,22.897806763648987,44.43764686584473,-37.56665587425232,0.0,0.0,0.0,0.0,0.0,0.0,0.0,0.0,0.0,0.0,0.0,0.0,0.0,0.0,0.0,0.0,True,0,2.723205804824829,0.03492578125
STABILIZE,2.6381096839904785,30.131710716312618,0.03217771848042806,0.03232693672180176,0.0,0.0,0.0,-0.7271234761844573,-1.1869826106416677,-8.713844352528255,-0.002225573269785099,-0.006811549515232667,0.035530624918041015,0.4,-0.05770205140234459,-0.03944823134726458,0.8767849886003714,0.14212249967216406,-1.524885930120945,0.8127491921186447,1.7090188339352608,1.965006577511764,22.897806763648987,44.43764686584473,-37.56665587425232,0.0,0.0,0.0,0.0,0.0,0.0,0.0,0.0,0.0,0.0,0.0,0.0,0.0,0.0,0.0,0.0,True,0,2.7518932819366455,0.03492578125
STABILIZE,2.6715588569641113,29.896105377202485,0.03246334393819173,0.03258204460144043,0.0,0.0,0.0,-0.7283889821716137,-1.1751897554311117,-8.721918489900856,-0.001055364803154622,0.008276104476652278,-0.0010799013187935275,0.4,-0.010165532171225448,-0.029459235239038838,0.8797917609603626,-0.00431960527517411,2.7277350425720215,0.3789184149354696,1.8779119476675987,-7.97036630854132,134.95763540267944,-15.25973230600357,-1.6638681292533875,0.0,0.0,0.0,0.0,0.0,0.0,0.0,0.0,0.0,0.0,0.0,0.0,0.0,0.0,0.0,0.0,True,0,2.780596971511841,0.029936279296875
STABILIZE,2.7050249576568604,29.880983422029395,0.032453091939290364,0.03263092041015625,0.0,0.0,0.0,-0.7309255436746271,-1.179424792881637,-8.683531119218092,0.00506992076462606,0.0023374189026634474,0.01865054558966992,0.4,0.0024991515766311766,-0.0507053143690812,0.871556547319192,0.07460218235867969,0.7533559575676918,-1.3315951451659203,1.476282998919487,4.531122735950718,-88.58329057693481,-31.165072321891785,19.35715824365616,0.0,0.0,0.0,0.0,0.0,0.0,0.0,0.0,0.0,0.0,0.0,0.0,0.0,0.0,0.0,0.0,True,0,2.80920672416687,0.034926025390625
STABILIZE,2.738487720489502,29.88588040814,0.03248718579610189,0.03260374069213867,0.0,0.0,0.0,-0.7302621615514897,-1.1840440284729754,-8.702915196082587,0.00556763551722951,0.0025915190285130895,0.03827980248264073,0.4,0.014794479837997051,-0.0717680249262509,0.8680165976493912,0.1531192099305629,0.7533559575676918,-1.3315951451659203,1.476282998919487,4.531122735950718,-88.58329057693481,-31.165072321891785,19.35715824365616,0.0,0.0,0.0,0.0,0.0,0.0,0.0,0.0,0.0,0.0,0.0,0.0,0.0,0.0,0.0,0.0,True,1,2.8379645347595215,0.034926025390625
STABILIZE,2.7719297409057617,29.900581001603992,0.032453091939290364,0.03258800506591797,0.0,0.0,0.0,-0.7303783814890857,-1.1833236569589507,-8.71069734286817,0.006220665637800591,0.01454179139980563,0.0384629172600085,0.4,0.08406771095440962,-0.09362144535538855,0.8694098087376491,0.153851669040034,4.622539505362511,-1.87156293541193,0.9723666124045849,0.7861161402109748,111.20778322219849,-40.46284556388855,17.857883870601654,0.0,0.0,0.0,0.0,0.0,0.0,0.0,0.0,0.0,0.0,0.0,0.0,0.0,0.0,0.0,0.0,True,0,2.8952407836914062,0.034926025390625
STABILIZE,2.805361032485962,29.91060273269247,0.032475980122884114,0.032604217529296875,0.0,0.0,0.0,-0.7321754682927395,-1.1783033611972855,-8.695007544571006,-0.0013180020660717312,-0.007421686939396184,0.03520611429606432,0.4,0.037488215055539426,-0.07563192499504531,0.870348272086568,0.1408244571842573,-2.408658340573311,0.8019263856112957,1.8545299768447876,-0.48376522343907813,-136.6369128227234,43.12615692615509,26.975655555725098,0.0,0.0,0.0,0.0,0.0,0.0,0.0,0.0,0.0,0.0,0.0,0.0,0.0,0.0,0.0,0.0,True,0,2.9240825176239014,0.034926025390625
STABILIZE,2.83880615234375,29.900154693927014,0.03249624570210775,0.03264021873474121,0.0,0.0,0.0,-0.731332366817066,-1.179723613657825,-8.705148667941183,-0.0017579479296330111,-0.008579425060108642,0.03192182316837294,0.4,-0.009071541924727505,-0.057679619935196116,0.8716610640352588,0.12768729267349177,-2.408658340573311,0.8019263856112957,1.8545299768447876,-0.48376522343907813,-136.6369128227234,43.12615692615509,26.975655555725098,0.0,0.0,0.0,0.0,0.0,0.0,0.0,0.0,0.0,0.0,0.0,0.0,0.0,0.0,0.0,0.0,True,0,2.9526171684265137,0.034926025390625
STABILIZE,2.8722453117370605,29.90505796626121,0.03251770337422689,0.03263425827026367,0.0,0.0,0.0,-0.7312947474157782,-1.185720092862273,-8.692692964216018,-0.0016875853306844576,-0.015200392608529118,0.028933962224420188,0.4,-0.08228738851580487,-0.04222338757246173,0.8701829843089967,0.11573584889768075,-3.8359031081199646,0.6759732495993376,1.6904374584555626,-0.41923076803559445,-74.30593371391296,-3.530609980225563,33.49795341491699,0.0,0.0,0.0,0.0,0.0,0.0,0.0,0.0,0.0,0.0,0.0,0.0,0.0,0.0,0.0,0.0,True,0,2.981433868408203,0.02993701171875
STABILIZE,2.9057204723358154,29.872257990997664,0.03250149091084798,0.03267550468444824,0.0,0.0,0.0,-0.7309809856007806,-1.181421449275102,-8.700105427012774,0.004015564765453289,0.0061171624075078805,0.031161548270687945,0.4,-0.04229248178829817,-0.05678643706357277,0.860875093529418,0.12464619308275178,2.1202895790338516,-0.9217583574354649,1.46834384649992,0.732997065344698,106.02986812591553,-1.2441492639482021,12.578277289867401,0.0,0.0,0.0,0.0,0.0,0.0,0.0,0.0,0.0,0.0,0.0,0.0,0.0,0.0,0.0,0.0,True,0,3.016400098800659,0.034926025390625
STABILIZE,2.9392471313476562,29.82764653173847,0.032537015279134114,0.032651662826538086,0.0,0.0,0.0,-0.7308012662482447,-1.178890544022495,-8.707875620967311,0.004365911019183201,0.006823633292306598,0.033552426889210785,0.4,-0.003783887749330986,-0.07127955680840971,0.8562384521209659,0.13420970755684314,2.1202895790338516,-0.9217583574354649,1.46834384649992,0.732997065344698,106.02986812591553,-1.2441492639482021,12.578277289867401,0.0,0.0,0.0,0.0,0.0,0.0,0.0,0.0,0.0,0.0,0.0,0.0,0.0,0.0,0.0,0.0,True,0,3.0456271171569824,0.034926025390625
STABILIZE,2.9726951122283936,29.897597103122838,0.03244808514912923,0.032585859298706055,0.0,0.0,0.0,-0.7313970935316225,-1.1853594802184375,-8.690597803688117,0.0013192334749240581,-0.012225726797626056,0.03730479186909485,0.4,-0.06317394467127796,-0.06885883299910171,0.8519797997431771,0.1492191674763794,-3.2282553613185883,0.0015464178432011977,1.4778451062738895,1.0348034346128447,-77.87212133407593,-23.20868968963623,19.152246415615082,0.0,0.0,0.0,0.0,0.0,0.0,0.0,0.0,0.0,0.0,0.0,0.0,0.0,0.0,0.0,0.0,True,0,3.074237585067749,0.06486181640625
STABILIZE,3.006892204284668,29.24164087118994,0.03244140942891439,0.03335165977478027,0.0,0.0,0.0,-0.7303489262982901,-1.1870996843529098,-8.705868399124972,0.00038827217694949466,0.0071406913545899306,0.03281723606579924,0.4,-0.019644539374305978,-0.062284640017787135,0.8608937165558226,0.13126894426319696,2.429094910621643,0.4574848338961601,1.226841937750578,-1.0924388119852337,37.13660538196564,12.38572746515274,13.390161097049713,0.0,0.0,0.0,0.0,0.0,0.0,0.0,0.0,0.0,0.0,0.0,0.0,0.0,0.0,0.0,0.0,True,0,3.131735324859619,0.03492626953125
STABILIZE,3.054950475692749,20.80838228290205,0.03248599370320638,0.04721999168395996,0.0,0.0,0.0,-0.7342738304718144,-1.1813586969121026,-8.695874978595597,0.0015582370907561342,-0.00048754472856405925,0.03281723606579924,0.4,-0.019644539374305978,-0.062284640017787135,0.8608937165558226,0.13126894426319696,2.429094910621643,0.4574848338961601,1.226841937750578,-1.0924388119852337,37.13660538196564,12.38572746515274,13.390161097049713,0.0,0.0,0.0,0.0,0.0,0.0,0.0,0.0,0.0,0.0,0.0,0.0,0.0,0.0,0.0,0.0,True,1,3.131735324859619,0.03492626953125
STABILIZE,3.0884625911712646,29.840379060601318,0.03249505360921224,0.03262734413146973,0.0,0.0,0.0,-0.7327045411491511,-1.185751469043773,-8.700172021357181,-0.0013963025451936032,0.0019562602004873967,0.021604874067913435,0.4,-0.007656125155595259,-0.0478442492480112,0.8394204156146962,0.08641949627165374,-1.9045937806367874,0.012233138841111213,1.246025413274765,-0.7070515779261997,-10.861791670322418,10.057634115219116,6.706008315086365,0.0,0.0,0.0,0.0,0.0,0.0,0.0,0.0,0.0,0.0,0.0,0.0,0.0,0.0,0.0,0.0,True,0,3.2118351459503174,0.039916015625
STABILIZE,3.1218693256378174,29.933015993091782,0.03243091901143392,0.03257393836975098,0.0,0.0,0.0,-0.7315130466649541,-1.1830073338230145,-8.713756413842692,-0.0005932845213359003,0.006084957301004596,0.016015983008185943,0.4,0.023071670801301764,-0.039117981317353646,0.8404545728107905,0.06406393203274377,1.5577392652630806,0.3215555101633072,1.6280561685562134,-0.9066079342459928,71.7515230178833,1.0199557058513165,24.83881562948227,0.0,0.0,0.0,0.0,0.0,0.0,0.0,0.0,0.0,0.0,0.0,0.0,0.0,0.0,0.0,0.0,True,0,3.241274118423462,0.02993603515625
STABILIZE,3.156888484954834,28.556185703878704,0.032488139470418294,0.03419017791748047,0.0,0.0,0.0,-0.7337776812616364,-1.180042071227877,-8.698210903291741,0.0024055216691325947,0.0033883054898737625,0.022239629815649455,0.4,0.0373646378286463,-0.04641179699297879,0.8256548810556372,0.08895851926259782,0.762483524158597,-0.5083864089101553,1.1747423559427261,1.5406691224936744,-15.438884496688843,-15.271349251270294,12.95001357793808,0.0,0.0,0.0,0.0,0.0,0.0,0.0,0.0,0.0,0.0,0.0,0.0,0.0,0.0,0.0,0.0,True,0,3.270531177520752,0.02993701171875
STABILIZE,3.190370559692383,29.86715278568987,0.03249338467915853,0.03260993957519531,0.0,0.0,0.0,-0.7322148486021729,-1.1811774834556856,-8.69780365326248,3.37569704587366e-05,-0.007297418637277674,0.018784628086828858,0.4,-0.002914367848449853,-0.040852555795528336,0.811747427891485,0.07513851234731543,-2.164064534008503,0.1754789613187313,1.1659416370093822,-0.5105540791375144,-64.93350863456726,18.076954782009125,15.82215130329132,0.0,0.0,0.0,0.0,0.0,0.0,0.0,0.0,0.0,0.0,0.0,0.0,0.0,0.0,0.0,0.0,True,0,3.299100875854492,0.034925048828125
STABILIZE,3.2238125801086426,29.90335229784261,0.03245547612508138,0.0325770378112793,0.0,0.0,0.0,-0.7310162037636885,-1.1829476763894826,-8.708328974773469,-7.335926422969189e-05,-0.00812572264926499,0.015415803827179185,0.4,-0.04231504784228793,-0.035453745734711925,0.802174938397088,0.06166321530871674,-2.164064534008503,0.1754789613187313,1.1659416370093822,-0.5105540791375144,-64.93350863456726,18.076954782009125,15.82215130329132,0.0,0.0,0.0,0.0,0.0,0.0,0.0,0.0,0.0,0.0,0.0,0.0,0.0,0.0,0.0,0.0,True,0,3.3323585987091064,0.034925048828125
STABILIZE,3.257378339767456,29.792476417774747,0.03244760831197103,0.03276419639587402,0.0,0.0,0.0,-0.7325788229797405,-1.1808782357926746,-8.699251653366522,-0.000896000209112263,-0.0013912150110891328,0.013687390005030298,0.4,-0.043949109882042925,-0.02668746038652349,0.8016614630644304,0.05474956002012119,-0.1057783025316894,0.3660699352622032,1.6432173550128937,-0.1638792367162018,37.990802526474,-0.850429106503725,27.100735902786255,0.0,0.0,0.0,0.0,0.0,0.0,0.0,0.0,0.0,0.0,0.0,0.0,0.0,0.0,0.0,0.0,True,0,3.361584424972534,0.03492578125
STABILIZE,3.2911763191223145,29.58589798754294,0.032520564397176106,0.03294253349304199,0.0,0.0,0.0,-0.733292524387154,-1.178889583527143,-8.695083530425523,-0.0004461218713525325,-0.005843027205584379,0.01200461628942243,0.4,-0.06734412577126483,-0.02117294752917607,0.7980390870708842,0.04801846515768972,-1.3112379238009453,0.19443316850811243,1.4555241912603378,-0.16618101046649608,-55.04947900772095,16.536280512809753,26.32298767566681,0.0,0.0,0.0,0.0,0.0,0.0,0.0,0.0,0.0,0.0,0.0,0.0,0.0,0.0,0.0,0.0,True,1,3.3902742862701416,0.06486328125
STABILIZE,3.325594425201416,29.05829944367851,0.032457621892293294,0.032595157623291016,0.0,0.0,0.0,-0.7317391365986521,-1.180423921491163,-8.70363919613461,-0.000894243573770028,-0.012571056970554688,0.009320931393440264,0.4,-0.1206291136077949,-0.014165364474630321,0.8165733766290365,0.037283725573761056,-1.2968250550329685,0.0537319399882108,1.6388515010476112,-0.053292337555612926,14.642952382564545,-16.53435081243515,22.29735255241394,0.0,0.0,0.0,0.0,0.0,0.0,0.0,0.0,0.0,0.0,0.0,0.0,0.0,0.0,0.0,0.0,True,0,3.4476051330566406,0.03492578125
STABILIZE,3.3582234382629395,30.64600366790148,0.03150609334309896,0.031649112701416016,0.0,0.0,0.0,-0.7335791788888829,-1.1802502852758565,-8.691798209434745,0.001269696122439388,0.001397345166357684,0.007812772702391883,0.4,-0.09902912376976886,-0.01865105870706348,0.8074812832654102,0.03125109080956753,1.0325823910534382,-0.31258719973266125,1.2478298507630825,-0.15890058910021784,37.70272731781006,-0.9585270658135414,14.053080976009369,0.0,0.0,0.0,0.0,0.0,0.0,0.0,0.0,0.0,0.0,0.0,0.0,0.0,0.0,0.0,0.0,True,0,3.476491689682007,0.034926025390625
STABILIZE,3.39152455329895,30.027089716789323,0.0323362668355306,0.03245663642883301,0.0,0.0,0.0,-0.7340710592308296,-1.1782995192158774,-8.693647483152528,-0.0009279126872737874,-0.0022105112415092766,0.006058803471072856,0.4,-0.09773019044674822,-0.011828362724157099,0.8000335920473087,0.024235213884291423,-0.036842154804617167,0.2852106699720025,1.3089658692479134,-0.22304396281286543,-31.47946000099182,12.633006274700165,17.812496423721313,0.0,0.0,0.0,0.0,0.0,0.0,0.0,0.0,0.0,0.0,0.0,0.0,0.0,0.0,0.0,0.0,True,0,3.5058352947235107,0.029935791015625
STABILIZE,3.4249420166015625,29.92361968223619,0.03248718579610189,0.03262472152709961,0.0,0.0,0.0,-0.7345017346745106,-1.1804229609958108,-8.698238224048422,-6.709176155324704e-05,-0.008312757493368782,0.0064482378449306765,0.4,-0.12645268178557914,-0.010034670123408097,0.7960809504672153,0.025792951379722706,-1.7088793218135834,0.03821031714323908,1.6578730195760727,0.19971546504290008,-32.637619972229004,-10.813897103071213,16.79375022649765,0.0,0.0,0.0,0.0,0.0,0.0,0.0,0.0,0.0,0.0,0.0,0.0,0.0,0.0,0.0,0.0,True,0,3.533761501312256,0.03492626953125
STABILIZE,3.4585139751434326,29.788456211870486,0.03253200848897298,0.032655954360961914,0.0,0.0,0.0,-0.7344586724662279,-1.1805380069946432,-8.69545321441435,-0.00013678534214368388,-0.009179937173815648,0.006770190978950065,0.4,-0.15590287331101926,-0.008116566858600703,0.7963596041119128,0.02708076391580026,-1.7088793218135834,0.03821031714323908,1.6578730195760727,0.19971546504290008,-32.637619972229004,-10.813897103071213,16.79375022649765,0.0,0.0,0.0,0.0,0.0,0.0,0.0,0.0,0.0,0.0,0.0,0.0,0.0,0.0,0.0,0.0,True,0,3.5624005794525146,0.03492626953125
STABILIZE,3.491925001144409,29.930666362196185,0.03239157994588216,0.03251218795776367,0.0,0.0,0.0,-0.7343528045340927,-1.1794717504321808,-8.694605417183622,0.001079447437876556,-0.0033920760956413225,0.006619589963213536,0.4,-0.15343316428040185,-0.012395620530087685,0.7889989234821657,0.026478359852854145,0.004260908463038504,-0.2932912204414606,1.2270690873265266,0.08867035623853856,31.768324971199036,-0.8505534380674362,15.416468679904938,0.0,0.0,0.0,0.0,0.0,0.0,0.0,0.0,0.0,0.0,0.0,0.0,0.0,0.0,0.0,0.0,True,1,3.5916497707366943,0.034926025390625
STABILIZE,3.5252816677093506,29.976872167984105,0.03242233594258626,0.03255057334899902,0.0,0.0,0.0,-0.7347931916529998,-1.1787156271467192,-8.6944056341504,-0.0005204565219609926,-0.01406739366125466,0.006035501163415834,0.4,-0.20349188107589533,-0.008303995535935216,0.7917948421430363,0.024142004653663337,-1.198292337357998,0.03645500401034951,1.1353354901075363,0.07540710270593906,-44.48957443237305,-6.913963705301285,16.89610928297043,0.0,0.0,0.0,0.0,0.0,0.0,0.0,0.0,0.0,0.0,0.0,0.0,0.0,0.0,0.0,0.0,True,0,3.6491239070892334,0.06486181640625
STABILIZE,3.5588223934173584,29.81577263744544,0.03252843221028646,0.03265523910522461,0.0,0.0,0.0,-0.7351171987517523,-1.1792155116165997,-8.695804969156605,2.9382548409251046e-05,-0.010739680648506961,0.0054788780892396985,0.4,-0.23117354567920959,-0.007411087811674575,0.8018285301212966,0.021915512356958794,-1.0154642164707184,-0.032999124960042536,1.2201160192489624,0.02405839753128441,-3.6380767822265625,2.9679298400878906,15.433965623378754,0.0,0.0,0.0,0.0,0.0,0.0,0.0,0.0,0.0,0.0,0.0,0.0,0.0,0.0,0.0,0.0,True,0,3.6782257556915283,0.03492626953125
STABILIZE,3.5932092666625977,29.082275935710225,0.03242972691853841,0.033525705337524414,0.0,0.0,0.0,-0.7337977449423233,-1.1781608877200673,-8.691526709415239,-0.0004398664474688263,-0.00376522248433159,0.004613167121932839,0.4,-0.22108110242513887,-0.004272728759949541,0.7921383030109127,0.018452668487731357,0.13075622264295816,0.11727773817256093,1.3173989951610565,-0.08871093716716195,22.295135259628296,1.166886743158102,17.474092543125153,0.0,0.0,0.0,0.0,0.0,0.0,0.0,0.0,0.0,0.0,0.0,0.0,0.0,0.0,0.0,0.0,True,0,3.7068514823913574,0.02985400390625
STABILIZE,3.626713275909424,29.84547511634195,0.032453091939290364,0.03258776664733887,0.0,0.0,0.0,-0.7347349749624961,-1.178579983858671,-8.689353855485528,0.000721392958331363,-0.004121035865318095,0.004420041470359466,0.4,-0.21419881708151284,-0.00727530295033041,0.780794814751159,0.017680165881437865,-0.10854990687221289,-0.1735111465677619,1.3588246889412403,0.027581251023650298,-20.1506108045578,-4.708075895905495,22.85563200712204,0.0,0.0,0.0,0.0,0.0,0.0,0.0,0.0,0.0,0.0,0.0,0.0,0.0,0.0,0.0,0.0,True,0,3.735614538192749,0.03492626953125
STABILIZE,3.66029691696167,29.775556565197636,0.032408746083577473,0.0326838493347168,0.0,0.0,0.0,-0.7334904397905256,-1.1794283146979279,-8.694777879460164,-0.0005711396195365823,-0.010129261993275367,0.003913917513632137,0.4,-0.23764755375157995,-0.0035631501985989656,0.7766067303469595,0.01565567005452855,-1.527965534478426,0.1559124211780727,1.4956425875425339,-0.031090727617207145,-33.66931080818176,5.114810913801193,23.49231094121933,0.0,0.0,0.0,0.0,0.0,0.0,0.0,0.0,0.0,0.0,0.0,0.0,0.0,0.0,0.0,0.0,True,0,3.7641642093658447,0.03492578125
