Mode,Time,Freq,North-Vision,East-Vision,Down-Vision,Yaw-Vision,North-Desired,East-Desired,Down-Desired,Roll-UAV,Pitch-UAV,Yaw-UAV,Roll-Control,Pitch-Control,Yaw-Control,Thrust-Control
GUIDED_NOGPS,0.040741920471191406,24.558396618049173,305.8250191227879,-70.20788689425525,17.825965458419688,0.0328285185935492,300,0,50,0.0014190385011362623,-0.937755517851955,94.43509021937757,-0.6048480836059902,-0.13210326298339578,-0.0164142592967746,0.5040664480840973
GUIDED_NOGPS,0.07754015922546387,27.184724769750275,308.58718685557403,-70.57236355138608,18.007801790991117,0.6304421221099078,300,0,50,0.12071745708189294,-1.00170188329573,94.41833576534353,-0.43737485252736025,-0.1814023529262669,-0.3152210610549539,0.5032681360255521
GUIDED_NOGPS,0.10892009735107422,31.870884402331253,309.07333444840015,-70.43853878866429,17.955816003101628,1.3009692440742298,300,0,50,0.13486750128847017,-1.0881901141563686,94.44620293715718,-0.44050536292181985,-0.18634805345995478,-0.6504846220371149,0.5033102683571129
GUIDED_NOGPS,0.1471407413482666,26.169584586395796,308.69176920337725,-70.09225154483529,17.800009811888184,2.0947550384098497,300,0,50,0.11003396733282857,-1.2813261993780556,94.4578347493137,-0.44434431956423376,-0.17749905828622028,-1.0473775192049248,0.5033650656008943
GUIDED_NOGPS,0.18398094177246094,27.152871107658445,309.2197817401094,-69.68113820391966,17.49388979147665,2.8269898342816426,300,0,50,0.07042001073498516,-1.3608214904673646,94.45291018292212,-0.4478351792040188,-0.19185363498908314,-1.4134949171408213,0.503435829897746
GUIDED_NOGPS,0.2195751667022705,28.09745640654622,309.9279191494642,-69.10169826155037,17.00627919127678,4.558396069587102,300,0,50,-0.0075061911348588955,-1.4236536813027811,94.46416633467432,-0.44976764706529926,-0.2079852527858034,-2.279198034793551,0.5035252681262397
GUIDED_NOGPS,0.25444984436035156,28.685278146329452,309.23473935628533,-68.5151611915217,16.334505486504806,6.480536002058551,300,0,50,-0.030334897816436474,-1.3570271069400108,94.4406636537403,-0.4518942245485115,-0.19142394401398283,-3.2402680010292757,0.5036331982436508
GUIDED_NOGPS,0.287259578704834,30.48008836695541,309.87393567283823,-67.94913781602457,15.505447440480546,8.43819384605344,300,0,50,-0.028064273464017138,-1.283322215441286,94.46741067453007,-0.45385480416506685,-0.2094440101333191,-4.21909692302672,0.5037560353447319
GUIDED_NOGPS,0.32376742362976074,27.400320104523924,310.699265966565,-67.48600554938618,15.030460298039307,10.387458768799267,300,0,50,-0.05270559495743974,-1.209819454853311,94.50975101719497,-0.4574131867545941,-0.22783935824964874,-5.193729384399633,0.5038296489416635
GUIDED_NOGPS,0.35928869247436523,28.17635480555425,311.2796989359078,-67.36764762996137,15.01418416424076,12.491198407031536,300,0,50,-0.05075264110249211,-1.1996061876100264,94.51747596114626,-0.4633375204174228,-0.24041740515622925,-6.245599203515768,0.5038556755674877
GUIDED_NOGPS,0.4020814895629883,23.36503409242836,311.4353934603104,-66.57672920316229,15.19740589196203,14.50867071348127,300,0,50,-0.1343791027421746,-1.175699885184747,94.56694019111549,-0.4639778184336742,-0.24421664628093104,-7.254335356740635,0.5038776308109459
GUIDED_NOGPS,0.44043850898742676,26.074899288804893,313.6383883165589,-66.24060893055525,15.60304002795425,16.407138764003832,300,0,50,-0.018296062414267535,-1.1552056891367122,94.54791128408783,-0.46901505418214284,-0.2957527525511372,-8.203569382001916,0.5038703028762423
GUIDED_NOGPS,0.47747135162353516,27.007231025801175,313.9963751948582,-65.44445028152522,15.943698839960254,18.079785358081708,300,0,50,-0.023659868666416728,-1.1549208489039815,94.54303452902045,-0.46879061235003483,-0.3002077986299379,-9.039892679040854,0.503875507695179
GUIDED_NOGPS,0.5121197700500488,28.871676969037818,315.1924074324658,-65.060635234342,16.451055234635614,19.58148480995725,300,0,50,0.04872579580650405,-1.2277055858554589,94.55019256727063,-0.4728978214760744,-0.3287286884748004,-9.790742404978625,0.5038538875368577
GUIDED_NOGPS,0.5468399524688721,28.80485677593039,315.75149783751283,-64.23156463801483,16.655272940757936,20.920914338916,300,0,50,0.15968491359643217,-1.207375527790916,94.50096056373317,-0.4720400145975709,-0.3402381155174917,-10.0,0.5038772464041554
GUIDED_NOGPS,0.5848715305328369,26.300699169148768,317.0342548540502,-63.56232484143291,16.889010907357193,22.021329530771645,300,0,50,0.25473283891055115,-1.2991307949969861,94.47344173156719,-0.4743658063308716,-0.3702633135215346,-10.0,0.503890910658193
GUIDED_NOGPS,0.6206498146057129,27.956808062495,316.1540144125634,-62.50293482398806,16.85467751930695,23.01555201465579,300,0,50,0.3308669298762734,-1.382937109391337,94.43939323855467,-0.4722533059327635,-0.34913694540715784,-10.0,0.5039373394587362
GUIDED_NOGPS,0.6625852584838867,23.851329527102337,317.2057066995741,-61.8627399216406,16.926193979337427,23.832629498657038,300,0,50,0.5744639457579122,-1.525041649672685,94.3178978335985,-0.47605517343629233,-0.3780075783445317,-10.0,0.5039691595653519
GUIDED_NOGPS,0.6983721256256104,27.95103259384642,318.14599127738165,-60.815163181670464,16.666182976809562,24.186589753585743,300,0,50,0.6590068533655664,-1.6338967223527057,94.24249254516155,-0.47359583220378937,-0.3995315924234783,-10.0,0.5040399327981555
GUIDED_NOGPS,0.7341525554656982,27.95364057449432,319.16474307193374,-59.78465566968728,16.30943752748855,23.81823827222377,300,0,50,0.7494568073882238,-1.7056396420123443,94.1595057467459,-0.4725479976051282,-0.42287130495320346,-10.0,0.5041143354317854
GUIDED_NOGPS,0.7683806419372559,29.221879289083347,320.4449519962851,-58.265501469436,15.837465106011237,22.942249705675124,300,0,50,0.8869435528212617,-1.7362460398482888,94.04048287026924,-0.46671752247263815,-0.4521477802970563,-10.0,0.5042004690147892
GUIDED_NOGPS,0.8034555912017822,28.521426919990752,322.72693728003003,-57.09565617927053,15.683753831155968,21.84999129702686,300,0,50,0.9749850647486963,-1.803585088318856,93.89794365248025,-0.46540449932628786,-0.5038357745189707,-10.0,0.5042418949153096
GUIDED_NOGPS,0.8376617431640625,29.240213882866364,323.53049383932995,-55.78813721327409,15.672031117913702,20.881752757389442,300,0,50,1.0171735424262782,-1.825876691335662,93.75937277459903,-0.46191373166135125,-0.5188411467719702,-10.0,0.5042749310310587
GUIDED_NOGPS,0.8725407123565674,28.674884290119024,323.5390945149049,-54.221647152587146,15.457864368146543,19.967307819536767,300,0,50,1.1319682116415652,-1.8229881616469814,93.63174385976818,-0.456309476812692,-0.5200267424025178,-9.983653909768384,0.5043383226209917
GUIDED_NOGPS,0.9116051197052002,25.60718951854158,324.9471413003149,-52.86369540181048,15.30910123268329,19.33563730437753,300,0,50,1.2269525574994649,-1.8175901777685557,93.36306470838738,-0.45412504755231375,-0.5556655050050586,-9.667818652188766,0.5043915097443714
GUIDED_NOGPS,0.9449484348297119,30.000886943335765,325.15780716211185,-51.07187625287182,15.235481780682244,18.97426158018219,300,0,50,1.2783650989294435,-1.841622411806657,93.16714756223475,-0.44548197255158845,-0.5602360781296154,-9.487130790091095,0.5044317599264271
GUIDED_NOGPS,0.9745597839355469,33.78062707892045,325.0138831491164,-49.42509517957644,15.5133296969982,18.814140444966302,300,0,50,1.3133045047418206,-1.8190287863624897,92.97292430299626,-0.4390526509966428,-0.5592270712642367,-9.407070222483151,0.5044233496993552
GUIDED_NOGPS,1.0068590641021729,30.96501369478712,325.1524663620169,-47.21032433234953,15.57543377596022,18.693820535096673,300,0,50,1.4501855511336956,-1.8042691744529151,92.6341537503528,-0.42812050076091424,-0.5661702096237397,-9.346910267548337,0.5044580119541486
GUIDED_NOGPS,1.0393853187561035,30.75453878867869,326.3086688520719,-45.38411238756414,15.606969947010873,18.731916408933795,300,0,50,1.4201195920158285,-1.8053351108502602,92.39075995927939,-0.42190161294074713,-0.5958447337812759,-9.365958204466898,0.5044892877076648
GUIDED_NOGPS,1.0729517936706543,29.80052008582837,326.94572283017135,-43.51058754646971,15.735135752853267,18.878911198146408,300,0,50,1.4742897156014938,-1.8018572639022545,92.10762812761484,-0.41419633711818593,-0.6105362008290588,-9.439455599073204,0.5045080664819809
GUIDED_NOGPS,1.1092660427093506,27.544271876539156,327.9252947210506,-41.347023396695256,15.977564854835316,19.044753311029204,300,0,50,1.4601346821551713,-1.7899171327377201,91.72922881740698,-0.4044396098221548,-0.6349788207818706,-9.522376655514602,0.5045179837713981
GUIDED_NOGPS,1.141922950744629,30.628771724843,329.5969336103294,-39.09645465266366,16.46932331954596,19.07182014092739,300,0,50,1.5322450446478155,-1.7507574170702156,91.38392860391698,-0.3930875005284988,-0.6746941000800264,-9.535910070463695,0.5044933485515456
GUIDED_NOGPS,1.173673152923584,31.505798930352743,332.42209202454217,-36.76269182146973,16.836619452943555,19.00323386962234,300,0,50,1.4762490193979354,-1.6768797431298306,91.11133575414178,-0.38132829045031347,-0.7391438234578545,-9.50161693481117,0.5044912965786137
GUIDED_NOGPS,1.206646203994751,30.335035366612182,334.33826151771825,-34.372530020817436,17.220551713035235,18.911702524710527,300,0,50,1.531721894846075,-1.5731900010096322,90.63557209731536,-0.36994722260221824,-0.7788213293914196,-9.455851262355264,0.5044856796966246
GUIDED_NOGPS,1.2389616966247559,30.95450150923623,334.46626522349095,-31.545783284542434,17.412529023168613,18.935537621865727,300,0,50,1.5469848063201148,-1.4579161513353867,90.30114554498402,-0.3538968318773676,-0.7804693235014604,-9.467768810932863,0.504503742692393
GUIDED_NOGPS,1.2737598419189453,28.745238601084207,336.09184576177034,-28.575305102922556,17.787750048809983,18.63942131303049,300,0,50,1.5706409530670422,-1.377336567715338,89.93605144327934,-0.3386645335640256,-0.8222806890679828,-9.319710656515245,0.5044950178243169
GUIDED_NOGPS,1.3033394813537598,33.814669697995775,336.91833020000087,-25.62947796529868,18.405425281409702,18.245066685682854,300,0,50,1.5536861823912493,-1.2989618545367343,89.62215643959306,-0.32139875830885767,-0.8413053526360579,-9.122533342841427,0.5044512502674627
GUIDED_NOGPS,1.3345942497253418,32.00805866955639,337.2435538238025,-22.862827982959555,19.235853958622084,17.8260955928756,300,0,50,1.519578031945204,-1.281568671093591,89.25933679088199,-0.3075621860154249,-0.8507009172347401,-8.9130477964378,0.5043911007825838
GUIDED_NOGPS,1.3676307201385498,30.275476764497828,337.16902154311504,-19.777934313730565,19.943755786272693,17.45336354411461,300,0,50,1.3725733645429004,-1.2556325218243485,88.94533933435815,-0.29021299644877,-0.8528703812314846,-8.726681772057304,0.5043555432691523
GUIDED_NOGPS,1.4049632549285889,26.79090682626775,337.3741712102728,-16.713117898042597,20.478125841782017,17.086186931832444,300,0,50,1.2672562231312408,-1.2059023413643088,88.47648099878263,-0.2743733371087547,-0.8633069839963063,-8.543093465916222,0.5043419998580838
GUIDED_NOGPS,1.4343366622924805,34.0515851430891,337.3788492027729,-13.78790214855143,20.859638667531957,16.59715719942006,300,0,50,1.1888876998115723,-1.150338752466255,88.12255425637092,-0.2561191693003252,-0.8672718584769308,-8.29857859971003,0.5043310517796593
GUIDED_NOGPS,1.4679760932922363,29.739876482808988,337.90069299009076,-10.860889732294462,21.23597934880836,15.999736782948005,300,0,50,1.1176949305452368,-1.0745798950180603,87.63307557969112,-0.24063817525258707,-0.8843372720245357,-7.999868391474003,0.5043241247084967
GUIDED_NOGPS,1.500619649887085,30.64174982831928,338.1558945039743,-8.008943207471196,21.703855824436044,15.38739612858906,300,0,50,1.0435830024606616,-0.951759433362891,87.31056770746146,-0.2241274271377025,-0.8936476596256345,-7.69369806429453,0.5043018896854757
GUIDED_NOGPS,1.5389313697814941,26.106059851615793,338.3664205343533,-4.911832038348143,22.185044550838143,14.726749596664424,300,0,50,1.0939587425189732,-0.8125977974793192,86.81092570929668,-0.2066655145796028,-0.9035107166675397,-7.363374798332212,0.5042875738688725
GUIDED_NOGPS,1.572808027267456,29.525292486167622,338.67321254477173,-1.9872080991252863,22.747095398208874,14.083261098931974,300,0,50,1.0442303763279317,-0.7430808257980169,86.46710081666741,-0.1887213424461972,-0.9152438092101994,-7.041630549465987,0.5042550213654673
GUIDED_NOGPS,1.603635311126709,32.447078117989264,339.19738444007453,1.0382118187328484,23.329399526114752,13.753599460698073,300,0,50,0.9500813412611835,-0.7198240850349764,86.13126041517789,-0.1693384288036437,-0.931364273389339,-6.8767997303490365,0.5042192811712413
GUIDED_NOGPS,1.638993740081787,28.290574538979346,339.64458864028575,3.915920510736606,23.978600322019535,13.279544140506914,300,0,50,0.7801132577041798,-0.7126129527361768,85.6894769494723,-0.15335990499189653,-0.9454693350197366,-6.639772070253457,0.5041822760969286
GUIDED_NOGPS,1.6714715957641602,30.800610974033603,340.10607800433775,6.956548981417387,24.706567147689796,12.76452852945979,300,0,50,0.693071941603329,-0.7331989294511836,85.32312609296032,-0.13338392951785308,-0.9600630400262116,-6.382264264729895,0.5041301599930806
GUIDED_NOGPS,1.7048866748809814,29.934511404835995,340.126960249033,9.81237686419801,25.265938203853423,12.343748351650232,300,0,50,0.5573935954747578,-0.7261404091916515,85.04519203525416,-0.11620114882239978,-0.964437968692132,-6.171874175825116,0.5041042991970783
GUIDED_NOGPS,1.7349553108215332,33.26199256140017,340.8982025121948,12.715102686469868,25.64232635649582,11.830047885698624,300,0,50,0.5035315240928305,-0.719245653389641,84.71575152101693,-0.09694780404418067,-0.9873138734931127,-5.915023942849312,0.504093443395869
GUIDED_NOGPS,1.7672643661499023,30.95998523712862,341.1416618174616,15.458507151609444,25.735680437429824,11.120253854412775,300,0,50,0.4819680832745714,-0.7016197632670412,84.33121870093439,-0.08030245048599052,-0.9957031123233054,-5.560126927206388,0.5041169968286521
GUIDED_NOGPS,1.801180362701416,29.49352722363249,340.6091057371796,18.232225734846832,25.924093125042628,10.679483275344861,300,0,50,0.4750725804206204,-0.7027631796227837,84.0739049843325,-0.06251947571665653,-0.9882320278841453,-5.3397416376724305,0.5041199870548594
GUIDED_NOGPS,1.834672451019287,29.863962918396265,339.96193741523206,20.85592802677279,26.173235228530917,10.18627874720058,300,0,50,0.47708930049477244,-0.807805512642056,83.81452855060125,-0.04545866181910086,-0.9802932613924207,-5.09313937360029,0.5041171852934915
GUIDED_NOGPS,1.8688712120056152,29.244291361915455,340.2503853275796,23.3218371020796,26.44940766619871,9.618305173870805,300,0,50,0.37169974840574016,-0.8976714854906774,83.59211710065813,-0.029377509830207132,-0.9943572019463083,-4.809152586935403,0.504113194512007
GUIDED_NOGPS,1.9110307693481445,23.725451820007354,339.01844332855546,25.474422455870453,26.36593179795656,9.108584497788332,300,0,50,0.3518542602462979,-1.070008897637735,83.21556194152616,-0.0159556238468527,-0.9725054573421481,-4.554292248894166,0.5041613722147615
GUIDED_NOGPS,1.9446866512298584,29.717751420595445,338.47063530789507,27.652674138133378,25.98442196280102,8.480425009376273,300,0,50,0.2752942696332283,-1.1759434241173403,83.01008936072466,0.0006905424191834281,-0.9680433021114926,-4.240212504688136,0.5042331416863515
GUIDED_NOGPS,1.9764025211334229,31.539914576189616,338.60980541448544,29.903235885728495,25.557124264894668,7.831155112174774,300,0,50,0.2240280703423026,-1.276063325179149,82.7612655692611,0.01711746970100303,-0.9777768206467988,-3.915577556087387,0.5043012579976077
GUIDED_NOGPS,2.0071020126342773,32.58395158596366,338.45896245033555,32.15506963524102,25.072119608604456,7.0239394000297235,300,0,50,0.19654100122400442,-1.2581191375690561,82.6252901632645,0.033222663189849636,-0.9785461737342306,-3.5119697000148618,0.5043749994473172
GUIDED_NOGPS,2.0376365184783936,32.766976031999,337.57500752967815,34.02667805625688,24.68530324182096,6.271551325788984,300,0,50,0.2618369826993049,-1.2908079960499141,82.46681611414185,0.045734265769928124,-0.9630507999925348,-3.135775662894492,0.5044337208210207
GUIDED_NOGPS,2.0689494609832764,31.94735238559503,338.09982394821753,35.549125429884924,24.32557392244202,5.389576922822412,300,0,50,0.22743601457302162,-1.311340291746913,82.3687482580388,0.05627574064576075,-0.9828844820186357,-2.694788461411206,0.5044926006188029
GUIDED_NOGPS,2.1020023822784424,30.25844058405956,336.3781092037881,36.857797559284315,23.960312009755196,4.953681902729327,300,0,50,0.2793485471945862,-1.3276611354903642,82.2365294560857,0.0661341365669487,-0.9464127861460109,-2.4768409513646636,0.5045545469197066
GUIDED_NOGPS,2.135193347930908,30.14167139767019,335.3997662796422,38.33914788714398,23.715184325144904,4.437057244730364,300,0,50,0.3354891803558002,-1.34098149847577,82.13394684494128,0.07859819789657,-0.9337761500416966,-2.218528622365182,0.5046015896657727
GUIDED_NOGPS,2.168523073196411,30.004320766864584,335.4430235323749,39.980047464117604,23.46291325290011,4.0078169108032355,300,0,50,0.3801540818551879,-1.4124474753089058,82.02801061091438,0.09209205056930388,-0.9424589683773898,-2.0039084554016178,0.5046535727935334
GUIDED_NOGPS,2.201997756958008,29.880557672990474,335.91455353704066,41.5357156491071,23.543885861261856,3.486845897766456,300,0,50,0.5229680546757184,-1.4294435472848364,81.90509452661084,0.10449948555797137,-0.9579771506565924,-1.743422948883228,0.5046620706279538
GUIDED_NOGPS,2.2340781688690186,31.18070712777662,334.4818780103144,42.51543370773951,23.31410538712602,3.1635265496323717,300,0,50,0.637449388962831,-1.3567178274366563,81.85357440970142,0.11205676436429718,-0.9278568401921358,-1.5817632748161858,0.5047202783440191
GUIDED_NOGPS,2.2650272846221924,32.32330207073004,334.9830044004696,43.44086489875344,23.16096979677879,2.8287411177434807,300,0,50,0.8581513706227489,-1.2538965865581073,81.7805801780415,0.12076582700016228,-0.9482960290513531,-1.4143705588717403,0.5047582263920162
GUIDED_NOGPS,2.2971158027648926,31.170742945473734,335.74775849849476,44.65506576761968,23.151688343678156,2.563824497325659,300,0,50,1.0519492371419867,-1.132125519435887,81.71182066366698,0.1322746153977491,-0.9689432162508673,-1.2819122486628296,0.5047803767834028
GUIDED_NOGPS,2.326728343963623,33.775458601085504,336.06367273750845,46.265313357372804,23.45678554053119,2.202989641649066,300,0,50,1.1408313425850087,-1.0232410982867768,81.7120460599096,0.146877842843733,-0.9782326177650352,-1.101494820824533,0.5047629740361088
GUIDED_NOGPS,2.3598990440368652,30.156841598182382,336.9071135876287,47.284958328658604,23.6608432659373,1.647931622898635,300,0,50,1.2829019453639185,-0.9792509447721923,81.68316118990961,0.15441220703189093,-1.0014676347876743,-0.8239658114493175,0.5047727510870168
GUIDED_NOGPS,2.394463062286377,28.94000593385818,338.95626654975314,47.92490966412055,23.811665186700143,0.8947621318727865,300,0,50,1.224991866320848,-0.9559494342535765,81.68292213328866,0.1609954850627246,-1.0512101629523587,-0.44738106593639326,0.5047867004838738
GUIDED_NOGPS,2.424984931945801,32.767744001999986,339.6333566667473,48.208064545512,24.08144554004723,0.14369602926641506,300,0,50,1.2417746016069215,-0.8859173702593202,81.66876315113922,0.1653104238126766,-1.0658968342275315,-0.07184801463320753,0.5047790319300466
GUIDED_NOGPS,2.4618208408355713,27.154980641986818,338.0091663672607,48.446971140470964,24.4729964092199,-0.49108462693259936,300,0,50,1.3238029323829532,-0.7944895252465872,81.65359330099263,0.17073357264169972,-1.0323460549365482,0.24554231346629968,0.5047661088669883
GUIDED_NOGPS,2.494245767593384,30.867479632914094,336.8816653352631,49.04740215154144,25.20867590221144,-0.8147005320133959,300,0,50,1.316527713699832,-0.7512877783334633,81.65881839570768,0.17935091730281685,-1.015520673652371,0.40735026600669794,0.5047045860354693
GUIDED_NOGPS,2.526859760284424,30.661910053219486,335.7541643032655,49.549659014270674,25.82467675456733,-0.840269272743009,300,0,50,1.2842678764762154,-0.8040880754645708,81.72043353221036,0.1859353898591886,-0.9976821934383604,0.4201346363715045,0.5046705878324194
GUIDED_NOGPS,2.5572924613952637,32.86428207639569,335.69465437396036,50.33795272523239,26.533106847718695,-0.8752765642550772,300,0,50,1.2465228637405497,-0.8245658897307682,81.75392877990011,0.19540053127385862,-1.0041064005283207,0.4376382821275386,0.5046168965285185
GUIDED_NOGPS,2.589689016342163,30.87634163219034,334.66273829139465,50.19387073050796,26.678528611717297,-0.8400035878266487,300,0,50,1.231725258903717,-0.8692113678797037,81.76176983706729,0.19539516246003638,-0.984936941238396,0.4200017939133244,0.5046436067410351
GUIDED_NOGPS,2.624513864517212,28.73795135320315,335.1686205918537,50.3384184334658,26.883635262273838,-0.8427912829833645,300,0,50,1.2443925917714462,-0.8629161746207733,81.78878323523469,0.20133307910197829,-1.00460649000219,0.42139564149168224,0.5046458781359331
GUIDED_NOGPS,2.658707618713379,29.259592041744565,333.6935740881629,50.01663091496503,26.807720277830143,-0.7192543446839025,300,0,50,1.2500999618749324,-0.8526354592594347,81.85091063592512,0.20210731352411912,-0.9738707316504756,0.35962717234195124,0.5046851814604404
GUIDED_NOGPS,2.6970443725585938,26.081060577796016,333.37739808921157,50.39789814839091,26.82068977951707,-0.708747942613137,300,0,50,1.2743744541851576,-0.8301536781629262,81.90304546985983,0.21100775363705132,-0.9762442653179645,0.3543739713065685,0.5047082019929123
GUIDED_NOGPS,2.7277867794036865,32.538198969775955,333.5749966979473,50.65426863045597,26.880424143375645,-0.7735609387194814,300,0,50,1.2160129423266317,-0.8573746500480716,81.9620241533429,0.21609681471285716,-0.9857436946649072,0.3867804693597407,0.504721665073375
GUIDED_NOGPS,2.759509325027466,31.53327519321565,335.4466603459382,51.135185772179646,27.006980385613392,-1.1292538345400074,300,0,50,1.1771562095818406,-0.9053635591565811,82.01573676097587,0.22351930720756244,-1.0329419510690525,0.5646269172700037,0.5047285592975739
GUIDED_NOGPS,2.795743942260742,27.602276989898325,335.50065776087047,50.9546052848627,26.946536642562354,-1.7185775713888714,300,0,50,1.072263500394074,-0.9010904220570919,82.05205970698199,0.22494070589962398,-1.0334531336413861,0.8592887856944357,0.504765876110976
GUIDED_NOGPS,2.828030586242676,30.982626167119726,336.6390667427419,50.498232290708415,26.986421826558665,-2.4003271153195787,300,0,50,1.00481634283555,-0.8465662492124966,82.0709861611721,0.22516465621884182,-1.0643275979359752,1.2001635576597893,0.504781199509176
GUIDED_NOGPS,2.8618581295013428,29.567752759879877,336.6186052198738,50.04185929655413,27.026307010554973,-2.9365818746120658,300,0,50,0.9622311805775784,-0.7524261254081811,82.1163112965043,0.22650252671059298,-1.0652168027281619,1.4682909373060329,0.5048003269562572
GUIDED_NOGPS,2.9014275074005127,25.277398436699592,335.81269736284924,49.92831757932203,27.288765617775663,-3.3140597568356887,300,0,50,0.895625096782318,-0.680813726394713,82.14437654380389,0.2316922692022253,-1.0528721753366144,1.6570298784178443,0.5047959523227913
GUIDED_NOGPS,2.933137893676758,31.544658704611773,334.86087507575337,49.792986714745844,27.461255082293476,-3.381606105172904,300,0,50,0.744046176987663,-0.6350281936237673,82.18908696211079,0.23451751482212246,-1.0372547950918354,1.690803052586452,0.5048012088614948
GUIDED_NOGPS,2.965798854827881,30.62675886643933,335.00403053823607,49.657655850169654,27.63374454681129,-3.107531520404179,300,0,50,0.6525088888656513,-0.5680376982442822,82.22337451174425,0.23760676710602535,-1.0481331875234816,1.5537657602020896,0.5048060163559631
GUIDED_NOGPS,3.0017149448394775,27.84859007642204,334.7975056560596,49.30792366182347,28.026320123595166,-2.809948787243176,300,0,50,0.5663796164624086,-0.5107943630580813,82.22743847430041,0.2392063877313884,-1.047995192912163,1.404974393621588,0.5047848359087946
GUIDED_NOGPS,3.0335750579833984,31.400601913546048,334.5826632212767,49.02928524111784,28.484254292514464,-2.4908075390217923,300,0,50,0.4217690904467533,-0.4417541439169313,82.26104300501687,0.24135987037364454,-1.047981785292362,1.2454037695108962,0.5047559869468797
GUIDED_NOGPS,3.063951015472412,32.96838597097986,335.07365203499546,48.96120191492366,29.215736348700954,-2.081414860377413,300,0,50,0.3924409785222326,-0.3804332124766593,82.2648884015196,0.2451963640553717,-1.0643717609464587,1.0407074301887065,0.5046923770818293
GUIDED_NOGPS,3.0960447788238525,31.160322130100145,335.44444853578483,48.889054474083046,29.88415649966142,-1.7579045755799663,300,0,50,0.2663661985318167,-0.2749468104396303,82.2828108179017,0.2485397630637245,-1.075896441145897,0.8789522877899831,0.5046481494369983
GUIDED_NOGPS,3.1359944343566895,25.039424982687393,335.7415088636368,48.782287472168925,30.595481035967836,-1.6344361334083515,300,0,50,0.12700960877220852,-0.2928893972241365,82.33419433102772,0.252508831612211,-1.0871164640574233,0.8172180667041757,0.5046030267410703
GUIDED_NOGPS,3.1677358150482178,31.51479449996243,336.0662242230854,48.35221471267272,31.16527552384937,-1.4773106906729256,300,0,50,0.012005858395082471,-0.23555732293957835,82.37215652243465,0.2525484273657677,-1.0984819060738367,0.7386553453364628,0.5045640883194008
GUIDED_NOGPS,3.2003536224365234,30.663927534854476,335.7534279136017,47.87325400109196,31.57533367885949,-1.248252503427943,300,0,50,-0.07827208691828173,-0.28348259923101576,82.36964301282008,0.25328620274657215,-1.0948956716417377,0.6241262517139715,0.5045463129953179
GUIDED_NOGPS,3.233259439468384,30.43011158349899,334.41735745106337,47.38694563951261,31.835135431702213,-0.998090389187183,300,0,50,-0.2028115684493257,-0.29332386128837273,82.43907188573326,0.25408427732511657,-1.0695705653906462,0.4990451945935915,0.504542874024666
GUIDED_NOGPS,3.262892007827759,33.73308240441378,334.3007411246599,47.140769393170814,32.203183995073346,-0.7532955364105745,300,0,50,-0.23951371001630822,-0.36770045920328615,82.45245905650648,0.2566348861582938,-1.0750108088471586,0.3766477682052872,0.5045175451367884
GUIDED_NOGPS,3.295536756515503,30.639511439675072,334.2578609711938,47.16342869404625,32.5182647528321,-0.39731975955009746,300,0,50,-0.22490318832971049,-0.44634707260779466,82.51613691013851,0.26136259386217087,-1.0788876778263277,0.19865987977504873,0.504505867320257
GUIDED_NOGPS,3.325486898422241,33.40078837348198,333.28465150382624,46.85844495827498,32.63965062874658,-0.023410188516914232,300,0,50,-0.2488290208271478,-0.544899952183188,82.56037604539269,0.26180193996141204,-1.060274331025704,0.011705094258457116,0.5045148735118209
GUIDED_NOGPS,3.356152057647705,32.61892133608119,332.95727125799755,46.42607977033679,32.52077185529035,0.32646157219457456,300,0,50,-0.15245994749652061,-0.656301244680595,82.63274189964898,0.26223993333432455,-1.0599641591255264,-0.16323078609728728,0.5045507927071474
GUIDED_NOGPS,3.3909692764282227,28.72948703020008,334.47774323972294,46.303934482874574,32.457544520784836,0.5659794580860961,300,0,50,-0.08022034501817497,-0.7196699788918279,82.74982500240134,0.26643421122882155,-1.1006089140074324,-0.28298972904304803,0.5045733820249636
GUIDED_NOGPS,3.427353858947754,27.49119414822146,335.37742361462654,46.57655257904501,32.37295639191233,0.7959037549622189,300,0,50,0.0812948725128355,-0.8847617876291186,82.86664855796523,0.2732333780865255,-1.121853984509891,-0.39795187748110944,0.5046015708038161
GUIDED_NOGPS,3.457374334335327,33.315625595729806,336.34028077411267,46.67801435225342,32.04452734973364,1.0150994920032472,300,0,50,0.08494810324407995,-1.0013406303216599,82.98802101951635,0.2768079571997749,-1.146212473766393,-0.5075497460016236,0.5046592232473669
GUIDED_NOGPS,3.4911279678344727,29.636697662587263,338.55920186817764,46.286252121050275,31.552080250334654,1.1763086561094271,300,0,50,0.1368414392988171,-1.1339902678010063,83.10580080156406,0.2766906605830119,-1.1991846353987958,-0.5881543280547136,0.5047308353373406
GUIDED_NOGPS,3.5249338150024414,29.586524082277588,339.511867078628,45.46973424364185,30.77166863971314,1.3009027435309668,300,0,50,0.1718975586366794,-1.261557497485923,83.21155945067254,0.27424046987303774,-1.2198031624492063,-0.6504513717654834,0.5048368096966983
GUIDED_NOGPS,3.556835651397705,31.353656166370147,339.3213109840634,44.75519298401832,30.07622914014766,1.4864059860010086,300,0,50,0.2087287801068046,-1.4163175245256585,83.39242285989447,0.27356286849508604,-1.217610189693037,-0.7432029930005043,0.5049241678624781
GUIDED_NOGPS,3.5876505374908447,32.45787514606533,339.21178859390955,44.01919185418879,29.246128706428806,1.562964282905017,300,0,50,0.25675689610197566,-1.5113016569401467,83.5441555123063,0.2722471391412006,-1.220491783533607,-0.7814821414525085,0.5050315492476298
GUIDED_NOGPS,3.627568483352661,25.064712947967898,339.7394494804813,43.693604766981366,28.67895412211004,1.6464359460221876,300,0,50,0.2923151810861794,-1.5740756844459125,83.61884363088039,0.2760078704682441,-1.2390222480860449,-0.8232179730110938,0.5051009584016779
GUIDED_NOGPS,3.6577320098876953,33.15629125461459,339.3717794881517,43.001497726828575,27.974717721976674,1.7272161039975593,300,0,50,0.4853336056272423,-1.7014189052703939,83.81151643717729,0.2735539041534567,-1.233929517548586,-0.8636080519987797,0.5052002879773322
GUIDED_NOGPS,3.687466859817505,33.64028199966314,342.12386025983443,42.47546544124316,27.525552193606302,1.51599195914085,300,0,50,0.5050527886478923,-1.7637241043226617,83.95975886292324,0.27391840491430075,-1.3044533936268563,-0.757995979570425,0.5052572441120528
GUIDED_NOGPS,3.7177906036376953,32.981866792482506,343.0194175116784,41.4957803669648,26.896882096280223,1.3172087734794433,300,0,50,0.5439127764047096,-1.8525714184895992,84.04695305786763,0.2696298572767207,-1.3212674098479504,-0.6586043867397217,0.5053467187797991
GUIDED_NOGPS,3.7514219284057617,29.743039895616164,343.7266997948209,40.70236025899627,26.35537415759322,1.1566149795165592,300,0,50,0.47021402140406704,-1.9134695985728443,84.17063412335821,0.2689995951501537,-1.3404493127964165,-0.5783074897582796,0.5054201666356093
GUIDED_NOGPS,3.784288167953491,30.434748536059733,344.0828789515389,39.71027384791139,25.73870803254924,0.9886354291738009,300,0,50,0.5150157934911195,-1.953200595531397,84.25793077114015,0.2655162606993954,-1.352337239347908,-0.49431771458690044,0.5055083722435615
GUIDED_NOGPS,3.8191077709198,28.7255518344257,342.65672574993744,38.607630621168774,24.916524759917706,0.8890428980185503,300,0,50,0.4475780808035572,-2.035555601448826,84.38398191227273,0.2619699032686551,-1.3245536141866177,-0.44452144900927515,0.5056216093475252
GUIDED_NOGPS,3.852856159210205,29.640467542012352,342.63187378037,38.028652524303375,24.513514707071312,0.8263032597238065,300,0,50,0.4531219532537861,-2.08779246133426,84.43457312345501,0.26304114393256944,-1.3338510537566068,-0.41315162986190324,0.5056760157813481
GUIDED_NOGPS,3.888157606124878,28.334148483415525,343.33881559015634,37.42415117823396,24.058223100464076,0.7538766513741798,300,0,50,0.32138393258522474,-2.117015639141571,84.52540780922702,0.26257670043577575,-1.3561783603539213,-0.3769383256870899,0.5057499662136404
GUIDED_NOGPS,3.9190351963043213,32.39595273036225,342.1315930561533,36.931608010373814,23.990478729705803,0.8441429028173543,300,0,50,0.28342243486938146,-2.117032928057908,84.58678388910874,0.2624860333935585,-1.3313373407879925,-0.42207145140867713,0.5057701452143383
GUIDED_NOGPS,3.9497084617614746,32.61004509407557,339.571474689851,35.759913606109535,23.65758653799657,1.121236576694144,300,0,50,0.20361584990452117,-2.1500889092066537,84.65479208267458,0.25585885381337253,-1.2805426115373157,-0.560618288347072,0.5058363331410869
GUIDED_NOGPS,3.981377601623535,31.581236352684286,340.4531609666513,34.956440872117504,23.506814144924835,1.3582508363325967,300,0,50,0.1867434683855914,-2.1790322627014063,84.68244068843478,0.2550016870115164,-1.3144441968896245,-0.6791254181662983,0.505870575184642
GUIDED_NOGPS,4.0158631801605225,29.004647045806596,338.82151345843215,34.65158997045043,23.548393691086826,1.7983624763124997,300,0,50,0.145976150303048,-2.1505183573507183,84.77573424230799,0.2576731923152768,-1.2796379626883865,-0.8991812381562498,0.505887766313844
GUIDED_NOGPS,4.048904657363892,30.27329156682161,337.6837506968694,34.588702976619125,23.63755912208912,2.263531941988589,300,0,50,0.288450841480686,-2.0675802240328998,84.83409820876574,0.2607316490017563,-1.2631544593926836,-1.1317659709942944,0.505903462388957
GUIDED_NOGPS,4.080670118331909,31.484750444763055,338.20072849926265,34.32725186085437,23.65611642556676,2.702081949679788,300,0,50,0.36211069641957117,-2.0279937282639753,84.88593934456614,0.2611595561530189,-1.2834337004128025,-1.351040974839894,0.5059289193557268
GUIDED_NOGPS,4.1139445304870605,30.06173892476509,339.2088143153128,33.80244601271438,23.555021525623005,2.6108220187389453,300,0,50,0.4319885475489733,-1.9498055646270775,84.95782708558052,0.25994399101020066,-1.3102172349318313,-1.3054110093694726,0.5059689977381647
GUIDED_NOGPS,4.146001100540161,31.205993735445325,340.36033838490823,33.60590072265465,23.70528030473002,2.5190367951724695,300,0,50,0.4215003118307427,-1.8773161266354974,85.05289648863793,0.2623137615488575,-1.3389771355351028,-1.2595183975862347,0.5059714908501293
GUIDED_NOGPS,4.177181243896484,32.07561772060904,338.9427685109523,33.12395157711841,23.763148419845674,2.5628431160574707,300,0,50,0.5000114687101881,-1.7606927809916455,85.14771317469605,0.26097704228026597,-1.3073585868081994,-1.2814215580287354,0.5059931360765779
GUIDED_NOGPS,4.211621522903442,29.044616332777043,338.6134859445513,32.893440180941575,24.18397794021259,2.3162982613282583,300,0,50,0.5250676441544097,-1.736131740901397,85.20365242399845,0.2631764851455458,-1.3096557088359395,-1.1581491306641292,0.5059672488068622
GUIDED_NOGPS,4.244239568710327,30.665272670112664,338.6253997252351,32.465990041636715,24.530608655815826,2.041325609027953,300,0,50,0.497278432546831,-1.696295943227767,85.30991650710551,0.26251249851860886,-1.3159268272711595,-1.0206628045139765,0.5059591210479001
GUIDED_NOGPS,4.27862024307251,29.100233811826577,338.69198477415034,32.235006671094055,25.180470404080314,2.036119398490167,300,0,50,0.5679372731191418,-1.7034915475183754,85.38890081466754,0.26441708591587093,-1.3227236007453824,-1.0180596992450834,0.5059113499134094
GUIDED_NOGPS,4.3117287158966064,30.212451468374308,337.7479711210684,31.857794189573735,25.798801854368737,2.018513776033957,300,0,50,0.6371378683036549,-1.6941315203128133,85.48020678349226,0.2642344474593956,-1.305829003885905,-1.0092568880169785,0.505874003183591
GUIDED_NOGPS,4.346219778060913,29.00203981441146,338.49480586434026,31.344460550746305,26.37792915157195,1.9607967840457559,300,0,50,0.7949132637793925,-1.7346822466934733,85.48435270831847,0.2633831848996707,-1.3310721466868285,-0.9803983920228779,0.5058422181608974
GUIDED_NOGPS,4.377762079238892,31.70585389453314,338.0565438078477,30.86314722310773,26.81499207196377,2.243995200856712,300,0,50,0.8740903641029142,-1.7137505983734402,85.54409637298856,0.26281912820785774,-1.323580195862914,-1.121997600428356,0.505823626635991
GUIDED_NOGPS,4.4116904735565186,29.48399024301089,337.07384723637523,30.381677386986578,26.93186755008456,2.525607387827798,300,0,50,1.1198545509834303,-1.7649877960408198,85.5900772064811,0.2624650444266149,-1.3073661053385295,-1.262803693913899,0.5058454953078985
GUIDED_NOGPS,4.4482581615448,27.35261050462365,336.4869115234781,29.910334443361425,26.96147185769558,2.9442929612303663,300,0,50,1.1865270156796865,-1.836182166132742,85.63279320955036,0.2624266072623169,-1.3023206075150708,-1.4721464806151832,0.5058706152119222
GUIDED_NOGPS,4.481069087982178,30.485405279683683,335.9649403198541,29.566822020605965,26.751766498512165,3.3474559179370567,300,0,50,1.2223216892421962,-1.8501456341171867,85.63417973795187,0.26293470652447165,-1.296617708031507,-1.6737279589685283,0.5059216938717221
GUIDED_NOGPS,4.511367321014404,33.015617128463475,335.0216052981523,29.285419598804438,26.539204558776778,3.75074636073703,300,0,50,1.151277263146897,-1.931401193021655,85.60967301920986,0.2634879654219956,-1.2804598172601862,-1.875373180368515,0.5059648897604506
GUIDED_NOGPS,4.542989015579224,31.627912588414496,335.67687670745255,29.377219329601516,26.205652469692115,4.008566042331322,300,0,50,1.0478034190374947,-1.9520817251679843,85.60651747181332,0.26749503082264203,-1.3032760240488421,-2.004283021165661,0.5060243799938747
GUIDED_NOGPS,4.576777219772339,29.60364760520038,336.56704534685133,29.419648373588092,26.13689838955879,4.1079859468027315,300,0,50,0.9688468591189704,-2.0448655761743764,85.56809082754282,0.26996979252968567,-1.326588917650321,-2.0539929734013658,0.506046948551676
GUIDED_NOGPS,4.609563589096069,30.50846668606343,337.2970513238179,29.53286929278268,25.973689252522647,3.829410657941529,300,0,50,0.9459500373086778,-2.0780402318599513,85.56004486470054,0.27318471728776245,-1.3456597249393074,-1.9147053289707645,0.5060897684177383
GUIDED_NOGPS,4.647795915603638,26.164360660237296,337.3130178984583,29.43040388248184,25.84868721849266,3.6184642790825494,300,0,50,1.020889272056471,-2.10437189177082,85.47817821730878,0.2746565873907027,-1.349493328022134,-1.8092321395412747,0.5061282486202364
GUIDED_NOGPS,4.677809238433838,33.3275381204758,338.8629023045783,29.556866192356427,25.6119201114585,3.302780803404988,300,0,50,1.1131438901238928,-2.117855112079248,85.43760006344974,0.27823409887639805,-1.3902787521612983,-1.651390401702494,0.5061785080307254
GUIDED_NOGPS,4.708906888961792,32.161455058505986,337.3273317194245,29.504566069533055,25.360473831298517,3.053114030986858,300,0,50,1.2924292054824402,-2.0950789925181943,85.38113488958123,0.27954244155300106,-1.3541483054835044,-1.526557015493429,0.5062268985028557
GUIDED_NOGPS,4.746556758880615,26.56808766706784,336.45378185657637,29.636940070481344,25.21279003680145,2.9009261246507583,300,0,50,1.4203574746980154,-2.105410934298308,85.28253427872293,0.2835273051666225,-1.3447434462687518,-1.4504630623253791,0.5062654662541658
GUIDED_NOGPS,4.779179573059082,30.656979548876578,335.77789465523426,29.72928721920809,25.10506014998617,3.032493408250101,300,0,50,1.5097424528186798,-2.0630893746536163,85.2463479365002,0.28634774624944853,-1.3361762542459057,-1.5162467041250505,0.5063000568861405
GUIDED_NOGPS,4.810496807098389,31.94224310595618,336.19794824566986,30.155002569821274,25.134690557577226,2.9817624520571666,300,0,50,1.6242823773222663,-2.0445846846447595,85.13526173983911,0.29224274873857997,-1.3525053230171,-1.4908812260285833,0.506316133752514
GUIDED_NOGPS,4.845815181732178,28.32171241432864,335.27094326866137,30.418533253945686,25.033860424154266,2.7781422837710954,300,0,50,1.6832257359207128,-2.0146812626847974,85.0477328656254,0.2957805657829838,-1.3349618329545574,-1.3890711418855477,0.5063564261302288
GUIDED_NOGPS,4.879109859466553,30.043220709266595,335.9465979801606,30.693496657082708,24.879194416733565,2.3103328044443603,300,0,50,1.6526176305374758,-2.0054509023517597,84.96665852017735,0.2999652437090347,-1.3579285654010715,-1.1551664022221801,0.5063988204879839
GUIDED_NOGPS,4.919755458831787,24.608827791761275,334.5234788938643,30.76268175650384,24.777350389547554,1.9400306485516765,300,0,50,1.666044715228663,-1.9536770012260054,84.63001215636577,0.30271695093036777,-1.3295189901000923,-0.9700153242758383,0.5064375255090323
GUIDED_NOGPS,4.954738616943359,28.590834418306624,333.81113008739305,31.112196370350546,24.830936710918547,1.56801237791739,300,0,50,1.6698346164443738,-1.9183201001006112,84.39061402595682,0.3082574632649393,-1.3214943136831254,-0.784006188958695,0.5064545870833234
GUIDED_NOGPS,4.9895195960998535,28.758838210690875,333.7091268897433,31.748951331534688,25.08071089442511,1.2396339693505354,300,0,50,1.550273008796947,-1.8351128146408118,84.06639177624548,0.3155620172660983,-1.3258848150450058,-0.6198169846752677,0.5064499696658579
GUIDED_NOGPS,5.016031265258789,37.74130096371015,333.44321536831904,32.64358847264568,25.465686748810793,1.1640244649206146,300,0,50,1.553043717722445,-1.7462394603776636,83.90251504748936,0.32455553101073203,-1.3233883604900298,-0.5820122324603073,0.5064235315614226
GUIDED_NOGPS,5.0459229946136475,33.45807275047862,332.42099649925046,33.447624909384714,25.762273006892503,1.3420086408974399,300,0,50,1.454778533185412,-1.5729700475740167,83.56200962679672,0.3310817770312696,-1.3044528639758515,-0.6710043204487199,0.5064204540470302
GUIDED_NOGPS,5.078150510787964,31.03765095903386,333.37484333585604,34.403090863923715,26.12847197446359,1.373023012061304,300,0,50,1.431846706655623,-1.443787478150392,83.27270330412249,0.3397674371293687,-1.3341895223520646,-0.686511506030652,0.5064053931280063
GUIDED_NOGPS,5.1101672649383545,31.242953340087002,334.18164537105406,35.77735580652162,26.62444225464505,1.4270054810276147,300,0,50,1.245974420894539,-1.3292459528212186,82.99565034081927,0.35209202563378994,-1.354257279606698,-0.7135027405138074,0.5063740333863582
GUIDED_NOGPS,5.150604009628296,24.736545981044944,333.88050970153023,37.35631198185641,27.28596220490787,1.284529913469555,300,0,50,1.0359393804491825,-1.1850762408112936,82.61072136976485,0.3647931682392314,-1.3504409950626746,-0.6422649567347775,0.5063345854167624
GUIDED_NOGPS,5.182058095932007,31.800567122082885,333.6536000208142,38.761353286783965,28.00341256828075,1.0010737787200212,300,0,50,0.8287802765312247,-1.0833606368046407,82.32037685833679,0.3767086166916223,-1.3501648650167581,-0.5005368893600106,0.5062771915148518
GUIDED_NOGPS,5.212156772613525,33.229579629541604,334.27063551603146,40.09904243010677,28.765831812534273,0.7164078913520402,300,0,50,0.6257479408932769,-0.9835581260958258,82.03003234690871,0.38761306622382197,-1.3694017611647689,-0.3582039456760201,0.5062175687219894
GUIDED_NOGPS,5.243645429611206,31.76636674846254,334.32986343707427,41.43088620466191,29.597111116399663,0.2460477169750967,300,0,50,0.3761926254974334,-0.8755408188061898,81.7537716855492,0.39851911397984874,-1.3730475229837744,-0.12302385848754835,0.5061526513168643
GUIDED_NOGPS,5.282207012176514,25.940083615763303,333.454533337064,42.79100569007765,30.425551238609923,-0.4959836524486236,300,0,50,0.15834284812559077,-0.664251531513637,81.41501479328409,0.40993659244230907,-1.3582297736199396,0.2479918262243118,0.5060972899281155
GUIDED_NOGPS,5.311966419219971,33.61547770751685,332.89106327459126,44.26090905241011,31.321270070636785,-1.0765662821823256,300,0,50,0.03845788704985926,-0.5337754416550884,81.18633322968289,0.4233248875548712,-1.3512503006898684,0.5382831410911628,0.5060157695566819
GUIDED_NOGPS,5.342312574386597,32.95983654866213,332.56489453094025,45.66210505295002,32.23447425381201,-1.8606526508652976,300,0,50,-0.051850674052850994,-0.4779615903569771,80.9750481578977,0.4347307464170744,-1.3495001008952252,0.9303263254326488,0.5059406570830484
GUIDED_NOGPS,5.3822431564331055,25.049294681143323,331.22094281456083,46.79524329564257,33.15767411350393,-2.660325750749213,300,0,50,-0.21795060270337963,-0.4846324440202582,80.7102212332088,0.44423484111743894,-1.3253196483586946,1.3301628753746064,0.5058755012395797
GUIDED_NOGPS,5.410336256027222,35.60771529475686,329.6339224788954,47.598368533022274,33.98093701164286,-3.1196146496560586,300,0,50,-0.32603406411038693,-0.49669893368443774,80.54437057978255,0.4522844327623113,-1.2946152900034236,1.5598073248280293,0.5058004383465328
GUIDED_NOGPS,5.444377183914185,29.394313586701333,328.1186135065381,48.264941394877646,34.639385215572474,-3.267762450133877,300,0,50,-0.3178146251353642,-0.5055678809608464,80.34983313184225,0.4593142507318181,-1.2693031974558349,1.6338812250669386,0.5057601109591444
GUIDED_NOGPS,5.478223562240601,29.545882966208552,326.75933833646684,49.217955542277956,35.17268272593323,-3.2892548293325374,300,0,50,-0.3886616694358206,-0.5196197678785311,80.13474364468938,0.4698876944738782,-1.2462525419531674,1.6446274146662687,0.5057257386039844
GUIDED_NOGPS,5.508920192718506,32.588002206562194,324.42290811073485,49.83719993396013,35.215743990993865,-3.05555721841887,300,0,50,-0.47621994547947677,-0.4918052098658294,80.01134944714393,0.476493597957059,-1.1988767046058388,1.527778609209435,0.5057492556509642
GUIDED_NOGPS,5.541423082351685,30.775750994232716,323.420864941168,50.60331234701838,35.20388963360372,-2.797166091837798,300,0,50,-0.494543368671064,-0.4711538661060314,79.90663581697846,0.4853754278378389,-1.1864324942564726,1.398583045918899,0.5057666570784868
GUIDED_NOGPS,5.573744297027588,30.947877929283987,322.769951617656,51.11819199627553,34.93465335084391,-2.8670814415691224,300,0,50,-0.611051988481201,-0.5065885139940873,79.83312932113078,0.4916392602123154,-1.1773601384477115,1.4335407207845612,0.5058160764061365
GUIDED_NOGPS,5.607362985610962,29.752745226002325,321.84504784168075,51.68980542493548,34.90419904261355,-2.9097969454857906,300,0,50,-0.7454570379380938,-0.5913202122992689,79.78177995895064,0.4993526702397909,-1.1611479012603998,1.4548984727428953,0.5058269673247179
GUIDED_NOGPS,5.641250133514404,29.519889642746545,320.66537881365196,52.09766821154512,34.814435848268225,-2.99403227919889,300,0,50,-0.7845649935782942,-0.5927639435350803,79.77353592062242,0.5055611708102622,-1.1396035711498638,1.497016139599445,0.5058531474789736
GUIDED_NOGPS,5.6733338832855225,31.171437914325633,319.2934777175106,51.92006115354158,34.62536494559948,-2.9866256669091324,300,0,50,-0.7735405346493648,-0.6454170180730624,79.75815433461156,0.506750749277354,-1.113862659759479,1.4933128334545662,0.5058901257210016
GUIDED_NOGPS,5.704707145690918,31.887118355431213,318.95555315351805,52.03397588988369,34.518356874236865,-3.24022004582878,300,0,50,-0.8185911817542996,-0.6653191220974217,79.8372274346328,0.5122585739450328,-1.112661023431085,1.62011002291439,0.5059129054482315
GUIDED_NOGPS,5.737163066864014,30.813056031031216,317.6179009626788,51.687790809156716,34.21068723686735,-3.269277055294085,300,0,50,-0.7031315295902884,-0.6785800410927073,79.91532381760273,0.5127957948196125,-1.08517707881765,1.6346385276470425,0.5059651284460323
GUIDED_NOGPS,5.769607782363892,30.82890974708014,317.6451607021262,51.78491247617216,34.161054498879906,-3.307951784680584,300,0,50,-0.7087001614762586,-0.7523244196225713,80.01467574926973,0.518767257025475,-1.092199206269254,1.653975892340292,0.5059775722794119
GUIDED_NOGPS,5.805391073226929,27.954572114102906,318.1013542229979,51.566798499457036,33.88763408248478,-3.3993753092153582,300,0,50,-0.7402949090294451,-0.8187346690877226,80.12381534201737,0.5209518848845717,-1.1050979856689445,1.6996876546076791,0.5060282704409156
GUIDED_NOGPS,5.838375806808472,30.337010060973405,319.3192764796376,51.148520740102505,33.72302909201974,-3.5247073472573107,300,0,50,-0.6600957882905074,-0.9226411629923631,80.25731821953443,0.5218425095294371,-1.1344148998315042,1.7623536736286554,0.5060581613900639
GUIDED_NOGPS,5.870527267456055,31.105553948724793,318.6972729244982,50.291622953341346,33.332491203468884,-3.403594173558896,300,0,50,-0.6318199257045652,-0.9656131914337925,80.32185667700188,0.519200973513811,-1.1187688328909673,1.701797086779448,0.5061204652097694
GUIDED_NOGPS,5.9086785316467285,26.218332749912488,320.21474380899417,49.43894362446016,33.08944204546866,-3.358973695655306,300,0,50,-0.514737676725853,-1.1322767440929795,80.44832445967384,0.5190264175456833,-1.158111061546712,1.679486847827653,0.5061583660803953
GUIDED_NOGPS,5.9380202293396,34.09254879010299,319.8815928204964,48.500009955522906,32.57309968154983,-3.424248127637589,300,0,50,-0.4378688601766783,-1.1536863989332076,80.53843514539382,0.5158288939132812,-1.1486548083882133,1.7121240638187945,0.5062365654335046
GUIDED_NOGPS,5.969816446304321,31.45924620288768,319.7321889169474,47.982697101313796,32.13057052250843,-3.4752021513357674,300,0,50,-0.2862815093672665,-1.1965975960023416,80.56990865708923,0.5179721742738272,-1.1488472403714416,1.7376010756678837,0.5062941411021142
GUIDED_NOGPS,6.00293755531311,30.197877518107333,320.1832343716366,47.21582882228149,31.517012398716634,-3.597929069283006,300,0,50,-0.24379095590147004,-1.1956004951052255,80.65246515358717,0.5164377587178307,-1.162374128595014,1.798964534641503,0.5063784804253401
GUIDED_NOGPS,6.034627199172974,31.56388702843855,320.2782488651055,46.49894050154228,31.02204870451952,-3.6733376922715975,300,0,50,-0.21960121396584842,-1.1635609314823419,80.69690236432729,0.5157305492631731,-1.1657858720742222,1.8366688461357987,0.5064431257616324
GUIDED_NOGPS,6.0693604946136475,28.79635300094745,319.05621547551146,45.61832652047076,30.441747978252206,-3.6047401171624616,300,0,50,-0.12813727033613498,-1.1162778797358708,80.7492625945046,0.5139830006380338,-1.1401834227820276,1.8023700585812308,0.5065226443642878
GUIDED_NOGPS,6.101878643035889,30.761756681432804,319.0389037647229,44.886368784621176,29.846041526923756,-3.454436125117547,300,0,50,-0.18598670476989512,-1.0862064778110088,80.79521610724045,0.5133557578664139,-1.1457652840796564,1.7272180625587734,0.5066035067581244
GUIDED_NOGPS,6.133439302444458,31.69507227977904,318.978020592954,44.628223339381826,29.70378722249389,-3.296332172213165,300,0,50,-0.12230164742272599,-0.9749012882096578,80.79754520174741,0.5166226786110946,-1.1468007385487116,1.6481660861065826,0.5066230565829447
GUIDED_NOGPS,6.167886972427368,29.0361714352964,318.9480152409245,44.50382897259234,29.729173046595633,-3.1441064428042784,300,0,50,-0.21052522658022374,-0.9587493849264586,80.85455679074951,0.5199393382657072,-1.1488680789616734,1.5720532214021392,0.5066358190524772
GUIDED_NOGPS,6.199064493179321,32.085187111777486,318.3035042416012,43.90729577796399,30.004995110744705,-2.88860956051168,300,0,50,-0.19063110000337155,-0.8913286409901157,80.86133916859534,0.5182087106122487,-1.1363727013976772,1.44430478025584,0.5066194188908145
GUIDED_NOGPS,6.235076427459717,27.774272583998833,317.61579929135553,43.20106481606044,30.21715223898043,-2.546206775415091,300,0,50,-0.2037622720848533,-0.7901772746419291,80.91308468174735,0.5176162144723554,-1.1252697263647662,1.2731033877075455,0.5066223406645951
GUIDED_NOGPS,6.268631219863892,29.810898597695758,316.0709203771121,42.27209200543904,30.456824126160196,-2.1014305728131473,300,0,50,-0.16159495198544244,-0.6861784131009349,80.93899841945839,0.5146352995265614,-1.0938304502593805,1.0507152864065736,0.5066167774079298
GUIDED_NOGPS,6.299664735794067,32.23313147459346,315.72855655605605,42.2345319483764,30.943279454301166,-1.6604411065056308,300,0,50,-0.18217377834616194,-0.6392779053088374,80.9725892897965,0.5201269666386882,-1.0923661506735627,0.8302205532528154,0.5065765389093758
GUIDED_NOGPS,6.330409526824951,32.53617971949857,315.21238635255565,42.2140143492999,31.47591726552602,-1.2258895491677577,300,0,50,-0.20406821653490229,-0.611635062520738,81.01501842492063,0.5232510771603286,-1.0834477824886701,0.6129447745838789,0.5065398981599085
GUIDED_NOGPS,6.36277961730957,30.899770883828523,316.1348885802564,42.41623859894125,31.98104031780683,-0.9638496486349126,300,0,50,-0.1848121256760645,-0.6599172962375879,81.02247699149427,0.5284555488953288,-1.1084753118676247,0.4819248243174563,0.5065082781302302
GUIDED_NOGPS,6.402549743652344,25.15008004988877,316.6942025594625,41.97652463363937,32.4034610329063,-0.8791074457403406,300,0,50,-0.24564764677780282,-0.6581418205793548,81.079392957848,0.5280884727535502,-1.1208786036110885,0.4395537228701703,0.5064919392434096
GUIDED_NOGPS,6.4352147579193115,30.620498331836732,317.6472192021589,41.496061816248016,32.68686513321669,-0.8286198490107279,300,0,50,-0.16676887364257997,-0.6365619979792582,81.12176062126959,0.5281076475334827,-1.1437525149933907,0.41430992450536397,0.506482592467916
GUIDED_NOGPS,6.465683460235596,32.83032632262812,316.63467568311546,41.01559899885666,32.97026923352709,-0.6606605503437294,300,0,50,-0.18469265072644217,-0.6142610034523435,81.17527515341664,0.5280998971077104,-1.1192793416756825,0.3303302751718647,0.5064690920849413
GUIDED_NOGPS,6.49722695350647,31.712566157568425,315.71420055017586,40.76261731428672,32.96036146098654,-0.4441768387843406,300,0,50,-0.08459553474881772,-0.5343436280166688,81.2317471574743,0.5304453879973393,-1.1032650905561203,0.2220884193921703,0.506495842633714
GUIDED_NOGPS,6.530181884765625,30.351279379414148,315.71611597207516,40.711752268783265,33.0884453253555,-0.29558641333508157,300,0,50,0.02163762574399049,-0.4463748736121507,81.31093637071143,0.5340123885584717,-1.108303281015582,0.14779320666754078,0.5064955777854405
GUIDED_NOGPS,6.564923524856567,28.788644615733084,316.3883677479565,40.60267370002918,33.26610047705946,-0.07841492268115866,300,0,50,0.11160145572670684,-0.41832536776417106,81.35972441195283,0.536587211357071,-1.1259552896751415,0.03920746134057933,0.506494043785935
GUIDED_NOGPS,6.598789215087891,29.536728097293718,316.8102209922269,40.31110784591833,33.42739080050692,0.07928612881954669,300,0,50,0.15376715499021115,-0.4237043018181148,81.48236045850041,0.537557771508062,-1.1359798122852118,-0.039643064409773346,0.506495050180408
GUIDED_NOGPS,6.634500741958618,28.00777269540249,316.20590338550926,39.611949679930255,33.535478371736524,0.2546191219817134,300,0,50,0.26753616191187224,-0.397536593127753,81.5552932184578,0.5356723239136164,-1.1232747957912175,-0.1273095609908567,0.5065036634090476
GUIDED_NOGPS,6.664731025695801,33.09193905970161,315.8276776835701,38.876643857417015,33.572959840091244,0.4483434056786101,300,0,50,0.2742045876563468,-0.501159580820985,81.62634767639345,0.5336019891651086,-1.1180616140455215,-0.22417170283930504,0.5065165911640982
GUIDED_NOGPS,6.698743104934692,29.40832825000175,314.9829295851421,38.36030233649032,33.73478023932714,0.7767103903960978,300,0,50,0.27499531545490796,-0.5578876102508201,81.75371021384667,0.5345366645577921,-1.1019598130921906,-0.3883551951980489,0.5065134266763238
GUIDED_NOGPS,6.7314581871032715,30.57630034627301,314.8711663280669,38.24427036133213,33.894039276297185,1.04267461012433,300,0,50,0.3183218734029434,-0.6272234751974112,81.83730489909846,0.5380131988800233,-1.1038212299437784,-0.521337305062165,0.5065132244656164
GUIDED_NOGPS,6.764108180999756,30.64555583969605,315.3519715566807,38.222599565949714,34.07433312880711,1.2419421637566523,300,0,50,0.27310188563135995,-0.6847708071625305,81.93135660396953,0.5411653892674099,-1.117256144703848,-0.6209710818783262,0.5065101304404985
GUIDED_NOGPS,6.797021389007568,30.38822233814409,316.69982133634005,37.83950903895921,33.919168553796645,1.2860571015754683,300,0,50,0.2835419898602831,-0.7854449674033153,82.03525744162377,0.5407743831663966,-1.149026516349317,-0.6430285507877341,0.5065518065345335
GUIDED_NOGPS,6.826675653457642,33.72982710092481,318.6649845101459,37.33711329764348,33.67922640672331,1.2129552117375133,300,0,50,0.2270099281626892,-0.8624166103160104,82.14186303418933,0.539877320710829,-1.1930966584943814,-0.6064776058687567,0.5065937075889392
GUIDED_NOGPS,6.856795072555542,33.21300233598606,320.1742795256017,36.83471755632774,33.43928425964998,1.0247597803274477,300,0,50,0.1603456143367119,-0.9813257214542895,82.2065790765752,0.5395426263136132,-1.2240959203248838,-0.5123798901637239,0.5066325130437308
GUIDED_NOGPS,6.888711214065552,31.343815388294374,319.64534676914684,36.33061702362717,33.13395840898776,0.9988296054790513,300,0,50,0.0338971216130758,-1.0699405957460348,82.30339017787095,0.5393908440076787,-1.2093412199866767,-0.49941480273952565,0.5066807697082346
GUIDED_NOGPS,6.921249628067017,30.73740986105411,319.9398702876957,35.791823116871655,32.778863957729214,1.0181545999014223,300,0,50,-0.02723396525282424,-1.1429646027618743,82.36317482367608,0.5388968366610805,-1.220397727583957,-0.5090772999507112,0.5067344552310944
GUIDED_NOGPS,6.955718278884888,29.01628502248357,320.38859854572456,34.99735041967083,32.24617624384214,1.1446495410998967,300,0,50,-0.05809605495560785,-1.2437181105909074,82.41498180853063,0.5363688929394048,-1.2325838725108793,-0.5723247705499483,0.506810670193883
GUIDED_NOGPS,6.989132881164551,29.938998536707235,319.57231856585685,34.38257038389349,31.693661741501444,1.4167935200607091,300,0,50,-0.12009787087876551,-1.3516537757756206,82.50528373954737,0.5358880324148988,-1.2151134258454104,-0.7083967600303546,0.5068853474433894
GUIDED_NOGPS,7.024646282196045,28.164624196721753,319.52548868286004,33.76668668710406,31.069775233519362,1.4594358041861593,300,0,50,-0.04140437996499251,-1.4324196954939636,82.51346630617304,0.5351285128229236,-1.2192355888851336,-0.7297179020930796,0.5069688564769337
GUIDED_NOGPS,7.054584264755249,33.40743926722421,321.2666210899846,33.38086104597942,30.686378574762028,1.3220276742412485,300,0,50,-0.024661985483704536,-1.4874896965027782,82.54756261050974,0.535735485582097,-1.262504189201909,-0.6610138371206242,0.5070196496095246
GUIDED_NOGPS,7.089631795883179,28.56318653255518,320.8079146441248,32.913082703325856,30.322172406167493,1.1656429962388912,300,0,50,0.1735959145222722,-1.5222140580780057,82.52449023149344,0.5355649829180271,-1.2491441653855804,-0.5828214981194456,0.50707438061336
GUIDED_NOGPS,7.122407674789429,30.501145346258173,320.85954167809075,32.52387533790675,30.06904390902838,1.0151606449817954,300,0,50,0.22272583874814414,-1.5319976637338142,82.51224370231161,0.536019205494537,-1.2544421403217927,-0.5075803224908977,0.5071166520787959
GUIDED_NOGPS,7.159745931625366,26.789195679804813,320.5109021386819,31.97573777682734,29.454317795139946,0.8298651499012777,300,0,50,0.4871250895413426,-1.5226736017431006,82.39204603329772,0.5352835508705702,-1.2494327568308656,-0.41493257495063884,0.5072099876607145
GUIDED_NOGPS,7.192406177520752,30.626982504308206,320.93467891745087,32.025001472131784,29.154338287880524,0.9575383630775747,300,0,50,0.5427794986110164,-1.5052349548532944,82.31407942392202,0.5397089618964094,-1.2628750195894263,-0.47876918153878734,0.5072530684192235
GUIDED_NOGPS,7.225505590438843,30.21941712597716,319.73939618308174,32.0394953796672,28.806882628001407,1.0738485445998984,300,0,50,0.7439580248586876,-1.443684384982607,82.15952590338298,0.5422437206183187,-1.236696746043328,-0.5369242722999492,0.5073101992373026
GUIDED_NOGPS,7.260166883468628,28.85658066735466,319.92049602669323,32.23854021764344,28.758127998275388,1.1364520942868583,300,0,50,0.8722918365562323,-1.3509584838624547,81.94677917111542,0.5466474754746325,-1.2471969016956048,-0.5682260471434292,0.5073280841341897
GUIDED_NOGPS,7.293083429336548,30.42282779780513,319.33895791613224,32.25766879785362,28.75724235710433,1.2677402351487728,300,0,50,0.9597293036289438,-1.3257529513909918,81.72457945703657,0.5487785933310335,-1.2357963773171297,-0.6338701175743864,0.5073476415981378
GUIDED_NOGPS,7.325120687484741,31.195085307986375,321.13396483511286,33.266884569168774,28.98377456589259,1.3332492303971253,300,0,50,0.9471784041422223,-1.257989363974826,81.52291812179195,0.5604913287211678,-1.281822203668961,-0.6666246151985626,0.5073377474167382
GUIDED_NOGPS,7.358421325683594,30.037196445068282,321.38710533904487,34.27610034048393,29.210306774680845,1.3584414693014737,300,0,50,1.0140405133096524,-1.1986065253919715,81.15001711386593,0.5691224771519444,-1.2848565859655174,-0.6792207346507368,0.5073366967934941
GUIDED_NOGPS,7.394693851470947,27.576325789951216,323.10822667266893,35.66203203239552,29.66275242278107,1.416251548408475,300,0,50,0.9749320240609228,-1.1441890208923047,80.82918946817209,0.5813854332667925,-1.326631437146848,-0.7081257742042375,0.5073077489443238
GUIDED_NOGPS,7.430272102355957,28.112522369752742,324.3564882384753,37.0295441931369,30.23839737006138,1.4949417091261805,300,0,50,0.9530621852253651,-0.9956985739021119,80.32122829959823,0.5927687845172447,-1.3538199094085592,-0.7474708545630903,0.5072676526547848
GUIDED_NOGPS,7.463677644729614,29.942418206868982,326.8859983582408,39.14275991360688,31.142869779321043,1.3949365310610218,300,0,50,0.8948386111715617,-0.8622526857759301,79.93048000737097,0.6110778351865783,-1.4120756533601861,-0.6974682655305109,0.5071851419963959
