E-kp,E-ki,E-kd,E-I-Tot,E-P,E-I,E-D,E-PID,N-kp,N-ki,N-kd,N-I-Tot,N-P,N-I,N-D,N-PID,D-kp,D-ki,D-kd,D-I-Tot,D-P,D-I,D-D,D-PID,Y-kp,Y-ki,Y-kd,Y-I-Tot,Y-P,Y-I,Y-D,Y-PID,errorN,desiredN,actualN,errorE,desiredE,actualE,errorD,desiredD,actualD,errorY,desiredY,actualY,roll,pitch,yaw-rate,thrust,dt,Time,Mode
0.16,0.015,0.11,1.3179659705849474,6.396748300531083,0.01976948955877421,13.75,20.166517790089856,0.17,0.015,0.08,-0.32839214806816425,-1.693467118702326,-0.004925882221022464,-10.0,-11.698393000923348,0.002,8e-05,0,0.30831890709049553,0.018705324046392087,2.4665512567239644e-05,0.0,0.018729989558959326,0.2,0.02,0.0,0.00036865066298503627,0.0022365576526347766,7.373013259700725e-06,0.0,0.0022439306658944775,-9.96157128648427,-10.0,-0.038428713515729705,39.97967687831927,40.0,0.020323121680731065,9.352662023196043,10.0,0.6473379768039564,0.011182788263173883,0,-0.011182788263173883,4.000780629706314,3.9992192179182613,-0.0022439306658944775,0.5187299895589593,0.032965898513793945,0.033249855041503906,STABILIZE
0.16,0.015,0.11,2.6546735264391694,6.396711655608645,0.03982010289658754,6.874623246840963,13.311155005346198,0.17,0.015,0.08,-0.6614212747646704,-1.693290722049564,-0.009921319121470056,-4.99875862841921,-6.701970669590244,0.002,8e-05,0,0.6210383371404107,0.018706186091104703,4.968306697123286e-05,0.0,0.018755869158075936,0.2,0.02,0.0,0.0008555058588772043,0.0029122603262376335,1.7110117177544086e-05,0.0,0.0029293704434151776,-9.960533659115082,-10.0,-0.03946634088491682,39.979447847554034,40.0,0.020552152445967066,9.35309304555235,10.0,0.6469069544476486,0.014561301631188166,0,-0.014561301631188166,4.001016441439439,3.9989833002066026,-0.0029293704434151776,0.5187558691580759,0.03343486785888672,0.06664252281188965,STABILIZE
0.16,0.015,0.11,3.9922894284106754,6.3968163137799845,0.05988434142616013,4.583799029044205,11.04049968425035,0.17,0.015,0.08,-0.9944016393073033,-1.6919207628989446,-0.014916024589609549,-3.326082722986234,-5.032919510474788,0.002,8e-05,0,0.9338172836596215,0.018697346756569373,7.470538269276972e-05,0.0,0.018772052139262144,0.2,0.02,0.0,0.0012620519238892459,0.0024302571623317573,2.5241038477784917e-05,0.0,0.002455498200809542,-9.952475075876144,-10.0,-0.04752492412385662,39.9801019611249,40.0,0.019898038875096134,9.348673378284687,10.0,0.6513266217153125,0.012151285811658787,0,-0.012151285811658787,4.000848229820892,3.9991515902674957,-0.002455498200809542,0.5187720521392621,0.033457040786743164,0.10010671615600586,STABILIZE
0.16,0.015,0.11,5.330682313357076,6.396794132542011,0.07996023470035614,3.4377353892117744,9.914489756454142,0.17,0.015,0.08,-1.3275933572648966,-1.6920059711659978,-0.019913900358973446,-2.4948614903517385,-4.206781361876709,0.002,8e-05,0,1.246824650569005,0.018700074083333854,9.974597204552041e-05,0.0,0.018799820055379373,0.2,0.02,0.0,0.001637397495718805,0.0022424360389243117,3.2747949914376105e-05,0.0,0.0022751839888386876,-9.952976300976458,-10.0,-0.047023699023541705,39.97996332838757,40.0,0.020036671612428468,9.350037041666926,10.0,0.6499629583330736,0.011212180194621559,0,-0.011212180194621559,4.0007826812491665,3.9992171655733735,-0.0022751839888386876,0.5187998200553794,0.03347659111022949,0.13357329368591309,STABILIZE
0.16,0.015,0.11,6.668601986706372,6.396855899239268,0.10002902980059558,2.7504421008535234,9.247327029893388,0.17,0.015,0.08,-1.6607543678802745,-1.6924647699457165,-0.02491131551820412,-1.9971795492169806,-3.7145556346809014,0.002,8e-05,0,1.5599103171736086,0.018711548358255278,0.0001247928253738887,0.0,0.018836341183629167,0.2,0.02,0.0,0.0020420277185980973,0.0024182703937639023,4.0840554371961946e-05,0.0,0.002459110948135864,-9.955675117327743,-10.0,-0.044324882672256746,39.98034937024543,40.0,0.019650629754570666,9.35577417912764,10.0,0.6442258208723599,0.012091351968819511,0,-0.012091351968819511,4.0007838080965925,3.7137114163612344,-0.002459110948135864,0.5188363411836292,0.03346443176269531,0.16708064079284668,STABILIZE
0.16,0.015,0.11,8.004920208522496,6.396901213956678,0.12007380312783743,0.0006285162355192142,6.517603533320035,0.17,0.015,0.08,-1.9935945841123803,-1.6928734266218348,-0.029903918761685702,0.0016697313947095155,-1.7211076139888108,0.002,8e-05,0,1.8726944949565478,0.018716064911609067,0.00014981555959652385,0.0,0.01886588047120559,0.2,0.02,0.0,0.0024771895435961363,0.0026038775431184253,4.954379087192273e-05,0.0,0.002653421333990348,-9.95807898012844,-10.0,-0.04192101987156087,39.98063258722924,40.0,0.019367412770761733,9.358032455804533,10.0,0.6419675441954675,0.013019387715592126,0,-0.013019387715592126,4.0003909860464875,1.7201986448338658,-0.002653421333990348,0.5188658804712056,0.03342413902282715,0.2004861831665039,STABILIZE
0.16,0.015,0.11,9.34256440029397,6.397088361813336,0.14013846600440955,0.001548364435686164,6.538775192253431,0.17,0.015,0.08,-2.3267526016404956,-1.6928596335927866,-0.03490128902460743,0.0012119846158316309,-1.7265489380015624,0.002,8e-05,0,2.1859158678269095,0.018724194477369123,0.00017487326942615278,0.0,0.018899067746795277,0.2,0.02,0.0,0.00286953682229774,0.0023454295860314573,5.73907364459548e-05,-0.0,0.002402820322477412,-9.95799784466345,-10.0,-0.04200215533654999,39.98180226133335,40.0,0.018197738666647492,9.36209723868456,10.0,0.63790276131544,0.011727147930157287,0,-0.011727147930157287,4.000353301661524,1.7257301924692825,-0.002402820322477412,0.5188990677467953,0.03345632553100586,0.23394775390625,STABILIZE
0.16,0.015,0.11,10.67957963855288,6.397180466728805,0.1601936945782932,0.0014969653345417392,6.558871126641639,0.17,0.015,0.08,-2.65987416389812,-1.6934950390051087,-0.039898112458471795,-0.004430190021442922,-1.7378233414850235,0.002,8e-05,0,2.499000881345476,0.01872511692083129,0.00019992007050763808,0.0,0.018925036991338927,0.2,0.02,0.0,0.003366899375977411,0.0029746463636282534,6.733798751954823e-05,0.0,0.0030419843511478016,-9.961735523559462,-10.0,-0.03826447644053857,39.982377917055025,40.0,0.017622082944975404,9.362558460415645,10.0,0.637441539584354,0.014873231818141267,0,-0.014873231818141267,4.000450981338503,1.7367849354822207,-0.0030419843511478016,0.518925036991339,0.03344011306762695,0.2673764228820801,STABILIZE
0.16,0.015,0.11,12.018345234667473,6.397254223692188,0.1802751785200121,0.0018909543302698356,6.579420356542469,0.17,0.015,0.08,-2.9935019729972043,-1.6938706722916517,-0.044902529594958066,-0.005246486372063072,-1.744019688258673,0.002,8e-05,0,2.8125051504771053,0.01872589305092382,0.00022500041203816844,0.0,0.018950893462961988,0.2,0.02,0.0,0.003931070080679706,0.0033698425568437123,7.862140161359412e-05,0.0,0.0034484639584573063,-9.963945131127362,-10.0,-0.03605486887263829,39.982838898076174,40.0,0.017161101923827252,9.36294652546191,10.0,0.6370534745380908,0.01684921278421856,0,-0.01684921278421856,4.00051269829671,1.7428433159066996,-0.0034484639584573063,0.518950893462962,0.03348350524902344,0.3008546829223633,STABILIZE
0.16,0.015,0.11,13.359261309215997,6.39746301265388,0.20038891963823993,0.002493209534189923,6.60034514182631,0.17,0.015,0.08,-3.32760202067499,-1.6936031898235575,-0.04991403031012485,-0.0032054533398038557,-1.7467226734734862,0.002,8e-05,0,3.126499411872796,0.018725693497827975,0.0002501199529498237,0.0,0.018975813450777798,0.2,0.02,0.0,0.004415604659438443,0.0028896216034666137,8.831209318876887e-05,0.0,0.0029779336966553826,-9.962371704844456,-10.0,-0.03762829515554461,39.98414382908675,40.0,0.015856170913252244,9.362846748913988,10.0,0.637153251086013,0.014448108017333067,0,-0.014448108017333067,4.00044033873238,1.7457139497263352,-0.0029779336966553826,0.5189758134507778,0.03353619575500488,0.3344438076019287,STABILIZE
0.16,0.015,0.11,14.69270085745555,6.39749587456244,0.22039051286183325,0.0024422856928958936,6.62032867311717,0.17,0.015,0.08,-3.659785201290943,-1.6933364647426044,-0.05489677801936414,-0.0013019824731641048,-1.7495352252351326,0.002,8e-05,0,3.4388448853637477,0.018731903526623492,0.00027510759082909986,0.0,0.019007011117452594,0.2,0.02,0.0,0.004936252329872634,0.0031224150057090685,9.872504659745268e-05,0.0,0.003221140052306521,-9.960802733780024,-10.0,-0.03919726621997472,39.984349216015254,40.0,0.01565078398474928,9.365951763311745,10.0,0.6340482366882543,0.015612075028545343,0,-0.015612075028545343,4.000476568554843,1.7484452318509192,-0.003221140052306521,0.5190070111174526,0.033349037170410156,0.36776280403137207,STABILIZE
0.16,0.015,0.11,16.031077770792717,6.397355659870489,0.24046616656189074,0.0010971708335566178,6.638918997265937,0.17,0.015,0.08,-3.993264993013142,-1.6936377282828659,-0.059898974895197125,-0.002187855130929797,-1.7557245583089927,0.002,8e-05,0,3.752319970653118,0.018729884600519192,0.0003001855976522494,0.0,0.01903007019817144,0.2,0.02,0.0,0.0054156734246827605,0.002864502540148995,0.00010831346849365521,0.0,0.0029728160086426505,-9.962574872252151,-10.0,-0.03742512774784791,39.983472874190554,40.0,0.016527125809443568,9.364942300259596,10.0,0.6350576997404036,0.014322512700744975,0,-0.014322512700744975,4.000438762273537,1.7547246034488382,-0.0029728160086426505,0.5190300701981715,0.03347325325012207,0.40125226974487305,STABILIZE
0.16,0.015,0.11,17.367768478830413,6.397224059944903,0.2605165271824562,0.00017719989518269453,6.657917787022542,0.17,0.015,0.08,-4.326395437204039,-1.6939629039500077,-0.06489593155806059,-0.00131493778819506,-1.7601737732962635,0.002,8e-05,0,4.065475144515087,0.01873398798128631,0.000325238011561207,0.0,0.019059225992847515,0.2,0.02,0.0,0.005848657333351878,0.0025902542950393542,0.00011697314666703757,-0.0,0.002707227441706392,-9.964487670294162,-10.0,-0.035512329705837946,39.98265037465564,40.0,0.017349625344356332,9.366993990643154,10.0,0.6330060093568457,0.012951271475196771,0,-0.012951271475196771,4.000397771586492,1.7592695590175582,-0.002707227441706392,0.5190592259928475,0.0334317684173584,0.4346733093261719,STABILIZE
0.16,0.015,0.11,18.91044974935985,6.397502708438558,0.2836567462403977,0.0008673728353510846,6.682026827514307,0.17,0.015,0.08,-4.710938124173432,-1.6943681020948598,-0.07066407186260147,-0.0012475286071216391,-1.7662797025645829,0.002,8e-05,0,4.426860377170924,0.018733317186705477,0.000354148830173674,0.0,0.01908746601687915,0.2,0.02,0.0,0.006425743270291134,0.002991470852647081,0.0001285148654058227,-0.0,0.0031199857180529036,-9.966871188793291,-10.0,-0.033128811206709144,39.98439192774099,40.0,0.015608072259012527,9.366658593352739,10.0,0.6333414066472608,0.014957354263235403,0,-0.014957354263235403,4.000460959983039,1.765235422073557,-0.0031199857180529036,0.5190874660168792,0.03858208656311035,0.47324466705322266,STABILIZE
0.16,0.015,0.11,20.24872701314976,6.397426141679617,0.3037309051972464,-0.0003032163994778178,6.700853830477386,0.17,0.015,0.08,-5.044552931313917,-1.6944682580635804,-0.07566829396970876,-0.0022798400085376194,-1.7724163920418268,0.002,8e-05,0,4.740320486483179,0.018730590737312782,0.0003792256389186543,0.0,0.019109816376231437,0.2,0.02,0.0,0.006863323132044456,0.002614728018622225,0.00013726646264088912,-0.0,0.0027519944812631142,-9.967460341550472,-10.0,-0.03253965844952744,39.9839133854976,40.0,0.016086614502396568,9.36529536865639,10.0,0.6347046313436102,0.013073640093111124,0,-0.013073640093111124,4.000404322408469,1.771503633649732,-0.0027519944812631142,0.5191098163762314,0.03347039222717285,0.5067508220672607,STABILIZE
0.16,0.015,0.11,21.586077963108018,6.397418383683522,0.32379116944662023,-0.00047060066572865645,6.720738952464414,0.17,0.015,0.08,-5.37787428845392,-1.694148375209685,-0.08066811432680879,-0.0021324694296372664,-1.7769489589661311,0.002,8e-05,0,5.053672096495868,0.018737053935941234,0.0004042937677196695,0.0,0.019141347703660903,0.2,0.02,0.0,0.007330270578880563,0.002792141229548459,0.00014660541157761128,-0.0,0.00293874664112607,-9.965578677704029,-10.0,-0.034421322295970565,39.98386489802201,40.0,0.01613510197798537,9.368526967970617,10.0,0.6314730320293828,0.013960706147742294,0,-0.013960706147742294,4.000432853150469,1.775974265074021,-0.00293874664112607,0.5191413477036609,0.033447265625,0.5402040481567383,STABILIZE
0.16,0.015,0.11,22.92363985221054,6.397652179705931,0.3438545977831581,0.0010663743052486724,6.742573151794338,0.17,0.015,0.08,-5.711189887409844,-1.6939138412298134,-0.08566784831114767,-0.000625520714012517,-1.7802072102549735,0.002,8e-05,0,5.367182042301885,0.01874425030802837,0.00042937456338415085,0.0,0.019173624871412522,0.2,0.02,0.0,0.007796750858435125,0.0027890098035805114,0.0001559350171687025,-0.0,0.002944944820749214,-9.964199066057725,-10.0,-0.035800933942275535,39.98532612316207,40.0,0.014673876837931463,9.372125154014185,10.0,0.6278748459858157,0.013945049017902557,0,-0.013945049017902557,4.000433160848618,1.7792336094584458,-0.002944944820749214,0.5191736248714125,0.03345131874084473,0.573660135269165,STABILIZE
0.16,0.015,0.11,24.26287118212638,6.3975664628821605,0.36394306773189566,0.0012557347909537679,6.76276526540501,0.17,0.015,0.08,-6.044933881798045,-1.6939539656933198,-0.09067400822697066,0.00017716823289116245,-1.784450805687399,0.002,8e-05,0,5.681119726354088,0.01874617508251432,0.0004544895781083271,0.0,0.019200664660622646,0.2,0.02,0.0,0.0081849449383479,0.0023180250596581396,0.000163698898766958,-0.0,0.0024817239584250974,-9.964435092313645,-10.0,-0.035564907686355895,39.984790393013505,40.0,0.015209606986494087,9.37308754125716,10.0,0.6269124587428393,0.011590125298290697,0,-0.011590125298290697,4.00036088730138,1.7836416257947476,-0.0024817239584250974,0.5192006646606226,0.0334935188293457,0.6071324348449707,STABILIZE
0.16,0.015,0.11,25.598728401999438,6.397478091192417,0.38398092602999156,-0.00010102220908310212,6.781357995013325,0.17,0.015,0.08,-6.377849607214552,-1.6939945692724694,-0.09566774410821828,0.0010512301865768917,-1.7886110831941109,0.002,8e-05,0,5.994305313555111,0.018748241791759112,0.00047954442508440896,0.0,0.019227786216843522,0.2,0.02,0.0,0.008492432990954734,0.0018407170042118752,0.00016984865981909468,-0.0,0.0020105656640309697,-9.964673936896878,-10.0,-0.03532606310312224,39.9842380699526,40.0,0.015761930047394797,9.374120895879555,10.0,0.6258791041204447,0.009203585021059375,0,-0.009203585021059375,4.000287258109523,1.7879685286747642,-0.0020105656640309697,0.5192277862168435,0.03340959548950195,0.640556812286377,STABILIZE
0.16,0.015,0.11,27.138336820482415,6.397370498261932,0.40707505230723623,-0.00017067794320923984,6.804274872625959,0.17,0.015,0.08,-6.761596197825791,-1.6942000680953289,-0.10142394296738687,0.0008305788323164221,-1.7947934322303993,0.002,8e-05,0,6.3553603480297,0.01875316799768314,0.000508428827842376,0.0,0.019261596825525515,0.2,0.02,0.0,0.0087627391249334,0.001403967777012935,0.000175254782498668,-0.0,0.001579222559511603,-9.965882753501933,-10.0,-0.034117246498066356,39.98356561413707,40.0,0.016434385862932978,9.37658399884157,10.0,0.6234160011584304,0.007019838885064675,0,-0.007019838885064675,4.0002198668151525,1.7943033415548064,-0.001579222559511603,0.5192615968255255,0.03850603103637695,0.6790425777435303,STABILIZE
0.16,0.015,0.11,28.47513566729381,6.397559101030667,0.42712703500940713,0.0006368884062214664,6.825323024446296,0.17,0.015,0.08,-7.094673446365993,-1.6936440920535814,-0.10642010169548989,0.0014956047378176236,-1.7985685890112537,0.002,8e-05,0,6.668727373482795,0.018746126898899915,0.0005334981898786237,0.0,0.019279625088778538,0.2,0.02,0.0,0.009066333877021968,0.0018161533557219237,0.00018132667754043938,-0.0,0.001997480033262363,-9.962612306197537,-10.0,-0.0373876938024637,39.984744381441665,40.0,0.015255618558336731,9.373063449449957,10.0,0.626936550550043,0.009080766778609618,0,-0.009080766778609618,4.0002850035998145,1.7979346093093493,-0.001997480033262363,0.5192796250887786,0.033432722091674805,0.7124998569488525,STABILIZE
0.16,0.015,0.11,29.836753769356303,6.397446250603847,0.44755130654034453,-0.0007797748070984073,6.844217782337094,0.17,0.015,0.08,-7.433915461384071,-1.69351833186256,-0.11150873192076106,0.001183299477422269,-1.8038437643058987,0.002,8e-05,0,6.9879933540877115,0.018750548955985255,0.0005590394683270169,0.0,0.019309588424312272,0.2,0.02,0.0,0.009301903088047871,0.0013835022495960832,0.00018603806176095743,-0.0,0.0015695403113570405,-9.961872540367999,-10.0,-0.03812745963200133,39.98403906627404,40.0,0.01596093372595738,9.375274477992628,10.0,0.6247255220073717,0.006917511247980415,0,-0.006917511247980415,4.000217754942097,1.8033608177708866,-0.0015695403113570405,0.5193095884243123,0.03405404090881348,0.7465393543243408,STABILIZE
0.16,0.015,0.11,31.17385103514779,6.397390495271189,0.46760776552721683,-0.0006571337547275119,6.864341127043678,0.17,0.015,0.08,-7.766972035112522,-1.6931163700834213,-0.11650458052668783,0.0024273448083479217,-1.8071936058017612,0.002,8e-05,0,7.301651575711148,0.018758864604640827,0.0005841321260568918,0.0,0.01934299673069772,0.2,0.02,0.0,0.009598447160304587,0.0017735323729058895,0.00019196894320609175,-0.0,0.0019655013161119813,-9.959508059314242,-10.0,-0.040491940685758225,39.98369059544493,40.0,0.016309404555064893,9.379432302320414,10.0,0.6205676976795867,0.008867661864529447,0,-0.008867661864529447,4.000279651258748,1.806574504573769,-0.0019655013161119813,0.5193429967306977,0.03344106674194336,0.7799696922302246,STABILIZE
0.16,0.015,0.11,32.51123633999337,6.397491520313663,0.4876685450999005,0.00012187023354325813,6.885281935647106,0.17,0.015,0.08,-8.100041951127034,-1.6928462596998122,-0.12150062926690551,0.0033017844064266765,-1.8110451045602909,0.002,8e-05,0,7.61527259728712,0.018752896218977643,0.0006092218077829697,0.0,0.019362118026760612,0.2,0.02,0.0,0.009828485877812525,0.0013755111739944667,0.0001965697175562505,-0.0,0.0015720808915507172,-9.957919174704777,-10.0,-0.042080825295222425,39.98432200196039,40.0,0.01567799803960955,9.376448109488821,10.0,0.6235518905111792,0.0068775558699723325,0,-0.0068775558699723325,4.000217361782266,1.810564947536412,-0.0015720808915507172,0.5193621180267606,0.0334477424621582,0.8134372234344482,STABILIZE
0.16,0.015,0.11,33.87045384781175,6.397364544062269,0.5080568077171763,-7.52042820749256e-06,6.905413831351238,0.17,0.015,0.08,-8.438513583696983,-1.692635144468086,-0.12657770375545474,0.0043885687377595555,-1.8148242794857812,0.002,8e-05,0,7.93402112466307,0.01875298209978823,0.0006347216899730456,-0.0,0.019387703789761276,0.2,0.02,0.0,0.010162584836279635,0.001965609641955115,0.0002032516967255927,0.0,0.002168861338680708,-9.956677320400505,-10.0,-0.04332267959949559,39.983528400389176,40.0,0.01647159961082173,9.376491049894115,10.0,0.6235089501058843,0.009828048209775574,0,-0.009828048209775574,4.000311241228054,1.8141381255889935,-0.002168861338680708,0.5193877037897613,0.033994436264038086,0.8474202156066895,STABILIZE
0.16,0.015,0.11,35.20837938891292,6.3973397349401,0.5281256908336938,-0.0008851380317656665,6.924580287742028,0.17,0.015,0.08,-8.771861300820976,-1.6935338992881135,-0.13157791951231465,0.00029552140636700106,-1.8248162973940611,0.002,8e-05,0,8.248234176091987,0.01878026445971516,0.0006598587340873591,0.0,0.01944012319380252,0.2,0.02,0.0,0.01048781795956665,0.0019438925399860617,0.000209756359191333,0.0,0.0021536488991773946,-9.96196411345949,-10.0,-0.03803588654050898,39.983373343375625,40.0,0.01662665662437356,9.39013222985758,10.0,0.6098677701424211,0.009719462699930308,0,-0.009719462699930308,4.000309498124446,1.824137724638771,-0.0021536488991773946,0.5194401231938025,0.0334620475769043,0.8808884620666504,STABILIZE
0.16,0.015,0.11,36.55228452553908,6.397624124305475,0.5482842678830862,0.0007339639821751563,6.946642356170736,0.17,0.015,0.08,-9.10658166291934,-1.6930164510232917,-0.13659872494379008,0.0013969478708842561,-1.8282182280961976,0.002,8e-05,0,8.563712564952892,0.018772829423255075,0.0006850970051962314,0.0,0.019457926428451306,0.2,0.02,0.0,0.010781006633446546,0.0017446459592528156,0.00021562013266893093,0.0,0.0019602660919217467,-9.95892030013701,-10.0,-0.04107969986298966,39.985150776909215,40.0,0.014849223090782683,9.386414711627538,10.0,0.6135852883724616,0.008723229796264078,0,-0.008723229796264078,4.0002782981850995,1.827609210584288,-0.0019602660919217467,0.5194579264284513,0.03361010551452637,0.9144985675811768,STABILIZE
0.16,0.015,0.11,37.89105128999296,6.397669796800946,0.5683657693498944,0.0011507798966627475,6.9671863460475025,0.17,0.015,0.08,-9.440019715489568,-1.6930157500842242,-0.1416002957323435,0.0002676236837263659,-1.8343484221328412,0.002,8e-05,0,8.877979915393986,0.018772675620404126,0.0007102383932315189,0.0,0.019482914013635645,0.2,0.02,0.0,0.011075743400101468,0.0017606021452924265,0.00022151486800202938,-0.0,0.001982117013294456,-9.958916176966024,-10.0,-0.04108382303397536,39.98543623000591,40.0,0.0145637699940902,9.386337810202063,10.0,0.6136621897979373,0.008803010726462132,0,-0.008803010726462132,4.000281784869564,1.8337338343996437,-0.001982117013294456,0.5194829140136357,0.03348135948181152,0.9479875564575195,STABILIZE
0.16,0.015,0.11,39.228255205678835,6.397262234311712,0.5884238280851825,-0.000940134868270852,6.984745927528623,0.17,0.015,0.08,-9.772931068873355,-1.6922092274823637,-0.14659396603310032,0.0017772452002828357,-1.8370259483151812,0.002,8e-05,0,9.191917106321366,0.018773674978691632,0.0007353533685057094,0.0,0.01950902834719734,0.2,0.02,0.0,0.011234715899865352,0.0009506672440754674,0.00022469431799730704,-0.0,0.0011753615620727744,-9.954171926366845,-10.0,-0.04582807363315432,39.9828889644482,40.0,0.01711103555180297,9.386837489345815,10.0,0.6131625106541838,0.0047533362203773365,0,-0.0047533362203773365,4.000152388419453,1.8366940965238154,-0.0011753615620727744,0.5195090283471974,0.03344440460205078,0.9814352989196777,STABILIZE
0.16,0.015,0.11,40.649253473592815,6.397057744677012,0.6097388021038922,-0.001217660962151754,7.0055788858187515,0.17,0.015,0.08,-10.126829608073303,-1.6927562702020118,-0.15190244412109954,-0.00025588770488074795,-1.844914602027992,0.002,8e-05,0,9.525298413878637,0.018760222334494165,0.000762023873110291,0.0,0.019522246207604455,0.2,0.02,0.0,0.011433983564761779,0.0011213303244034638,0.0002286796712952356,-0.0,0.0013500099956986994,-9.957389824717715,-10.0,-0.04261017528228409,39.981610904231324,40.0,0.018389095768678684,9.380111167247083,10.0,0.6198888327529172,0.0056066516220173186,0,-0.0056066516220173186,4.000180514101471,1.8445231750723525,-0.0013500099956986994,0.5195222462076045,0.03554129600524902,1.0169708728790283,STABILIZE
0.16,0.015,0.11,41.99704427783529,6.397062739662307,0.6299556641675294,-0.0010953430411676493,7.02592306078867,0.17,0.015,0.08,-10.462319513474082,-1.6918681590126594,-0.15693479270211122,0.004751582625037166,-1.8440513690897333,0.002,8e-05,0,9.841873997307696,0.018782160616713,0.0007873499197846157,0.0,0.019569510536497615,0.2,0.02,0.0,0.011694960038517926,0.001548351263915383,0.00023389920077035851,-0.0,0.0017822504646857415,-9.952165641250938,-10.0,-0.04783435874906304,39.98164212288942,40.0,0.018357877110584876,9.3910803083565,10.0,0.6089196916434991,0.007741756319576914,0,-0.007741756319576914,4.000249130115678,1.843510875707133,-0.0017822504646857415,0.5195695105364976,0.03371024131774902,1.0507519245147705,STABILIZE
0.16,0.015,0.11,43.33581084159507,6.396029192273079,0.650037162623926,-0.006502234987382098,7.039564119909623,0.17,0.015,0.08,-10.79551984519604,-1.691375143658401,-0.16193279767794058,0.00468811724221503,-1.8486198240941265,0.002,8e-05,0,10.156258788675672,0.01877487791401353,0.0008125007030940538,0.0,0.019587378617107583,0.2,0.02,0.0,0.011926515311681086,0.0013828346991810656,0.00023853030623362172,-0.0,0.0016213650054146874,-9.94926555093177,-10.0,-0.05073444906822918,39.97518245170674,40.0,0.024817548293254305,9.387438957006765,10.0,0.6125610429932343,0.006914173495905327,0,-0.006914173495905327,4.0002230532428795,1.8481371102648247,-0.0016213650054146874,0.5195873786171076,0.03348994255065918,1.0841655731201172,STABILIZE
0.16,0.015,0.11,44.67531612113939,6.396962627894293,0.6701297418170908,-0.0028589394265611575,7.064233430284823,0.17,0.015,0.08,-11.12875178221461,-1.690849448364733,-0.16693127673321914,0.006162922617393806,-1.8516178024805583,0.002,8e-05,0,10.470793545583101,0.01877621458307276,0.0008376634836466481,0.0,0.01961387806671941,0.2,0.02,0.0,0.012296975801900088,0.002211471230490907,0.00024593951603800175,0.0,0.002457410746528909,-9.9461732256749,-10.0,-0.05382677432510056,39.98101642433933,40.0,0.018983575660666368,9.388107291536379,10.0,0.6118927084636204,0.011057356152454536,0,-0.011057356152454536,4.000357264177032,1.850845818918739,-0.002457410746528909,0.5196138780667194,0.03350353240966797,1.1176741123199463,STABILIZE
0.16,0.015,0.11,46.01315313693778,6.397919328101317,0.6901972970540667,0.002748497067679026,7.090865122223063,0.17,0.015,0.08,-11.461429845507668,-1.690396773053097,-0.17192144768261503,0.005166670407246406,-1.8571515503284657,0.002,8e-05,0,10.785010824893456,0.0187834614828194,0.0008628008659914766,0.0,0.019646262348810877,0.2,0.02,0.0,0.012802922407059847,0.0030244767541873344,0.00025605844814119693,0.0,0.0032805352023285313,-9.9435104297241,-10.0,-0.0564895702758998,39.98699580063323,40.0,0.013004199366766868,9.3917307414097,10.0,0.6082692585902986,0.015122383770936672,0,-0.015122383770936672,4.0004900286847125,1.8560957441041692,-0.0032805352023285313,0.5196462623488108,0.03345680236816406,1.151139736175537,STABILIZE
0.16,0.015,0.11,47.35200859396155,6.398139199677135,0.7102801289094233,0.0044425809319596195,7.112861909518518,0.17,0.015,0.08,-11.79448847333476,-1.6911012813362167,-0.1769173271000214,0.004634886232518953,-1.863383722203719,0.002,8e-05,0,11.09930475376565,0.018774396967091895,0.0008879443803012522,0.0,0.01966234134739315,0.2,0.02,0.0,0.013382018027206729,0.0034592367385381296,0.00026764036054413457,0.0,0.003726877099082264,-9.947654596095392,-10.0,-0.052345403904608664,39.98836999798209,40.0,0.01163000201791307,9.387198483545948,10.0,0.6128015164540526,0.017296183692690648,0,-0.017296183692690648,4.000562327353785,1.8621761359042954,-0.003726877099082264,0.5196623413473932,0.03348112106323242,1.1846189498901367,STABILIZE
0.16,0.015,0.11,48.69054901575241,6.3971347983154345,0.7303582352362861,0.00029701638798747065,7.127790049939708,0.17,0.015,0.08,-12.127607957979295,-1.691542781082528,-0.18191411936968943,0.0009141330434823792,-1.8725427674087352,0.002,8e-05,0,11.413584596686729,0.018775026204192483,0.0009130867677349384,-0.0,0.01968811297192742,0.2,0.02,0.0,0.01416282075771411,0.004664502689490781,0.0002832564151542822,0.0,0.004947759104645064,-9.950251653426635,-10.0,-0.04974834657336522,39.98209248947146,40.0,0.017907510528539845,9.387513102096241,10.0,0.6124868979037593,0.023322513447453907,0,-0.023322513447453907,4.000761895831839,1.8709143937216355,-0.004947759104645064,0.5196881129719274,0.033478498458862305,1.218137264251709,STABILIZE
0.16,0.015,0.11,50.029443023156915,6.398733512318252,0.7504416453473537,0.011106469164022501,7.160281626829628,0.17,0.015,0.08,-12.460394857479868,-1.6898298832288898,-0.186905922862198,0.004343977147605087,-1.8723918289434829,0.002,8e-05,0,11.7279953886162,0.01878258155451041,0.0009382396310892962,0.0,0.019720821185599705,0.2,0.02,0.0,0.014291215970344261,0.0007670199669785786,0.0002858243194068852,-0.0,0.0010528442863854638,-9.94017578369935,-10.0,-0.059824216300649116,39.99208445198907,40.0,0.007915548010926561,9.391290777255204,10.0,0.608709222744797,0.0038350998348928925,0,-0.0038350998348928925,4.000125319809661,1.8721240842721885,-0.0010528442863854638,0.5197208211855997,0.03347897529602051,1.2515869140625,STABILIZE
0.16,0.015,0.11,51.401476844538855,6.396984154243614,0.7710221526680828,0.00026635206108066795,7.168272658972778,0.17,0.015,0.08,-12.801329453734098,-1.6889254108581266,-0.19201994180601148,0.00534780198268915,-1.875597550681449,0.002,8e-05,0,12.050311194888188,0.018784605317777682,0.0009640248955910552,0.0,0.019748630213368736,0.2,0.02,0.0,0.015254138682074382,0.0056119255523294975,0.00030508277364148765,0.0,0.005917008325970985,-9.93485535798898,-10.0,-0.06514464201102016,39.98115096402259,40.0,0.01884903597740868,9.392302658888841,10.0,0.607697341111158,0.028059627761647485,0,-0.028059627761647485,4.0009180620981395,1.8736383942743904,-0.005917008325970985,0.5197486302133687,0.0343170166015625,1.2859363555908203,STABILIZE
0.16,0.015,0.11,52.74056933369095,6.398907399559173,0.7911085400053642,0.004232446005341481,7.194248385569878,0.17,0.015,0.08,-13.133973740036065,-1.6889012539646866,-0.19700960610054097,0.004142279541577489,-1.88176858052365,0.002,8e-05,0,12.364555872303274,0.01877038561444628,0.0009891644697842621,-0.0,0.01975955008423054,0.2,0.02,0.0,0.01560925364176481,0.0021211639241364923,0.0003121850728352962,-0.0,0.0024333489969717887,-9.934713258615803,-10.0,-0.0652867413841978,39.99317124724483,40.0,0.006828752755172091,9.38519280722314,10.0,0.6148071927768604,0.010605819620682461,0,-0.010605819620682461,4.000348259012737,1.881028122400023,-0.0024333489969717887,0.5197595500842306,0.033483028411865234,1.3194286823272705,STABILIZE
0.16,0.015,0.11,54.07756133908405,6.400811455528262,0.8111634200862607,0.011163210098138495,7.2231380857126615,0.17,0.015,0.08,-13.46621985455514,-1.6900325676935313,-0.2019932978183271,0.0029367386450220114,-1.8890891268668364,0.002,8e-05,0,12.678491885302279,0.01878699741847074,0.0010142793508241823,0.0,0.019801276769294923,0.2,0.02,0.0,0.01642415874818345,0.004876668969684016,0.000328483174963669,0.0,0.005205152144647685,-9.941368045256066,-10.0,-0.05863195474393428,40.00507159705164,40.0,-0.0050715970516407635,9.39349870923537,10.0,0.6065012907646297,0.02438334484842008,0,-0.02438334484842008,4.000803576755704,1.8873866772511863,-0.005205152144647685,0.5198012767692949,0.033420562744140625,1.3528168201446533,STABILIZE
0.16,0.015,0.11,55.415444965152034,6.398598206190445,0.8312316744772805,0.0061917910305680866,7.236021671698294,0.17,0.015,0.08,-13.798604707439875,-1.6890272813107072,-0.20697907061159812,0.007006103041623451,-1.8890002488806819,0.002,8e-05,0,12.992677037403382,0.018782879462339336,0.0010394141629922707,0.0,0.019822293625331607,0.2,0.02,0.0,0.018548893545538035,0.012702267220860508,0.0003709778709107607,0.0,0.013073245091771268,-9.935454595945336,-10.0,-0.06454540405466389,39.99123878869028,40.0,0.008761211309716015,9.391439731169667,10.0,0.6085602688303331,0.06351133610430254,0,-0.06351133610430254,4.002091464743738,1.8845651615416756,-0.013073245091771268,0.5198222936253316,0.03345441818237305,1.386333703994751,STABILIZE
0.16,0.015,0.11,56.75453047451506,6.399831027027643,0.8513179571177258,0.004689191832527389,7.255838175977896,0.17,0.015,0.08,-14.131878413489373,-1.6923500040899595,-0.21197817620234058,-0.007150533168895877,-1.911478713461196,0.002,8e-05,0,13.307347042396877,0.01879860217244685,0.0010645877633917503,0.0,0.0198631899358386,0.2,0.02,0.0,0.020241626439574896,0.01011250254369539,0.00040483252879149794,0.0,0.010517335072486887,-9.955000024058585,-10.0,-0.04499997594141468,39.99894391892277,40.0,0.00105608107723211,9.399301086223424,10.0,0.6006989137765748,0.05056251271847695,0,-0.05056251271847695,4.001685288410327,1.9079480403133697,-0.010517335072486887,0.5198631899358386,0.0334780216217041,1.4197635650634766,STABILIZE
0.16,0.015,0.11,58.09241764272753,6.401078538963394,0.871386264640913,0.01682778260731825,7.289292586211626,0.17,0.015,0.08,-14.46543843683468,-1.6956515130521226,-0.21698157655252018,-0.018922877552694707,-1.9315559671573375,0.002,8e-05,0,13.621836953356809,0.018808337014471016,0.0010897469562685448,0.0,0.019898083970739562,0.2,0.02,0.0,0.021515885307966946,0.007620813706627847,0.0004303177061593389,0.0,0.008051131412787186,-9.974420665012484,-10.0,-0.02557933498751581,40.00674086852121,40.0,-0.0067408685212114435,9.404168507235507,10.0,0.5958314927644923,0.03810406853313923,0,-0.03810406853313923,4.001283680134549,1.9288953743917898,-0.008051131412787186,0.5198980839707396,0.03344154357910156,1.4531962871551514,STABILIZE
0.16,0.015,0.11,59.42979856245492,6.4001165396043955,0.8914469784368237,0.0049735545801303715,7.296537072621349,0.17,0.015,0.08,-14.798459809758311,-1.6932995964661686,-0.22197689714637467,-0.012370052210145843,-1.927646545822689,0.002,8e-05,0,13.936347559044696,0.01881386689884097,0.0011149078047235758,0.0,0.019928774703564543,0.2,0.02,0.0,0.023066710463112358,0.009276958399690546,0.00046133420926224716,0.0,0.009738292608952794,-9.960585861565697,-10.0,-0.03941413843430212,40.00072837252747,40.0,-0.0007283725274723884,9.406933449420483,10.0,0.5930665505795166,0.04638479199845273,0,-0.04638479199845273,4.0015592487238205,1.9244076451144652,-0.009738292608952794,0.5199287747035646,0.03343391418457031,1.4866323471069336,STABILIZE
0.16,0.015,0.11,60.772277263946,6.39419012479058,0.91158415895919,-0.02711805966576469,7.278656224084005,0.17,0.015,0.08,-15.134207117555018,-1.6991026560804194,-0.22701310676332526,-0.025442808157932345,-1.951558571001677,0.002,8e-05,0,14.25240035178048,0.01881688741112826,0.0011401920281424384,0.0,0.0199570794392707,0.2,0.02,0.0,0.02594888756596331,0.017159665502027962,0.0005189777513192662,0.0,0.01767864325334723,-9.994721506355408,-10.0,-0.005278493644592631,39.963688279941124,40.0,0.03631172005887513,9.40844370556413,10.0,0.5915562944358694,0.08579832751013981,0,-0.08579832751013981,4.002917901468942,1.9455665319257482,-0.01767864325334723,0.5199570794392707,0.03359246253967285,1.5202152729034424,STABILIZE
0.16,0.015,0.11,62.11005382705846,6.392482639421631,0.9316508074058768,-0.025033188006700152,7.299100258820808,0.17,0.015,0.08,-15.4709156365837,-1.7094996546117782,-0.23206373454875548,-0.05749535209345604,-1.9990587412539897,0.002,8e-05,0,14.566688654397572,0.01877259040906974,0.0011653350923518059,-0.0,0.019937925501421545,0.2,0.02,0.0,0.030520334865631448,0.027305473038197206,0.0006104066973126289,0.0,0.027915879735509835,-10.055880321245754,-10.0,0.05588032124575302,39.953016496385196,40.0,0.046983503614802094,9.38629520453487,10.0,0.6137047954651303,0.13652736519098602,0,-0.13652736519098602,4.004752100732847,1.9895216667982882,-0.027915879735509835,0.5199379255014216,0.03348374366760254,1.5537097454071045,STABILIZE
0.16,0.015,0.11,63.44458841041537,6.3858121640959125,0.9516688261562305,-0.05752659530424118,7.279954394947902,0.17,0.015,0.08,-15.808082899089692,-1.7141966646391629,-0.23712124348634536,-0.06137492835361096,-2.0126928364791192,0.002,8e-05,0,14.880225254047446,0.018753596355827417,0.0011904180203237958,-0.0,0.019944014376151214,0.2,0.02,0.0,0.035759573588695394,0.031337511580428815,0.0007151914717739079,0.0,0.03205270305220272,-10.083509791995075,-10.0,0.0835097919950745,39.91132602559945,40.0,0.08867397440054842,9.376798177913708,10.0,0.6232018220862926,0.15668755790214406,0,-0.15668755790214406,4.005489174669244,2.001746468867088,-0.03205270305220272,0.5199440143761512,0.033437490463256836,1.5871498584747314,STABILIZE
0.16,0.015,0.11,64.78071217143498,6.393826763461649,0.9717106825715247,-0.029696575119552322,7.335840870913621,0.17,0.015,0.08,-16.144144226788722,-1.7086836169388466,-0.24216216340183083,-0.03656442491638652,-1.9874102052570641,0.002,8e-05,0,15.193878685853445,0.018761788440189203,0.0012155102948682758,-0.0,0.019977298735057478,0.2,0.02,0.0,0.03908165807216423,0.019871692747117444,0.0007816331614432846,0.0,0.02065332590856073,-10.051080099640274,-10.0,0.051080099640273796,39.961417271635305,40.0,0.03858272836469432,9.380894220094602,10.0,0.6191057799053987,0.09935846373558721,0,-0.09935846373558721,4.003440416137961,1.9804706911219456,-0.02065332590856073,0.5199772987350575,0.03343534469604492,1.6205863952636719,STABILIZE
0.16,0.015,0.11,66.11913278929366,6.40162266005315,0.9917869918394049,0.006303698612707115,7.3997133505052615,0.17,0.015,0.08,-16.479339501555515,-1.703429953352819,-0.2471900925233327,-0.028403915642532643,-1.9790239615186844,0.002,8e-05,0,15.507716174824662,0.018763432382215294,0.001240617293985973,-0.0,0.020004049676201268,0.2,0.02,0.0,0.04055211031864263,0.008791407103249037,0.0008110422063728526,-0.0,0.00960244930962189,-10.020176196193052,-10.0,0.020176196193052838,40.01014162533218,40.0,-0.010141625332184614,9.381716191107646,10.0,0.6182838088923536,0.043957035516245184,0,-0.043957035516245184,4.001517119961306,1.9759545994080134,-0.00960244930962189,0.5200040496762013,0.03345203399658203,1.6540424823760986,STABILIZE
0.16,0.015,0.11,67.45578714921783,6.400564814918578,1.0118368072382673,0.02620842836320418,7.438610050520049,0.17,0.015,0.08,-16.814716699335193,-1.7063245955399042,-0.2522207504900279,-0.020298719495363153,-1.9788440655252955,0.002,8e-05,0,15.821211065370095,0.018764615092750056,0.0012656968852296077,-0.0,0.020030311977979665,0.2,0.02,0.0,0.042940616271752635,0.014296690698490289,0.0008588123254350527,-0.0,0.015155503023925342,-10.037203503175906,-10.0,0.03720350317590593,40.00353009324111,40.0,-0.0035300932411082633,9.382307546375028,10.0,0.617692453624973,0.07148345349245144,0,-0.07148345349245144,4.002465734887434,1.9738520402291229,-0.015155503023925342,0.5200303119779797,0.03341341018676758,1.6874468326568604,STABILIZE
0.16,0.015,0.11,68.7971526730536,6.413651045106543,1.031957290095804,0.08699207576047106,7.532600410962819,0.17,0.015,0.08,-17.15241050827482,-1.7155770372832766,-0.25728615762412227,-0.017097852883269513,-1.9899610477906684,0.002,8e-05,0,16.134909020567875,0.01874907680317297,0.00129079272164543,-0.0,0.0200398695248184,0.2,0.02,0.0,0.042807227117319845,-0.0007972393379465551,0.0008561445423463969,-0.0,5.8905204399841826e-05,-10.091629631078098,-10.0,0.09162963107809823,40.085319031915894,40.0,-0.08531903191589613,9.374538401586484,10.0,0.6254615984135148,-0.003986196689732775,0,0.003986196689732775,3.99986154423834,1.9902393320019125,-5.8905204399841826e-05,0.5200398695248184,0.0334627628326416,1.7209224700927734,STABILIZE
0.16,0.015,0.11,70.1385004366133,6.409729960155245,1.0520775065491994,0.09831979793234939,7.560127264636794,0.17,0.015,0.08,-17.490049180117044,-1.7142709500817508,-0.26235073770175565,-0.00020570369381021258,-1.9768273914773165,0.002,8e-05,0,16.448609397833593,0.018738007037562985,0.0013158887518266876,-0.0,0.020053895789389674,0.2,0.02,0.0,0.043201368604625735,0.002354292980871216,0.0008640273720925147,-0.0,0.0032183203529637305,-10.083946765186768,-10.0,0.08394676518676795,40.06081225097028,40.0,-0.06081225097027599,9.369003518781492,10.0,0.6309964812185077,0.011771464904356078,0,-0.011771464904356078,4.000406056386361,1.9760055464806607,-0.0032183203529637305,0.5200538957893897,0.03348278999328613,1.7544233798980713,STABILIZE
0.16,0.015,0.11,71.48580995007434,6.404335664029146,1.072287149251115,0.04332487646694274,7.5199476897472035,0.17,0.015,0.08,-17.828954166609655,-1.7116446513614112,-0.26743431249914484,-0.008380983431294422,-1.9874599472918506,0.002,8e-05,0,16.764374133638167,0.018762052619975534,0.0013411499306910536,0.0,0.02010320255066659,0.2,0.02,0.0,0.044319907372300564,0.006646113652661302,0.0008863981474460113,-0.0,0.007532511800107313,-10.06849794918477,-10.0,0.06849794918477105,40.02709790018216,40.0,-0.02709790018216423,9.381026309987767,10.0,0.6189736900122332,0.03323056826330651,0,-0.03323056826330651,4.001152019817,1.98513968183694,-0.007532511800107313,0.5201032025506666,0.033659934997558594,1.7880799770355225,STABILIZE
0.16,0.015,0.11,72.82681015666594,6.410762404944359,1.0924021523499892,0.03768397719620497,7.540848534490554,0.17,0.015,0.08,-18.165201944802195,-1.7079265852262784,-0.2724780291720329,-0.012706619223714228,-1.9931112336220256,0.002,8e-05,0,17.078292449596567,0.018758905929669528,0.0013662633959677256,-0.0,0.020125169325637255,0.2,0.02,0.0,0.044626869487663375,0.0018343222275779656,0.0008925373897532675,-0.0,0.002726859617331233,-10.046626971919284,-10.0,0.04662697191928431,40.06726503090224,40.0,-0.06726503090223887,9.379452964834764,10.0,0.6205470351652362,0.009171611137889828,0,-0.009171611137889828,4.000318995656901,1.9924709088407984,-0.002726859617331233,0.5201251693256372,0.03346872329711914,1.821537971496582,STABILIZE
0.16,0.015,0.11,74.16655174622552,6.405338661981107,1.1124982761933828,0.019752631887540457,7.53758957006203,0.17,0.015,0.08,-18.50072047340692,-1.7043802951031504,-0.27751080710110376,0.005420373469403481,-1.9764707287348506,0.002,8e-05,0,17.392118061339822,0.01875510303333714,0.001391369444907186,-0.0,0.020146472478244328,0.2,0.02,0.0,0.04505835443454069,0.0025786756508065422,0.0009011670886908138,-0.0,0.003479842739497356,-10.025766441783237,-10.0,0.025766441783237108,40.03336663738192,40.0,-0.03336663738191796,9.37755151666857,10.0,0.62244848333143,0.01289337825403271,0,-0.01289337825403271,4.000444667685337,1.9755705510898929,-0.003479842739497356,0.5201464724782443,0.03346562385559082,1.8550434112548828,STABILIZE
0.16,0.015,0.11,75.50514097554931,6.406447193164667,1.1325771146332395,-0.029459952460163072,7.509564355337743,0.17,0.015,0.08,-18.833801557821268,-1.6937481471700524,-0.282507023367319,0.06137630125803038,-1.914878869279341,0.002,8e-05,0,17.706128112041565,0.018785531474804294,0.0014164902489633253,0.0,0.02020202172376762,0.2,0.02,0.0,0.04553355574891846,0.002842873732277771,0.0009106711149783692,0.0,0.0037535448472561404,-9.963224395117955,-10.0,-0.03677560488204497,40.04029495727917,40.0,-0.040294957279169756,9.392765737402147,10.0,0.6072342625978528,0.014214368661388855,0,-0.014214368661388855,4.000474934477314,1.913886460224655,-0.0037535448472561404,0.5202020217237676,0.033431053161621094,1.8884706497192383,STABILIZE
0.16,0.015,0.11,76.84478182406664,6.402074794695748,1.1526717273609997,-0.03131471733798912,7.523431804718759,0.17,0.015,0.08,-19.165683440059038,-1.6851743698001758,-0.28748525160088556,0.08180712881804315,-1.8908524925830184,0.002,8e-05,0,18.022972213630062,0.01892727105620101,0.0014418377770904051,0.0,0.020369108833291415,0.2,0.02,0.0,0.04926660483712969,0.022300062271774064,0.0009853320967425938,0.0,0.02328539436851666,-9.912790410589269,-10.0,-0.08720958941073072,40.01296746684842,40.0,-0.012967466848422572,9.463635528100506,10.0,0.5363644718994944,0.11150031135887031,0,-0.11150031135887031,4.003672112338698,1.8830647268718086,-0.02328539436851666,0.5203691088332915,0.033480167388916016,1.9219238758087158,STABILIZE
0.16,0.015,0.11,78.18424568149604,6.4061558631925175,1.1727636852224406,0.007494325737663643,7.586413874152622,0.17,0.015,0.08,-19.49633850259151,-1.680237280591463,-0.2924450775388726,0.08835321104308264,-1.8843291470872527,0.002,8e-05,0,18.33993367595541,0.01894885516151973,0.001467194694076433,0.0,0.020416049855596162,0.2,0.02,0.0,0.048268078468680704,-0.005969473825583405,0.0009653615693736141,-0.0,-0.005004112256209791,-9.883748709361546,-10.0,-0.11625129063845449,40.038474144953234,40.0,-0.03847414495323281,9.474427580759864,10.0,0.5255724192401368,-0.029847369127917023,0,0.029847369127917023,3.9990178445495332,1.8864126307722222,0.005004112256209791,0.5204160498555962,0.03345441818237305,1.9553825855255127,STABILIZE
0.16,0.015,0.11,79.52435176511064,6.410141050539901,1.1928652764766594,-0.002527005396558368,7.600479321620002,0.17,0.015,0.08,-19.826008956626378,-1.6754727628821935,-0.29739013434939565,0.09130358526974337,-1.8815593119618457,0.002,8e-05,0,18.657186310783864,0.018968965990556055,0.0014925749048627093,0.0,0.020461540895418764,0.2,0.02,0.0,0.042659421996188884,-0.03353491892571287,0.0008531884399237777,-0.0,-0.032681730485789096,-9.855722134601137,-10.0,-0.14427786539886328,40.06338156587438,40.0,-0.06338156587438243,9.484482995278027,10.0,0.5155170047219726,-0.16767459462856435,0,0.16767459462856435,3.994476545442459,1.8932571331809143,0.032681730485789096,0.5204615408954187,0.033449649810791016,1.9888744354248047,STABILIZE
0.16,0.015,0.11,80.86365361228279,6.402141586365389,1.2129548041842417,-0.013104236281288026,7.601992154268343,0.17,0.015,0.08,-20.15327001234153,-1.6621494586837249,-0.30229905018512293,0.1187937404033971,-1.8456547684654507,0.002,8e-05,0,18.97360550954793,0.01890687035384433,0.0015178884407638345,0.0,0.020424758794608165,0.2,0.02,0.0,0.034348220641005706,-0.049661590422113155,0.0006869644128201141,-0.0,-0.04897462600929304,-9.777349756963087,-10.0,-0.2226502430369123,40.013384914783686,40.0,-0.013384914783687134,9.453435176922165,10.0,0.5465648230778354,-0.24830795211056575,0,0.24830795211056575,3.9919637789812845,1.8629725472106986,0.04897462600929304,0.5204247587946081,0.03347134590148926,2.022343397140503,STABILIZE
0.16,0.015,0.11,82.2037336092551,6.405998195399446,1.2330560041388263,-0.0018203061448612283,7.637233893393412,0.17,0.015,0.08,-20.482132030281246,-1.6703163929433489,-0.3072319804542187,0.06589631961796902,-1.9116520537795987,0.002,8e-05,0,19.289602928681084,0.01888207141823073,0.001543168234294487,0.0,0.02042523965252522,0.2,0.02,0.0,0.0287320226105894,-0.033558961525746465,0.000574640452211788,-0.0,-0.032984321073534675,-9.82539054672558,-10.0,-0.1746094532744199,40.03748872124654,40.0,-0.0374887212465365,9.441035709115365,10.0,0.5589642908846344,-0.16779480762873233,0,0.16779480762873233,3.9943844445359824,1.92335812681069,0.032984321073534675,0.5204252396525252,0.03347063064575195,2.0557806491851807,STABILIZE
0.16,0.015,0.11,83.54260228298016,6.408470150057068,1.2531390342447022,0.02630483152363491,7.687914015825405,0.17,0.015,0.08,-20.810604242812506,-1.6704903072963202,-0.3121590636421876,0.04130450818793096,-1.941344862750577,0.002,8e-05,0,19.604913521167667,0.01886535400747246,0.0015683930816934135,-0.0,0.020433747089165875,0.2,0.02,0.0,0.0215570983866985,-0.04292830265962341,0.00043114196773397,-0.0,-0.04249716069188944,-9.826413572331294,-10.0,-0.17358642766870616,40.052938437856675,40.0,-0.05293843785667547,9.43267700373623,10.0,0.5673229962637684,-0.21464151329811706,0,0.21464151329811706,3.992699280701711,1.9563160097520265,0.04249716069188944,0.5204337470891659,0.03342747688293457,2.089212417602539,STABILIZE
0.16,0.015,0.11,84.88159798632591,6.406702022174626,1.2732239697948886,0.0022610644654083027,7.682187056434922,0.17,0.015,0.08,-21.137973931776443,-1.6642660209688829,-0.31706960897664666,0.044933408376655395,-1.936402221568874,0.002,8e-05,0,19.920058504596852,0.018848454830446556,0.0015936046803677482,-0.0,0.020442059510814303,0.2,0.02,0.0,0.013946719032949816,-0.04551679355033334,0.00027893438065899634,-0.0,-0.04523785916967434,-9.78980012334637,-10.0,-0.21019987665363124,40.04188763859141,40.0,-0.04188763859141316,9.424227415223278,10.0,0.5757725847767226,-0.2275839677516667,0,0.2275839677516667,3.9922769022239306,1.9522752622686605,0.04523785916967434,0.5204420595108143,0.03343987464904785,2.122645854949951,STABILIZE
0.16,0.015,0.11,86.22060111527516,6.402629117560716,1.2933090167291272,-0.030857133394046013,7.665081000895797,0.17,0.015,0.08,-21.46441279871912,-1.6584697479349968,-0.3219661919807868,0.047830775615691316,-1.9326051643000923,0.002,8e-05,0,20.23549273299133,0.018853656236212588,0.0016188394186393063,-0.0,0.020472495654851895,0.2,0.02,0.0,0.00746743961774675,-0.03872696611727203,0.000149348792354935,-0.0,-0.038577617324917095,-9.755704399617628,-10.0,-0.24429560038237255,40.016431984754476,40.0,-0.016431984754473924,9.426828118106293,10.0,0.5731718818937064,-0.1936348305863601,0,0.1936348305863601,3.9934458041012113,1.9461123633505386,0.038577617324917095,0.5204724956548519,0.03346133232116699,2.156114339828491,STABILIZE
0.16,0.015,0.11,87.5586553841204,6.400144114307312,1.3133798307618059,-0.00821010565633612,7.705313839412782,0.17,0.015,0.08,-21.789710606582233,-1.6532026802251791,-0.3268456590987335,0.025186731641025504,-1.954861607682887,0.002,8e-05,0,20.550835933313945,0.018854260758734073,0.0016440668746651157,-0.0,0.020498327633399187,0.2,0.02,0.0,0.0009164545546024791,-0.039168112862662356,1.8329091092049583e-05,0.0,-0.03914978377157031,-9.724721648383406,-10.0,-0.27527835161659375,40.0009007144207,40.0,-0.0009007144207051013,9.427130379367036,10.0,0.5728696206329638,-0.19584056431331176,0,0.19584056431331176,3.993294807269602,1.9685224122234815,0.03914978377157031,0.5204983276333992,0.03345060348510742,2.189588785171509,STABILIZE
0.16,0.015,0.11,88.89770723008752,6.406148509709932,1.3334656084513128,0.0006326894453259638,7.740246807606571,0.17,0.015,0.08,-22.115470179681182,-1.6558680854238303,-0.3317320526952177,0.04065081023531869,-1.9469493278837293,0.002,8e-05,0,20.86610309182947,0.018853342420677998,0.0016692882473463577,-0.0,0.020522630668024355,0.2,0.02,0.0,-0.006444937252843276,-0.044021978404615164,-0.00012889874505686553,-0.0,-0.04415087714967203,-9.740400502493118,-10.0,-0.2595994975068818,40.038428185687074,40.0,-0.03842818568707447,9.426671210338998,10.0,0.5733287896610013,-0.22010989202307582,0,0.22010989202307582,3.992491019045697,1.9623014926831095,0.04415087714967203,0.5205226306680244,0.03344416618347168,2.2230145931243896,STABILIZE
0.16,0.015,0.11,90.23794482774717,6.412049808870596,1.3535691724162076,0.014727646754143458,7.780346628040947,0.17,0.015,0.08,-22.44163906501262,-1.6580077584059514,-0.3366245859751893,0.03511885641287866,-1.959513487968262,0.002,8e-05,0,21.181229360481737,0.018845588780398912,0.001694498348838539,-0.0,0.020540087129237453,0.2,0.02,0.0,-0.014668971525756722,-0.04918243365939682,-0.00029337943051513447,-0.0,-0.04947581308991195,-9.752986814152655,-10.0,-0.24701318584734458,40.075311305441225,40.0,-0.07531130544122529,9.422794390199456,10.0,0.5772056098005433,-0.2459121682969841,0,0.2459121682969841,3.9915529969077874,1.9766632951532246,0.04947581308991195,0.5205400871292375,0.03344297409057617,2.256457567214966,STABILIZE
0.16,0.015,0.11,91.62754980250061,6.407239722455607,1.374413247037509,0.0029382741351996334,7.784591243628316,0.17,0.015,0.08,-22.78135277734411,-1.6642617387132579,-0.34172029166016166,0.0006379979834278479,-2.005344032389992,0.002,8e-05,0,21.508304074348498,0.01885109560785189,0.00172066432594788,0.0,0.02057175993379977,0.2,0.02,0.0,-0.02144067859423551,-0.03902903280632769,-0.0004288135718847102,0.0,-0.039457846378212404,-9.789774933607399,-10.0,-0.21022506639260194,40.045248265347546,40.0,-0.04524826534754738,9.425547803925944,10.0,0.5744521960740561,-0.19514516403163845,0,0.19514516403163845,3.9931467599284596,2.0189560772624544,0.039457846378212404,0.5205717599337998,0.034700870513916016,2.2911829948425293,STABILIZE
0.16,0.015,0.11,93.01765958621927,6.408510573651459,1.395264893793289,0.024709575242276682,7.828485042687025,0.17,0.015,0.08,-23.119634366067313,-1.6569725185159971,-0.3467945154910097,0.0041016272388400814,-1.9996654067681667,0.002,8e-05,0,21.835433916340534,0.018851164454029824,0.001746834713307243,-0.0,0.020597999167337067,0.2,0.02,0.0,-0.028465149390102588,-0.04047917284741152,-0.0005693029878020518,-0.0,-0.041048475835213566,-9.746897167741158,-10.0,-0.25310283225884095,40.05319108532162,40.0,-0.053191085321620646,9.425582227014912,10.0,0.5744177729850881,-0.20239586423705758,0,0.20239586423705758,3.99291129146364,2.0137827980016776,0.041048475835213566,0.5205979991673371,0.03470659255981445,2.325855016708374,STABILIZE
0.16,0.015,0.11,94.36378097229186,6.407674527630283,1.415456714584378,0.03150425353941753,7.854635495754079,0.17,0.015,0.08,-23.448727849151773,-1.6644258069878672,-0.3517309177372766,-0.03158760955608021,-2.0477443342812243,0.002,8e-05,0,22.152416030890176,0.01886083827700026,0.0017721932824712142,0.0,0.020633031559471476,0.2,0.02,0.0,-0.03451318692997275,-0.03598659126076746,-0.000690263738599455,0.0,-0.03667685499936692,-9.790740041105101,-10.0,-0.2092599588948995,40.047965797689265,40.0,-0.047965797689265406,9.430419138500131,10.0,0.5695808614998683,-0.1799329563038373,0,0.1799329563038373,3.9935495036560336,2.0602959060361945,0.03667685499936692,0.5206330315594715,0.033612728118896484,2.359480142593384,STABILIZE
0.16,0.015,0.11,95.70514981401104,6.410652345677541,1.4355772472101656,0.019048440589770472,7.865278033477477,0.17,0.015,0.08,-23.775748813417586,-1.660575189580268,-0.3566362322012638,-0.013261511689747808,-2.03047293347128,0.002,8e-05,0,22.468138788913937,0.018861225715467146,0.001797451103113115,0.0,0.02065867681858026,0.2,0.02,0.0,-0.041380443859232466,-0.04102488011938804,-0.0008276088771846493,0.0,-0.04185248899657269,-9.768089350472165,-10.0,-0.23191064952783547,40.06657716048463,40.0,-0.0665771604846257,9.430612857733573,10.0,0.5693871422664272,-0.20512440059694018,0,0.20512440059694018,3.992705093013266,2.044780275184938,0.04185248899657269,0.5206586768185802,0.033478498458862305,2.392961263656616,STABILIZE
0.16,0.015,0.11,97.04691241482975,6.413493347385942,1.4557036862224462,0.006455450487124157,7.875652484095513,0.17,0.015,0.08,-24.10203210907662,-1.6570772123513067,-0.3615304816361493,0.0025953981126616544,-2.0160122958747944,0.002,8e-05,0,22.783916694242812,0.018867341862882955,0.0018227133355394251,0.0,0.02069005519842238,0.2,0.02,0.0,-0.04902995797820455,-0.045704907003320694,-0.000980599159564091,0.0,-0.046685506162884784,-9.747513013831215,-10.0,-0.25248698616878523,40.084333421162135,40.0,-0.08433342116213445,9.433670931441478,10.0,0.5663290685585228,-0.22852453501660347,0,0.22852453501660347,3.99192732876193,2.0319502402869025,0.046685506162884784,0.5206900551984224,0.03347349166870117,2.42643404006958,STABILIZE
0.16,0.015,0.11,98.38631579523171,6.411029513678967,1.4757947369284756,0.015380422464564572,7.902204673072007,0.17,0.015,0.08,-24.427614326234472,-1.6557928410412524,-0.36641421489351705,0.023174041010390053,-1.9990330149243796,0.002,8e-05,0,23.09953236567772,0.018883607191785293,0.0018479625892542178,0.0,0.02073156978103951,0.2,0.02,0.0,-0.05643816378417108,-0.04432405013343125,-0.0011287632756834217,-0.0,-0.04545281340911467,-9.739957888477955,-10.0,-0.2600421115220459,40.068934460493544,40.0,-0.06893446049354364,9.441803595892646,10.0,0.5581964041073549,-0.22162025066715624,0,0.22162025066715624,3.992237830597641,2.0144900344014354,0.04545281340911467,0.5207315697810395,0.03342747688293457,2.459864616394043,STABILIZE
0.16,0.015,0.11,99.72657109023805,6.411494562306521,1.4958985663535707,0.012257431034521694,7.919650559694613,0.17,0.015,0.08,-24.75400068312696,-1.6589476517930137,-0.3713100102469044,-0.005470542830408241,-2.0357282048703262,0.002,8e-05,0,23.415221794652645,0.018877383517824392,0.0018732177435722118,0.0,0.020750601261396603,0.2,0.02,0.0,-0.06332480520249571,-0.04118027379807346,-0.0012664961040499143,-0.0,-0.04244676990212337,-9.758515598782433,-10.0,-0.24148440121756734,40.07184101441575,40.0,-0.07184101441575647,9.438691758912196,10.0,0.5613082410878034,-0.2059013689903673,0,0.2059013689903673,3.992658478481648,2.0500896561646207,0.04244676990212337,0.5207506012613966,0.033446311950683594,2.493316173553467,STABILIZE
0.16,0.015,0.11,101.06662704051227,6.41451903531058,1.515999405607684,0.02811897914141778,7.958637420059682,0.17,0.015,0.08,-25.079744496945782,-1.656709193612144,-0.3761961674541867,0.02170202202861896,-2.011203339037712,0.002,8e-05,0,23.730706643853267,0.01887685706458143,0.0018984565315082616,0.0,0.02077531359608969,0.2,0.02,0.0,-0.07051380384393867,-0.04301496573792416,-0.0014102760768787733,-0.0,-0.04442524181480294,-9.745348197718494,-10.0,-0.25465180228150636,40.09074397069112,40.0,-0.09074397069112153,9.438428532290715,10.0,0.5615714677092856,-0.2150748286896208,0,0.2150748286896208,3.9924222537889156,2.0262041897122502,0.04442524181480294,0.5207753135960896,0.03342556953430176,2.5267434120178223,STABILIZE
0.16,0.015,0.11,102.40749633404268,6.408721311405108,1.53611244501064,-0.00792486541890814,7.93690889099684,0.17,0.015,0.08,-25.405658025717415,-1.6550696248443137,-0.3810848703857612,0.015486459357568951,-2.020668035872506,0.002,8e-05,0,24.046805721553635,0.018885051898310863,0.001923744457724291,0.0,0.020808796356035154,0.2,0.02,0.0,-0.07682443248463479,-0.037702276848615525,-0.0015364886496926958,0.0,-0.03923876549830822,-9.735703675554786,-10.0,-0.26429632444521284,40.05450819628192,40.0,-0.05450819628192025,9.442525949155431,10.0,0.5574740508445686,-0.18851138424307762,0,0.18851138424307762,3.993330072428585,2.0338176525525493,0.03923876549830822,0.5208087963560352,0.03347611427307129,2.5602340698242188,STABILIZE
0.16,0.015,0.11,103.74762432289918,6.411388289033858,1.5562143648434876,-0.008629946600216522,7.958972707277129,0.17,0.015,0.08,-25.73167419573474,-1.657196020721155,-0.3859751129360211,-0.0003329570661578032,-2.0435040907233337,0.002,8e-05,0,24.362461772112095,0.0188768677576091,0.0019489969417689676,0.0,0.020825864699378065,0.2,0.02,0.0,-0.08298304433386262,-0.03682973959873067,-0.0016596608866772525,0.0,-0.03848940048540792,-9.748211886595028,-10.0,-0.25178811340497226,40.07117680646161,40.0,-0.07117680646161127,9.438433878804549,10.0,0.5615661211954512,-0.18414869799365333,0,0.18414869799365333,3.9934115273374666,2.0563495184747267,0.03848940048540792,0.5208258646993781,0.03344368934631348,2.5936625003814697,STABILIZE
0.16,0.015,0.11,105.08759050953937,6.410431402427654,1.5763138576430904,-0.0024292764444033836,7.984315983626341,0.17,0.015,0.08,-26.057853791852246,-1.657979464925722,-0.39086780687778366,-0.006153919414537026,-2.055001191218043,0.002,8e-05,0,24.678160826598923,0.018878901131765193,0.001974252866127914,-0.0,0.020853153997893108,0.2,0.02,0.0,-0.08874168284217639,-0.0344368364449973,-0.0017748336568435277,0.0,-0.03621167010184083,-9.752820381916012,-10.0,-0.2471796180839878,40.06519626517284,40.0,-0.0651962651728363,9.439450565882597,10.0,0.5605494341174037,-0.1721841822249865,0,0.1721841822249865,3.9938062967559405,2.0670126172571317,0.03621167010184083,0.5208531539978931,0.03344464302062988,2.6271138191223145,STABILIZE
0.16,0.015,0.11,106.42718970113188,6.413201783667358,1.5964078455169781,0.007056710676646221,8.016666339860983,0.17,0.015,0.08,-26.384390243403192,-1.660965591109946,-0.3957658536510479,-0.005685596570310656,-2.0624170413313045,0.002,8e-05,0,24.993609215021333,0.018877233764979826,0.001999488737201707,-0.0,0.020876722502181533,0.2,0.02,0.0,-0.09439656220638237,-0.0338402361808652,-0.0018879312441276476,0.0,-0.03572816742499285,-9.770385830058505,-10.0,-0.2296141699414951,40.08251114792098,40.0,-0.08251114792098117,9.438616882489914,10.0,0.5613831175100862,-0.169201180904326,0,0.169201180904326,3.993892006776906,2.074220501918084,0.03572816742499285,0.5208767225021815,0.03342103958129883,2.6606061458587646,STABILIZE
0.16,0.015,0.11,107.76932973224858,6.4170342559964295,1.6165399459837286,0.010362202388323827,8.043936404368482,0.17,0.015,0.08,-26.711667555044087,-1.662575458429686,-0.4006750133256613,-0.01651620887540999,-2.0797666806307573,0.002,8e-05,0,25.308662956724532,0.018829170262762915,0.002024693036537963,-0.0,0.020853863299300876,0.2,0.02,0.0,-0.100137045283929,-0.034307966848227636,-0.00200274090567858,0.0,-0.03631070775390621,-9.779855637821681,-10.0,-0.2201443621783193,40.106464099977686,40.0,-0.10646409997768229,9.414585131381457,10.0,0.585414868618543,-0.17153983424113817,0,0.17153983424113817,3.993755395962119,2.0917330812236385,0.03631070775390621,0.5208538632993008,0.03346443176269531,2.693998336791992,STABILIZE
0.16,0.015,0.11,109.11347306866955,6.4158249424152585,1.6367020960300431,0.02921527405373693,8.081742312499038,0.17,0.015,0.08,-27.039874131484375,-1.6644974720921468,-0.4055981119722656,-0.026522362968081154,-2.0966179470324935,0.002,8e-05,0,25.623589139329663,0.01878995344683253,0.002049887131146373,-0.0,0.020839840577978903,0.2,0.02,0.0,-0.10497505670018092,-0.02886581500929062,-0.0020995011340036187,0.0,-0.030965316143294237,-9.79116160054204,-10.0,-0.20883839945796012,40.09890589009537,40.0,-0.09890589009536356,9.394976723416265,10.0,0.6050232765837339,-0.1443290750464531,0,0.1443290750464531,3.9947058972556135,2.1066873546518403,0.030965316143294237,0.5208398405779789,0.03352069854736328,2.727513074874878,STABILIZE
