Mode,Time,Freq,time2delay,actualDelay,North-Desired,East-Desired,Down-Desired,Roll-UAV,Pitch-UAV,Yaw-UAV,Roll-Control,Pitch-Control,Yaw-Control,Thrust-Control,North-Pos,East-Pos,Down-Pos,Yaw-Ang,North-Vel,East-Vel,Down-Vel,Yaw-Vel,North-Acc,East-Acc,Down-Acc,North-Avg,East-Avg,Down-Avg,Yaw-Avg,North-Dif,East-Dif,Down-Dif,Yaw-Dif,North-One,East-One,Down-One,Yaw-One,North-Two,East-Two,Down-Two,Yaw-Two,Landing-State,Q-Size,Kalman-Time,Kalman-Dt
STABILIZE,0.035570383071899414,28.12062700296338,0.03271535237630208,0.03408098220825195,0.0,0.0,0.0,0.06382689049415267,-1.6210925722581646,2.2116124784857782,-0.003129605728154637,-0.16378081621155915,0.0011428659192690039,0.4,-0.06450599465816527,0.0012390266511701081,0.6186664438994661,0.005694847406578251,-0.35530957393348217,-0.12358014937490225,1.1307895183563232,0.05847262249445769,-5.605030059814453,-1.0352110490202904,17.199528217315674,0.0,0.0,0.0,0.0,0.0,0.0,0.0,0.0,0.0,0.0,0.0,0.0,0.0,0.0,0.0,0.0,False,1,3.4777824878692627,0.02993212890625
STABILIZE,0.06894659996032715,29.962096480387466,0.03233340581258138,0.032463788986206055,0.0,0.0,0.0,0.06406397276354615,-1.6221145393127279,2.211765517411869,0.0006388653757876577,-0.08773199097560863,0.002651569279569143,0.4,-0.06403524428459528,-0.0004191890094506919,0.6207174013109451,0.013194252858327973,-0.10509472340345383,-0.04382057231850922,1.2887286953628063,0.22460249992367126,-2.062371000647545,1.0031810030341148,20.553652942180634,0.0,0.0,0.0,0.0,0.0,0.0,0.0,0.0,0.0,0.0,0.0,0.0,0.0,0.0,0.0,0.0,False,0,3.5351052284240723,0.034919921875
STABILIZE,0.10242938995361328,29.866940106670086,0.032442839940389,0.03257274627685547,0.0,0.0,0.0,0.06434886635712973,-1.6219714255052748,2.211510665978463,0.00020857291908377357,-0.06189224006804355,0.0022202087622898675,0.4,-0.06311450424594217,-0.00017487975372506713,0.6225487194733547,0.011000656085318108,-0.05504335858859122,0.02071928174700588,1.2436199001967907,-0.13403788676836487,-3.934919089078903,0.9652321226894855,17.0931339263916,0.0,0.0,0.0,0.0,0.0,0.0,0.0,0.0,0.0,0.0,0.0,0.0,0.0,0.0,0.0,0.0,False,0,3.563776969909668,0.034919921875
STABILIZE,0.13589787483215332,29.879067646891208,0.03240779240926107,0.03255319595336914,0.0,0.0,0.0,0.06422688344742154,-1.6212575640153029,2.211211845202275,-0.0007184978230700796,-0.05236918045555638,0.0024063582994222413,0.4,-0.06654666882422798,0.0009352144942724936,0.6212653872421071,0.011891585723129523,-0.3157026367262006,0.07111676968634129,1.0609399527311325,0.05443851533549247,-7.7658116817474365,-0.9705484844744205,18.455833196640015,0.0,0.0,0.0,0.0,0.0,0.0,0.0,0.0,0.0,0.0,0.0,0.0,0.0,0.0,0.0,0.0,False,0,3.59248423576355,0.02993212890625
STABILIZE,0.16964197158813477,29.634184942346824,0.03240254720052083,0.03285336494445801,0.0,0.0,0.0,0.06534943570968371,-1.6219179579306784,2.212136268617754,-0.0002673896974585989,-0.04456715578367811,0.002506193199182164,0.4,-0.06647292630886853,0.00042445654572670035,0.6208720750789706,0.012349081119214667,-0.1282085431739688,-0.027077761478722095,1.2934448197484016,0.039124043937347065,-3.429020568728447,-0.9071016684174538,20.22632509469986,0.0,0.0,0.0,0.0,0.0,0.0,0.0,0.0,0.0,0.0,0.0,0.0,0.0,0.0,0.0,0.0,False,0,3.6210875511169434,0.034919921875
STABILIZE,0.20312261581420898,29.86757815281635,0.032430203755696614,0.032543182373046875,0.0,0.0,0.0,0.06477922163569344,-1.623102782308264,2.2125027509554074,0.00035088206391803445,-0.016302164171322815,0.0030304948507895706,0.4,-0.06922947973006659,0.0003591074904730578,0.6230710846518306,0.014920672778844556,-0.2747509628534317,7.279577403096482e-05,1.2567240744829178,0.15804074565694995,-6.183011084794998,1.0811172425746918,18.783290684223175,0.0,0.0,0.0,0.0,0.0,0.0,0.0,0.0,0.0,0.0,0.0,0.0,0.0,0.0,0.0,0.0,False,0,3.6498703956604004,0.034935302734375
STABILIZE,0.2369072437286377,29.59988708539167,0.03237727483113607,0.03290677070617676,0.0,0.0,0.0,0.0653777703225687,-1.6232725765421623,2.2126728653544228,0.0004943741742241584,-0.0176804770727068,0.0045049514369695605,0.4,-0.07088895748558215,-0.0010282109980171926,0.6219967561549296,0.022217832671599894,-0.12789575848728418,0.040294593782164156,1.2401743791997433,0.17148459899615812,-5.160399526357651,1.0227416642010212,18.818658590316772,0.0,0.0,0.0,0.0,0.0,0.0,0.0,0.0,0.0,0.0,0.0,0.0,0.0,0.0,0.0,0.0,False,0,3.707362413406372,0.034920166015625
STABILIZE,0.2705399990081787,29.73502722323049,0.03237608273824056,0.03250765800476074,0.0,0.0,0.0,0.06586522171372546,-1.623084212731458,2.214027804131024,0.00019425954344149597,-0.018341449463445937,0.005074174098523264,0.4,-0.07116130150280943,-0.0004113717297764475,0.6240172935927151,0.024980361933621454,-0.12789575848728418,0.040294593782164156,1.2401743791997433,0.17148459899615812,-5.160399526357651,1.0227416642010212,18.818658590316772,0.0,0.0,0.0,0.0,0.0,0.0,0.0,0.0,0.0,0.0,0.0,0.0,0.0,0.0,0.0,0.0,False,0,3.7358717918395996,0.034920166015625
STABILIZE,0.30390238761901855,29.972159496927254,0.03224018414815267,0.032366275787353516,0.0,0.0,0.0,0.06622145876762393,-1.6240693607975265,2.213382778141281,-0.0001427549353094106,-0.017121734190634966,0.005020913069477701,0.4,-0.07172771682476126,0.0008660622883227742,0.6235311839044934,0.024631646587939905,-0.14788885600864887,0.07848837994970381,1.0953637771308422,-0.011662702254012159,0.12416969984769821,-1.0197504423558712,15.31771868467331,0.0,0.0,0.0,0.0,0.0,0.0,0.0,0.0,0.0,0.0,0.0,0.0,0.0,0.0,0.0,0.0,False,0,3.7645130157470703,0.034921142578125
STABILIZE,0.3373219966888428,29.92233882416728,0.03233984311421712,0.03248167037963867,0.0,0.0,0.0,0.06648799622781311,-1.6244412859421749,2.213566766362048,-0.001539370210757401,-0.016620336840403434,0.00493778541974554,0.4,-0.07088335199187594,0.002566263798021195,0.6217883982975536,0.024135230803132884,-0.06617910694330931,0.1021948759444058,1.027179230004549,-0.015449741160223393,0.9157389402389526,0.9825593791902065,15.569190680980682,0.0,0.0,0.0,0.0,0.0,0.0,0.0,0.0,0.0,0.0,0.0,0.0,0.0,0.0,0.0,0.0,False,0,3.7932403087615967,0.034919921875
STABILIZE,0.3707914352416992,29.876726477522848,0.03238871892293294,0.03254866600036621,0.0,0.0,0.0,0.06655384352028026,-1.623943215741293,2.2144677110022553,-0.0008020813826721135,-0.014506491724665827,0.004660305311583496,0.4,-0.06965947594560833,0.0014302591750078484,0.6221530213509272,0.022671984080304672,-0.04668020410463214,-0.06666999543085694,1.1582834646105766,-0.06822243739017322,-1.2469743378460407,1.0658219456672668,17.14276224374771,0.0,0.0,0.0,0.0,0.0,0.0,0.0,0.0,0.0,0.0,0.0,0.0,0.0,0.0,0.0,0.0,False,0,3.8218913078308105,0.029931884765625
STABILIZE,0.40424442291259766,29.893335423957122,0.03240779240926107,0.032532453536987305,0.0,0.0,0.0,0.06643415512724636,-1.6240419333191407,2.2148685577291705,-0.0013153524527680616,-0.013885927511874816,0.005093427189533937,0.4,-0.0698502723004996,0.0012185767634466564,0.6187386674314925,0.024754769565954328,-0.15405452577397227,-0.01038467962644063,1.111506950110197,0.15825441585213762,-3.3422477543354034,-0.966611597687006,16.102996468544006,0.0,0.0,0.0,0.0,0.0,0.0,0.0,0.0,0.0,0.0,0.0,0.0,0.0,0.0,0.0,0.0,False,0,3.851264238357544,0.034919921875
STABILIZE,0.43868184089660645,29.039387959981998,0.03239038785298665,0.03312349319458008,0.0,0.0,0.0,0.06674759677712648,-1.6229872027009027,2.2154907452738763,-0.0021019434484829454,-0.015447269136769326,0.005369548118918003,0.4,-0.07231948883872431,0.0028323242959558594,0.6193084995218735,0.02604669518359548,-0.26689625810831785,0.09773812489584088,1.1602683924138546,0.0990613351322692,-1.7264153808355331,1.1051704175770283,20.01909166574478,0.0,0.0,0.0,0.0,0.0,0.0,0.0,0.0,0.0,0.0,0.0,0.0,0.0,0.0,0.0,0.0,False,0,3.8802237510681152,0.034919921875
STABILIZE,0.47170448303222656,30.279629509309192,0.03200820287068685,0.03212571144104004,0.0,0.0,0.0,0.0672900098467607,-1.6228862439672334,2.2158495436487136,-0.0026408438846255208,-0.016261404424168867,0.005912514640088927,0.4,-0.07386355467512308,0.004525332561560908,0.620076182786701,0.028665668785472765,-0.06582382484339178,0.004234476728015579,1.1508069932460785,0.10735788720982567,-2.7068043127655983,-1.0078245773911476,13.15993219614029,0.0,0.0,0.0,0.0,0.0,0.0,0.0,0.0,0.0,0.0,0.0,0.0,0.0,0.0,0.0,0.0,False,0,3.939002275466919,0.02993212890625
STABILIZE,0.5051367282867432,29.912949214431915,0.0324285348256429,0.03253674507141113,0.0,0.0,0.0,0.0663568352514077,-1.6242745866377444,2.217691773733913,-0.001726384164592947,-0.015006274850067681,0.00530577751487305,0.4,-0.07136775178054015,0.004370193217146256,0.6181576736636089,0.025546604360920478,0.0013090628272038884,-0.004590675962390378,1.197692472487688,-0.1425606154910053,1.1373287066817284,0.9505167603492737,14.66972827911377,0.0,0.0,0.0,0.0,0.0,0.0,0.0,0.0,0.0,0.0,0.0,0.0,0.0,0.0,0.0,0.0,False,0,3.9675967693328857,0.034920166015625
STABILIZE,0.538684606552124,29.80899179850184,0.03242495854695638,0.03256034851074219,0.0,0.0,0.0,0.06664791870392661,-1.6236769450853683,2.2184567549209544,-0.0030169740187569113,-0.016721325102664643,0.005535848569639962,0.4,-0.07297889631076077,0.0054698170609960555,0.6161124585187491,0.026607904472379186,-0.21991361863911152,0.06747471634298563,1.0021037422120571,0.09518360862280685,-3.6077503114938736,0.9698147885501385,13.466854393482208,0.0,0.0,0.0,0.0,0.0,0.0,0.0,0.0,0.0,0.0,0.0,0.0,0.0,0.0,0.0,0.0,False,0,3.9962265491485596,0.034919921875
STABILIZE,0.5721564292907715,29.87715211739146,0.032326730092366536,0.032448530197143555,0.0,0.0,0.0,0.06699401719577584,-1.6238079993400678,2.2188731830169135,-0.0028827379428767066,-0.017053251207700848,0.005374694033660285,0.4,-0.0735484274589406,0.0051187863586129164,0.6176903554118139,0.025716127574302285,-0.15832212520763278,-0.018472172087058425,1.2231409549713135,-0.019260356392015735,-3.367464244365692,-0.8698779158294201,20.956537127494812,0.0,0.0,0.0,0.0,0.0,0.0,0.0,0.0,0.0,0.0,0.0,0.0,0.0,0.0,0.0,0.0,False,0,4.024820804595947,0.02993212890625
STABILIZE,0.6055176258087158,29.972159496927254,0.03229239781697591,0.03242158889770508,0.0,0.0,0.0,0.06749614282147756,-1.6246244203892959,2.219699635906485,-0.0009896460257687726,-0.014900970955214553,0.005973932415395212,0.4,-0.07203449913500731,0.0034435504680246924,0.6166579466654211,0.028616631964861687,-0.05831794114783406,-0.09374555083923042,1.2439808808267117,0.21972663865056807,0.639798492193222,-0.9204422123730183,18.654009699821472,0.0,0.0,0.0,0.0,0.0,0.0,0.0,0.0,0.0,0.0,0.0,0.0,0.0,0.0,0.0,0.0,False,0,4.053498983383179,0.034919921875
STABILIZE,0.6390163898468018,29.852272565515083,0.03239301045735677,0.03252863883972168,0.0,0.0,0.0,0.06762655674594249,-1.6233690529641887,2.2199542738964797,-0.0001183111177638959,-0.015399800423855449,0.004981404945246107,0.4,-0.07380543961010824,0.003349064400018751,0.6168743668797634,0.023575111398711907,-0.2310759387910366,-0.0009032970410771668,1.1303306557238102,-0.2656655972137879,-7.74124413728714,1.0426423512399197,19.169051945209503,0.0,0.0,0.0,0.0,0.0,0.0,0.0,0.0,0.0,0.0,0.0,0.0,0.0,0.0,0.0,0.0,False,0,4.085862636566162,0.034919921875
STABILIZE,0.6725382804870605,29.83019216818628,0.03235033353169759,0.032642364501953125,0.0,0.0,0.0,0.06759411334738494,-1.6239219781218424,2.2210471041636817,-0.00012763648376236565,-0.017831258006000848,0.003964620171035282,0.4,-0.0755779336830016,0.0032497038534073574,0.6170022825083087,0.018429263713987155,-0.2310759387910366,-0.0009032970410771668,1.1303306557238102,-0.2656655972137879,-7.74124413728714,1.0426423512399197,19.169051945209503,0.0,0.0,0.0,0.0,0.0,0.0,0.0,0.0,0.0,0.0,0.0,0.0,0.0,0.0,0.0,0.0,False,1,4.114733695983887,0.034919921875
STABILIZE,0.7060422897338867,29.84908587573034,0.032442601521809895,0.032559871673583984,0.0,0.0,0.0,0.06796550488350438,-1.623985690980194,2.2210012138301956,-2.812486658383585e-05,-0.01637795222817562,0.004369077125528212,0.4,-0.07451586355443338,0.0038752031401460135,0.6123348902528584,0.020383369744325083,-0.0012302989489398897,0.07657280075363815,1.2031640857458115,0.10756906945524733,4.514646902680397,-0.8750258013606071,18.81309151649475,0.0,0.0,0.0,0.0,0.0,0.0,0.0,0.0,0.0,0.0,0.0,0.0,0.0,0.0,0.0,0.0,False,0,4.172703504562378,0.0349208984375
STABILIZE,0.739473819732666,29.91081603400201,0.03237632115681966,0.03249239921569824,0.0,0.0,0.0,0.0682518925809689,-1.6243894191931652,2.221732684401622,-0.0010260415437917095,-0.014642578280646457,0.004612417348293774,0.4,-0.07230574861308281,0.00509422843356618,0.6134745087445019,0.02152808429374834,-0.0012302989489398897,0.07657280075363815,1.2031640857458115,0.10756906945524733,4.514646902680397,-0.8750258013606071,18.81309151649475,0.0,0.0,0.0,0.0,0.0,0.0,0.0,0.0,0.0,0.0,0.0,0.0,0.0,0.0,0.0,0.0,False,0,4.207714080810547,0.0349208984375
STABILIZE,0.7729663848876953,29.859923397832926,0.03238633473714193,0.03252267837524414,0.0,0.0,0.0,0.06850306211552554,-1.623598931518442,2.2222855028375696,-0.001203402157035451,-0.014983457100055943,0.004847967723083128,0.4,-0.07168713116185754,0.004171434025840295,0.6114503406005275,0.0226301321540455,-0.09699176298454404,-0.049356615636497736,1.0194117203354836,0.10412352583356019,3.7057965993881226,0.9356836788356304,12.893092632293701,0.0,0.0,0.0,0.0,0.0,0.0,0.0,0.0,0.0,0.0,0.0,0.0,0.0,0.0,0.0,0.0,False,0,4.236465930938721,0.034920166015625
STABILIZE,0.8064441680908203,29.869067033178325,0.032340319951375325,0.03247499465942383,0.0,0.0,0.0,0.0682651794333387,-1.6242347794414878,2.2227552917864197,-0.002351069378191975,-0.014573412848468218,0.004653717220219802,0.4,-0.07227700179680946,0.005791917786995554,0.6146971235034436,0.021586666306215342,-0.16835302812978625,0.1003695884719491,1.3309572823345661,-0.021742333077575317,-2.0602863281965256,0.963994488120079,15.548750758171082,0.0,0.0,0.0,0.0,0.0,0.0,0.0,0.0,0.0,0.0,0.0,0.0,0.0,0.0,0.0,0.0,False,0,4.26519775390625,0.02993212890625
STABILIZE,0.8398895263671875,29.89866271278264,0.03231671651204427,0.03257918357849121,0.0,0.0,0.0,0.06928490533208044,-1.6246200447993588,2.222840455707633,-0.002842550094573793,-0.014883689086764755,0.0046181831298257115,0.4,-0.07392752404862596,0.006443573422089112,0.6105720237862893,0.02133737888217337,-0.25131090078502893,0.04685571766458452,1.0665117762982845,0.031281839511835274,-7.218509167432785,-1.0222048498690128,14.75394070148468,0.0,0.0,0.0,0.0,0.0,0.0,0.0,0.0,0.0,0.0,0.0,0.0,0.0,0.0,0.0,0.0,False,0,4.293945074081421,0.034919921875
STABILIZE,0.8734092712402344,29.83231386383681,0.03246882756551107,0.03260183334350586,0.0,0.0,0.0,0.06955544485623641,-1.6253305979164518,2.2236421491614635,-0.002372495107664063,-0.015898718160687345,0.0044354976447048755,0.4,-0.07462033095563853,0.006187169369124953,0.608781739482544,0.02035581779471772,-0.17192327650263906,-0.009859014971880242,1.0212778113782406,-0.018208257130835848,-3.300539404153824,0.9643109515309334,16.177813708782196,0.0,0.0,0.0,0.0,0.0,0.0,0.0,0.0,0.0,0.0,0.0,0.0,0.0,0.0,0.0,0.0,False,0,4.322628974914551,0.029930908203125
STABILIZE,0.9069464206695557,29.820012228589306,0.032402785619099934,0.032521724700927734,0.0,0.0,0.0,0.07027432226638025,-1.625167847315135,2.2229335170350746,-0.0013172241670409933,-0.017916986110409136,0.004269707818307815,0.4,-0.07598054471129355,0.005488241494974024,0.6075261495095846,0.01946180625877222,-0.2351277507841587,-0.03230726579204202,1.2230243533849716,-0.008137896921699127,-6.180060654878616,-0.9269436821341515,18.04426461458206,0.0,0.0,0.0,0.0,0.0,0.0,0.0,0.0,0.0,0.0,0.0,0.0,0.0,0.0,0.0,0.0,False,0,4.35138463973999,0.0349208984375
STABILIZE,0.9402961730957031,29.984372654289658,0.03229835828145345,0.03242683410644531,0.0,0.0,0.0,0.0696101930913023,-1.6258787205973453,2.2231962658747086,-0.0013208201928714288,-0.0248768800009657,0.0026339198059903814,0.4,-0.08574197930025253,0.004837504781545147,0.6059661115544014,0.011245248820707644,-0.41841529309749603,-0.012164415238657966,1.0705862194299698,-0.20271031623096555,-7.056715339422226,0.8160876110196114,11.355455219745636,0.0,0.0,0.0,0.0,0.0,0.0,0.0,0.0,0.0,0.0,0.0,0.0,0.0,0.0,0.0,0.0,False,0,4.409019231796265,0.034919921875
STABILIZE,0.9737884998321533,29.85758522747496,0.03239396413167318,0.032534122467041016,0.0,0.0,0.0,0.0693506992636947,-1.6260587601149985,2.2233243319216465,-0.0009716709888979124,-0.02500734803568415,0.0024336464746497343,0.4,-0.08628668802584791,0.005460922046580349,0.605114701636713,0.010209714474159325,-0.16157092759385705,0.04460227792151272,1.0722195729613304,-0.019115404970191388,-1.7438281327486038,0.8964408189058304,16.099943220615387,0.0,0.0,0.0,0.0,0.0,0.0,0.0,0.0,0.0,0.0,0.0,0.0,0.0,0.0,0.0,0.0,False,0,4.437702178955078,0.02993212890625
STABILIZE,1.007779836654663,29.41926071403521,0.03235820134480794,0.03275322914123535,0.0,0.0,0.0,0.06836432389800966,-1.6264151038906027,2.222790296505916,-0.0011223867912403855,-0.023820503254564817,0.0020810563467887123,0.4,-0.0856297966694053,0.006138544408768914,0.6001447789156659,0.008418398857453152,-0.1249469118192792,0.05024647689424455,0.9949062950909138,-0.0696607791798427,1.8648719415068626,0.8776865899562836,14.945247769355774,0.0,0.0,0.0,0.0,0.0,0.0,0.0,0.0,0.0,0.0,0.0,0.0,0.0,0.0,0.0,0.0,False,0,4.46636438369751,0.034919921875
STABILIZE,1.0409519672393799,30.146004183047875,0.032080682118733723,0.03220176696777344,0.0,0.0,0.0,0.0685009810422628,-1.6269222454364762,2.2223395040206952,-0.0006635140112085247,-0.02379203407414519,0.0019171055115147421,0.4,-0.08601258883811237,0.0052768166068290975,0.599647954478459,0.007573306458215303,-0.15602807980030775,-0.04374546406324953,1.0816702619194984,-0.011340408538895468,-0.4626157693564892,-1.113947480916977,14.99561071395874,0.0,0.0,0.0,0.0,0.0,0.0,0.0,0.0,0.0,0.0,0.0,0.0,0.0,0.0,0.0,0.0,False,0,4.4951136112213135,0.034920166015625
STABILIZE,1.0744524002075195,29.850572912959933,0.03236058553059896,0.032491445541381836,0.0,0.0,0.0,0.06862397780817592,-1.626640606854919,2.2228001149028476,-0.00040330182630113023,-0.0234074240241174,0.0017601454630689836,0.4,-0.08634151934132045,0.004396175373100618,0.5991034487498585,0.006765871386911921,-0.15602807980030775,-0.04374546406324953,1.0816702619194984,-0.011340408538895468,-0.4626157693564892,-1.113947480916977,14.99561071395874,0.0,0.0,0.0,0.0,0.0,0.0,0.0,0.0,0.0,0.0,0.0,0.0,0.0,0.0,0.0,0.0,False,0,4.523786544799805,0.034920166015625
STABILIZE,1.1078212261199951,29.967020090880514,0.03231170972188314,0.03242993354797363,0.0,0.0,0.0,0.06806075400591433,-1.6266326027269855,2.2231700123350864,-0.0005429613044924724,-0.01880265453381982,0.0027760915903377497,0.4,-0.08637209012948116,0.004141867730847552,0.6021526202691215,0.01180612726682656,-0.14135316014289856,-0.006019193824613467,1.295990962535143,0.3313180425266116,0.5288409069180489,-1.0831431485712528,18.208880722522736,0.0,0.0,0.0,0.0,0.0,0.0,0.0,0.0,0.0,0.0,0.0,0.0,0.0,0.0,0.0,0.0,False,0,4.5524725914001465,0.029931884765625
STABILIZE,1.1412708759307861,29.89461380013257,0.032382996877034505,0.03250288963317871,0.0,0.0,0.0,0.06775894502196439,-1.6263726286517017,2.2236506868979258,-0.001523243783613409,-0.01815517484437971,0.0031071121177452974,0.4,-0.08573766835297847,0.006022615674315136,0.600309780401824,0.013416348848344452,-0.16001390758901834,0.11548120528459549,1.271247025579214,0.16874450586000617,1.8715733662247658,-1.2886465527117252,8.97940844297409,0.0,0.0,0.0,0.0,0.0,0.0,0.0,0.0,0.0,0.0,0.0,0.0,0.0,0.0,0.0,0.0,False,0,4.609993934631348,0.034919921875
STABILIZE,1.1748318672180176,29.797344434893187,0.03237918217976888,0.03254437446594238,0.0,0.0,0.0,0.06797783124052213,-1.6280315108463688,2.224359532467726,2.0244945985788656e-05,-0.019653876832649957,0.003192183959956278,0.4,-0.08742364047596024,0.0042185125000053,0.5936169284785622,0.013795539439289458,-0.24390779435634613,-0.09900233708322048,0.7078914903104305,0.0489095672488064,-2.8169259428977966,-3.102113865315914,14.70215767621994,0.0,0.0,0.0,0.0,0.0,0.0,0.0,0.0,0.0,0.0,0.0,0.0,0.0,0.0,0.0,0.0,False,0,4.638585329055786,0.0349208984375
STABILIZE,1.2082064151763916,29.964451048751215,0.03229549725850423,0.03242063522338867,0.0,0.0,0.0,0.06760889430363567,-1.6271820060683484,2.224100412166089,0.0008504796036689143,-0.020647678400512685,0.003278880781329447,0.4,-0.08909281412321257,0.0023860453583170525,0.5867897156981183,0.014181593712238361,-0.24390779435634613,-0.09900233708322048,0.7078914903104305,0.0489095672488064,-2.8169259428977966,-3.102113865315914,14.70215767621994,0.0,0.0,0.0,0.0,0.0,0.0,0.0,0.0,0.0,0.0,0.0,0.0,0.0,0.0,0.0,0.0,False,0,4.667360544204712,0.0349208984375
STABILIZE,1.2416117191314697,29.933870495792863,0.032370837529500325,0.03249001502990723,0.0,0.0,0.0,0.06804458566748843,-1.6276726057498256,2.2238304062504617,0.0006989803964312663,-0.02229069883758742,0.0031122976596825733,0.4,-0.091678384615415,0.0019872084418179324,0.5892376293330918,0.013304191591663942,-0.2990717999637127,-0.013653990754391998,1.258733868598938,-0.02564273127940961,-13.32005262374878,0.8719845674932003,15.177810192108154,0.0,0.0,0.0,0.0,0.0,0.0,0.0,0.0,0.0,0.0,0.0,0.0,0.0,0.0,0.0,0.0,False,0,4.695977210998535,0.06485205078125
STABILIZE,1.2751078605651855,29.854609903837257,0.03241160710652669,0.0325474739074707,0.0,0.0,0.0,0.06995549117035818,-1.6283379088636671,2.225015444071459,0.0008350240750221585,-0.022727809589460867,0.002565160906056888,0.4,-0.09227635206772522,0.0016043806097462397,0.6047731045154681,0.01053324685712214,-0.012204374797875062,-0.006139078323030844,1.107662357389927,-0.14162605351347712,-0.9897585026919842,0.7848698645830154,12.632007896900177,0.0,0.0,0.0,0.0,0.0,0.0,0.0,0.0,0.0,0.0,0.0,0.0,0.0,0.0,0.0,0.0,False,0,4.724579095840454,0.034920166015625
STABILIZE,1.3085942268371582,29.862899780708,0.032134326299031575,0.03226780891418457,0.0,0.0,0.0,0.0705386719316009,-1.6278332219170268,2.2254523627349285,0.0019061663432830948,-0.021077657435703587,0.001943469205999033,0.4,-0.08933171601719572,0.001348373841945555,0.6029223399618456,0.007400050443870752,-0.012204374797875062,-0.006139078323030844,1.107662357389927,-0.14162605351347712,-0.9897585026919842,0.7848698645830154,12.632007896900177,0.0,0.0,0.0,0.0,0.0,0.0,0.0,0.0,0.0,0.0,0.0,0.0,0.0,0.0,0.0,0.0,False,0,4.753320693969727,0.034920166015625
STABILIZE,1.3419435024261475,29.984372654289658,0.03230765660603841,0.03242373466491699,0.0,0.0,0.0,0.07052501155326088,-1.6283323593349666,2.225576159913635,0.00010385087263934851,-0.020344637026395853,0.00145759192176648,0.4,-0.0893729465572289,0.002729696623259041,0.5928838184972206,0.004954104292611549,-0.11714681750163436,0.0381412566639483,1.1065413244068623,-0.06876898592590647,1.0163655504584312,0.789942778646946,10.61721220612526,0.0,0.0,0.0,0.0,0.0,0.0,0.0,0.0,0.0,0.0,0.0,0.0,0.0,0.0,0.0,0.0,False,0,4.8108367919921875,0.034920166015625
STABILIZE,1.3754494190216064,29.84611224569668,0.032427342732747395,0.03254580497741699,0.0,0.0,0.0,0.07042378601532717,-1.6287990533543488,2.2257663379933375,-0.0012343230019261743,-0.02013457551261651,0.0017461338152745826,0.4,-0.0901736474363039,0.003408334757545369,0.5891632132091359,0.00637548449171178,-0.21393976639956236,0.043802885920740664,0.963022094219923,0.104772280412899,-3.9866074919700623,0.8878631517291069,17.793944478034973,0.0,0.0,0.0,0.0,0.0,0.0,0.0,0.0,0.0,0.0,0.0,0.0,0.0,0.0,0.0,0.0,False,0,4.841450214385986,0.06485205078125
STABILIZE,1.4089984893798828,29.810262970859984,0.03235486348470052,0.03249192237854004,0.0,0.0,0.0,0.0704127403187788,-1.6283802773808624,2.2265417779075456,-0.0020034807895180475,-0.021315942649096156,0.002032072516502563,0.4,-0.09366990762629619,0.004258776654695552,0.6006552407989106,0.0077791538476676345,-0.21393976639956236,0.043802885920740664,0.963022094219923,0.104772280412899,-3.9866074919700623,0.8878631517291069,17.793944478034973,0.0,0.0,0.0,0.0,0.0,0.0,0.0,0.0,0.0,0.0,0.0,0.0,0.0,0.0,0.0,0.0,False,0,4.868348121643066,0.06485205078125
STABILIZE,1.447282314300537,26.119878688994202,0.032239468892415364,0.03728818893432617,0.0,0.0,0.0,0.06980741480358642,-1.6285148534518528,2.227208361681856,-0.0021449432561923814,-0.020793049453881742,0.0021065465056150775,0.4,-0.09319874754917166,0.004187686687089853,0.6162834262486383,0.008120373556534152,-0.033562007592990994,-0.005403505201684311,1.2644230388104916,0.03537879241529255,-1.1650219559669495,-1.0197139345109463,20.72068601846695,0.0,0.0,0.0,0.0,0.0,0.0,0.0,0.0,0.0,0.0,0.0,0.0,0.0,0.0,0.0,0.0,False,0,4.897123098373413,0.034919921875
STABILIZE,1.4806678295135498,29.951826329132004,0.032326730092366536,0.03245115280151367,0.0,0.0,0.0,0.06886004622136449,-1.628306319238756,2.227411559809664,-0.001466705873281543,-0.019960552840836563,0.0024951384410551785,0.4,-0.08982839963950444,0.0030061123877308336,0.6099848990026261,0.010029797542540991,-0.03592757857404649,-0.04912819713354111,1.0149232111871243,0.11227322217385477,1.8838286399841309,0.668864231556654,9.784766286611557,0.0,0.0,0.0,0.0,0.0,0.0,0.0,0.0,0.0,0.0,0.0,0.0,0.0,0.0,0.0,0.0,False,0,4.92569375038147,0.034919921875
STABILIZE,1.514113187789917,29.899302115040527,0.032406123479207356,0.03256678581237793,0.0,0.0,0.0,0.06943314178141087,-1.6276320515016287,2.2281172037282913,-0.0016962919401543293,-0.019496305382593924,0.00242292691659999,0.4,-0.08910692798953954,0.004316140273382752,0.5938041558297453,0.009636494008414717,-0.16969579737633467,0.17286260845139623,1.012248732149601,-0.08193765734675716,-2.2031141445040703,0.81484355032444,14.592967927455902,0.0,0.0,0.0,0.0,0.0,0.0,0.0,0.0,0.0,0.0,0.0,0.0,0.0,0.0,0.0,0.0,False,0,4.983585596084595,0.034919921875
STABILIZE,1.5477113723754883,29.766258835552275,0.032444270451863606,0.03258919715881348,0.0,0.0,0.0,0.07054000595292317,-1.6281642726483607,2.227972702538663,-0.0035838616498141984,-0.018909066061770192,0.0020274745031215358,0.4,-0.08873943657630055,0.007573279744941211,0.5890473128111371,0.007633667197434768,-0.16969579737633467,0.17286260845139623,1.012248732149601,-0.08193765734675716,-2.2031141445040703,0.81484355032444,14.592967927455902,0.0,0.0,0.0,0.0,0.0,0.0,0.0,0.0,0.0,0.0,0.0,0.0,0.0,0.0,0.0,0.0,False,0,5.0123162269592285,0.034919921875
STABILIZE,1.5811958312988281,29.861198917841378,0.032300742467244466,0.03254055976867676,0.0,0.0,0.0,0.07125765606345053,-1.628892755012025,2.228626052821457,-0.0035733331534926784,-0.01699820662469614,0.0020931830782164413,0.4,-0.0883210899796214,0.00815234673573895,0.5849901983443434,0.007935583899466556,-0.16486351378262043,0.03802065039053559,1.0316538624465466,0.034668092555854214,-5.034250766038895,0.7181222550570965,12.4135322868824,0.0,0.0,0.0,0.0,0.0,0.0,0.0,0.0,0.0,0.0,0.0,0.0,0.0,0.0,0.0,0.0,False,0,5.04198431968689,0.034921142578125
STABILIZE,1.6146466732025146,29.895253029223092,0.03237727483113607,0.03249335289001465,0.0,0.0,0.0,0.07128337599454386,-1.6275101753136263,2.2282738711923784,-0.0038095642697641937,-0.016731886361766223,0.0026621922963519884,0.4,-0.08757399063642893,0.008451680596341922,0.580041639137995,0.010744708784737779,-0.14572336804121733,0.024545175256207585,0.9702816605567932,0.1645102821624875,-2.7283839881420135,0.7093103602528572,11.213819682598114,0.0,0.0,0.0,0.0,0.0,0.0,0.0,0.0,0.0,0.0,0.0,0.0,0.0,0.0,0.0,0.0,False,0,5.071578741073608,0.029931884765625
STABILIZE,1.648064136505127,29.92361968223619,0.03237346013387044,0.032507896423339844,0.0,0.0,0.0,0.07070366368873902,-1.6277998180231172,2.228602147159362,-0.004681793249659246,-0.015380017896411394,0.0020560498556580443,0.4,-0.08314100077276258,0.008895932134716214,0.5745516674700367,0.007688270786195517,0.03213612944819033,0.03774065407924354,1.05803944170475,-0.1396714054514502,0.9431376121938229,0.7490062154829502,12.82321959733963,0.0,0.0,0.0,0.0,0.0,0.0,0.0,0.0,0.0,0.0,0.0,0.0,0.0,0.0,0.0,0.0,False,0,5.0998218059539795,0.034920166015625
STABILIZE,1.6842381954193115,27.64430149481954,0.0324130376180013,0.03526806831359863,0.0,0.0,0.0,0.0763134901531409,-1.6397800765490254,2.233210817301828,-0.004588427666127696,-0.015756338913159976,0.00193736317694547,0.4,-0.08311972104688148,0.00971716988875301,0.570553692821253,0.0070692754039073935,-0.17716905567795038,0.053782796021550894,0.9749570861458778,-0.014770123997593901,-5.958271026611328,0.7715763989835978,14.487171173095703,0.0,0.0,0.0,0.0,0.0,0.0,0.0,0.0,0.0,0.0,0.0,0.0,0.0,0.0,0.0,0.0,False,0,5.127979278564453,0.034919921875
STABILIZE,1.7197027206420898,28.198707820977404,0.03241756757100423,0.03451251983642578,0.0,0.0,0.0,0.08084254590309405,-1.6182199441036453,2.229547061142351,-0.00404836833264527,-0.01602762685273774,-0.008573952150236156,0.4,-0.08320452888828075,0.011244741244789129,0.5844806083753328,-0.0453267369067603,-0.11314803268760443,0.10515839094296098,1.9714418798685074,-2.7862727921823285,0.9071379899978638,-5.550463870167732,93.31157207489014,0.0,0.0,0.0,0.0,0.0,0.0,0.0,0.0,0.0,0.0,0.0,0.0,0.0,0.0,0.0,0.0,False,0,5.1863861083984375,0.029854736328125
STABILIZE,1.753434419631958,29.643819351190896,0.0323672612508138,0.032889366149902344,0.0,0.0,0.0,0.07565469706335201,-1.6441418993860188,2.2353945568455282,0.002398655717437182,-0.01295551771030459,0.021852219972176287,0.4,-0.07828518643917072,0.002126813947982708,0.5716236141989437,0.10644396364089018,0.07919846102595329,-0.48647094517946243,0.6070083007216454,8.371939596829403,123.51245880126953,-38.03158700466156,34.281182289123535,0.0,0.0,0.0,0.0,0.0,0.0,0.0,0.0,0.0,0.0,0.0,0.0,0.0,0.0,0.0,0.0,False,0,5.215290546417236,0.034919921875
STABILIZE,1.7882988452911377,28.68331646469896,0.03247121175130208,0.03395986557006836,0.0,0.0,0.0,0.058509641586150636,-1.628515280338676,2.244238584603637,0.008485468909395198,-0.010370607842891545,0.05211767380483822,0.4,-0.07381536247778818,-0.006846850991378861,0.5620621182013149,0.2568766332070037,0.07919846102595329,-0.48647094517946243,0.6070083007216454,8.371939596829403,123.51245880126953,-38.03158700466156,34.281182289123535,0.0,0.0,0.0,0.0,0.0,0.0,0.0,0.0,0.0,0.0,0.0,0.0,0.0,0.0,0.0,0.0,False,0,5.243887662887573,0.034919921875
STABILIZE,1.8217628002166748,29.88183495650563,0.032439502080281575,0.03256487846374512,0.0,0.0,0.0,0.07081918993524744,-1.6397927764320133,2.2140297251217285,-0.004077242557170817,-0.02895068775221269,0.02900637919607722,0.4,-0.09793578193702027,0.012011890573446047,0.562854672337941,0.1408490886978627,-1.5142176300287247,1.0651071555912495,1.1774970218539238,-6.458102662145259,-30.139169096946716,57.81314969062805,31.858912110328674,0.0,0.0,0.0,0.0,0.0,0.0,0.0,0.0,0.0,0.0,0.0,0.0,0.0,0.0,0.0,0.0,False,0,5.275225877761841,0.0349208984375
STABILIZE,1.8553152084350586,29.806449778990604,0.03241756757100423,0.03254532814025879,0.0,0.0,0.0,0.06687528929809398,-1.625341163365324,2.254385684389337,-0.009261801283121578,-0.020000645174107184,0.0489438349932231,0.4,-0.08462193785092638,0.020194533431345012,0.5544070901587274,0.2397344073291795,0.5834389012306929,0.4667237866669893,0.6522934883832932,5.6211022529479235,31.798020005226135,-48.83724749088287,60.88411211967468,0.0,0.0,0.0,0.0,0.0,0.0,0.0,0.0,0.0,0.0,0.0,0.0,0.0,0.0,0.0,0.0,False,0,5.3037848472595215,0.02993115234375
STABILIZE,1.8886675834655762,29.982229275231784,0.032300504048665364,0.032422780990600586,0.0,0.0,0.0,0.07212839846092137,-1.6181516422119453,2.219746166570206,0.016442326914104115,0.01097784408840776,0.04315122526733116,0.4,-0.039145203917569295,-0.016836781205039463,0.5375812005421058,0.2100690806478817,2.403433434665203,-2.088107168674469,0.30207871459424496,-1.4285082382553678,45.98711431026459,-40.92390835285187,13.029326498508453,0.0,0.0,0.0,0.0,0.0,0.0,0.0,0.0,0.0,0.0,0.0,0.0,0.0,0.0,0.0,0.0,False,0,5.332499980926514,0.034921142578125
STABILIZE,1.927422046661377,25.803638332297737,0.03239944775899251,0.03775358200073242,0.0,0.0,0.0,0.06674663628177445,-1.6323209763668425,2.240541958158779,0.017878972813222094,0.016388773378116568,0.04107754585964711,0.4,-0.026515085853626823,-0.02620619458483687,0.5434631736912053,0.19893125393855673,-2.0240915939211845,1.5897789970040321,2.2288575768470764,1.0547409702435235,-26.98112726211548,67.67309308052063,36.08831465244293,0.0,0.0,0.0,0.0,0.0,0.0,0.0,0.0,0.0,0.0,0.0,0.0,0.0,0.0,0.0,0.0,False,0,5.391175985336304,0.034919921875
STABILIZE,1.9608240127563477,29.937288994525456,0.03231862386067708,0.03244829177856445,0.0,0.0,0.0,0.06531064236963216,-1.627090332123082,2.2822199859176084,0.03371936329781477,0.034641617195667246,0.032297589733999765,0.4,0.003371312530559077,-0.05564434809076742,0.5392356405752866,0.15451473377042868,1.5708258375525475,-1.6877617686986923,0.8350854739546776,-2.376756634219755,83.58228206634521,-7.732608914375305,-3.709613159298897,0.0,0.0,0.0,0.0,0.0,0.0,0.0,0.0,0.0,0.0,0.0,0.0,0.0,0.0,0.0,0.0,False,0,5.419872045516968,0.06485205078125
STABILIZE,1.9952929019927979,29.012471553375896,0.03237012227376302,0.03348112106323242,0.0,0.0,0.0,0.06863534366984164,-1.6197713575405903,2.2075197010690597,0.06686719229071553,0.07034426569303506,0.024124418412784874,0.4,0.03963480905659979,-0.0919412550308542,0.5491205402557027,0.1132588590990454,1.5708258375525475,-1.6877617686986923,0.8350854739546776,-2.376756634219755,83.58228206634521,-7.732608914375305,-3.709613159298897,0.0,0.0,0.0,0.0,0.0,0.0,0.0,0.0,0.0,0.0,0.0,0.0,0.0,0.0,0.0,0.0,False,0,5.451012134552002,0.06485205078125
STABILIZE,2.0287187099456787,29.91657631954351,0.03232005437215169,0.03249526023864746,0.0,0.0,0.0,0.06202414744009243,-1.6275921375836664,2.251796188920256,0.0443784532958951,0.07173300292031183,0.024720855671525342,0.4,0.051104871382131274,-0.05295300004496395,0.5684147422570421,0.11585302389761794,0.14730942202731967,2.2371580824255943,1.4056659303605556,0.28763404690548766,-45.07647156715393,1.8522705882787704,-1.9800808280706406,0.0,0.0,0.0,0.0,0.0,0.0,0.0,0.0,0.0,0.0,0.0,0.0,0.0,0.0,0.0,0.0,False,0,5.479648113250732,0.03990869140625
STABILIZE,2.062206506729126,29.862049325055533,0.03240326245625814,0.03252673149108887,0.0,0.0,0.0,0.05840841604821693,-1.626716272544318,2.2724619934711874,0.037674872584219095,0.018875631118827462,0.03724152736125617,0.4,0.005239163579767482,-0.06901450599950673,0.566091693693267,0.17786170831535764,-2.324172295629978,-0.8713046088814735,0.9767851792275906,3.2933878710727416,-49.47708249092102,-70.1415479183197,14.309893548488617,0.0,0.0,0.0,0.0,0.0,0.0,0.0,0.0,0.0,0.0,0.0,0.0,0.0,0.0,0.0,0.0,False,0,5.508395195007324,0.024943115234375
STABILIZE,2.0957000255584717,29.85503491376549,0.032353909810384114,0.032630205154418945,0.0,0.0,0.0,0.06153354775861511,-1.6238229403788773,2.1996720271561268,0.030552932445258526,0.026228685533333476,0.026536956748777263,0.4,0.02388947385770429,-0.06416565013657519,0.5476528206343848,0.12392273078394343,0.47545828856527805,-0.008326926763402298,0.8461241610348225,-1.0396871265911096,47.124215960502625,37.5484436750412,18.946903944015503,0.0,0.0,0.0,0.0,0.0,0.0,0.0,0.0,0.0,0.0,0.0,0.0,0.0,0.0,0.0,0.0,False,0,5.566178560256958,0.034919921875
STABILIZE,2.1297526359558105,29.369408733159677,0.03247264226277669,0.03295159339904785,0.0,0.0,0.0,0.052729167114204216,-1.624137982854344,2.2560170323839124,0.025302138073784543,-0.004477299972944551,0.03222373654714937,0.4,-0.000493796690414175,-0.07713225423430307,0.5465571235968149,0.15184291371844438,-1.2790153734385967,-0.7779423613101244,1.0953898541629314,1.7175730497094144,-13.078927993774414,-0.08226771606132388,16.777199506759644,0.0,0.0,0.0,0.0,0.0,0.0,0.0,0.0,0.0,0.0,0.0,0.0,0.0,0.0,0.0,0.0,False,0,5.5944201946258545,0.06485205078125
STABILIZE,2.1631221771240234,29.9650932679874,0.03218701680501302,0.03231382369995117,0.0,0.0,0.0,0.05756776917177645,-1.6247142800655638,2.2308356190179564,-0.0024702029250225814,-0.008138816621933397,0.01638418767548494,0.4,0.019035243820709015,-0.06101068390731812,0.5600210105567193,0.07240301144188147,0.9337187744677067,0.869988277554512,1.0809242725372314,-3.884564222512617,13.320383429527283,27.266958355903625,18.442311882972717,0.0,0.0,0.0,0.0,0.0,0.0,0.0,0.0,0.0,0.0,0.0,0.0,0.0,0.0,0.0,0.0,False,0,5.623151779174805,0.034920166015625
STABILIZE,2.196470260620117,29.987373899863442,0.03228643735249837,0.03241252899169922,0.0,0.0,0.0,0.05012099534661138,-1.6243789604659986,2.2380331442992687,0.03486120745403129,-0.00248268349766878,0.019760194947976345,0.4,0.03533577205413766,-0.08852261390124903,0.5447387850648991,0.08898552587444193,0.8063581772148609,-1.4833799563348293,0.45693255960941315,1.0846688314741095,-35.025665163993835,-54.74614500999451,-43.27138960361481,0.0,0.0,0.0,0.0,0.0,0.0,0.0,0.0,0.0,0.0,0.0,0.0,0.0,0.0,0.0,0.0,False,0,5.651773691177368,0.0349208984375
STABILIZE,2.233435869216919,27.05461488347492,0.03239110310872396,0.0329892635345459,0.0,0.0,0.0,0.05592948426632543,-1.6370717998214095,2.205046318815869,0.04528928512929348,0.030202871681179716,0.02312986487974729,0.4,0.051238986628314415,-0.11549344348484261,0.5300941839107177,0.10547606248429875,0.8063581772148609,-1.4833799563348293,0.45693255960941315,1.0846688314741095,-35.025665163993835,-54.74614500999451,-43.27138960361481,0.0,0.0,0.0,0.0,0.0,0.0,0.0,0.0,0.0,0.0,0.0,0.0,0.0,0.0,0.0,0.0,False,0,5.680437803268433,0.0349208984375
STABILIZE,2.2638723850250244,32.851154484789625,0.029327901204427083,0.029451847076416016,0.0,0.0,0.0,0.06835701346116363,-1.649049923913202,2.2596080043400466,0.035831904330091625,0.02080036414883396,0.01713287685806776,0.4,0.050494798039864446,-0.09803512932097322,0.5396519832889258,0.07523952950776251,-0.013934043818153441,0.7318593095988035,1.648980751633644,-1.2685950469302691,5.199456214904785,63.749533891677856,5.946030095219612,0.0,0.0,0.0,0.0,0.0,0.0,0.0,0.0,0.0,0.0,0.0,0.0,0.0,0.0,0.0,0.0,False,0,5.709047317504883,0.029859375
STABILIZE,2.2974746227264404,29.759500496665247,0.032347710927327473,0.032483577728271484,0.0,0.0,0.0,0.08341288482598735,-1.6389165912275476,2.295603528152837,0.047053404137822434,0.03674268516225817,0.023376261730415914,0.4,0.056896819642525534,-0.12358945978424785,0.5417927982917206,0.10610149244040235,0.39927936159074306,-1.5178237110376358,1.391169335693121,1.8343832650600898,-3.751511871814728,-116.50607585906982,21.728970110416412,0.0,0.0,0.0,0.0,0.0,0.0,0.0,0.0,0.0,0.0,0.0,0.0,0.0,0.0,0.0,0.0,False,0,5.737959146499634,0.034919921875
STABILIZE,2.330840587615967,29.97066032140739,0.03220203717549642,0.032318115234375,0.0,0.0,0.0,0.08100305534858934,-1.6518995001792725,2.2205762479977738,0.026774386910258914,0.03553607466564566,0.02353706665559516,0.4,0.06888625547482487,-0.08229029827750113,0.5637306789926905,0.10654947353647863,0.30560255981981754,3.389827162027359,2.0113687962293625,-1.3367921379153191,-43.29017102718353,81.63753151893616,39.39690887928009,0.0,0.0,0.0,0.0,0.0,0.0,0.0,0.0,0.0,0.0,0.0,0.0,0.0,0.0,0.0,0.0,False,0,5.800277471542358,0.06485205078125
STABILIZE,2.3662970066070557,28.203068895493484,0.032284053166707356,0.03454160690307617,0.0,0.0,0.0,0.06920320986630474,-1.66182910112859,2.295108766324834,0.04763205484192776,0.043012919623464825,0.028314201313941367,0.4,0.09224280530029814,-0.1346128636326333,0.5513196352896879,0.12997249501569588,0.9589234367012978,-2.635158784687519,-0.35772095434367657,1.2878117841601,0.5291661247611046,-129.18405532836914,-25.517061352729797,0.0,0.0,0.0,0.0,0.0,0.0,0.0,0.0,0.0,0.0,0.0,0.0,0.0,0.0,0.0,0.0,False,0,5.829245090484619,0.034919921875
STABILIZE,2.3998608589172363,29.796074364019976,0.03234294255574544,0.03257036209106445,0.0,0.0,0.0,0.06624653836848259,-1.667045871550599,2.2120607096500606,0.06792544155468225,0.047250812184774414,0.032533187481322806,0.4,0.10939154076405533,-0.1832668990648093,0.5202270690793667,0.1505626038477671,0.9589234367012978,-2.635158784687519,-0.35772095434367657,1.2878117841601,0.5291661247611046,-129.18405532836914,-25.517061352729797,0.0,0.0,0.0,0.0,0.0,0.0,0.0,0.0,0.0,0.0,0.0,0.0,0.0,0.0,0.0,0.0,False,0,5.857665538787842,0.034919921875
STABILIZE,2.4332847595214844,29.917429883876856,0.03237965901692708,0.03250002861022949,0.0,0.0,0.0,0.06857397868901731,-1.6700671630412718,2.2564437057636266,0.07555362428579925,0.015650433384573323,0.0297830349656693,0.4,0.06222596454681431,-0.1819346690211533,0.5204031890761077,0.1363556356631113,-2.2774776443839073,-0.1538339420221746,1.1800278909504414,-0.4573173969514665,-26.790371537208557,45.61276137828827,2.4721823632717133,0.0,0.0,0.0,0.0,0.0,0.0,0.0,0.0,0.0,0.0,0.0,0.0,0.0,0.0,0.0,0.0,False,0,5.8862833976745605,0.034920166015625
STABILIZE,2.466736316680908,29.894826873458683,0.032401116689046223,0.03250718116760254,0.0,0.0,0.0,0.06429747985579597,-1.6688761488047508,2.372934503048898,0.06055890077958128,0.04919095227486623,0.035483804835924206,0.4,0.1160696707411549,-0.1778708709894429,0.5170494861247751,0.16431043256905242,2.8664061799645424,-0.023890862939879298,0.9799705818295479,1.692903580366092,29.68025803565979,-81.20623230934143,43.63454580307007,0.0,0.0,0.0,0.0,0.0,0.0,0.0,0.0,0.0,0.0,0.0,0.0,0.0,0.0,0.0,0.0,False,0,5.915068626403809,0.039908935546875
STABILIZE,2.5012409687042236,28.985404688191068,0.032370837529500325,0.0330350399017334,0.0,0.0,0.0,0.04618968787074013,-1.6689905544733483,2.2475563489929704,0.05349502860870187,0.03306049182150242,0.009685223787855074,0.4,0.1006741923729779,-0.1374707897587505,0.5165691332757483,0.035197461829194254,-0.7282557897269726,1.907118409872055,0.9994536638259888,-6.395634605769969,12.300261855125427,65.49233794212341,35.36556959152222,0.0,0.0,0.0,0.0,0.0,0.0,0.0,0.0,0.0,0.0,0.0,0.0,0.0,0.0,0.0,0.0,False,0,5.943652868270874,0.02993212890625
STABILIZE,2.5344455242156982,30.11267383172873,0.03181460698445638,0.03194999694824219,0.0,0.0,0.0,0.058293103245120076,-1.6747188420311676,2.181448442120298,0.027004946730915927,0.08298896331511227,0.010716197798353477,0.4,0.18947336250330005,-0.13305569131763456,0.4637980535446661,0.04021815355599621,2.5626998394727707,-0.1741106971167028,-0.1801114296540618,0.3258319865604898,91.13187789916992,-101.17193460464478,2.861666679382324,0.0,0.0,0.0,0.0,0.0,0.0,0.0,0.0,0.0,0.0,0.0,0.0,0.0,0.0,0.0,0.0,False,0,6.001012802124023,0.029930908203125
STABILIZE,2.575446367263794,24.38804060890093,0.032103570302327473,0.040079593658447266,0.0,0.0,0.0,0.03962619624347523,-1.641016127345386,2.356450481817307,0.040218665713092266,0.049302375704174214,0.03249351314343628,0.4,0.14577976469713702,-0.19495767323478755,0.4835119681056922,0.1484919250868165,-2.1240253001451492,-3.6772072315216064,2.233639732003212,6.125749499113846,-213.8481616973877,-33.853909373283386,38.32860291004181,0.0,0.0,0.0,0.0,0.0,0.0,0.0,0.0,0.0,0.0,0.0,0.0,0.0,0.0,0.0,0.0,False,0,6.029700517654419,0.034921142578125
STABILIZE,2.610786199569702,28.297445723306932,0.03241113026936849,0.03437232971191406,0.0,0.0,0.0,0.06694396471576435,-1.6597944518078667,2.1843566086028425,-0.019704327907238514,0.029294287680760443,-0.011300832400042515,0.4,0.08070650847703505,-0.10195659388998425,0.48874258081192645,-0.07023202412501614,-3.4328430891036987,4.8925843089818954,1.327314879745245,-11.849244398569901,118.41812133789062,280.1463842391968,-19.573183357715607,0.0,0.0,0.0,0.0,0.0,0.0,0.0,0.0,0.0,0.0,0.0,0.0,0.0,0.0,0.0,0.0,False,0,6.058439016342163,0.034919921875
STABILIZE,2.6461246013641357,28.297636637183665,0.03234580357869466,0.03444170951843262,0.0,0.0,0.0,0.05663811639271425,-1.6235780140641087,2.3161969753872484,0.02296797425701964,0.015279692261990142,0.008860222780829964,0.4,0.09869020762677391,-0.1643489736640067,0.43997649896018565,0.03046542260478123,-5.017415434122086,-2.1649958565831184,1.1929189786314964,-3.396410815975217,-269.61140632629395,142.34211444854736,-0.13046003878116608,0.0,0.0,0.0,0.0,0.0,0.0,0.0,0.0,0.0,0.0,0.0,0.0,0.0,0.0,0.0,0.0,False,0,6.116567134857178,0.029930908203125
STABILIZE,2.6805858612060547,29.019296364202443,0.032427104314168294,0.03352665901184082,0.0,0.0,0.0,0.07491079341320242,-1.6381213010760642,2.2733913260851324,0.041998401432638666,0.022561943903322303,0.008881207243380524,0.4,0.09869020762677391,-0.1643489736640067,0.43997649896018565,0.03046542260478123,-5.017415434122086,-2.1649958565831184,1.1929189786314964,-3.396410815975217,-269.61140632629395,142.34211444854736,-0.13046003878116608,0.0,0.0,0.0,0.0,0.0,0.0,0.0,0.0,0.0,0.0,0.0,0.0,0.0,0.0,0.0,0.0,False,1,6.116567134857178,0.029930908203125
STABILIZE,2.7140932083129883,29.8437762377083,0.03239110310872396,0.03251934051513672,0.0,0.0,0.0,0.07400403244003034,-1.625021425134803,2.15196614401135,0.034651307295707395,0.008787417382729255,0.013060131703701683,0.4,0.1410500356968166,-0.15027823291952153,0.3764343358800328,0.05118880549933376,7.0946745574474335,-3.308219835162163,-1.7211785539984703,0.17308830606893594,124.32184219360352,-100.93940496444702,-103.51577997207642,0.0,0.0,0.0,0.0,0.0,0.0,0.0,0.0,0.0,0.0,0.0,0.0,0.0,0.0,0.0,0.0,False,0,6.180290937423706,0.03489453125
STABILIZE,2.7474989891052246,29.934938692778736,0.03233388264973958,0.03244757652282715,0.0,0.0,0.0,0.06618634732642184,-1.6418035200906416,2.313157968093416,0.047275217674178166,0.10843312034121257,0.013139274610585915,0.4,0.26272898581791837,-0.20423432593003382,0.3294313772042677,0.051412616500994386,7.0946745574474335,-3.308219835162163,-1.7211785539984703,0.17308830606893594,124.32184219360352,-100.93940496444702,-103.51577997207642,0.0,0.0,0.0,0.0,0.0,0.0,0.0,0.0,0.0,0.0,0.0,0.0,0.0,0.0,0.0,0.0,False,0,6.209266662597656,0.03489453125
STABILIZE,2.7809057235717773,29.93365686554382,0.03236082394917806,0.03248095512390137,0.0,0.0,0.0,0.07284519479780248,-1.6253998603035038,2.275150313239822,0.07829903298919814,0.13463100082165563,-0.00920768306418918,0.4,0.25783812147774243,-0.18730630130726886,0.306597955409901,-0.06012115043385344,-0.1271355664357543,0.7366846781224012,-0.3667831886559725,-6.215998496164517,-44.27180886268616,77.44576334953308,-70.5855131149292,0.0,0.0,0.0,0.0,0.0,0.0,0.0,0.0,0.0,0.0,0.0,0.0,0.0,0.0,0.0,0.0,False,0,6.237913370132446,0.029930908203125
STABILIZE,2.8147523403167725,29.545882966208552,0.03239253362019857,0.03261208534240723,0.0,0.0,0.0,0.07670062314086311,-1.649876163359362,2.2117104490116857,0.027620891192049083,0.04532985648138761,-0.021081278941070335,0.4,0.13781435229810013,-0.1540696575067656,0.29297573034085667,-0.11908973395861189,-6.611628085374832,1.5933839604258537,0.11605796171352267,-3.3478364315887905,-177.78600454330444,-0.19327137852087617,-35.952407121658325,0.0,0.0,0.0,0.0,0.0,0.0,0.0,0.0,0.0,0.0,0.0,0.0,0.0,0.0,0.0,0.0,False,0,6.2670369148254395,0.0349208984375
STABILIZE,2.8614108562469482,21.43165769061756,0.03194239934285482,0.045621395111083984,0.0,0.0,0.0,0.06993393338579032,-1.6281643793700666,2.267553648778887,0.02051176342013079,-0.007033244239325009,-0.022832712845866972,0.4,0.04087124154896835,-0.14093773604389054,0.29003696749140667,-0.12724907036625557,1.4914927072823048,-1.3630257919430733,1.4299264177680016,3.176450123283657,186.02523803710938,37.9270076751709,47.997814416885376,0.0,0.0,0.0,0.0,0.0,0.0,0.0,0.0,0.0,0.0,0.0,0.0,0.0,0.0,0.0,0.0,False,0,6.32600736618042,0.034919921875
STABILIZE,2.895003080368042,29.770061750301654,0.03244045575459798,0.03256630897521973,0.0,0.0,0.0,0.07330740650554193,-1.631307547048742,2.2335943751124065,0.0031176179629215845,0.012068320819500418,-0.03114091889110501,0.4,0.09879745884611227,-0.10520504147951658,0.2763739704837738,-0.16822703410014614,3.597312420606613,1.811744086444378,0.008746060484554619,-2.3110278028460183,16.500161588191986,70.94976305961609,-36.93543076515198,0.0,0.0,0.0,0.0,0.0,0.0,0.0,0.0,0.0,0.0,0.0,0.0,0.0,0.0,0.0,0.0,False,0,6.352833986282349,0.02993212890625
STABILIZE,2.9282095432281494,30.112241454816964,0.03228643735249837,0.03238701820373535,0.0,0.0,0.0,0.07231927023171149,-1.6455963027924085,2.231717140307711,-0.027392861287203276,-0.05475163346703894,-0.031107732123057064,0.4,0.08594835754611102,-0.09851234052864961,0.2821831430420968,-0.1675016835882241,-0.5301523953676224,0.11074923677369952,1.1285170912742615,-0.06126948490797875,121.74183130264282,61.26578450202942,35.053157806396484,0.0,0.0,0.0,0.0,0.0,0.0,0.0,0.0,0.0,0.0,0.0,0.0,0.0,0.0,0.0,0.0,False,0,6.3820788860321045,0.0698408203125
STABILIZE,2.973052501678467,22.300638026371757,0.032515796025594075,0.04390144348144531,0.0,0.0,0.0,0.07085883704894526,-1.6346183745271998,2.2597256116598174,-0.024073470173267757,-0.027660959455412935,-0.03790156607537331,0.4,0.13015758847778053,-0.08971936260357158,0.29714861416194943,-0.20057386443228714,2.496996335685253,0.25083390064537525,1.4044876210391521,-0.8848232059707958,-2.362297847867012,-54.4963538646698,41.758328676223755,0.0,0.0,0.0,0.0,0.0,0.0,0.0,0.0,0.0,0.0,0.0,0.0,0.0,0.0,0.0,0.0,False,1,6.410948753356934,0.02993212890625
STABILIZE,3.006967782974243,29.485233847213728,0.02848079999287923,0.029062509536743164,0.0,0.0,0.0,0.07602998394173248,-1.641791140372771,2.229113344130055,-0.0020839897377848754,0.013217028232021567,-0.03860017901739463,0.4,0.10581065059006105,-0.09855767592758187,0.32468497130294727,-0.20337745003565946,-3.364776074886322,-1.2553664855659008,1.6362424939870834,0.18820343466089481,-119.91816759109497,0.13194354251027107,40.737977623939514,0.0,0.0,0.0,0.0,0.0,0.0,0.0,0.0,0.0,0.0,0.0,0.0,0.0,0.0,0.0,0.0,False,0,6.475743293762207,0.039907958984375
STABILIZE,3.040417432785034,29.896531569418507,0.032357247670491536,0.03248143196105957,0.0,0.0,0.0,0.07596648452679253,-1.645927566967154,2.2098496493496804,0.015197092083923263,0.0024554498691943256,-0.03790536689501265,0.4,0.041315081026497016,-0.11741543348648457,0.34368087828281424,-0.19923668368420816,-3.364776074886322,-1.2553664855659008,1.6362424939870834,0.18820343466089481,-119.91816759109497,0.13194354251027107,40.737977623939514,0.0,0.0,0.0,0.0,0.0,0.0,0.0,0.0,0.0,0.0,0.0,0.0,0.0,0.0,0.0,0.0,False,0,6.50420069694519,0.039907958984375
STABILIZE,3.077192783355713,27.194947837983285,0.03234723409016927,0.03567004203796387,0.0,0.0,0.0,0.07159313574557451,-1.6391435882957448,2.254899015794146,0.044146714590665215,0.0028388109787073133,-0.03289162713702784,0.4,0.08544606297880109,-0.13593186284288578,0.35767981270019233,-0.17353250642498738,2.642659470438957,-1.197921298444271,1.3326747342944145,1.2966387364452836,71.04900479316711,-77.51602530479431,30.099305510520935,0.0,0.0,0.0,0.0,0.0,0.0,0.0,0.0,0.0,0.0,0.0,0.0,0.0,0.0,0.0,0.0,False,0,6.532882213592529,0.0598642578125
STABILIZE,3.110490322113037,30.02966951142677,0.03219607671101888,0.03231382369995117,0.0,0.0,0.0,0.07633013873924281,-1.6372404201165442,2.232635160420843,0.06342703314119076,0.04257226042315855,-0.02833618912506994,0.4,0.1348803846192676,-0.15935169894452872,0.38009418791002175,-0.15025293333880224,2.642659470438957,-1.197921298444271,1.3326747342944145,1.2966387364452836,71.04900479316711,-77.51602530479431,30.099305510520935,0.0,0.0,0.0,0.0,0.0,0.0,0.0,0.0,0.0,0.0,0.0,0.0,0.0,0.0,0.0,0.0,False,0,6.561538457870483,0.0598642578125
STABILIZE,3.1452152729034424,28.796748414027956,0.03235748608907064,0.03388071060180664,0.0,0.0,0.0,0.07195065345994237,-1.6414295672335835,2.2618811766731914,0.07044968491218717,0.0003500455473741925,-0.03356120934899723,0.4,0.09483250292354334,-0.1652680631711922,0.40056555725300536,-0.17576579028252115,-1.9725902006030083,-0.2677788957953453,1.211824920028448,-1.3177775315962383,-95.09928822517395,43.39026212692261,29.904741048812866,0.0,0.0,0.0,0.0,0.0,0.0,0.0,0.0,0.0,0.0,0.0,0.0,0.0,0.0,0.0,0.0,False,0,6.591219425201416,0.03990869140625
STABILIZE,3.1788759231567383,29.710383713599626,0.03248098691304525,0.03259563446044922,0.0,0.0,0.0,0.07120173388962105,-1.6369660386109801,2.2840656310973926,0.0726388786818496,0.03294665683931252,-0.030298169376631486,0.4,0.1258262633439381,-0.1743809927193098,0.41257983239007107,-0.15891915539035006,0.3063803305849433,0.3892144188284874,1.0588658973574638,-2.2493951639835847,-48.838090896606445,59.34041738510132,22.605350613594055,0.0,0.0,0.0,0.0,0.0,0.0,0.0,0.0,0.0,0.0,0.0,0.0,0.0,0.0,0.0,0.0,False,0,6.648542642593384,0.034919921875
STABILIZE,3.214681386947632,27.928512451724597,0.03224685986836751,0.03237795829772949,0.0,0.0,0.0,0.07869551862618285,-1.6381298388125267,2.211215687183683,0.0472534517791325,0.01732590430337466,-0.024620301872156927,0.4,0.05713521672433938,-0.15020866478650247,0.42272757192587884,-0.13009447341024502,-3.2014209777116776,0.8997829630970955,1.297972071915865,1.1302272604551524,-70.23998498916626,-13.110578060150146,19.96360421180725,0.0,0.0,0.0,0.0,0.0,0.0,0.0,0.0,0.0,0.0,0.0,0.0,0.0,0.0,0.0,0.0,False,0,6.677192449569702,0.034921142578125
STABILIZE,3.245626211166382,32.313341191516244,0.02989676793416341,0.030010700225830078,0.0,0.0,0.0,0.07195438871964471,-1.6412699115617344,2.2604457697304308,0.04449714324225646,0.013015896683363401,-0.020275827372774932,0.4,0.0791039084712465,-0.1579735794573104,0.42921822866487347,-0.10801103183525551,1.3176033273339272,-0.6937932688742876,1.1214131489396095,0.8187158860675051,77.71300673484802,22.288884222507477,8.528969436883926,0.0,0.0,0.0,0.0,0.0,0.0,0.0,0.0,0.0,0.0,0.0,0.0,0.0,0.0,0.0,0.0,False,0,6.705887794494629,0.034920166015625
STABILIZE,3.279219388961792,29.768160171470345,0.03239277203877767,0.032523155212402344,0.0,0.0,0.0,0.07109309119313553,-1.6372886583275574,2.2706443093783175,0.03854169509679548,0.004169418942216103,-0.016017181525154335,0.4,0.1008514225259558,-0.1656297090777434,0.4355847465720068,-0.08642816969862324,1.3176033273339272,-0.6937932688742876,1.1214131489396095,0.8187158860675051,77.71300673484802,22.288884222507477,8.528969436883926,0.0,0.0,0.0,0.0,0.0,0.0,0.0,0.0,0.0,0.0,0.0,0.0,0.0,0.0,0.0,0.0,False,0,6.734507322311401,0.034920166015625
STABILIZE,3.3125925064086914,29.962738598696994,0.03223779996236165,0.03252243995666504,0.0,0.0,0.0,0.0755656911607303,-1.6358554925406184,2.2278802815414562,0.020592598774616555,0.04356743207670709,-0.023760727207427876,0.4,0.13174652707726264,-0.14290178564801057,0.43306550396423815,-0.12472772178275629,1.804799772799015,0.8719714358448982,0.6685815285891294,-2.2530431253306062,18.40665638446808,39.904794096946716,12.248112261295319,0.0,0.0,0.0,0.0,0.0,0.0,0.0,0.0,0.0,0.0,0.0,0.0,0.0,0.0,0.0,0.0,False,0,6.763277769088745,0.029931884765625
STABILIZE,3.3461127281188965,29.834223647990214,0.032492669423421223,0.03261232376098633,0.0,0.0,0.0,0.07096006258687895,-1.639395878408212,2.2588607389561646,0.016613981762314184,-0.007545214138873068,-0.015670273416653953,0.4,0.0781584686171145,-0.1435143934132791,0.4424398917332237,-0.08399441235505607,-2.57621631026268,-0.36561815068125725,1.4347976073622704,1.8606654060994758,-38.03451955318451,-26.749256253242493,13.575074076652527,0.0,0.0,0.0,0.0,0.0,0.0,0.0,0.0,0.0,0.0,0.0,0.0,0.0,0.0,0.0,0.0,False,0,6.791911602020264,0.034919921875
STABILIZE,3.380506753921509,29.07380912771031,0.032416613896687825,0.033426523208618164,0.0,0.0,0.0,0.0719056169001026,-1.6402430353087052,2.2565628071872785,0.024465837011876154,0.02972487612308765,-0.01586523194349415,0.4,0.08475683701314113,-0.13776184601308805,0.44521001697079843,-0.0846785066161978,0.5535157863050699,0.015212174912448972,0.9365485981106758,-0.29486068053205206,76.47358179092407,28.45771014690399,12.952184677124023,0.0,0.0,0.0,0.0,0.0,0.0,0.0,0.0,0.0,0.0,0.0,0.0,0.0,0.0,0.0,0.0,False,0,6.82063364982605,0.034921142578125
STABILIZE,3.4147980213165283,29.16559349141228,0.03235033353169759,0.03328442573547363,0.0,0.0,0.0,0.07527071236595036,-1.6357253987812708,2.2428337000687297,0.004237433898077301,0.04023565160766253,-0.02484215092045752,0.4,0.1161451025683929,-0.11285327644842377,0.4454575939475543,-0.12912081625722507,1.0644095949828625,0.3791284980252385,0.8761808276176453,-1.4652320309884106,-23.537954688072205,-22.636854648590088,15.462878346443176,0.0,0.0,0.0,0.0,0.0,0.0,0.0,0.0,0.0,0.0,0.0,0.0,0.0,0.0,0.0,0.0,False,0,6.878693103790283,0.029930908203125
STABILIZE,3.4571938514709473,23.585898971495407,0.032290013631184895,0.041419267654418945,0.0,0.0,0.0,0.07325244482706449,-1.6393434780506735,2.2568900159372047,0.00048417109006847577,0.001622002914511839,-0.019925544890588242,0.4,0.06712415466012439,-0.11271135871376702,0.4506474457279867,-0.10409591682212999,-2.5142377242445946,-0.28486456722021103,1.2267708778381348,1.1254356693089769,-65.20470380783081,6.811612099409103,20.03849744796753,0.0,0.0,0.0,0.0,0.0,0.0,0.0,0.0,0.0,0.0,0.0,0.0,0.0,0.0,0.0,0.0,False,0,6.907374143600464,0.044898193359375
STABILIZE,3.4992763996124268,23.762146482958666,0.03236344655354818,0.04116511344909668,0.0,0.0,0.0,0.0746963361454346,-1.6388686731816517,2.2420335007187804,-0.0138875089130049,-0.020039394304445235,-0.023476967346373386,0.4,0.05508312071393842,-0.06922689454316744,0.4712951001235063,-0.12134197167697106,-0.15033482341095805,0.9611478075385094,1.3785561546683311,-0.7240429541470758,52.33951807022095,18.977566063404083,19.356559216976166,0.0,0.0,0.0,0.0,0.0,0.0,0.0,0.0,0.0,0.0,0.0,0.0,0.0,0.0,0.0,0.0,False,0,6.968392848968506,0.024942626953125
STABILIZE,3.532787799835205,29.839954467842915,0.03240707715352376,0.03252005577087402,0.0,0.0,0.0,0.07410328362640708,-1.6354934925146076,2.252171635881195,-0.018060343722517348,-0.019556140710320837,-0.022213203172006046,0.4,0.018003462268312162,-0.0634566125802602,0.46884379447040975,-0.1146398049341333,-1.996779441833496,0.10776562849059701,0.9864109568297863,0.09112116685095666,-66.42816066741943,28.365689516067505,17.00448989868164,0.0,0.0,0.0,0.0,0.0,0.0,0.0,0.0,0.0,0.0,0.0,0.0,0.0,0.0,0.0,0.0,False,0,6.9978108406066895,0.06984130859375
STABILIZE,3.5677921772003174,28.5723316711627,0.032323392232259114,0.033881425857543945,0.0,0.0,0.0,0.07382031102352758,-1.639706972180565,2.243814045658038,-0.033132447752375234,-0.04282886368502306,-0.024210533938184627,0.4,-0.012704933351141812,-0.03655568376257133,0.4970162710584098,-0.12419322047201352,-1.237314660102129,1.0738195851445198,1.1860820464789867,-0.5237212964751238,11.881423741579056,3.2959699630737305,18.659870326519012,0.0,0.0,0.0,0.0,0.0,0.0,0.0,0.0,0.0,0.0,0.0,0.0,0.0,0.0,0.0,0.0,False,0,7.025692939758301,0.029931884765625
STABILIZE,3.601405143737793,29.74451638524654,0.03217295010884603,0.03264927864074707,0.0,0.0,0.0,0.07537183118217829,-1.6359256087013168,2.252184015599066,-0.011082225254469249,-0.04419592610815062,-0.023332779697478604,0.4,0.007097165255812537,-0.05197649036561871,0.49530326256545787,-0.11940110830820375,1.1662577278912067,-1.0295736603438854,0.9726748801767826,-0.015416857534629484,40.77632427215576,-33.866676688194275,16.546034812927246,0.0,0.0,0.0,0.0,0.0,0.0,0.0,0.0,0.0,0.0,0.0,0.0,0.0,0.0,0.0,0.0,False,0,7.054375886917114,0.02993115234375
STABILIZE,3.635774850845337,29.09639824629558,0.03238633473714193,0.033394813537597656,0.0,0.0,0.0,0.07620041850586545,-1.6349119659398046,2.244524812218543,-0.018435325408365618,-0.03590698650274199,-0.02475615154628702,0.4,-0.00822184439875082,-0.04080351638066103,0.4939297643504385,-0.12608501385788123,-0.7594424765557051,0.430785259231925,0.9741628542542458,-0.6408170457496175,-42.61666536331177,36.57898008823395,21.742843091487885,0.0,0.0,0.0,0.0,0.0,0.0,0.0,0.0,0.0,0.0,0.0,0.0,0.0,0.0,0.0,0.0,False,0,7.0832037925720215,0.0349208984375
STABILIZE,3.6717076301574707,27.833436191462113,0.03234556516011556,0.032752275466918945,0.0,0.0,0.0,0.07336589000031017,-1.6401727057045952,2.2568671774921674,-0.009548621273049977,-0.041984914485095615,-0.026325678603668638,0.4,-0.02396634657136442,-0.029495329944668802,0.4957812728846644,-0.13348267582341472,-0.7594424765557051,0.430785259231925,0.9741628542542458,-0.6408170457496175,-42.61666536331177,36.57898008823395,21.742843091487885,0.0,0.0,0.0,0.0,0.0,0.0,0.0,0.0,0.0,0.0,0.0,0.0,0.0,0.0,0.0,0.0,False,0,7.111780643463135,0.0349208984375
STABILIZE,3.7033159732818604,31.633876113403073,0.030103238423665364,0.030215024948120117,0.0,0.0,0.0,0.0743506111795556,-1.6377797916175636,2.248727512992216,0.002079464748221506,-0.017159194626811286,-0.02569727529612145,0.4,-0.013473947558126032,-0.04244874691753976,0.49739321692869054,-0.12990614018474858,0.687285466119647,-0.906402338296175,0.9658259339630604,-0.02943664789930046,46.775004267692566,-16.255593299865723,11.617345362901688,0.0,0.0,0.0,0.0,0.0,0.0,0.0,0.0,0.0,0.0,0.0,0.0,0.0,0.0,0.0,0.0,False,0,7.147635459899902,0.06485205078125
