Mode,Time,Freq,North-Vision,East-Vision,Down-Vision,Yaw-Vision,North-Desired,East-Desired,Down-Desired,Roll-UAV,Pitch-UAV,Yaw-UAV,Roll-Control,Pitch-Control,Yaw-Control,Thrust-Control,northVraw,eastVraw,downVraw,yawVraw,zGyro
GUIDED_NOGPS,0.02789449691772461,35.883715757233546,-10.783899216836016,4.40909309450346,65.59734679205077,0.1225685194866245,-11.283539541585778,7.610124621775253,65.76343205526737,-0.2926568506272387,0.09978031259401221,-2.1319965918689365,-0.5443890299438529,0.09441356269551456,-2.367988322584866,0.5002491278948249,-13.936870125142997,12.389598204460361,65.35792855264364,3.005208278874304,-1.8907607239317168
GUIDED_NOGPS,0.050461769104003906,44.32881692701177,-15.059794740200829,10.300211748675958,67.23832789997263,-0.480961334366426,-11.283475846979465,7.610161700581291,65.76345410457895,-0.2926568506272387,0.09978031259401221,-2.1319965918689365,1.030346958340247,-0.9041622733658562,10.0,0.4977876893069095,-16.346381830937233,9.83713609115078,67.33422989118289,2.413239636403626,-1.260507149287811
GUIDED_NOGPS,0.07658505439758301,38.294703589069364,-15.725827069811693,11.004487905747888,66.94278481422347,-0.4336144760135151,-11.28303512479533,7.61041826001903,65.76360756395141,-0.2926568506272387,0.09978031259401221,-2.1319965918689365,0.21986555814891826,-0.28067100508100007,-0.6038567728441684,0.4982312341245919,-16.574556747892505,11.569760815541484,66.49477794339846,2.570245643793003,-1.260507149287811
GUIDED_NOGPS,0.0950932502746582,54.04543404589792,-14.27900303928536,11.3463970328007,67.70237997210681,-0.4062504273014986,-11.281854388722422,7.611105606819092,65.76402141550321,-0.2926568506272387,0.09978031259401221,-2.1319965918689365,0.2011811193126466,0.19114801471107407,-0.4494727694291057,0.4970924621650946,-10.92831014326834,11.428192341023923,69.16830731384015,2.2220031178687325,-1.260507149287811
GUIDED_NOGPS,0.11253786087036133,57.56820115841774,-14.403650342224035,12.08087297316963,67.7661248709984,-0.37702463417001175,-11.279585780502039,7.612426241156141,65.76482200891289,-0.29870274198146357,-0.18174535739851555,-2.1838419965375646,0.31775145557417617,-0.1556828098077974,-0.5968830948422065,0.4969980457068717,-14.761355477859576,13.5090338827792,67.74690409128203,2.17411617420499,-1.6615776058793874
GUIDED_NOGPS,0.13626384735107422,42.0814880958353,-15.690325256990551,12.589623656911021,67.65544768078693,-0.35057715988862326,-11.275896361264925,7.614573978118622,65.76613307926614,-0.29870274198146357,-0.18174535739851555,-2.1838419965375646,0.25534324570431854,-0.39097555066515494,-0.29671923934229966,0.4971660280977188,-20.41561843613733,13.736953434289555,67.09453794286559,1.7634009013459275,-1.6615776058793874
GUIDED_NOGPS,0.16186189651489258,39.077123744573015,-16.963400939342527,12.845433870253217,67.86836734103896,-0.3486807563518893,-11.270467902868488,7.617734069178491,65.7680757649029,-0.3489901698282411,0.013241602366539096,-2.1696524919802744,0.22479064144579744,-0.42905088103578126,0.21280235350610496,0.49684956263579594,-21.611162463566874,12.545487360386929,68.34203539916491,1.166565133094583,-1.6615776058793874
GUIDED_NOGPS,0.18112492561340332,51.954713241669765,-15.94291193738353,13.70071001159791,68.55918117572814,-0.34579727637474217,-11.262996679234005,7.62208332366096,65.77076862526435,-0.33321600802265533,-0.10979529090795496,-2.2088656752223756,0.3812649360552488,0.024336675370111555,0.17301916723902097,0.4958173811743043,-11.004106342166288,15.365000211378595,70.4954219347402,1.742367783002013,-1.8907607239317168
GUIDED_NOGPS,0.2106800079345703,33.84714208474891,-15.019921832547086,14.290203998622815,69.09786145391388,-0.33289004663906546,-11.253193257683844,7.6277902302142335,65.77432765873995,-0.42279271168775606,-0.08433106502167806,-2.2656446109058686,0.3133048408199605,-0.0277998759092441,0.021153168620737378,0.4950146993072391,-11.004106342166288,15.365000211378595,70.4954219347402,1.742367783002013,-2.177239621497128
GUIDED_NOGPS,0.24139618873596191,32.563966398037294,-14.955842420593644,15.780385512061146,68.98958818214756,-0.3344906236813441,-11.240782290278652,7.63501507827924,65.77886632051457,-0.3668306773011673,-0.3200656527145594,-2.329967703971052,0.46965259797475334,-0.14344840495416394,0.26911274792230316,0.4951839172075505,-14.922015173115966,18.898242687794315,67.7545487360293,2.1466712244092374,-2.2345354010102105
GUIDED_NOGPS,0.2850310802459717,22.950419961150175,-15.233381672989116,17.266295675324162,68.7702126670576,-0.3347601708064796,-11.225502305154592,7.643910079559376,65.78449554041543,-0.42990469952188476,-0.2500022125388033,-2.378409539998898,0.47390454357047074,-0.18953148907254402,0.24772573508756174,0.49552142431003676,-16.38485263570807,19.54214599564308,67.46224262993347,2.084182236075767,-1.4896902673401404
GUIDED_NOGPS,0.31432461738586426,34.10280510610619,-15.68044490027196,18.89643366889035,68.3632068136804,-0.33249941289792345,-11.207105497860535,7.654619489490239,65.79132374075927,-0.43998109617750475,-0.23108194820763328,-2.400024313957638,0.6019187213691939,-0.2427700998125021,0.2062095671834117,0.4961421753906183,-17.137030082964152,21.140904507337677,66.76489957949482,2.2323348553319633,-1.604281826366305
GUIDED_NOGPS,0.3394930362701416,39.74927738132469,-16.058681239715106,20.5365021976265,67.7786891726985,-0.33198206413541365,-11.185357522695279,7.667279728709368,65.79945685419928,-0.43482857222237636,-0.32010343219840603,-2.437491743536566,0.7011917750782997,-0.260883608337944,0.23372869449165,0.49703115152225114,-17.08036137478581,22.634516973598455,65.89873623592322,2.422597809402077,-2.4064227395494577
GUIDED_NOGPS,0.3697066307067871,33.109441111461955,-17.261408216237033,21.472556299159354,67.43304484287728,-0.3219589091951939,-11.160037284044755,7.682019504525977,65.80899834157225,-0.4411853972663955,-0.3028049109082909,-2.5127886027204327,0.6099647926027283,-0.4090810894465191,0.07165358304984715,0.49756393024804246,-21.214463534918714,21.844990161318176,66.40865341442864,2.536387790353104,-2.6929016371148693
GUIDED_NOGPS,0.40951037406921387,25.128533256647135,-17.01865652816628,22.995848700830894,67.4367843180219,-0.31884853039900163,-11.130936727719238,7.698959932390698,65.82004920974556,-0.4093823289435236,-0.4158161536982641,-2.6460959660725103,0.6920887610488654,-0.21616639460151615,0.19762097870643233,0.4975748973375855,-15.385680224552946,25.377295977612853,67.66336517084429,2.480382787441888,-2.2345354010102105
GUIDED_NOGPS,0.4458918571472168,27.490113059151238,-18.37341345493304,24.361967736148713,67.71523859345209,-0.3663383410407268,-11.097860632290562,7.718214657365312,65.83270802946427,-0.3681171541035098,-0.5118016558780996,-2.730508566477406,0.7368835012603526,-0.4456957730264439,0.9213496461689168,0.49717620415401825,-21.927730804761826,23.65480013962141,68.81711556234343,1.9146623717881783,-2.7501974166279517
GUIDED_NOGPS,0.4859011173248291,25.000619903676505,-19.89423257873204,26.141756939609213,67.40151150260239,-0.4066640214764891,-11.060626400429324,7.739889975592492,65.84707095319811,-0.34137317488235464,-0.6150711279209304,-2.903916397333451,0.8284420918684763,-0.5144482333839167,0.8125317134617632,0.4976683391758936,-23.45894404496493,27.178618078232482,66.48613950227067,2.506122676307383,-3.151267873219528
GUIDED_NOGPS,0.5420329570770264,17.818228162145168,-20.070628788281265,27.12042070248548,68.18188719253693,-0.48219699927400417,-11.019063850242105,7.7640849557655365,65.86323173298862,-0.4032075711295677,-0.3670592751949512,-3.0986909809040006,0.7652219051432814,-0.3816365649480004,1.0276009012027676,0.49652201681067754,-18.61333848713356,25.009495950130972,70.88075610794834,1.7567593644680095,-3.552338329811104
GUIDED_NOGPS,0.5635325908660889,46.52893148739794,-20.182060106790704,28.841907007931077,68.5736648942291,-0.5851578458956177,-10.973015006608664,7.790891560598108,65.88128173829611,-0.3432586806192484,-0.5235457392691133,-3.209189781296467,1.0528055785515922,-0.40247770972806995,2.8488824402110513,0.49596142526610054,-18.44924072274628,28.406838612181687,69.56314485059063,2.0566067261768324,-3.7815214478634336
GUIDED_NOGPS,0.5893888473510742,38.68213594023794,-19.991780878584997,29.338759051638682,68.82406848946086,-0.6032217124132515,-10.922333892519163,7.82039476829397,65.90130997384676,-0.3317622983073533,-0.47816169355531735,-3.246865318201669,0.8489650279445675,-0.34609140955059703,0.79470417259463,0.4956158622265789,-18.44924072274628,28.406838612181687,69.56314485059063,2.0566067261768324,-3.666929888837269
GUIDED_NOGPS,0.6435554027557373,18.465884176139614,-19.91170015022156,29.928000677064453,69.02671595017893,-0.642180391137449,-10.866886320411371,7.852672694016728,65.92340309747968,-0.2879068542658915,-0.38848749961198525,-3.3637082971160193,0.8429187275652109,-0.3654097189812733,0.8411937639521396,0.49534503072095115,-18.44924072274628,28.406838612181687,69.56314485059063,2.0566067261768324,-3.552338329811104
GUIDED_NOGPS,0.6578216552734375,70.17641547316289,-20.036430408866053,31.16994704047955,69.26445889987737,-0.7554160337734612,-10.806549683507875,7.8877967113595595,65.9476454379939,-0.3475031095798824,-0.22121723405543078,-3.430250134444399,1.1472377423518065,-0.4256512513774533,4.435977757481416,0.4950247798071748,-18.44924072274628,28.406838612181687,69.56314485059063,2.0566067261768324,-3.666929888837269
GUIDED_NOGPS,0.6981697082519531,24.78434338659355,-19.82901481601592,31.01919097085143,69.35450121597256,-0.7546040788759162,-10.741212747153293,7.92583157381496,65.97411901299549,-0.306844220750413,-0.15935023432710155,-3.5274477817585,0.8267788909892717,-0.35545455942327225,0.5502292579348679,0.4949294266955344,-18.44924072274628,28.406838612181687,69.56314485059063,2.0566067261768324,-4.1252961249419275
GUIDED_NOGPS,0.7363150119781494,26.221774874183364,-19.76268003527524,31.556824969573306,69.49623764172975,-0.8042595810776457,-10.67077544015148,7.966835536244471,66.00290354674458,-0.3274970319336655,-0.09769902588786239,-3.6529392742659677,0.9097467017767096,-0.37064488347980656,1.2522467882545703,0.49475999885752225,-18.44924072274628,28.406838612181687,69.56314485059063,2.0566067261768324,-4.297183463481175
GUIDED_NOGPS,0.7457447052001953,106.1258033500329,-19.633979293016633,31.382663544708418,69.56510262721483,-0.785677464431167,-10.595148646102745,8.010860476348427,66.03407648800238,-0.3274970319336655,-0.09769902588786239,-3.6529392742659677,0.7713873209234282,-0.3455809756055808,-0.4030809901398722,0.4947034607911813,-18.44924072274628,28.406838612181687,69.56314485059063,2.0566067261768324,-4.068000345428845
GUIDED_NOGPS,0.7861483097076416,24.757571643597085,-19.506737988916985,31.147587484218057,69.5887599582488,-0.7538751372446258,-10.514253994741054,8.057952016135687,66.06771302787831,-0.3219466227789574,-0.12447294054748925,-3.8603810839825403,0.8203514943111403,-0.36206595821494075,0.17100361874984926,0.4947184296044443,-18.44924072274628,28.406838612181687,69.56314485059063,2.0566067261768324,-4.010704565915763
GUIDED_NOGPS,0.8059556484222412,50.55632028735702,-19.579494869517344,31.733256143888582,69.69656062811404,-0.8538106440272109,-10.428023653271245,8.10814964339337,66.10388611767696,-0.4098549993784297,0.03393963687261649,-3.8788746749339964,0.9650145932721148,-0.4061142702536417,3.217731803764001,0.4946109882343444,-18.44924072274628,28.406838612181687,69.56314485059063,2.0566067261768324,-4.239887683968092
GUIDED_NOGPS,0.8213253021240234,65.02494457622126,-19.48363753549792,31.551654285793912,69.71418730253222,-0.8419935604832088,-10.336400117706239,8.161486833156602,66.14266648674521,-0.37921220944081374,-0.012122091672891694,-3.9463420028949128,0.8034255925042475,-0.3721769550179934,0.25534557699780674,0.4946427187763195,-18.44924072274628,28.406838612181687,69.56314485059063,2.0566067261768324,-4.239887683968092
GUIDED_NOGPS,0.853053092956543,31.528297490096442,-19.423002128147186,31.4897897702869,69.73627882002518,-0.8495533604314793,-10.239336004204246,8.217991169178237,66.1841226603192,-0.4492239963109716,0.02671820592920894,-4.050623623595375,0.840147497858451,-0.37963274341194486,0.760034435644482,0.49467176576044103,-18.44924072274628,28.406838612181687,69.56314485059063,2.0566067261768324,-4.354479242994256
GUIDED_NOGPS,0.8907132148742676,26.560348539729983,-19.448617413892073,31.782517531852633,69.7979278447237,-0.9153231857429266,-10.13679384040598,8.277684465398616,66.22832097737151,-0.5888162542773716,0.3577693641500876,-4.241769455725944,0.8853852479026827,-0.3942309015759782,1.5693678769632875,0.4946455896989717,-18.44924072274628,28.406838612181687,69.56314485059063,2.0566067261768324,-3.666929888837269
GUIDED_NOGPS,0.921149492263794,32.86428207639569,-19.485392985309428,32.12384916470094,69.8639940470503,-1.0078283601828169,-10.028745856771872,8.340582887415282,66.27532560845805,-0.58415320942581,0.3313551016389442,-4.360635664738499,0.9067204139328248,-0.40572497777799804,2.281460861331848,0.4946169973421116,-18.44924072274628,28.406838612181687,69.56314485059063,2.0566067261768324,-4.1252961249419275
GUIDED_NOGPS,0.9538474082946777,30.594589074569818,-19.475309638431757,32.23298126265541,69.89980573574852,-1.0665303833249398,-9.915173777919268,8.406697073952735,66.32519857356525,-0.5552084151880297,0.32079947116351265,-4.440138212903801,0.8807400133618604,-0.40393715134488756,1.712278735260439,0.4946380892567251,-18.44924072274628,28.406838612181687,69.56314485059063,2.0566067261768324,-3.7815214478634336
GUIDED_NOGPS,0.9944617748260498,24.62515411622418,-19.46098938277153,32.314706924991256,69.93128782474692,-1.117585376655206,-9.796068613959656,8.47603225833216,66.377999759957,-0.6017285668207221,0.5792766678018324,-4.539836349784362,0.8783399327398936,-0.4060137880583517,1.4709018228757103,0.49467006790281515,-18.44924072274628,28.406838612181687,69.56314485059063,2.0566067261768324,-3.0939720937064457
GUIDED_NOGPS,1.0173838138580322,43.645202913631636,-19.46980778941845,32.500613119739874,69.97379906114053,-1.1465505959511915,-9.671430451835864,8.548588389941164,66.43378694002182,-0.5163415438811895,0.5113019848516308,-4.632584769184434,0.899778891753292,-0.42478069715096234,1.5034475753857832,0.49468998181832197,-18.44924072274628,28.406838612181687,69.56314485059063,2.0566067261768324,-2.7501974166279517
GUIDED_NOGPS,1.0546870231628418,26.81402871718812,-19.406038206786114,32.31558256244827,69.96697934208231,-1.1594829897559147,-9.541268246659275,8.624360255703522,66.49261578911978,-0.5097543066743881,0.5227713665719631,-4.743228711096763,0.8478415844724393,-0.4114359885896621,1.053495877067751,0.4947884546705562,-18.44924072274628,28.406838612181687,69.56314485059063,2.0566067261768324,-3.0939720937064457
GUIDED_NOGPS,1.0858275890350342,32.12868928431906,-19.365610561054286,32.336205038934274,69.98767721902423,-1.1834432843093947,-9.40559961304704,8.7033376015489,66.55453990342963,-0.46220140909484875,0.5492652434756194,-4.832030561817038,0.8647369904735434,-0.4208371018723633,1.2909829236467474,0.4948502940266081,-18.44924072274628,28.406838612181687,69.56314485059063,2.0566067261768324,-2.6929016371148693
GUIDED_NOGPS,1.1248795986175537,25.610629411621034,-19.313347479812602,32.14599026671782,69.97569968081025,-1.1938954742565335,-9.264450616459282,8.785505253882611,66.61961081779583,-0.4476381117630593,0.666992945330898,-4.906029685058602,0.8374080844654649,-0.42141440470955266,1.0455402529009938,0.4949658667054784,-18.44924072274628,28.406838612181687,69.56314485059063,2.0566067261768324,-2.807493196141034
GUIDED_NOGPS,1.1546130180358887,33.64055181264036,-19.263359050096916,31.974992527315383,69.96577092952309,-1.2024652944055108,-9.117855564536312,8.870843241055335,66.68787802357562,-0.4720867738971199,0.6694127532877866,-4.926157398768983,0.8226381121620842,-0.4294818539086638,1.0658191143464024,0.4950831606410788,-18.44924072274628,28.406838612181687,69.56314485059063,2.0566067261768324,-2.979380534680281
GUIDED_NOGPS,1.1702988147735596,63.79072561634044,-19.20327903811663,31.90478039698495,69.96570771792656,-1.19356527659646,-8.96585679843584,8.959326914832861,66.75938898648603,-0.43202541989832083,0.6246686109218562,-4.992446519098072,0.8115218332686707,-0.44389002589856646,0.6312455334537059,0.4951905219028392,-18.44924072274628,28.406838612181687,69.56314485059063,2.0566067261768324,-3.0939720937064457
GUIDED_NOGPS,1.203749656677246,29.903778696706116,-19.154817177538828,31.664139937070775,69.94167197085264,-1.1809017663510049,-8.808504484170179,9.050927071865837,66.83418916445096,-0.4205726334032375,0.7901820237578364,-5.0694867840675855,0.8008050213340434,-0.4380302419556413,0.7216475695925104,0.4953387757903975,-18.44924072274628,28.406838612181687,69.56314485059063,2.0566067261768324,-2.46371851906254
GUIDED_NOGPS,1.2419853210449219,26.158649378512045,-19.146170929490605,31.628743119164834,69.94560191283784,-1.2167511749674995,-8.645856403943464,9.145610075159487,66.91232202544822,-0.3865120808379706,0.7225650719654142,-5.143785154972161,0.8204392345583347,-0.4476566867615251,1.412326598750636,0.49545008016891556,-18.44924072274628,28.406838612181687,69.56314485059063,2.0566067261768324,-2.3491269600363753
GUIDED_NOGPS,1.2661406993865967,41.46904877252998,-19.140797052498886,31.6074259113888,69.95089587296947,-1.264920746665231,-8.477977747488854,9.243337975543366,66.99382906535659,-0.40593623170298776,0.7791459321629768,-5.177015305944742,0.8105631228587185,-0.46589417988167037,2.004010876747692,0.4955643997885807,-18.44924072274628,28.406838612181687,69.56314485059063,2.0566067261768324,-2.521014298575622
GUIDED_NOGPS,1.302863359451294,27.218772713113903,-19.102728648436205,31.425810486190123,69.9324100922509,-1.2583572176183524,-8.30494090340575,9.344068633141083,67.07874982580286,-0.3912255516955141,0.6269644082566267,-5.250791167377812,0.7918339844741337,-0.45852034989135976,0.890018854234579,0.49571950960032796,-18.44924072274628,28.406838612181687,69.56314485059063,2.0566067261768324,-2.7501974166279517
GUIDED_NOGPS,1.320561170578003,56.53691347540674,-19.08857418483522,31.370627090255212,69.93069854956592,-1.3087408250688821,-8.126825250497,9.447755838840052,67.16712191200887,-0.4531401493046219,0.7056477606083504,-5.294040352089156,0.7810801299875573,-0.488116946598419,2.4534690263182672,0.49585463504366445,-18.44924072274628,28.406838612181687,69.56314485059063,2.0566067261768324,-2.9220847551671985
GUIDED_NOGPS,1.3696699142456055,20.364752207963722,-19.044150179679377,31.15683148927692,69.90560131132123,-1.3022062171754802,-7.943716949106113,9.554349435761218,67.25898101063856,-0.41900163653328165,0.5981589392057441,-5.385376202991505,0.7794199693336645,-0.4680520871844468,0.9510319345321687,0.496030069548976,-18.44924072274628,28.406838612181687,69.56314485059063,2.0566067261768324,-2.46371851906254
GUIDED_NOGPS,1.3905699253082275,47.86870727337054,-19.039952496278843,31.147532648084898,69.9102046728141,-1.3705667779609025,-7.755708732454469,9.663795440728801,67.3543609076451,-0.4322439325909083,0.5798634237402188,-5.3903618141987915,0.778422951265294,-0.4996089846547105,2.7104382116151466,0.4961662343522465,-18.44924072274628,28.406838612181687,69.56314485059063,2.0566067261768324,-1.948056503444799
GUIDED_NOGPS,1.42527437210083,28.845467174669547,-18.990071676604877,30.908666874008393,69.88585356546483,-1.3586237035282671,-7.562899697978525,9.776036165740033,67.4532935061178,-0.4839841630184888,0.6385898171108115,-5.464929977575582,0.7497637800791915,-0.48707719610090566,0.8896771750429924,0.49635115991097944,-18.44924072274628,28.406838612181687,69.56314485059063,2.0566067261768324,-2.7501974166279517
GUIDED_NOGPS,1.4643166065216064,25.616729675752598,-18.955271774809372,30.78198948577502,69.87176258506445,-1.36531595212892,-7.365395098667029,9.89101033943489,67.55580884412926,-0.5754002686435856,0.6373612368338555,-5.592462415984414,0.7565576043808164,-0.493776442533008,1.1594872744686457,0.4965260693885972,-18.44924072274628,28.406838612181687,69.56314485059063,2.0566067261768324,-2.979380534680281
GUIDED_NOGPS,1.4750034809112549,93.66258011210111,-18.922335540880745,30.617946836941183,69.85066927004449,-1.3708873183839463,-7.163306134398237,10.008653228565834,67.6619351125824,-0.5754002686435856,0.6373612368338555,-5.592462415984414,0.6716404154535645,-0.5487122668968585,1.3457968687389243,0.49671689876380687,-18.44924072274628,28.406838612181687,69.56314485059063,2.0566067261768324,-2.6929016371148693
GUIDED_NOGPS,1.5204498767852783,22.007062317342555,-18.88331465026563,30.42679637609147,69.82494690936363,-1.3451569778765284,-6.9567497432771095,10.128896759467553,67.77169867305749,-0.6419900240178614,0.5520387271654678,-5.686848373237997,0.7333076638490901,-0.5059748385557189,0.7845068222629906,0.4969201276455408,-18.44924072274628,28.406838612181687,69.56314485059063,2.0566067261768324,-2.635605857601787
GUIDED_NOGPS,1.5410635471343994,48.53844373466648,-18.86651282961227,30.345928346832675,69.81494856190957,-1.383977732923474,-6.7458483929725315,10.25166963952669,67.8851240756592,-0.7195825204539401,0.6428106605744679,-5.7205711516044655,0.7150297089759661,-0.5371111646000439,2.045729241185288,0.49710526327062443,-18.44924072274628,28.406838612181687,69.56314485059063,2.0566067261768324,-2.6929016371148693
GUIDED_NOGPS,1.5745303630828857,29.88992695528238,-18.839381069512598,30.21383207201969,69.79756601267528,-1.388005459262771,-6.5307298720545255,10.376897478651589,68.00223407686372,-0.8071414368278309,0.6449160663861243,-5.786187071413486,0.7142324966167943,-0.5295751962370779,1.1650447394130232,0.49730700209628265,-18.44924072274628,28.406838612181687,69.56314485059063,2.0566067261768324,-2.7501974166279517
GUIDED_NOGPS,1.6034936904907227,34.53665445263288,-18.819989882604208,30.12479478442872,69.78653742879615,-1.426788167643594,-6.311527081331452,10.504502910742026,68.1230496573657,-0.841754167498811,0.657472728844958,-5.845699790312276,0.7074767639253619,-0.5430520956572038,1.808980644398332,0.49750476834285434,-18.44924072274628,28.406838612181687,69.56314485059063,2.0566067261768324,-3.0366763141933633
GUIDED_NOGPS,1.6331095695495605,33.77382677875479,-18.797254915212445,30.01490287399099,69.77280561615282,-1.4493196553034566,-6.0883778251872265,10.634405715158952,68.24759003992536,-0.8877227813560249,0.6889383431341489,-5.869275895779868,0.6972170619859472,-0.5505915161620719,1.534821206746574,0.4977121766356588,-18.44924072274628,28.406838612181687,69.56314485059063,2.0566067261768324,-2.6929016371148693
GUIDED_NOGPS,1.6697578430175781,27.29209666714384,-18.77559903426697,29.91078611699332,69.75923120580362,-1.4693716763465365,-5.861424602918527,10.766522938194225,68.37587270721555,-0.9271526096608622,0.6671254936894786,-5.9419529505302116,0.694967480834445,-0.5546626203227655,1.4490949464971834,0.4979249622521179,-18.44924072274628,28.406838612181687,69.56314485059063,2.0566067261768324,-2.2345354010102105
GUIDED_NOGPS,1.7157118320465088,21.76654298243338,-18.75347783834588,29.80479226937986,69.74716745757452,-1.4899571837051777,-5.630814400072013,10.900769014540348,68.50791341966877,-0.910727285367451,0.5940697903270221,-6.042236349245277,0.6909787455178192,-0.5595488013019312,1.424281164634518,0.4981411189431414,-18.44924072274628,28.406838612181687,69.56314485059063,2.0566067261768324,-2.4064227395494577
GUIDED_NOGPS,1.7444038391113281,34.86218217785572,-18.73238437280391,29.706956015184623,69.73524066168336,-1.518094460671673,-5.396698479781525,11.037055888760207,68.64372623332424,-0.9172502227465189,0.5952439425340297,-6.06454801594277,0.6734332695716154,-0.5788002199108125,1.697801759438312,0.4983627283574613,-18.44924072274628,28.406838612181687,69.56314485059063,2.0566067261768324,-2.3491269600363753
GUIDED_NOGPS,1.7759251594543457,31.73272000968406,-18.70867905520098,29.60155614899564,69.71965396130659,-1.507556604418437,-5.159232174105295,11.175293136756821,68.78332351767497,-0.8922467144641005,0.6121488741732228,-6.15636326074749,0.6657435131253254,-0.5859123709191982,1.0492321266068174,0.4985955043345526,-18.44924072274628,28.406838612181687,69.56314485059063,2.0566067261768324,-1.776169164905552
GUIDED_NOGPS,1.8185877799987793,23.446929591637087,-18.688962884180093,29.50032640624112,69.70505892791539,-1.5261137528032427,-4.91857467536317,11.315388087243052,68.92671597351473,-0.7069325298634005,0.43582497942840487,-6.304784552072336,0.6651182276425575,-0.5887329926716776,1.4536265135252395,0.49883248556839904,-18.44924072274628,28.406838612181687,69.56314485059063,2.0566067261768324,-1.776169164905552
GUIDED_NOGPS,1.8524937629699707,29.499750318256307,-18.669957008181353,29.404870060614677,69.69166955031356,-1.561592878166984,-4.674888827473809,11.457245943211369,69.0739126507852,-0.6668538869482648,0.32439770019563996,-6.359895214051053,0.6521092013262167,-0.6038665481450027,1.7894017081224016,0.49907336465070745,-18.44924072274628,28.406838612181687,69.56314485059063,2.0566067261768324,-1.604281826366305
GUIDED_NOGPS,1.90057373046875,20.811789515468778,-18.64932585976059,29.302936058999155,69.67755405380771,-1.5836916032588877,-4.428340917291893,11.600769903403569,69.22492096642294,-0.5297453098796635,0.20936920372298587,-6.481780793563577,0.6505705185775496,-0.6058466614023135,1.5200246332368512,0.4993210503689228,-18.44924072274628,28.406838612181687,69.56314485059063,2.0566067261768324,-2.0626480624709638
GUIDED_NOGPS,1.9289519786834717,35.22937752505103,-18.62907815912143,29.20451574499795,69.66414364604019,-1.6056696670155006,-4.179100465945352,11.745861283780522,69.3797467222065,-0.5025240711902537,0.14984965463502536,-6.495732735603798,0.6299773326940457,-0.6283352085736434,1.6920076242048017,0.4995734046142495,-18.44924072274628,28.406838612181687,69.56314485059063,2.0566067261768324,-2.46371851906254
GUIDED_NOGPS,1.945913314819336,58.971711377312864,-18.61047612987297,29.114454136088202,69.65184332634813,-1.589323115198128,-3.927340020172551,11.892419638991907,69.53839412260345,-0.47121501764344415,0.17711171437689657,-6.542701385205037,0.6020138864816567,-0.6606808582368905,0.8181901289211109,0.499829826194383,-18.44924072274628,28.406838612181687,69.56314485059063,2.0566067261768324,-1.8907607239317168
GUIDED_NOGPS,2.0028750896453857,17.559454582752455,-18.59399951139907,29.035810508228835,69.64125279053044,-1.5773551178750291,-3.673234943659528,12.040342883845945,69.70086579261739,-0.32222047067599263,0.057960985296728204,-6.6092453569675325,0.6304188470581147,-0.6327442293032748,1.1944682421757422,0.5000894195031305,-18.44924072274628,28.406838612181687,69.56314485059063,2.0566067261768324,-1.604281826366305
GUIDED_NOGPS,2.031888961791992,34.47448711204629,-18.576811306809038,28.94729299378939,69.62977473598667,-1.6119086097506172,-3.416963208377183,12.189527414779146,69.86716279563508,-0.3113940872329935,0.14478784412981124,-6.645738203929264,0.6071111306794164,-0.6590347593769776,1.9246654879585965,0.5003560820894726,-18.44924072274628,28.406838612181687,69.56314485059063,2.0566067261768324,-1.8334649444186344
GUIDED_NOGPS,2.068464756011963,27.34583387664624,-18.5615248371427,28.87290963582711,69.6199653470181,-1.5958754327371654,-3.158705185918489,12.339868231326033,70.0372846512734,-0.26400895617494247,0.1149371426925052,-6.6721876846033155,0.6070312439837257,-0.6628242964048244,1.1045378174404181,0.5006259789563829,-18.44924072274628,28.406838612181687,69.56314485059063,2.0566067261768324,-1.6615776058793874
GUIDED_NOGPS,2.0799527168273926,87.118163879946,-18.545641464388936,28.798407066477935,69.61038983416636,-1.6228145847830753,-2.898643438835718,12.491259057588895,70.21122935322646,-0.2409740364773687,0.06309152458046559,-6.683796871758221,0.5482448493777832,-0.733794764510299,2.5509691594029738,0.5009012592785902,-18.44924072274628,28.406838612181687,69.56314485059063,2.0566067261768324,-1.8334649444186344
GUIDED_NOGPS,2.145811080932617,15.18646424342927,-18.534688272524846,28.7478805611238,69.60385901363388,-1.5965725458423896,-2.636962511977641,12.643592463707506,70.38899338711266,-0.2356007586738314,0.04795753292700984,-6.7555958203133954,0.6037135911425285,-0.6725359730796207,1.137187019126764,0.5011777015602181,-18.44924072274628,28.406838612181687,69.56314485059063,2.0566067261768324,-1.1459155902616465
GUIDED_NOGPS,2.1571874618530273,87.93090146750524,-18.520554275337776,28.68327066679906,69.59387366115587,-1.608811520470797,-2.3738487238267414,12.796759987328876,70.5705717483217,-0.2356007586738314,0.04795753292700984,-6.7555958203133954,0.5389712931073063,-0.7540337935629373,1.8782165670460929,0.5014650471307488,-18.44924072274628,28.406838612181687,69.56314485059063,2.0566067261768324,-1.0313240312354819
GUIDED_NOGPS,2.187673568725586,32.817225838758134,-18.512131392528975,28.645839657259447,69.58907911413482,-1.5798430816762457,-2.109489957836418,12.950652255076998,70.75595795986163,-0.2471359876866309,0.026071045505350235,-6.799790559337963,0.5777126546824702,-0.7122934881232859,0.848731916630237,0.5017503182685902,-18.44924072274628,28.406838612181687,69.56314485059063,2.0566067261768324,-1.3750987083139758
GUIDED_NOGPS,2.221564531326294,29.514281090133768,-18.5013144971151,28.59666864592792,69.58298219800736,-1.5741687631602173,-1.8440754537682018,13.105159104022547,70.94514409020593,-0.2564295272694911,0.09835301650089111,-6.811327602619761,0.5720623977048048,-0.7191228573259505,1.2481967240881233,0.5020432428382978,-18.44924072274628,28.406838612181687,69.56314485059063,2.0566067261768324,-0.8594366926962349
GUIDED_NOGPS,2.2609024047851562,25.42618816682832,-18.492329596318978,28.557731608174493,69.5781820575138,-1.5562495202379654,-1.5777955990289776,13.26016970315267,71.13812077114054,-0.16113564844418551,0.08424824897799166,-6.83004146717195,0.5697351727939878,-0.7258774932124443,1.0999121573165331,0.5023399080704402,-18.44924072274628,28.406838612181687,69.56314485059063,2.0566067261768324,-0.34377467707849396
GUIDED_NOGPS,2.278472661972046,56.944498750950366,-18.483119314041584,28.50803548666012,69.57216672420715,-1.5398725624425909,-1.3108417200081668,13.415572674840671,71.33487721561093,-0.16113564844418551,0.08424824897799166,-6.83004146717195,0.538860961980103,-0.7682645746352064,0.8586671256783199,0.5026440657371056,-18.44924072274628,28.406838612181687,69.56314485059063,2.0566067261768324,-0.34377467707849396
GUIDED_NOGPS,2.31140398979187,30.379418240815852,-18.476670067442566,28.48196669373493,69.56917545506226,-1.517764433355564,-1.0434058734149723,13.571256216315788,71.53540123556911,-0.06577214704607082,0.11139654338149983,-6.852307883866191,0.5541275947467861,-0.7534138714436978,0.9692502064177428,0.5029493386707603,-18.44924072274628,28.406838612181687,69.56314485059063,2.0566067261768324,-0.5156620156177409
GUIDED_NOGPS,2.346543550491333,28.46355449690208,-18.467770533010217,28.444885893754442,69.56486133849585,-1.4951164896627716,-0.7756806376155403,13.727108221132916,71.73967925982073,0.040390230275377845,0.16383446696062648,-6.845566060268565,0.5479015761972309,-0.7619180799845476,0.9745785061945804,0.5032622268819873,-18.44924072274628,28.406838612181687,69.56314485059063,2.0566067261768324,0.2864788975654116
GUIDED_NOGPS,2.3782570362091064,31.542760881990194,-18.459835272018704,28.412925843537412,69.56082828390521,-1.4629572349222641,-0.5078589039702521,13.883016400642326,71.9476963518721,0.18325406881293466,0.17312181668455132,-6.830227162940009,0.5399430136662529,-0.7762734852134682,0.7711174100949234,0.5035803021019504,-18.44924072274628,28.406838612181687,69.56314485059063,2.0566067261768324,0.5729577951308232
GUIDED_NOGPS,2.409343957901001,32.17897393799437,-18.452556158229182,28.384552421412327,69.55770503281346,-1.429984755008118,-0.24013366817083082,14.03886840545945,72.15943622777723,0.2592913231708735,0.17755738422023992,-6.819885829649786,0.5337064007651411,-0.787986948573187,0.7292339319354951,0.5039025967924456,-18.44924072274628,28.406838612181687,69.56314485059063,2.0566067261768324,0.34377467707849396
GUIDED_NOGPS,2.4427595138549805,29.933443238344,-18.44652951368522,28.360726640730572,69.5551355779346,-1.3937822675634073,0.02730217842237792,14.19455194693457,72.37488127398493,0.3168529558445675,0.10089598130625148,-6.811040307787797,0.5296860549521575,-0.796807742331178,0.6977627968450484,0.5042296185440754,-18.44924072274628,28.406838612181687,69.56314485059063,2.0566067261768324,0.5156620156177409
GUIDED_NOGPS,2.4592487812042236,60.677092224231465,-18.44224010547833,28.345213809524388,69.55268691920469,-1.3550063603192302,0.29425605744318517,14.349954918622572,72.59401256518579,0.336558211682613,0.10748348531731722,-6.799753847071174,0.5055538351350467,-0.8404045048281656,0.03220306235527626,0.5045619884689716,-18.44924072274628,28.406838612181687,69.56314485059063,2.0566067261768324,0.7448451336700702
GUIDED_NOGPS,2.4869165420532227,36.169017971094476,-18.440095009273627,28.33883325388829,69.55234208246617,-1.3151039794758739,0.5605359121824129,14.504965517752694,72.81680988215929,0.38200890510166946,0.10216746370893166,-6.775642425527383,0.5166290070442666,-0.8255778645550996,0.46979032753303596,0.5048967016995397,-18.44924072274628,28.406838612181687,69.56314485059063,2.0566067261768324,1.1459155902616465
GUIDED_NOGPS,2.516460657119751,33.83785789775157,-18.43560993831531,28.323150299400552,69.55088746686185,-1.2688224868627538,0.8259504162506239,14.65947236669825,73.0432517296208,0.4651327875484007,0.028657766210081,-6.756048320345909,0.5111725166596119,-0.8336561531718466,0.3807823646686864,0.5052385463941385,-18.44924072274628,28.406838612181687,69.56314485059063,2.0566067261768324,1.088619810748564
GUIDED_NOGPS,2.557197093963623,24.55566484005433,-18.431103410484557,28.30759634643194,69.5495280550913,-1.2193654386682606,1.0903091822409472,14.813364634446362,73.27331535406871,0.5884236251218017,-0.10325666543813714,-6.718845560597319,0.5111835196254605,-0.8352770707230521,0.5216763632411814,0.5055856809484661,-18.44924072274628,28.406838612181687,69.56314485059063,2.0566067261768324,1.088619810748564
GUIDED_NOGPS,2.6019701957702637,22.33864507882403,-18.42514762692674,28.286289160431785,69.54751988576054,-1.1548825511715206,1.353422970391847,14.96653215806774,73.50697676163138,0.5828042470647324,-0.15826871656071234,-6.648988947087367,0.506468388612243,-0.843769046309659,0.3721938960567941,0.5059391853138062,-18.44924072274628,28.406838612181687,69.56314485059063,2.0566067261768324,1.4896902673401404
GUIDED_NOGPS,2.6424760818481445,24.691548731956576,-18.421787491170868,28.27576015921492,69.54668474077452,-1.094590591332719,1.6151038972499308,15.11886556418635,73.74421073591424,0.6939987128963351,-0.43180519965844083,-6.59570962957986,0.5006517892780309,-0.8574274810687925,0.31090440104527983,0.5062962889927096,-18.44924072274628,28.406838612181687,69.56314485059063,2.0566067261768324,1.432394487827058
GUIDED_NOGPS,2.6815803050994873,25.578767624530418,-18.417610810476084,28.261562270270275,69.54550818166291,-1.0177567457181222,1.8751656443326965,15.270256390449205,73.98499085584686,0.8025065131457426,-0.6758076246199168,-6.4589282612611845,0.4943245185601091,-0.869212376807745,0.019890923903118418,0.5066592240112759,-18.44924072274628,28.406838612181687,69.56314485059063,2.0566067261768324,1.8907607239317168
GUIDED_NOGPS,2.7050600051879883,42.60079629479158,-18.416171703956703,28.258878582045178,69.5455664289303,-0.9415457484954344,2.133423666791387,15.420597206996096,74.22928951352995,0.8570700129389184,-0.8143749806848447,-6.385593373916404,0.4809153707227424,-0.8974625151720707,-0.6686522765205565,0.5070255846268995,-18.44924072274628,28.406838612181687,69.56314485059063,2.0566067261768324,2.521014298575622
GUIDED_NOGPS,2.753695011138916,20.56495092030556,-18.416093619003885,28.26125262056746,69.54611906042153,-0.8671283811846523,2.3896954020737446,15.569781737929297,74.47707793208247,0.9302332384199495,-0.8714830461089675,-6.246365517214394,0.48875003919703164,-0.8860980959409904,0.13919793684431647,0.5073964383074914,-18.44924072274628,28.406838612181687,69.56314485059063,2.0566067261768324,2.979380534680281
GUIDED_NOGPS,2.7835988998413086,33.447933778848146,-18.413999732248033,28.25531035903884,69.54515622456518,-0.7619854260701652,2.6438004785867584,15.717704982783332,74.7283261834886,0.9269616845292192,-0.7978060089754516,-6.185079937339162,0.475866722904392,-0.909490159286389,-0.927627347465706,0.5077747549383852,-18.44924072274628,28.406838612181687,69.56314485059063,2.0566067261768324,2.9220847551671985
GUIDED_NOGPS,2.8056209087371826,45.44109553422461,-18.415554485702188,28.262828042616675,69.54574146631018,-0.7022045453658168,2.895560924359568,15.864263337994721,74.9830032064449,0.9481736907703401,-0.8460565997065372,-6.104957122619858,0.4669567332744542,-0.9322883419037583,-0.562740866635109,0.5081558926102021,-18.44924072274628,28.406838612181687,69.56314485059063,2.0566067261768324,3.4377467707849396
GUIDED_NOGPS,2.8425488471984863,27.084489216066125,-18.416263717701263,28.267523423223242,69.5467549756128,-0.6200622208001219,3.1448013757061055,16.00935471837167,75.24107682420725,0.9767183319722927,-0.9388521901005652,-6.002331395906301,0.47133797459725957,-0.9241762430530938,-0.3735464762722962,0.5085414827728917,-18.44924072274628,28.406838612181687,69.56314485059063,2.0566067261768324,4.068000345428845
GUIDED_NOGPS,2.874159574508667,31.655841264330512,-18.41506705772063,28.265258641697816,69.54697597681955,-0.4917824900542505,3.3913492858880154,16.152878678563873,75.50251376243799,0.9517793903218722,-0.8684316590972644,-5.932423555977574,0.4634953111781006,-0.9386936763548026,-1.3810118106306644,0.5089333066784276,-18.44924072274628,28.406838612181687,69.56314485059063,2.0566067261768324,4.068000345428845
GUIDED_NOGPS,2.916205644607544,23.783435589779646,-18.414915531763846,28.266740706531706,69.54760073649575,-0.36625351702961373,3.6350351337773894,16.294736534532195,75.76727966705285,0.8805978801954967,-0.8248093753025085,-5.712467559041069,0.46347033030469353,-0.9414981882662076,-0.9320495366208998,0.5093295183958356,-18.44924072274628,28.406838612181687,69.56314485059063,2.0566067261768324,4.8128454790989155
GUIDED_NOGPS,2.9446516036987305,35.15673537128153,-18.414019705884986,28.26539593854461,69.54792687004081,-0.19390552300099456,3.875692632519499,16.43483148501842,76.03533912206815,0.9347305978232856,-0.7723248143379554,-5.583132377578177,0.45293440384779865,-0.9620231852449816,-2.5673897798420864,0.509731118378041,-18.44924072274628,28.406838612181687,69.56314485059063,2.0566067261768324,5.213915935690491
GUIDED_NOGPS,2.981964111328125,26.805460401861037,-18.41490769252974,28.270955161725627,69.54886305542827,-0.052363788632513314,4.113158938195728,16.57306873301503,76.30665566744777,0.8594471322134943,-0.7087114206162185,-5.314040426639423,0.4535411967195361,-0.9644399261952575,-1.5520062762683278,0.5101366889180292,-18.44924072274628,28.406838612181687,69.56314485059063,2.0566067261768324,5.557690612768986
GUIDED_NOGPS,3.0259244441986084,22.755802471815016,-18.415095116947768,28.273901640376355,69.54952619469233,0.14768705577547192,4.347274858486227,16.709355607234897,76.5811918169502,0.8990976076450349,-0.6167184841713729,-4.931045679780596,0.4510321612545725,-0.9706659922063239,-2.080823268010068,0.5105474984333868,-18.44924072274628,28.406838612181687,69.56314485059063,2.0566067261768324,6.41712730546522
GUIDED_NOGPS,3.054471254348755,35.03691390097819,-18.415306504024976,28.276790127621016,69.55015261969342,0.37830472622546174,4.57788506133274,16.843601683581024,76.85890907597556,0.9358708125278546,-0.549014981075562,-4.8016601256725755,0.4410396332313419,-0.9914092080516341,-3.9874669340255298,0.5109631346844232,-18.44924072274628,28.406838612181687,69.56314485059063,2.0566067261768324,6.359831525952138
GUIDED_NOGPS,3.081956148147583,36.39783052024124,-18.41718051617708,28.28522153657388,69.5512146147189,0.5348189115221207,4.804838283601438,16.97571890661629,77.13976795941275,0.9684519888075791,-0.4250678583724579,-4.6405705409846485,0.43715827889193626,-1.0023038261087591,-2.9222264476014543,0.5113828300170408,-18.44924072274628,28.406838612181687,69.56314485059063,2.0566067261768324,6.760901982543714
GUIDED_NOGPS,3.114140510559082,31.079047986010256,-18.419014152921104,28.293315112446702,69.55220631371155,0.6962168128805286,5.027987539745656,17.105621711033212,77.42372800948641,1.0490397899989727,-0.2910941246894809,-4.333754174599444,0.4357028786962356,-1.006655268803964,-2.692251830492537,0.5118072825436623,-18.44924072274628,28.406838612181687,69.56314485059063,2.0566067261768324,7.448451336700702
GUIDED_NOGPS,3.152589797973633,26.014575541620925,-18.420413912848566,28.299996188570336,69.55305208246705,0.887209559419427,5.2471903304687295,17.233227143123653,77.710747813604,1.1430718580761845,-0.2399338733719698,-4.080855748409144,0.43404160210871806,-1.0113661997621541,-2.8043347652803052,0.5122365435967055,-18.44924072274628,28.406838612181687,69.56314485059063,2.0566067261768324,7.16197243913529
GUIDED_NOGPS,3.1924750804901123,25.08000023918152,-18.42186900417962,28.306624886785624,69.5538638678503,1.0814142996715128,5.462308851386734,17.35845498224855,78.00078502220285,1.1858230793083522,-0.19142693710359707,-3.945715333038564,0.43045181997479476,-1.0203727851203828,-2.967936581016959,0.5126703817315288,-18.44924072274628,28.406838612181687,69.56314485059063,2.0566067261768324,7.047380880109126
GUIDED_NOGPS,3.2056639194488525,75.86557175415115,-18.423122505112573,28.31268582922057,69.55461262247817,1.3070520420547074,5.673210201691322,17.481227862307687,78.29379636659718,1.2538770564859494,-0.22937119926395663,-3.915275741228756,0.4080502487986556,-1.0661427655525861,-8.504751550489955,0.5131087756161785,-18.44924072274628,28.406838612181687,69.56314485059063,2.0566067261768324,6.875493541569879
GUIDED_NOGPS,3.243267774581909,26.626275194413584,-18.425539371499124,28.32201273689073,69.55554453163332,1.3632771547294633,5.879766592812455,17.601471393209405,78.58973767682524,1.2972106580665663,-0.19690133372336227,-3.7818812929647607,0.42290543441329764,-1.0388431396891058,-1.4312776757849135,0.5135512897177879,-18.44924072274628,28.406838612181687,69.56314485059063,2.0566067261768324,7.39115555718762
GUIDED_NOGPS,3.2805557250976562,26.809743874922496,-18.426685645472443,28.327401817805093,69.55619459895557,1.5876167193511743,6.08185555708123,17.719114282340353,78.88856389949625,1.350286350559443,-0.21109873568688003,-3.69815213836369,0.4194858699922383,-1.0464999758121265,-3.773313164125467,0.5139985539508111,-18.44924072274628,28.406838612181687,69.56314485059063,2.0566067261768324,7.219268218648373
GUIDED_NOGPS,3.2891933917999268,115.83275338304335,-18.427900432479834,28.332947243267125,69.55684248151628,1.8244645022484771,6.27936015639273,17.834088456035207,79.19022911563752,1.350286350559443,-0.21109873568688003,-3.69815213836369,0.3807328983720865,-1.1251370705031234,-10.0,0.5144500799511819,-18.44924072274628,28.406838612181687,69.56314485059063,2.0566067261768324,7.219268218648373
GUIDED_NOGPS,3.330669403076172,24.113787671469144,-18.430034775855894,28.34073393786904,69.55755935627268,1.849262009444746,6.472169190868673,17.94632918104643,79.49468655854147,1.3958342140916136,-0.20214713244934363,-3.4835604012465833,0.41381567602995595,-1.060920453824438,-1.3202439866868503,0.5149056908034032,-18.44924072274628,28.406838612181687,69.56314485059063,2.0566067261768324,7.047380880109126
GUIDED_NOGPS,3.368041515350342,26.762871599849415,-18.431013695820152,28.345269708707168,69.55810182289763,2.096147823915105,6.660177407520326,18.055775186014028,79.80188863161271,1.4715964866343931,-0.1795289610128464,-3.2392159332180777,0.4092473722243222,-1.0710302831389218,-4.530402634829761,0.5153656802130726,-18.44924072274628,28.406838612181687,69.56314485059063,2.0566067261768324,6.64631042351755
GUIDED_NOGPS,3.396897554397583,34.669113331845494,-18.432437115213943,28.35051029598279,69.55866303488487,2.2270183980440543,6.8432857089112,18.162368782935186,80.11178692621505,1.5205451440429953,-0.2455850011365091,-3.037268583801957,0.4034955752823366,-1.0841580242438003,-3.5515614711964725,0.5158296858369953,-18.44924072274628,28.406838612181687,69.56314485059063,2.0566067261768324,6.875493541569879
GUIDED_NOGPS,3.4186129570007324,46.06442401678144,-18.43372716815919,28.355938394252142,69.5592020041868,2.3827301365635742,7.021401361819958,18.266055988634154,80.42433223951856,1.5238430581950537,-0.3140531652542441,-2.903094640198934,0.3964679578037336,-1.099442772853715,-4.989079275804819,0.5162976953529976,-18.44924072274628,28.406838612181687,69.56314485059063,2.0566067261768324,6.875493541569879
GUIDED_NOGPS,3.447648763656616,34.456361724500525,-18.435044908997963,28.36111304828696,69.55968594757285,2.4940277792953855,7.194438205903072,18.366786646231876,80.73947459234665,1.530652436632439,-0.3363336692136488,-2.838227266434265,0.3976194545364823,-1.0983536468637412,-3.426238421947581,0.5167696829671607,-18.44924072274628,28.406838612181687,69.56314485059063,2.0566067261768324,6.932789321082962
GUIDED_NOGPS,3.4781458377838135,32.79849234835511,-18.43618613480506,28.365710979728604,69.5601335620282,2.6341778693969062,7.362316862357677,18.464514546615757,81.05716324702311,1.4966560238123467,-0.27159948413779517,-2.5745505882902733,0.3954592452066025,-1.1039163335763826,-3.902531958310706,0.5172455445274924,-18.44924072274628,28.406838612181687,69.56314485059063,2.0566067261768324,6.64631042351755
GUIDED_NOGPS,3.509958505630493,31.43802421017127,-18.437253527607822,28.37003549537901,69.5605551443105,2.799274196250919,7.524964942584393,18.55919754990941,81.37734672521911,1.4840073672431295,-0.32223146301168815,-2.316840720716522,0.3932867280054193,-1.109649276290936,-4.3161423685445595,0.517725187371363,-18.44924072274628,28.406838612181687,69.56314485059063,2.0566067261768324,6.531718864491385
GUIDED_NOGPS,3.546326160430908,27.50687950053121,-18.438286483462107,28.374180114189382,69.56095345862965,2.9737742008780406,7.682317256850045,18.650797706942374,81.69997282580033,1.4910919809597252,-0.48407450294243276,-2.0949436693952634,0.3919592103699509,-1.1138967141402827,-4.270355925906246,0.518208529050756,-18.44924072274628,28.406838612181687,69.56314485059063,2.0566067261768324,6.359831525952138
GUIDED_NOGPS,3.595247507095337,20.44486039619404,-18.439300237284442,28.378202535759844,69.56133912918725,3.162274874366209,7.834316022950535,18.739281380719905,82.02498864267396,1.3981657631978208,-0.4996279108996096,-1.767844309217766,0.389593411433782,-1.1202616088108042,-4.588152358021738,0.5186954742702301,-18.44924072274628,28.406838612181687,69.56314485059063,2.0566067261768324,6.359831525952138
GUIDED_NOGPS,3.607250690460205,83.59516881253239,-18.44030937778614,28.382097719606147,69.56170116335619,3.359806825803269,7.980911074873493,18.824619367892634,82.35234058263575,1.352964318322617,-0.30281216798428406,-1.7048338931336944,0.3831177181240411,-1.1343705135695814,-6.2225772136378925,0.5191859591289193,-18.44924072274628,28.406838612181687,69.56314485059063,2.0566067261768324,6.64631042351755
GUIDED_NOGPS,3.644624710083008,26.749558351775203,-18.44128152372161,28.38547318722397,69.56197819308444,3.482350208104591,8.122060071461267,18.90678702022635,82.68197438321705,1.3622946768939717,-0.37360024854229623,-1.5676956474308859,0.3851165720353621,-1.1318860588547215,-3.886194260284757,0.519679994285199,-18.44924072274628,28.406838612181687,69.56314485059063,2.0566067261768324,6.474423084978302
GUIDED_NOGPS,3.6728920936584473,35.38451934027924,-18.442193442030568,28.388754623608868,69.56226297650991,3.6389286640840925,8.257728705073479,18.98576436607173,83.01383513053194,1.3806330944852212,-0.45224347353264616,-1.5000690906849434,0.3805709231039052,-1.1422405312967936,-5.137188226492576,0.5201773582310331,-18.44924072274628,28.406838612181687,69.56314485059063,2.0566067261768324,6.302535746439056
GUIDED_NOGPS,3.700176239013672,36.66189414798304,-18.442997534355516,28.3913618022544,69.56246629602914,3.7060613948555803,8.387890910250082,19.06153623183408,83.34786727712418,1.3593741306935565,-0.47348386774750484,-1.3717438167238611,0.3781369378499091,-1.148116222286678,-3.6595109189487234,0.5206781014716425,-18.44924072274628,28.406838612181687,69.56314485059063,2.0566067261768324,5.67228217179515
GUIDED_NOGPS,3.7220888137817383,45.66322275810262,-18.443737033370333,28.393832104687167,69.5626688798596,3.8044982994572156,8.512529072373855,19.13409236344307,83.68401465981432,1.3081965904597088,-0.32513365307870884,-1.3127710029346191,0.37390468052613807,-1.1574679159534071,-4.758570046743067,0.5211820186699321,-18.44924072274628,28.406838612181687,69.56314485059063,2.0566067261768324,6.016056848873644
GUIDED_NOGPS,3.7471508979797363,39.91610042063991,-18.4443935418034,28.395943962104997,69.56282620050017,3.8871936758499683,8.631634236333486,19.203427547822503,84.02222051754671,1.3232012354057574,-0.46964615520760394,-1.180626479288736,0.3735622209657363,-1.159138319620611,-4.226999449490546,0.5216890914755699,-18.44924072274628,28.406838612181687,69.56314485059063,2.0566067261768324,6.016056848873644
GUIDED_NOGPS,3.7790119647979736,31.39848633433895,-18.445008253099683,28.397965618765163,69.56298166540637,3.96988300924545,8.745206315186085,19.269541734359965,84.36242750923657,1.2815053851220626,-0.4158596961542229,-0.9335958259257114,0.37392633953792903,-1.1597983126862341,-3.9461762948337173,0.5221991687657453,-18.44924072274628,28.406838612181687,69.56314485059063,2.0566067261768324,5.271211715203574
GUIDED_NOGPS,3.80521821975708,38.168899242865464,-18.445629017399412,28.400095412622488,69.5631562607527,4.090840522011598,8.853254298820193,19.332440156376617,84.70457773161706,1.2393159469491284,-0.3607234209661181,-0.8691284451143114,0.37084391773970465,-1.1671136020294641,-5.054344129760652,0.5227121322062965,-18.44924072274628,28.406838612181687,69.56314485059063,2.0566067261768324,4.984732817638163
GUIDED_NOGPS,3.831329345703125,38.31324332718271,-18.44615701677723,28.401743629414604,69.56327625666796,4.182461667579112,8.95579646261844,19.392133452597005,85.0486127370863,1.1772507650131632,-0.2840551878629597,-0.736332758980603,0.36922476858859565,-1.1713097033616366,-4.592857720324455,0.5232280047206275,-18.44924072274628,28.406838612181687,69.56314485059063,2.0566067261768324,5.443099053742821
GUIDED_NOGPS,3.856196641921997,40.22425747796649,-18.446641692471562,28.40324639186238,69.5633803592242,4.27355239333044,9.052860576120455,19.44863778861865,85.39447355155446,1.2564576940534506,-0.3333676595665708,-0.7181326527200462,0.3677645259911152,-1.1752700676412429,-4.682518589725348,0.5237466397884953,-18.44924072274628,28.406838612181687,69.56314485059063,2.0566067261768324,5.614986392282068
GUIDED_NOGPS,3.892481565475464,27.563459048820718,-18.447095744004024,28.40465938667541,69.56347626037531,4.366766798981285,9.144484111685475,19.501974978381863,85.74210069229072,1.2213114615752692,-0.41395684814013967,-0.6600489908225222,0.3688411250427439,-1.1747239934793863,-4.252334986785154,0.5242679366478731,-18.44924072274628,28.406838612181687,69.56314485059063,2.0566067261768324,5.385803274229739
GUIDED_NOGPS,3.9149115085601807,44.60649374129258,-18.44751875722779,28.40643090240015,69.56361181599986,4.460903997981287,9.23071445315529,19.55217260563955,86.09143418577047,1.1638464120453074,-0.4032579971355494,-0.5835437751249449,0.3645572582062661,-1.184298694502695,-5.167969892918068,0.5247917335546559,-18.44924072274628,28.406838612181687,69.56314485059063,2.0566067261768324,5.156620156177409
GUIDED_NOGPS,3.933497428894043,53.8276459491023,-18.447812597985028,28.407210958895483,69.56365432619276,4.508501263262825,9.311609104516993,19.599264145426826,86.44241358552216,1.1481743295513014,-0.2201707210085379,-0.5531488463490064,0.3620163855365616,-1.1897421768517025,-4.355830706472939,0.5253181388889941,-18.44924072274628,28.406838612181687,69.56314485059063,2.0566067261768324,5.500394833255903
GUIDED_NOGPS,3.9802608489990234,21.39230667224302,-18.448103600321577,28.407920867506252,69.56368227964495,4.553336317852552,9.38723589856571,19.64328908553077,86.79497798997457,1.0161391956538446,-0.3670801926492843,-0.39155300056927805,0.3663633563245938,-1.1832882269732286,-3.621302751613787,0.5258469435654944,-18.44924072274628,28.406838612181687,69.56314485059063,2.0566067261768324,4.411775022507339
GUIDED_NOGPS,4.000445365905762,49.551118777024314,-18.448498077830706,28.40973502716008,69.5638244341459,4.660508096148843,9.457673205567492,19.684293047960278,87.14906606030365,0.9502660765338912,-0.289765866339325,-0.303901636517754,0.3615164565354867,-1.194113253676497,-5.860437505861971,0.5263778624392367,-18.44924072274628,28.406838612181687,69.56314485059063,2.0566067261768324,4.411775022507339
GUIDED_NOGPS,4.02010703086853,50.89248316447249,-18.448595425106323,28.409626168970746,69.5637744513693,4.643876378961339,9.523010141922075,19.722327910415668,87.50461603827982,0.7638973213975118,-0.22895690560211304,-0.2234547746790579,0.36022813670358644,-1.1967004904494574,-2.7985072491706715,0.5269112623803658,-18.44924072274628,28.406838612181687,69.56314485059063,2.0566067261768324,4.068000345428845
GUIDED_NOGPS,4.049570083618164,33.951254259788406,-18.44882045352239,28.410088965276415,69.5637859839938,4.688802640408265,9.58334677882559,19.757451927758506,87.8615657641147,0.6202877382603805,-0.29883571722686725,-0.09843690643174194,0.3619702054423023,-1.1948341831725025,-4.0322571205793025,0.5274466696701814,-18.44924072274628,28.406838612181687,69.56314485059063,2.0566067261768324,4.18259190445501
GUIDED_NOGPS,4.094568967819214,22.24174612096851,-18.449142097651517,28.41092712988045,69.56383399434547,4.7677110589168175,9.63879435093337,19.789729853481273,88.21985269430844,0.49048628966492935,-0.11149472735081876,-0.0071786105264893905,0.3628891427981654,-1.1950813986501652,-4.229978355019975,0.5279840280499445,-18.44924072274628,28.406838612181687,69.56314485059063,2.0566067261768324,3.724225668350351
GUIDED_NOGPS,4.123539686203003,34.49830564237539,-18.44945141724221,28.41169513040859,69.56391497799441,4.8534086016844284,9.68947546502287,19.819233061177126,88.57941391949664,0.5028524005180903,-0.22149812558504756,0.06605341877176443,0.36111576206978563,-1.1998594421190483,-4.8715231750225,0.5285232484122534,-18.44924072274628,28.406838612181687,69.56314485059063,2.0566067261768324,3.4377467707849396
GUIDED_NOGPS,4.149526834487915,38.494332730660155,-18.44971745000616,28.412299049071862,69.56393179068769,4.928406133552487,9.735524308656313,19.846039666009712,88.9401861822974,0.42856027283330295,-0.06956099438493704,0.14576904349276587,0.36025045317780713,-1.2026578912312473,-4.926972691834804,0.5290643815874145,-18.44924072274628,28.406838612181687,69.56314485059063,2.0566067261768324,3.4377467707849396
GUIDED_NOGPS,4.161691188812256,82.2702914754227,-18.449912134584558,28.41266284839686,69.56392928658123,4.978536735760074,9.77708685884355,19.870234646182748,89.30210589515843,0.44251584341151995,-0.06725068289818023,0.18017325329086223,0.3560752973432937,-1.2112509472036235,-5.582241623194458,0.5296072649128658,-18.44924072274628,28.406838612181687,69.56314485059063,2.0566067261768324,3.2658594322456924
GUIDED_NOGPS,4.1908860206604,34.25935243571732,-18.44994229669806,28.412468865360978,69.56388206742321,4.982659677984714,9.81432109070477,19.891909964409944,89.66510915820403,0.5397766699754437,-0.18811386846931774,0.2681251856865065,0.35985387786349526,-1.204967826948737,-3.6133544364465497,0.5301518406361713,-18.44924072274628,28.406838612181687,69.56314485059063,2.0566067261768324,3.151267873219528
GUIDED_NOGPS,4.227230548858643,27.520596301982863,-18.4501572865295,28.41291696517863,69.5638907297568,5.040144321411286,9.847397186133467,19.911164689384545,90.02913177708221,0.765292280813781,-0.34003776617791137,0.3653003147206878,0.3602893749270423,-1.205884446980766,-4.392472500985354,0.5306978615709881,-18.44924072274628,28.406838612181687,69.56314485059063,2.0566067261768324,2.4064227395494577
GUIDED_NOGPS,4.2562575340271,34.461740709397006,-18.450402764772083,28.41346798920088,69.56390912225082,5.115589636185059,9.876497742458984,19.92810511724927,90.39410928081165,0.8764906953484977,-0.24005489578632597,0.453676265793615,0.35974238009671783,-1.2082726946870892,-4.974045599789019,0.5312453002378412,-18.44924072274628,28.406838612181687,69.56314485059063,2.0566067261768324,2.864788975654116
GUIDED_NOGPS,4.285943984985352,33.69568430862174,-18.45053999297555,28.4136597520955,69.56389734458595,5.165915934009775,9.901817981109478,19.942844893065864,90.75997693962884,0.9720348499140739,-0.4562920681631712,0.514424661962796,0.3597306722159974,-1.2094904182003319,-4.563512850807733,0.5317941193925644,-18.44924072274628,28.406838612181687,69.56314485059063,2.0566067261768324,2.864788975654116
GUIDED_NOGPS,4.316612482070923,32.6113128328733,-18.450666359280522,28.41379904107537,69.56388274316662,5.208566368468179,9.923565956274789,19.955505132285023,91.12666978283511,1.0418723602386906,-0.4715105834076059,0.5930598828252123,0.3598039488292518,-1.210668755222395,-4.459211274689174,0.5323441805595027,-18.44924072274628,28.406838612181687,69.56314485059063,2.0566067261768324,2.177239621497128
GUIDED_NOGPS,4.357763051986694,24.30621055742607,-18.45078628221365,28.413913886206664,69.56386611693075,5.254179147672162,9.941962763568828,19.966214542215848,91.49412261664361,1.0418723602386906,-0.4715105834076059,0.5930598828252123,0.36027238856123844,-1.2115321835559563,-4.3743186302923425,0.5328953847495693,-18.44924072274628,28.406838612181687,69.56314485059063,2.0566067261768324,2.177239621497128
GUIDED_NOGPS,4.378320932388306,48.658948003433956,-18.450899757570554,28.4140183589683,69.56386155288793,5.300121170577997,9.957242748692895,19.975109543495986,91.86227004202647,1.1050648435528254,-0.6865258989749593,0.6225414872430732,0.35950852812629785,-1.2139133432963203,-4.974803592566951,0.5334476127337078,-18.44924072274628,28.406838612181687,69.56314485059063,2.0566067261768324,2.0626480624709638
GUIDED_NOGPS,4.4363789558410645,17.226836430845054,-18.45088711949269,28.413738612467856,69.56381457153061,5.307928859205111,9.969653716098069,19.982334391561007,92.23104647256174,1.0236621154160845,-0.7908519159050266,0.7070877565844595,0.36074574709427637,-1.213929630535189,-3.965500212451447,0.5340008478515467,-18.44924072274628,28.406838612181687,69.56314485059063,2.0566067261768324,1.432394487827058
GUIDED_NOGPS,4.463426351547241,36.98452476478524,-18.451025036775757,28.41392764395231,69.56380205350584,5.355501674622992,9.979457137648215,19.988041298114293,92.60038615228055,0.9566253028162904,-0.7000286493555457,0.7577207493145575,0.3604821613878199,-1.2157124370092232,-4.8267522014199375,0.5345548761481621,-18.44924072274628,28.406838612181687,69.56314485059063,2.0566067261768324,1.8334649444186344
GUIDED_NOGPS,4.492645978927612,34.23195076963257,-18.4510044664651,28.41366503564687,69.56376065893089,5.368867759224785,9.98692836128274,19.99239055259677,92.97022317351406,0.917768783514911,-0.7908212867754673,0.8037412299207811,0.360706670165311,-1.2163884607885294,-4.19925158100862,0.5351096937718748,-18.44924072274628,28.406838612181687,69.56314485059063,2.0566067261768324,1.432394487827058
GUIDED_NOGPS,4.52593731880188,30.060877106223167,-18.09352113718725,24.904746376750225,73.10996828682475,5.409228384237079,9.992356819679149,19.99555064365661,93.34049149474055,0.8626502774908188,-0.7227889741041437,0.8538347444281538,-0.15246377420044557,-1.1590515829366583,-4.635338892968127,0.5303457848118737,-14.965209845203539,-3.1784997297029163,99.12722390122451,7.6992595850967245,1.7188733853924698
