Mode,Time,Freq,time2delay,actualDelay,North-Desired,East-Desired,Down-Desired,Roll-UAV,Pitch-UAV,Yaw-UAV,Roll-Control,Pitch-Control,Yaw-Control,Thrust-Control,North-Pos,East-Pos,Down-Pos,Yaw-Ang,North-Vel,East-Vel,Down-Vel,Yaw-Vel,North-Acc,East-Acc,Down-Acc,North-Avg,East-Avg,Down-Avg,Yaw-Avg,North-Dif,East-Dif,Down-Dif,Yaw-Dif,North-One,East-One,Down-One,Yaw-One,North-Two,East-Two,Down-Two,Yaw-Two,Landing-State,Q-Size,Kalman-Time,Kalman-Dt
STABILIZE,0.03555774688720703,28.13156623920159,0.03278520901997884,0.034210205078125,0.0,0.0,0.0,0.3349207805508082,-1.6396945924626944,20.29348752417941,-0.043823040028336584,0.041760696551197206,0.014439649264902195,0.4,0.0682333563077964,0.07142323809143554,0.09282460951195763,0.07195134449977049,-0.18961499445140362,0.0727619742974639,1.5043939463794231,0.21738587145702387,0.38525182753801346,-0.3345717443153262,20.927031338214874,0.0,0.0,0.0,0.0,0.0,0.0,0.0,0.0,0.0,0.0,0.0,0.0,0.0,0.0,0.0,0.0,False,0,0.1158297061920166,0.034924072265625
STABILIZE,0.06914472579956055,29.77386563689023,0.03238395055135091,0.03254270553588867,0.0,0.0,0.0,0.3353634621863897,-1.6399978955505252,20.296304977212042,-0.029353887299196545,0.028186089180539133,0.01804726653822109,0.4,0.08741570525732201,0.0907652524605145,0.12526944479904506,0.08968892631295905,0.38118031807243824,0.2010483294725418,1.8242763355374336,-0.2224552058424956,9.04824361205101,0.10903623187914491,25.58317482471466,0.0,0.0,0.0,0.0,0.0,0.0,0.0,0.0,0.0,0.0,0.0,0.0,0.0,0.0,0.0,0.0,False,0,0.14463210105895996,0.02993505859375
STABILIZE,0.10246610641479492,30.010117126850453,0.03233078320821126,0.032465219497680664,0.0,0.0,0.0,0.33466358123987494,-1.6396773035463577,20.299006317028784,-0.026467825222403697,0.02518327449293849,0.023052340263941946,0.4,0.11156193360560644,0.11678328565723148,0.1864615586830288,0.11433215229215506,-0.12819546973332763,0.007047028339002281,2.184571698307991,0.048323841841891445,6.350912898778915,-0.1257582800462842,29.203152656555176,0.0,0.0,0.0,0.0,0.0,0.0,0.0,0.0,0.0,0.0,0.0,0.0,0.0,0.0,0.0,0.0,False,0,0.20179295539855957,0.034924072265625
STABILIZE,0.1359860897064209,29.832738239185172,0.03247216542561849,0.032604217529296875,0.0,0.0,0.0,0.3349788371587533,-1.6403492234059578,20.302069656871534,-0.0153715982379816,0.0145250691952868,0.025107486236713734,0.4,0.12280860668006205,0.12898937728862486,0.22008606705795888,0.12419239484187067,0.041692028753459454,0.09762130212038755,1.9533533602952957,-0.1956232612553501,0.2961376681923866,0.01618196693016216,25.436881184577942,0.0,0.0,0.0,0.0,0.0,0.0,0.0,0.0,0.0,0.0,0.0,0.0,0.0,0.0,0.0,0.0,False,0,0.2307276725769043,0.029934814453125
STABILIZE,0.16939711570739746,29.930666362196185,0.03240016301472982,0.03252601623535156,0.0,0.0,0.0,0.33493935012761417,-1.6405633071477554,20.3040367513525,-0.013041112533282636,0.012083007516857047,0.026756738428908376,0.4,0.1287883936417663,0.13562435517192198,0.24576903595334668,0.13199722725889657,-0.028535505407489836,0.009374608634971082,1.6913827508687973,0.21649674624573217,-1.587066799402237,-0.12803820427507162,24.926437437534332,0.0,0.0,0.0,0.0,0.0,0.0,0.0,0.0,0.0,0.0,0.0,0.0,0.0,0.0,0.0,0.0,False,0,0.25917768478393555,0.034924072265625
STABILIZE,0.2049250602722168,28.14629105208767,0.032429011662801106,0.0346064567565918,0.0,0.0,0.0,0.33416583120411025,-1.6412971255967086,20.306427317562,-0.009645855792652685,0.008898713547407032,0.028802840842570697,0.4,0.13626027338865915,0.14389777256044792,0.27723156309327596,0.1417240303767762,-0.028535505407489836,0.009374608634971082,1.6913827508687973,0.21649674624573217,-1.587066799402237,-0.12803820427507162,24.926437437534332,0.0,0.0,0.0,0.0,0.0,0.0,0.0,0.0,0.0,0.0,0.0,0.0,0.0,0.0,0.0,0.0,False,0,0.2879598140716553,0.034924072265625
STABILIZE,0.23845124244689941,29.829767865270824,0.032393487294514973,0.03251361846923828,0.0,0.0,0.0,0.3350230199449468,-1.6405686432330444,20.310562997104444,-0.008759391148459347,0.008104774191039863,0.030717007395391068,0.4,0.14255971172829035,0.1506333795399689,0.3098862430902392,0.15079123749750936,0.01672449870966375,0.018118659500032663,1.880093291401863,0.27839664293986854,1.0026179254055023,-0.3385115647688508,18.954117596149445,0.0,0.0,0.0,0.0,0.0,0.0,0.0,0.0,0.0,0.0,0.0,0.0,0.0,0.0,0.0,0.0,False,0,0.3165900707244873,0.034924072265625
STABILIZE,0.27180910110473633,29.976872167984105,0.032294305165608723,0.032446861267089844,0.0,0.0,0.0,0.3352678395380095,-1.6407983083438862,20.312557412342088,-0.008830183574832255,0.00784980819975548,0.03221521738241016,0.4,0.14665350702630764,0.1567114630590147,0.34082331248187064,0.15775436389570505,-0.0694009242579341,0.09662764496169984,1.736428588628769,0.16891963617919353,-6.0221116989851,1.7321046441793442,21.2350994348526,0.0,0.0,0.0,0.0,0.0,0.0,0.0,0.0,0.0,0.0,0.0,0.0,0.0,0.0,0.0,0.0,False,1,0.3455202579498291,0.02993505859375
STABILIZE,0.30522584915161133,29.92361968223619,0.03240660031636556,0.03252387046813965,0.0,0.0,0.0,0.33454255882551875,-1.6411154852534686,20.316254252230358,-0.008535415480591252,0.006758421126874428,0.033088388451215894,0.4,0.1480045429298903,0.16220299715387648,0.3978075129098888,0.1615799518393306,0.035614133230410516,0.0402691395720467,1.7763178795576096,-0.01614670060004237,5.685326457023621,-0.3480128012597561,23.433232307434082,0.0,0.0,0.0,0.0,0.0,0.0,0.0,0.0,0.0,0.0,0.0,0.0,0.0,0.0,0.0,0.0,False,0,0.4026057720184326,0.03492529296875
STABILIZE,0.3388235569000244,29.76647008310446,0.03244593938191732,0.03260397911071777,0.0,0.0,0.0,0.3342290104539329,-1.640771948082558,20.31875239391929,-0.007856271632615165,0.006099212024585215,0.03313219407170314,0.4,0.15060664903187282,0.16511487000010705,0.4252310669621536,0.161259131651025,0.0878211809322238,0.07873974391259253,1.5622496604919434,-0.2010136678926653,5.816400051116943,-0.26452261954545975,24.72335696220398,0.0,0.0,0.0,0.0,0.0,0.0,0.0,0.0,0.0,0.0,0.0,0.0,0.0,0.0,0.0,0.0,False,0,0.43129777908325195,0.02993408203125
STABILIZE,0.3723437786102295,29.831465149359886,0.03231933911641439,0.03267526626586914,0.0,0.0,0.0,0.33554531597304127,-1.6413825029613338,20.32169962054615,-0.006475042902973178,0.004753867300481413,0.032994774800064595,0.4,0.14826607875686137,0.16438485749399934,0.44789744804046117,0.16003340585939674,-0.11536534875631332,0.012066007184330374,1.782132126390934,-0.02298071841125003,-1.7855159938335419,-0.34744907170534134,21.744030714035034,0.0,0.0,0.0,0.0,0.0,0.0,0.0,0.0,0.0,0.0,0.0,0.0,0.0,0.0,0.0,0.0,False,0,0.45996832847595215,0.039913818359375
STABILIZE,0.40595269203186035,29.754855918616364,0.032482417424519856,0.0326235294342041,0.0,0.0,0.0,0.3355416874350447,-1.6412750342036118,20.324547809430044,-0.005942938624715011,0.004554172893382003,0.03346188067795352,0.4,0.14856451862354947,0.16684307051581995,0.48302612787231936,0.16182713144569488,-0.11536534875631332,0.012066007184330374,1.782132126390934,-0.02298071841125003,-1.7855159938335419,-0.34744907170534134,21.744030714035034,0.0,0.0,0.0,0.0,0.0,0.0,0.0,0.0,0.0,0.0,0.0,0.0,0.0,0.0,0.0,0.0,False,0,0.4886291027069092,0.039913818359375
STABILIZE,0.4398186206817627,29.52799464958288,0.032318862279256184,0.03244447708129883,0.0,0.0,0.0,0.33484927700793465,-1.6412298909220662,20.327066441686487,-0.005715751085647187,0.003448322022997644,0.0343572061450669,0.4,0.1460016172034521,0.1683931363028088,0.5192503221609461,0.1657495772599266,-0.23775757290422916,0.030630544642917812,1.9543366506695747,0.21993199789291804,0.09218454360961914,-0.17148404149338603,28.4521222114563,0.0,0.0,0.0,0.0,0.0,0.0,0.0,0.0,0.0,0.0,0.0,0.0,0.0,0.0,0.0,0.0,False,0,0.5172626972198486,0.02993505859375
STABILIZE,0.4727475643157959,30.36798053809841,0.0319090207417806,0.0320436954498291,0.0,0.0,0.0,0.33615106837505676,-1.6429104376230068,20.330548130615902,-0.0051360324558810825,0.0030393480701312063,0.03400791724515168,0.4,0.14218710594494618,0.16523928843692098,0.5350837855967455,0.16345621765525747,-0.06708038272336125,-0.013405051140580326,1.5004762448370457,0.0451952016554157,-1.1272765696048737,-0.45281401835381985,19.64842677116394,0.0,0.0,0.0,0.0,0.0,0.0,0.0,0.0,0.0,0.0,0.0,0.0,0.0,0.0,0.0,0.0,False,0,0.5551607608795166,0.02993505859375
STABILIZE,0.5061945915222168,29.896105377202485,0.03243735631306966,0.03256726264953613,0.0,0.0,0.0,0.33639887617588127,-1.6435591988724523,20.33272354586655,-0.004624612864146514,0.0019205387547264327,0.033106398964513624,0.4,0.13755946548419645,0.16515830022229666,0.554330933293054,0.15841878140788182,-0.1125192386098206,0.22361143492162228,1.7894688993692398,-0.13747915485171414,-1.1544043198227882,1.7253536731004715,19.856753945350647,0.0,0.0,0.0,0.0,0.0,0.0,0.0,0.0,0.0,0.0,0.0,0.0,0.0,0.0,0.0,0.0,False,0,0.5843071937561035,0.039912841796875
STABILIZE,0.5415079593658447,28.32171241432864,0.032440932591756184,0.03432893753051758,0.0,0.0,0.0,0.3370466769299747,-1.6437271788373522,20.337378319785916,-0.003021941014990399,0.0002599270046659821,0.0321971321825179,0.4,0.12764208514020134,0.15928451225051726,0.606042104997443,0.15333286387746345,-0.17361630452796817,-0.04596836224664003,1.8831264227628708,-0.013729060427802475,4.644377157092094,-0.46890475787222385,25.49234926700592,0.0,0.0,0.0,0.0,0.0,0.0,0.0,0.0,0.0,0.0,0.0,0.0,0.0,0.0,0.0,0.0,False,0,0.6417443752288818,0.029934814453125
STABILIZE,0.5748395919799805,29.9989557629725,0.03218677838643392,0.032312870025634766,0.0,0.0,0.0,0.3369856321142677,-1.6433398857670714,20.339258329354962,-0.0027171983796222864,-0.00021768959482810436,0.03148511994840245,0.4,0.12223817381615618,0.1552190004728998,0.6227153233616618,0.14927326110296493,-0.11751193087548018,-0.004583590998663567,1.7769748345017433,-0.008830180616783555,-2.294852025806904,-0.49511194229125977,22.665350139141083,0.0,0.0,0.0,0.0,0.0,0.0,0.0,0.0,0.0,0.0,0.0,0.0,0.0,0.0,0.0,0.0,False,0,0.6704747676849365,0.034924072265625
STABILIZE,0.6084737777709961,29.730601019301517,0.03245118459065755,0.032646894454956055,0.0,0.0,0.0,0.3363139256980793,-1.64304949600564,20.340783169087167,-0.0022374973412008776,3.642781066663424e-05,0.03144704770246079,0.4,0.11931406116687306,0.15305070866905976,0.6434304886765466,0.14858508734431328,0.0089465786004439,0.05958492401987314,1.653323881328106,0.15677429251465472,0.4322428721934557,-0.22872448898851871,30.29504120349884,0.0,0.0,0.0,0.0,0.0,0.0,0.0,0.0,0.0,0.0,0.0,0.0,0.0,0.0,0.0,0.0,False,0,0.6991190910339355,0.034924072265625
STABILIZE,0.6466412544250488,26.201626706980345,0.032340319951375325,0.03724074363708496,0.0,0.0,0.0,0.3364949257110846,-1.6432073374084908,20.343008103209296,-0.0028572116380047824,0.0012854767956697974,0.03138772714782368,0.4,0.11624023857306266,0.1506224080691973,0.6630151479203874,0.14772369547129666,0.0089465786004439,0.05958492401987314,1.653323881328106,0.15677429251465472,0.4322428721934557,-0.22872448898851871,30.29504120349884,0.0,0.0,0.0,0.0,0.0,0.0,0.0,0.0,0.0,0.0,0.0,0.0,0.0,0.0,0.0,0.0,False,0,0.7277891635894775,0.034924072265625
STABILIZE,0.6801037788391113,29.882686539516527,0.032362969716389973,0.03252768516540527,0.0,0.0,0.0,0.33640485259140507,-1.6422345690602929,20.344942754291704,-0.0030882418504766277,0.0012374225595526947,0.030909538420743638,0.4,0.1113338140684521,0.1480966717518076,0.6798578662094493,0.14484778521265188,-0.10078172199428082,0.06747955922037363,1.5485798940062523,0.03747741472852525,2.3515962064266205,-0.3339300863444805,24.127505719661713,0.0,0.0,0.0,0.0,0.0,0.0,0.0,0.0,0.0,0.0,0.0,0.0,0.0,0.0,0.0,0.0,False,0,0.75653076171875,0.02993505859375
STABILIZE,0.713627815246582,29.8321016806902,0.032407553990681966,0.0325319766998291,0.0,0.0,0.0,0.33571329593794125,-1.640987846093354,20.35041885845876,-0.0021165231010378915,7.883818224739967e-05,0.030609797896300753,0.4,0.10373424185817678,0.14199142151575095,0.7132230289160217,0.14287129212362787,0.10767081985250115,0.04161031101830304,1.6327368095517159,0.29001215335584213,3.141111135482788,1.4915706589818,22.34150320291519,0.0,0.0,0.0,0.0,0.0,0.0,0.0,0.0,0.0,0.0,0.0,0.0,0.0,0.0,0.0,0.0,False,0,0.8143198490142822,0.02494482421875
STABILIZE,0.7493882179260254,27.96146743731792,0.03232291539510091,0.03481793403625488,0.0,0.0,0.0,0.33646653773734675,-1.6400271372979094,20.35214348122419,-0.0015191543712377246,7.487601632221568e-05,0.03056205252185059,0.4,0.10122890535931116,0.13726822915172468,0.7161392252003002,0.1421234923516316,0.10767081985250115,0.04161031101830304,1.6327368095517159,0.29001215335584213,3.141111135482788,1.4915706589818,22.34150320291519,0.0,0.0,0.0,0.0,0.0,0.0,0.0,0.0,0.0,0.0,0.0,0.0,0.0,0.0,0.0,0.0,False,0,0.8430032730102539,0.02494482421875
STABILIZE,0.7878730297088623,25.985242641455663,0.03238514264424642,0.037560462951660156,0.0,0.0,0.0,0.3366005801998082,-1.6399276726681211,20.355884717342065,-0.0009659442553420258,0.00028576631366570557,0.029840193284029846,0.4,0.09745180134421204,0.13206827535932844,0.7231027696994776,0.13798308204448612,0.015310256276279688,-0.004925615212414414,1.881510205566883,0.06366389976899796,7.833392173051834,-0.47800950706005096,25.061914324760437,0.0,0.0,0.0,0.0,0.0,0.0,0.0,0.0,0.0,0.0,0.0,0.0,0.0,0.0,0.0,0.0,False,0,0.871762752532959,0.034924072265625
STABILIZE,0.8213584423065186,29.864813483050064,0.03238967259724935,0.032521963119506836,0.0,0.0,0.0,0.33603965091422094,-1.640069825980222,20.358818283590583,-0.001593202462426097,0.0003163579023982461,0.028961434111651894,0.4,0.09098466877364253,0.12949594812710757,0.7373965331836969,0.1331439465646882,-0.20358306355774403,0.0795283995103091,1.5784047544002533,-0.07974672742813013,-3.8707751780748367,-0.4849153570830822,24.028269946575165,0.0,0.0,0.0,0.0,0.0,0.0,0.0,0.0,0.0,0.0,0.0,0.0,0.0,0.0,0.0,0.0,False,0,0.9003078937530518,0.034924072265625
STABILIZE,0.8557019233703613,29.11619253890902,0.03235605557759603,0.03334212303161621,0.0,0.0,0.0,0.33610048228651634,-1.6398992846943832,20.362747349910634,-0.0018776227728882551,-0.0006963137506387061,0.02804242798263558,0.4,0.08439563766105379,0.12685594772340175,0.7506465025608104,0.1281095448576195,-0.20358306355774403,0.0795283995103091,1.5784047544002533,-0.07974672742813013,-3.8707751780748367,-0.4849153570830822,24.028269946575165,0.0,0.0,0.0,0.0,0.0,0.0,0.0,0.0,0.0,0.0,0.0,0.0,0.0,0.0,0.0,0.0,False,1,0.9290671348571777,0.034924072265625
STABILIZE,0.8890621662139893,29.97622944375755,0.03231695493062337,0.032448530197143555,0.0,0.0,0.0,0.33577007188541697,-1.6395677003545202,20.364234623602403,-0.0011582221341651599,-0.0022739151773116233,0.02630849345656824,0.4,0.074653144096838,0.1198034876847044,0.7740242930819259,0.1190415971084779,0.0006529706297442317,0.06520895403809845,1.6630975529551506,0.09221024851824312,2.7105316519737244,-0.555717758834362,22.929908335208893,0.0,0.0,0.0,0.0,0.0,0.0,0.0,0.0,0.0,0.0,0.0,0.0,0.0,0.0,0.0,0.0,False,0,0.9864599704742432,0.034925048828125
STABILIZE,0.9224984645843506,29.90655058575228,0.03240969975789388,0.032546043395996094,0.0,0.0,0.0,0.3355820282398301,-1.6392363294580687,20.366095850151233,-0.0007472915236982712,-0.0013987158060685644,0.02535570028004767,0.4,0.0728444692816603,0.115766840501382,0.7864101796144628,0.11389662926546114,0.0917110766749829,-0.0041957409848691896,1.6644597053527832,-0.07403507511619953,-2.5979695841670036,-0.5674520973116159,23.175548017024994,0.0,0.0,0.0,0.0,0.0,0.0,0.0,0.0,0.0,0.0,0.0,0.0,0.0,0.0,0.0,0.0,False,0,1.0153071880340576,0.034924072265625
STABILIZE,0.9560384750366211,29.81556068953261,0.03243282636006673,0.03256082534790039,0.0,0.0,0.0,0.33625202710872604,-1.638702080598927,20.36990026551893,-0.0002545599696955771,-0.0015882640467898422,0.02501070831976221,0.4,0.0664253397710005,0.11137968387545315,0.7957517837565438,0.1117975347050526,-0.19710646010935307,-0.02321944193681702,1.5323407016694546,0.11653404625653947,-1.754387840628624,-0.6852445658296347,18.266765773296356,0.0,0.0,0.0,0.0,0.0,0.0,0.0,0.0,0.0,0.0,0.0,0.0,0.0,0.0,0.0,0.0,False,0,1.043877124786377,0.034923828125
STABILIZE,0.9894275665283203,29.9492598913222,0.03233984311421712,0.0325160026550293,0.0,0.0,0.0,0.3367220295009875,-1.6380087096764648,20.371143359947872,-0.0006475240877321218,-0.0006554749540644467,0.02401568718938793,0.4,0.062026872887228315,0.10695332842580563,0.8082585892665554,0.1064659892922959,-0.07420900510624051,-0.024060554278548807,1.778898574411869,-0.08167701626081242,-4.008354619145393,-0.661061704158783,20.335695147514343,0.0,0.0,0.0,0.0,0.0,0.0,0.0,0.0,0.0,0.0,0.0,0.0,0.0,0.0,0.0,0.0,False,0,1.0728294849395752,0.029935302734375
STABILIZE,1.0229260921478271,29.852272565515083,0.032453330357869466,0.032614946365356445,0.0,0.0,0.0,0.33750301894389617,-1.6375913210851536,20.375004124376222,-0.0006503000442281251,-0.001886926925822364,0.02352990169470879,0.4,0.0550794874806146,0.10346420027703951,0.8139268589905785,0.10368993830788086,-0.23982077836990356,0.04678248951677233,1.745448261499405,0.08889149695313095,-2.7578702196478844,-0.3923205193132162,27.86204218864441,0.0,0.0,0.0,0.0,0.0,0.0,0.0,0.0,0.0,0.0,0.0,0.0,0.0,0.0,0.0,0.0,False,0,1.101851463317871,0.034924072265625
STABILIZE,1.056389331817627,29.883112349223765,0.03237965901692708,0.032499074935913086,0.0,0.0,0.0,0.33726545642682665,-1.6382505410617656,20.377208567930843,-0.0007993395221013665,-0.002210263116585574,0.02311120434866181,0.4,0.0480938849904682,0.10030497371072426,0.8248802612930685,0.10125775517504179,-0.23982077836990356,0.04678248951677233,1.745448261499405,0.08889149695313095,-2.7578702196478844,-0.3923205193132162,27.86204218864441,0.0,0.0,0.0,0.0,0.0,0.0,0.0,0.0,0.0,0.0,0.0,0.0,0.0,0.0,0.0,0.0,False,0,1.1302785873413086,0.034924072265625
STABILIZE,1.0898182392120361,29.914442621781614,0.032411845525105794,0.03255128860473633,0.0,0.0,0.0,0.33721999298016375,-1.6385304720960303,20.378909285034176,-0.0010519806275504598,-0.0028682870391689734,0.02170148499016436,0.4,0.041406535769022014,0.09756658940112388,0.8435887561006171,0.09389511385568831,0.09570553665980697,0.23435500916093588,1.6893833875656128,0.09761965161918744,-2.2284619510173798,1.378017384558916,16.475163400173187,0.0,0.0,0.0,0.0,0.0,0.0,0.0,0.0,0.0,0.0,0.0,0.0,0.0,0.0,0.0,0.0,False,0,1.1876029968261719,0.034924072265625
STABILIZE,1.123337984085083,29.834223647990214,0.032442839940389,0.03258490562438965,0.0,0.0,0.0,0.33792883854996414,-1.638982865406838,20.381513294655246,-0.0013643237734466131,-0.001953806919770872,0.02276504471126743,0.4,0.03936332444309762,0.09589235009580689,0.8532417467484122,0.09888206112819088,0.03782284911721945,0.12444937601685524,1.7954939976334572,0.5217836571849558,3.4796535968780518,1.2557797133922577,14.97264951467514,0.0,0.0,0.0,0.0,0.0,0.0,0.0,0.0,0.0,0.0,0.0,0.0,0.0,0.0,0.0,0.0,False,0,1.2163314819335938,0.02993505859375
STABILIZE,1.1600708961486816,27.223012617477544,0.03237870534261068,0.03574514389038086,0.0,0.0,0.0,0.3383606345715559,-1.6384654785772095,20.38460737034926,-0.001050500096542496,-0.001708508644565438,0.023178455253064684,0.4,0.033943174590620774,0.09143411065527128,0.8530809501484735,0.10058010226109347,-0.18515614792704582,-0.03338470123708248,1.564200408756733,0.3354936893478695,2.2734126076102257,-0.7660924922674894,17.39927977323532,0.0,0.0,0.0,0.0,0.0,0.0,0.0,0.0,0.0,0.0,0.0,0.0,0.0,0.0,0.0,0.0,False,0,1.2453563213348389,0.034924072265625
STABILIZE,1.1934082508087158,29.99616671911205,0.03233316739400228,0.03246498107910156,0.0,0.0,0.0,0.3390415190544415,-1.6374630415948042,20.38670765351904,-0.0009230610594751008,-0.0011240747340653787,0.022065421308845867,0.4,0.03067807067712176,0.08849354197849679,0.8572123289472825,0.0946982357333758,-0.0490127713419497,0.040857307612895966,1.512202899903059,-0.14179751527402826,-1.5875907614827156,-0.7380270399153233,15.596075356006622,0.0,0.0,0.0,0.0,0.0,0.0,0.0,0.0,0.0,0.0,0.0,0.0,0.0,0.0,0.0,0.0,False,0,1.2737579345703125,0.029934814453125
STABILIZE,1.2270009517669678,29.773020244754253,0.032449992497762044,0.03258824348449707,0.0,0.0,0.0,0.3391407702408183,-1.6365013723040076,20.387850002657725,-0.0006287938337321034,-0.0009738885026430933,0.021487163712303883,0.4,0.029555048466657206,0.08575335748450459,0.8535173244886398,0.09150078049293967,0.05666412762366235,0.058242439990863204,1.3867822475731373,0.03373601185798548,4.849610477685928,-0.6633779965341091,19.13742423057556,0.0,0.0,0.0,0.0,0.0,0.0,0.0,0.0,0.0,0.0,0.0,0.0,0.0,0.0,0.0,0.0,False,0,1.3024988174438477,0.034925048828125
STABILIZE,1.260704517364502,29.664575538754235,0.032306702931722005,0.03289651870727539,0.0,0.0,0.0,0.3395742738097025,-1.6367710580545174,20.39358394646595,-9.842696261140275e-05,-0.001302760191000013,0.020429375828026206,0.4,0.023756733846372887,0.07984279159787254,0.8718926427499755,0.08592067222475311,0.0012882068403996527,0.12642304645851254,1.8804926425218582,0.10268977974734592,0.7924306206405163,1.4612616039812565,23.890773952007294,0.0,0.0,0.0,0.0,0.0,0.0,0.0,0.0,0.0,0.0,0.0,0.0,0.0,0.0,0.0,0.0,False,0,1.3597662448883057,0.034925048828125
STABILIZE,1.2943122386932373,29.758233649766577,0.032535823186238606,0.03266596794128418,0.0,0.0,0.0,0.33833864990016493,-1.6363572980012027,20.394579446537477,-0.0004055055043094856,-0.001091470963901276,0.02015564089742407,0.4,0.021840149913352477,0.07862313479571993,0.8804764503436407,0.08426987067987339,0.0012882068403996527,0.12642304645851254,1.8804926425218582,0.10268977974734592,0.7924306206405163,1.4612616039812565,23.890773952007294,0.0,0.0,0.0,0.0,0.0,0.0,0.0,0.0,0.0,0.0,0.0,0.0,0.0,0.0,0.0,0.0,False,0,1.3883671760559082,0.034925048828125
STABILIZE,1.3277876377105713,29.87140700225052,0.03235462506612142,0.032475948333740234,0.0,0.0,0.0,0.3375034458307193,-1.6360706434994736,20.394835578631355,-0.0005504333718448141,-0.0013459174359964703,0.01906940864805032,0.4,0.019754309494635684,0.07687437986989165,0.8870088413723094,0.07857571530531574,-0.0159832023200579,0.09008409106172621,1.7864560708403587,-0.13962718264461704,3.1640369445085526,-0.5826366133987904,23.892810940742493,0.0,0.0,0.0,0.0,0.0,0.0,0.0,0.0,0.0,0.0,0.0,0.0,0.0,0.0,0.0,0.0,False,0,1.4172048568725586,0.029934814453125
STABILIZE,1.3611836433410645,29.944128334915863,0.032311232884724934,0.03244471549987793,0.0,0.0,0.0,0.33873202610767533,-1.6387587498246967,20.40166576780137,-0.0007713226241153129,-0.00021542428008055185,0.018134060512035158,0.4,0.019710963588533446,0.0727643297470123,0.8876997919490756,0.0736529050049777,0.08582447771914303,-0.04822756163775921,1.765941083431244,-0.0908418161159671,4.518767073750496,-0.7558323908597231,20.61077058315277,0.0,0.0,0.0,0.0,0.0,0.0,0.0,0.0,0.0,0.0,0.0,0.0,0.0,0.0,0.0,0.0,False,0,1.4458775520324707,0.034924072265625
STABILIZE,1.39469575881958,29.841440595362602,0.032387526830037434,0.032541751861572266,0.0,0.0,0.0,0.33788337510330124,-1.638970058802144,20.402823484865685,-0.0004021595094949844,-0.0008771343905335696,0.017631132491334127,0.4,0.01515329448919297,0.07009560180715152,0.887275496101354,0.07090077971817145,-0.17631114460527897,0.02663145714905113,1.398416981101036,0.028063453040903942,-2.3793233558535576,1.2037331238389015,18.34128648042679,0.0,0.0,0.0,0.0,0.0,0.0,0.0,0.0,0.0,0.0,0.0,0.0,0.0,0.0,0.0,0.0,False,0,1.4747955799102783,0.034924072265625
STABILIZE,1.4281351566314697,29.90228635388224,0.032343180974324544,0.0324704647064209,0.0,0.0,0.0,0.3373907477094141,-1.6385365552332598,20.40282177731839,-0.00013107674219650493,-0.0006995094015593311,0.01653616229637079,0.4,0.014115094363952599,0.06739450189857317,0.8926212748551856,0.06520793950752332,0.02825231640599668,0.02082391583826393,1.7711902037262917,-0.15027135211520753,1.61843691021204,-2.829844318330288,15.111522376537323,0.0,0.0,0.0,0.0,0.0,0.0,0.0,0.0,0.0,0.0,0.0,0.0,0.0,0.0,0.0,0.0,False,0,1.5033373832702637,0.034924072265625
STABILIZE,1.4614875316619873,29.98265792652851,0.032357247670491536,0.032483816146850586,0.0,0.0,0.0,0.3381102654497926,-1.6383092379999453,20.409440230624135,-0.00015942111432468468,-0.0017175617543374211,0.015541295827323727,0.4,0.009639711858726936,0.06394738772143355,0.8938424491729016,0.060032902259822996,0.022698788961861283,0.042796312482096255,1.6618521884083748,0.01704333635137844,1.2423117645084858,1.1736834421753883,19.683775305747986,0.0,0.0,0.0,0.0,0.0,0.0,0.0,0.0,0.0,0.0,0.0,0.0,0.0,0.0,0.0,0.0,False,0,1.5606224536895752,0.029934814453125
STABILIZE,1.4950339794158936,29.810262970859984,0.03245142300923665,0.03259134292602539,0.0,0.0,0.0,0.3376336463117727,-1.6375612255641232,20.41217230629214,-0.00020363013680184874,-0.00095626860953395,0.015065062904721484,0.4,0.009003592406108209,0.06181905642884395,0.8919128721680482,0.05745942827623299,0.022698788961861283,0.042796312482096255,1.6618521884083748,0.01704333635137844,1.2423117645084858,1.1736834421753883,19.683775305747986,0.0,0.0,0.0,0.0,0.0,0.0,0.0,0.0,0.0,0.0,0.0,0.0,0.0,0.0,0.0,0.0,False,0,1.5893967151641846,0.029934814453125
STABILIZE,1.5284039974212646,29.96659188660103,0.032364638646443684,0.03249216079711914,0.0,0.0,0.0,0.3379866817144977,-1.63859119674662,20.414865108372418,-3.766120935751972e-05,-0.0009184590798050786,0.014039756860022037,0.4,0.008264951598648618,0.05874611961496989,0.8830903707469433,0.05215846215577846,0.012529942614492029,-0.020399331697262824,1.2340785004198551,-0.15537594468422683,0.35466328263282776,-0.8859157562255859,15.880030393600464,0.0,0.0,0.0,0.0,0.0,0.0,0.0,0.0,0.0,0.0,0.0,0.0,0.0,0.0,0.0,0.0,False,0,1.61794114112854,0.034924072265625
STABILIZE,1.5618932247161865,29.85949824871145,0.03244474728902181,0.0325779914855957,0.0,0.0,0.0,0.338257541403771,-1.6390222457162713,20.416733165110415,-0.00020018382009661355,-0.001566071692179838,0.013646570500037916,0.4,0.0015452529733096564,0.056458103377097044,0.8825710394270823,0.05002507776080184,-0.34113344736397266,0.01999391824938357,1.4492746442556381,0.034483277241867186,-8.107906579971313,0.9983857162296772,13.746681809425354,0.0,0.0,0.0,0.0,0.0,0.0,0.0,0.0,0.0,0.0,0.0,0.0,0.0,0.0,0.0,0.0,True,0,1.6467187404632568,0.0347724609375
STABILIZE,1.5954389572143555,29.811534251638307,0.03240803082784017,0.03253626823425293,0.0,0.0,0.0,0.3383213609838283,-1.6393709055290593,20.41987505212862,-0.00026497831574773435,-0.0013187310568731122,0.013263893433687494,0.4,0.002071114981722294,0.05489193943400186,0.8778964524336301,0.047951442868054264,0.0934485113248229,0.05949457990936935,1.2311889789998531,0.03170453750800915,1.1236551217734814,1.1549565009772778,19.658376276493073,0.0,0.0,0.0,0.0,0.0,0.0,0.0,0.0,0.0,0.0,0.0,0.0,0.0,0.0,0.0,0.0,True,0,1.676457166671753,0.02993505859375
STABILIZE,1.628786563873291,29.985658828828186,0.03230479558308919,0.03244805335998535,0.0,0.0,0.0,0.3390306334404518,-1.6388256643342218,20.423274778787995,-0.0005316384766234099,-0.0009766500289218269,0.012915079199829236,0.4,0.0029220341029659006,0.05338147958330097,0.8686929366750854,0.0460532570908264,0.0934485113248229,0.05949457990936935,1.2311889789998531,0.03170453750800915,1.1236551217734814,1.1549565009772778,19.658376276493073,0.0,0.0,0.0,0.0,0.0,0.0,0.0,0.0,0.0,0.0,0.0,0.0,0.0,0.0,0.0,0.0,True,0,1.7056193351745605,0.02993505859375
STABILIZE,1.6621854305267334,29.941776959209605,0.03243139584859212,0.03254508972167969,0.0,0.0,0.0,0.34052345666092276,-1.640082098976387,20.424651061905752,0.00014468418721756059,-0.001070479225049778,0.012233761591930382,0.4,-0.0033214312139302577,0.04844831171702459,0.8696458568693853,0.04250460815185608,-0.1278853975236416,0.008624388283351436,1.544061116874218,0.15847725077380928,-7.523016631603241,-0.7584188599139452,21.36498987674713,0.0,0.0,0.0,0.0,0.0,0.0,0.0,0.0,0.0,0.0,0.0,0.0,0.0,0.0,0.0,0.0,True,0,1.7629528045654297,0.06984814453125
STABILIZE,1.695676565170288,29.857797773285117,0.032471450169881184,0.03260612487792969,0.0,0.0,0.0,0.3396056499912023,-1.640279320688671,20.430193760417218,0.0003403386659204678,-0.0022479824626223987,0.012289701012553094,0.4,-0.008004531780193506,0.04623409986357867,0.8993384646289161,0.04264150114590983,-0.1278853975236416,0.008624388283351436,1.544061116874218,0.15847725077380928,-7.523016631603241,-0.7584188599139452,21.36498987674713,0.0,0.0,0.0,0.0,0.0,0.0,0.0,0.0,0.0,0.0,0.0,0.0,0.0,0.0,0.0,0.0,True,0,1.791593313217163,0.06984814453125
STABILIZE,1.729140043258667,29.884176926584587,0.03242925008138021,0.03257036209106445,0.0,0.0,0.0,0.3394357490355982,-1.6403169934508117,20.43238625114079,0.0006946621573302178,-0.004350277369593952,0.012958737224156221,0.4,-0.01643325363013194,0.043384999671562466,0.9281433000398649,0.045833401677447275,-0.3117992775514722,-0.01674149534665048,1.7042795196175575,0.28120382400831734,-5.8423105627298355,-0.6483933422714472,26.743757724761963,0.0,0.0,0.0,0.0,0.0,0.0,0.0,0.0,0.0,0.0,0.0,0.0,0.0,0.0,0.0,0.0,True,0,1.8205091953277588,0.02993505859375
STABILIZE,1.7626032829284668,29.883964005044422,0.03242233594258626,0.03255319595336914,0.0,0.0,0.0,0.3398927313797544,-1.6406437753139145,20.43368057198851,-5.712342921027559e-05,-0.003805736060575997,0.012843925477780363,0.4,-0.019485999732682602,0.04237049719048522,0.9228588251123683,0.04510850925980799,-0.1663573901169002,0.0683895661495626,1.8317226320505142,0.07957266432600058,-0.9765686467289925,1.240423321723938,23.726455867290497,0.0,0.0,0.0,0.0,0.0,0.0,0.0,0.0,0.0,0.0,0.0,0.0,0.0,0.0,0.0,0.0,True,0,1.8492951393127441,0.034924072265625
STABILIZE,1.7960360050201416,29.90974955787552,0.032393725713094075,0.03252267837524414,0.0,0.0,0.0,0.3402974200880776,-1.640283696278608,20.43932230824294,-0.00010001357636012034,-0.003159390784335043,0.01209178326875695,0.4,-0.020732740747384865,0.04063213663605801,0.9219628749874591,0.04120995138790461,-0.05878314841538668,0.02694280701689422,1.7955249175429344,-0.09226921893079398,-0.6349246017634869,-0.7262163795530796,21.08112871646881,0.0,0.0,0.0,0.0,0.0,0.0,0.0,0.0,0.0,0.0,0.0,0.0,0.0,0.0,0.0,0.0,True,0,1.8779006004333496,0.034923828125
STABILIZE,1.8294899463653564,29.892483233912753,0.0324278195699056,0.03256583213806152,0.0,0.0,0.0,0.33926157921176286,-1.6407268048010126,20.440917157414138,-0.0002484239237867189,-0.001311381387925295,0.012185684018340312,0.4,-0.020000475123090163,0.03879661024999433,0.9143925665137776,0.04154049176075486,0.038491771556437016,0.01704738097032532,1.4354550279676914,0.12296581661844362,-0.7171900011599064,-0.8068389259278774,19.13185864686966,0.0,0.0,0.0,0.0,0.0,0.0,0.0,0.0,0.0,0.0,0.0,0.0,0.0,0.0,0.0,0.0,True,0,1.906468152999878,0.02993505859375
STABILIZE,1.8656954765319824,27.61972619337675,0.032434972127278645,0.03536844253540039,0.0,0.0,0.0,0.34009827738508946,-1.641208973467733,20.443106233043128,2.1006215539137355e-06,-0.0007357539978052904,0.01133137382386886,0.4,-0.02015565831082055,0.036677518187678074,0.8978450340567927,0.03713431960136239,0.05977980326861143,0.08602268062531948,1.4404769986867905,0.1426774223979831,4.547373577952385,-0.7444167509675026,19.138263165950775,0.0,0.0,0.0,0.0,0.0,0.0,0.0,0.0,0.0,0.0,0.0,0.0,0.0,0.0,0.0,0.0,True,0,1.9638733863830566,0.034923828125
STABILIZE,1.8992669582366943,29.789725633358664,0.03249409993489583,0.03263998031616211,0.0,0.0,0.0,0.33910427141744104,-1.6412613738252717,20.445349950185477,-0.00017084186173510867,-0.0009825272416934805,0.010197887538677002,0.4,-0.022316064208354906,0.03592071274064192,0.8918561957168226,0.031361926801291816,-0.1245979918166995,0.060371519066393375,1.4543375000357628,-0.21163866747685484,-0.733461044728756,1.1040879413485527,17.289303243160248,0.0,0.0,0.0,0.0,0.0,0.0,0.0,0.0,0.0,0.0,0.0,0.0,0.0,0.0,0.0,0.0,True,0,1.992563009262085,0.02993505859375
STABILIZE,1.9329948425292969,29.646962360841137,0.03212121327718099,0.03265523910522461,0.0,0.0,0.0,0.3389892254186086,-1.640710903266851,20.44731704466644,-0.0003772392998640678,-0.0015336846236280073,0.009098801235355206,0.4,-0.024100567944558452,0.03521929753957927,0.8820155765662959,0.025779272514918475,-0.1245979918166995,0.060371519066393375,1.4543375000357628,-0.21163866747685484,-0.733461044728756,1.1040879413485527,17.289303243160248,0.0,0.0,0.0,0.0,0.0,0.0,0.0,0.0,0.0,0.0,0.0,0.0,0.0,0.0,0.0,0.0,True,0,2.0212440490722656,0.02993505859375
STABILIZE,1.9668247699737549,29.562126007005872,0.03251317342122396,0.03293037414550781,0.0,0.0,0.0,0.3400880321013344,-1.6403963943999131,20.448751384392143,-4.334030391673226e-05,-0.0018826186641921969,0.008891359129095649,0.4,-0.025760214482039977,0.032039655822447825,0.8772781111589288,0.024658838849317764,-0.12147423112764955,-0.08000402012839913,1.696997880935669,0.023625489269415226,-0.6787442602217197,-0.7981399074196815,22.929541766643524,0.0,0.0,0.0,0.0,0.0,0.0,0.0,0.0,0.0,0.0,0.0,0.0,0.0,0.0,0.0,0.0,True,0,2.050671100616455,0.034925048828125
STABILIZE,2.000272750854492,29.895892285651154,0.03240207036336263,0.03252863883972168,0.0,0.0,0.0,0.339283990769977,-1.6409552959730906,20.451568837424773,9.518635404271109e-05,-0.0017674797820931717,0.009356219262500281,0.4,-0.027135298337590354,0.030778015739462268,0.8732444901958168,0.026893168702771544,-0.09109744569286704,0.02188400976592675,1.480285171419382,0.21139395460549795,5.4814644157886505,-0.9323975071310997,16.523469984531403,0.0,0.0,0.0,0.0,0.0,0.0,0.0,0.0,0.0,0.0,0.0,0.0,0.0,0.0,0.0,0.0,True,0,2.0793468952178955,0.034923828125
STABILIZE,2.0336780548095703,29.934297765438885,0.032410653432210286,0.032526493072509766,0.0,0.0,0.0,0.33899947070236364,-1.640205042381447,20.455690856588877,0.00023206074603908017,-0.0017154201130434275,0.00983888858300285,0.4,-0.028441083857613476,0.02957941042912639,0.8692886701663186,0.02920888989121855,-0.09109744569286704,0.02188400976592675,1.480285171419382,0.21139395460549795,5.4814644157886505,-0.9323975071310997,16.523469984531403,0.0,0.0,0.0,0.0,0.0,0.0,0.0,0.0,0.0,0.0,0.0,0.0,0.0,0.0,0.0,0.0,True,0,2.109529733657837,0.034923828125
STABILIZE,2.067798376083374,29.308457189974074,0.03244665463765462,0.03324484825134277,0.0,0.0,0.0,0.33963958749364076,-1.639501853062053,20.457333517084262,-1.487151706907332e-05,-0.0012327343271560341,0.009480628761181789,0.4,-0.027753359103371667,0.027886766872603552,0.8694726839703201,0.02732434101175607,0.016407064686063677,-0.009065477206604555,1.7065675929188728,-0.026462527402583036,-0.27473154477775097,1.2146488763391972,27.80267894268036,0.0,0.0,0.0,0.0,0.0,0.0,0.0,0.0,0.0,0.0,0.0,0.0,0.0,0.0,0.0,0.0,True,1,2.1379051208496094,0.034885498046875
STABILIZE,2.1011452674865723,29.986301957476016,0.032446893056233723,0.03255295753479004,0.0,0.0,0.0,0.33944812875346886,-1.6388340953489786,20.460413932399938,4.220224274674873e-05,-0.0022606841181919126,0.008541748846857208,0.4,-0.033426397835613436,0.026543951511866892,0.8650869985858778,0.022554573005020576,-0.11077341623604298,0.04276011895854026,1.6214217990636826,-0.09331464475030922,4.318668693304062,1.1232413351535797,24.876946210861206,0.0,0.0,0.0,0.0,0.0,0.0,0.0,0.0,0.0,0.0,0.0,0.0,0.0,0.0,0.0,0.0,True,0,2.1953914165496826,0.02993505859375
STABILIZE,2.134831666946411,29.689983719119418,0.03253916104634603,0.03267216682434082,0.0,0.0,0.0,0.33964214881457955,-1.6393399562343827,20.46403051756546,0.00025331484770256643,-0.0014539423185249447,0.008410051863595534,0.4,-0.031043084317097073,0.024578133637393883,0.8601163026698512,0.021823044980900073,0.08604014874435961,-0.03574804577510804,1.6271214932203293,0.027958865769238124,2.4998147040605545,-0.9846187196671963,19.785363972187042,0.0,0.0,0.0,0.0,0.0,0.0,0.0,0.0,0.0,0.0,0.0,0.0,0.0,0.0,0.0,0.0,True,0,2.2240476608276367,0.034924072265625
STABILIZE,2.1681594848632812,30.001959928755873,0.03223613103230794,0.032363176345825195,0.0,0.0,0.0,0.3387456864860154,-1.6390499933597744,20.46645181962623,-0.00018460342421574284,-0.0016472771837830592,0.008085212029501833,0.4,-0.0312995611813341,0.025045887925228907,0.8604297243388953,0.02013152767415886,-0.04783238982781768,0.10068317642435431,1.672377809882164,-0.027502710518301762,-0.49784258008003235,-1.0292762890458107,15.484319627285004,0.0,0.0,0.0,0.0,0.0,0.0,0.0,0.0,0.0,0.0,0.0,0.0,0.0,0.0,0.0,0.0,True,0,2.252668619155884,0.034924072265625
STABILIZE,2.2015445232391357,29.953109712988024,0.03241160710652669,0.03251314163208008,0.0,0.0,0.0,0.33728808142845235,-1.6380581218262416,20.469778121752025,-0.0005121364954747453,-0.0006761962588933502,0.007953917740496254,0.4,-0.031999351033928515,0.025304196340080177,0.8575814443091772,0.019410197363847536,-0.07602295954711735,0.08552311919629574,1.489232387393713,0.025024959345280467,-0.10218506213277578,-0.9204702451825142,20.98952978849411,0.0,0.0,0.0,0.0,0.0,0.0,0.0,0.0,0.0,0.0,0.0,0.0,0.0,0.0,0.0,0.0,True,0,2.281393527984619,0.029935791015625
STABILIZE,2.2351417541503906,29.76414652492939,0.0324590524037679,0.03265047073364258,0.0,0.0,0.0,0.3363969551851772,-1.6376050881851993,20.47151981999038,-0.0009667892297680507,-0.0012399042667355724,0.007841429735621096,0.4,-0.032387611526313996,0.025580695011605398,0.8508217589436807,0.01878478227126669,-0.07602295954711735,0.08552311919629574,1.489232387393713,0.025024959345280467,-0.10218506213277578,-0.9204702451825142,20.98952978849411,0.0,0.0,0.0,0.0,0.0,0.0,0.0,0.0,0.0,0.0,0.0,0.0,0.0,0.0,0.0,0.0,True,0,2.310129165649414,0.029935791015625
STABILIZE,2.269035816192627,29.502032777660546,0.032367976506551106,0.03305244445800781,0.0,0.0,0.0,0.3369211722039757,-1.638116071712481,20.475095424020882,-0.0009406144412720871,-0.0012732486615499702,0.0077374908336893715,0.4,-0.03276124611873712,0.025877310209085683,0.8445757001243362,0.018203217798845046,-0.07602295954711735,0.08552311919629574,1.489232387393713,0.025024959345280467,-0.10218506213277578,-0.9204702451825142,20.98952978849411,0.0,0.0,0.0,0.0,0.0,0.0,0.0,0.0,0.0,0.0,0.0,0.0,0.0,0.0,0.0,0.0,True,1,2.338906764984131,0.029935791015625
STABILIZE,2.3025379180908203,29.850997807953995,0.0324893315633138,0.03262925148010254,0.0,0.0,0.0,0.3374505118646517,-1.6377755227493322,20.479041565813855,-0.00012420014498020976,-0.0010888412692702572,0.00766082555665634,0.4,-0.03256695917090014,0.022539843410890145,0.8494320864027408,0.017760451989007744,0.010654322250047699,0.025784524041227996,1.7505398020148277,-0.1726934357575446,2.5791535153985023,-0.7219241000711918,26.596733927726746,0.0,0.0,0.0,0.0,0.0,0.0,0.0,0.0,0.0,0.0,0.0,0.0,0.0,0.0,0.0,0.0,True,0,2.3965582847595215,0.02993505859375
STABILIZE,2.3360090255737305,29.876088040458722,0.0324437936147054,0.032562971115112305,0.0,0.0,0.0,0.3369640743296998,-1.6374474602257603,20.48234054718297,-7.941034459055843e-05,-0.0009975809836130622,0.007981635417813543,0.4,-0.0325057356425586,0.022584294246651485,0.8473151694520957,0.019299945952179844,-0.05479643004946411,0.06467062048614025,1.7102137207984924,0.14505698293157882,1.9232658669352531,1.2327837757766247,25.357234477996826,0.0,0.0,0.0,0.0,0.0,0.0,0.0,0.0,0.0,0.0,0.0,0.0,0.0,0.0,0.0,0.0,True,0,2.4309329986572266,0.034924072265625
STABILIZE,2.3695945739746094,29.77492244457538,0.03241470654805501,0.032706260681152344,0.0,0.0,0.0,0.3375781510247663,-1.6374254755543691,20.484196651089924,0.00017314185093096718,-0.0007663246696169612,0.00751130169949244,0.4,-0.03181455753836777,0.021732938703293764,0.8459455891127048,0.016891529318556444,-0.004381420149002224,0.008227216312661767,1.492386031895876,-0.09055875680170164,-0.5330928601324558,-0.8568017743527889,16.784077882766724,0.0,0.0,0.0,0.0,0.0,0.0,0.0,0.0,0.0,0.0,0.0,0.0,0.0,0.0,0.0,0.0,True,0,2.4540023803710938,0.06485888671875
STABILIZE,2.4031484127044678,29.803061093978712,0.032444032033284505,0.0326380729675293,0.0,0.0,0.0,0.33814057441423456,-1.637360055148725,20.487983990984695,-0.00032598425504442284,-0.0009017980624208845,0.006993978958240581,0.4,-0.0322367653137659,0.02100902502554586,0.8681034466755743,0.01425712676694486,-0.004381420149002224,0.008227216312661767,1.492386031895876,-0.09055875680170164,-0.5330928601324558,-0.8568017743527889,16.784077882766724,0.0,0.0,0.0,0.0,0.0,0.0,0.0,0.0,0.0,0.0,0.0,0.0,0.0,0.0,0.0,0.0,True,0,2.4826831817626953,0.06485888671875
STABILIZE,2.437039613723755,29.506806334287745,0.03239491780598958,0.03301215171813965,0.0,0.0,0.0,0.33920245538675997,-1.6368364784601614,20.491655217663578,-0.0006443006484158332,-0.001488464064973992,0.0068354972184826255,0.4,-0.03477271355621491,0.022454055443947574,0.8824612953261016,0.013419190828002133,-0.13040137710049748,0.12084926711395383,1.2575609609484673,0.016736438076084048,-2.5363486260175705,1.0943426750600338,16.662806272506714,0.0,0.0,0.0,0.0,0.0,0.0,0.0,0.0,0.0,0.0,0.0,0.0,0.0,0.0,0.0,0.0,True,0,2.5133185386657715,0.02993603515625
STABILIZE,2.470498561859131,29.886732221747184,0.03244522412618001,0.032564640045166016,0.0,0.0,0.0,0.33976231745528945,-1.6363320049569325,20.493166397017443,-0.001307545752614427,-0.0017109402503946976,0.006233354204677585,0.4,-0.03514443046722173,0.02460961475581516,0.8613323658305081,0.010373774609536124,-0.014993397053331137,0.10845690267160535,1.3629673048853874,-0.030820868443925526,-1.7692964524030685,-0.8322683162987232,18.58443170785904,0.0,0.0,0.0,0.0,0.0,0.0,0.0,0.0,0.0,0.0,0.0,0.0,0.0,0.0,0.0,0.0,True,0,2.5701637268066406,0.034924072265625
STABILIZE,2.503957748413086,29.88843599464128,0.032396586736043294,0.03251075744628906,0.0,0.0,0.0,0.3396728846658446,-1.6362133304201034,20.49492517072872,-0.00020477709988275643,-0.001184536095521656,0.006690408421200323,0.4,-0.03321629686487311,0.019173663631232928,0.8580639517783716,0.012616854787086018,0.03694141050800681,-0.23282116744667292,1.611996442079544,0.15586182193022333,-1.3014115393161774,-0.9616144932806492,19.367866218090057,0.0,0.0,0.0,0.0,0.0,0.0,0.0,0.0,0.0,0.0,0.0,0.0,0.0,0.0,0.0,0.0,True,0,2.598672866821289,0.034923583984375
STABILIZE,2.5374391078948975,29.868641623642514,0.03237608273824056,0.032510995864868164,0.0,0.0,0.0,0.33996380803580484,-1.6360014878341274,20.499414312560713,0.0004496046671026183,-0.0010117638356005485,0.006868952052849921,0.4,-0.03463672162364593,0.017558022048044703,0.8589881450806592,0.013464531989187886,-0.13850065879523754,-0.03475742705632001,1.8127087503671646,0.08130135585646171,0.9745363146066666,-0.8411142975091934,23.37057739496231,0.0,0.0,0.0,0.0,0.0,0.0,0.0,0.0,0.0,0.0,0.0,0.0,0.0,0.0,0.0,0.0,True,0,2.627406358718872,0.029935302734375
STABILIZE,2.5708680152893066,29.91209590574878,0.032358439763387044,0.03249549865722656,0.0,0.0,0.0,0.33989614647433936,-1.6367201518008596,20.501919284438813,0.000341957368016198,-0.0013231923907850037,0.006830776905940356,0.4,-0.03631813505313853,0.019901684148956458,0.8511049942117079,0.01322939492947946,-0.16451729461550713,0.17465695273131132,1.5350401401519775,0.023657734232301098,-0.20408944692462683,-0.9438143111765385,18.57917606830597,0.0,0.0,0.0,0.0,0.0,0.0,0.0,0.0,0.0,0.0,0.0,0.0,0.0,0.0,0.0,0.0,True,0,2.65606951713562,0.034923828125
STABILIZE,2.60566782951355,28.736376217816083,0.03237131436665853,0.03387880325317383,0.0,0.0,0.0,0.33818091521901994,-1.6372550409902362,20.50482894502524,-0.0007774914449020258,-0.0020308004176831347,0.007214375393196753,0.4,-0.037776002999217906,0.02006402453234299,0.8480115280310645,0.015094839968534024,-0.1414089696481824,0.0557656807359308,1.5457629226148129,0.13495186479689042,-0.5086101125925779,0.9652030654251575,18.338076770305634,0.0,0.0,0.0,0.0,0.0,0.0,0.0,0.0,0.0,0.0,0.0,0.0,0.0,0.0,0.0,0.0,True,0,2.684816360473633,0.034924072265625
STABILIZE,2.6403770446777344,28.810198922958566,0.03242472012837728,0.0337977409362793,0.0,0.0,0.0,0.3384904081657861,-1.6370347673895034,20.50771469994957,-0.0011394746600231365,-0.0020674131787292325,0.007601163028569741,0.4,-0.039214906668782766,0.02024446854286507,0.8451426704247065,0.016969881469204962,-0.1414089696481824,0.0557656807359308,1.5457629226148129,0.13495186479689042,-0.5086101125925779,0.9652030654251575,18.338076770305634,0.0,0.0,0.0,0.0,0.0,0.0,0.0,0.0,0.0,0.0,0.0,0.0,0.0,0.0,0.0,0.0,True,1,2.713442325592041,0.034924072265625
STABILIZE,2.673933744430542,29.800943557096573,0.03241756757100423,0.03253507614135742,0.0,0.0,0.0,0.3393108846398339,-1.637157497351152,20.509703992545337,-0.0006091984128271696,-0.0014393554893462235,0.007071838773744793,0.4,-0.03793836062602041,0.019967531539006128,0.8343765774026304,0.014275530148666598,-0.012277580390218645,0.03539182071108371,1.3926642015576363,-0.09265231650401633,3.9586707949638367,-1.1381225660443306,11.178329586982727,0.0,0.0,0.0,0.0,0.0,0.0,0.0,0.0,0.0,0.0,0.0,0.0,0.0,0.0,0.0,0.0,True,0,2.771036148071289,0.034925048828125
STABILIZE,2.7108569145202637,27.081516300031637,0.03228786786397298,0.03604245185852051,0.0,0.0,0.0,0.3383471876366274,-1.636632960167236,20.512683662570755,-0.0004109515035168612,-0.0014881308161916779,0.006644512292138469,0.4,-0.03950140079070313,0.019170833437982076,0.8361193164313406,0.012094072180232235,-0.15180357731878757,-0.0009606867024558596,1.746848039329052,-0.08904546969414713,-0.32674893736839294,-0.9294317103922367,22.19069004058838,0.0,0.0,0.0,0.0,0.0,0.0,0.0,0.0,0.0,0.0,0.0,0.0,0.0,0.0,0.0,0.0,True,0,2.79976224899292,0.034924072265625
STABILIZE,2.7443628311157227,29.84505037855069,0.03245142300923665,0.03262782096862793,0.0,0.0,0.0,0.3381200838467245,-1.6368015804623708,20.515091304253183,-5.018346295203553e-05,-0.0009634223027814386,0.006155562712888171,0.4,-0.0384174848015983,0.01774623096228871,0.8322577649088949,0.009617109074378627,-0.004938647907692939,-0.03668438293971121,1.4265608973801136,-0.1062915572761905,4.1939400136470795,-0.9742157533764839,19.357337057590485,0.0,0.0,0.0,0.0,0.0,0.0,0.0,0.0,0.0,0.0,0.0,0.0,0.0,0.0,0.0,0.0,True,0,2.8284354209899902,0.02993505859375
STABILIZE,2.777817964553833,29.892483233912753,0.032439502080281575,0.03255605697631836,0.0,0.0,0.0,0.33910064287944447,-1.6373580274363153,20.518333936561646,0.00021279253713228158,-0.0011143910660909237,0.005499234566009939,0.4,-0.03796622395749111,0.016359173234449503,0.82926017966087,0.006314360424092442,-0.05365116521716118,-0.03386881435289979,1.6855774447321892,-0.15718861285692473,-0.42078085243701935,-0.9204165078699589,21.325525641441345,0.0,0.0,0.0,0.0,0.0,0.0,0.0,0.0,0.0,0.0,0.0,0.0,0.0,0.0,0.0,0.0,True,0,2.856936454772949,0.0399130859375
STABILIZE,2.8117995262145996,29.431233861008195,0.03242019017537435,0.03293108940124512,0.0,0.0,0.0,0.34011770073554165,-1.6368491783431494,20.52031298387366,0.0007045498881285858,-0.001414922464664976,0.005675203646936243,0.4,-0.04052811287651506,0.013562708495766476,0.8335382070682587,0.007169951132678772,-0.19757442642003298,-0.11719889007508755,1.6281843185424805,0.0820059058776044,-2.193676680326462,-0.8292756043374538,25.51003098487854,0.0,0.0,0.0,0.0,0.0,0.0,0.0,0.0,0.0,0.0,0.0,0.0,0.0,0.0,0.0,0.0,True,0,2.8855605125427246,0.029934814453125
STABILIZE,2.845815658569336,29.392871659028156,0.03225520451863607,0.03317093849182129,0.0,0.0,0.0,0.34130231166971575,-1.636185796220012,20.52473553136124,0.00038487178739554065,-0.002716923307390528,0.005228449234465119,0.4,-0.04536182664000139,0.013723855556164876,0.8322893060323117,0.004919336548487923,-0.22105153184384108,0.04446711391210556,1.801961287856102,-0.039553298648319885,-4.7288283705711365,-0.912198144942522,21.954600512981415,0.0,0.0,0.0,0.0,0.0,0.0,0.0,0.0,0.0,0.0,0.0,0.0,0.0,0.0,0.0,0.0,True,0,2.9430031776428223,0.02993505859375
STABILIZE,2.8800809383392334,29.185482075261636,0.03249338467915853,0.03336286544799805,0.0,0.0,0.0,0.3415776536706319,-1.6353037413217282,20.52783814479172,0.00015790720047167641,-0.0023037558594809636,0.005227863836216652,0.4,-0.04312532534032558,0.013502979800467406,0.8278964407283776,0.004899657424520747,0.04742085293401033,0.025473025743849576,1.5471448190510273,0.021606548049761604,-3.6134276539087296,-0.8835683576762676,22.377632558345795,0.0,0.0,0.0,0.0,0.0,0.0,0.0,0.0,0.0,0.0,0.0,0.0,0.0,0.0,0.0,0.0,True,0,2.971696615219116,0.0399140625
STABILIZE,2.913931369781494,29.540888697942712,0.03239277203877767,0.032967329025268555,0.0,0.0,0.0,0.34085408050543364,-1.635020181749467,20.529432993962917,-0.00031443065446551513,-0.0013422070650823466,0.005454194421343469,0.4,-0.041110679284539015,0.01315525308963694,0.8314132895281112,0.00601093741483545,0.06603025831282139,0.015610696573276073,1.51452561840415,0.0914366895740995,6.757023185491562,-0.9475464932620525,19.57916170358658,0.0,0.0,0.0,0.0,0.0,0.0,0.0,0.0,0.0,0.0,0.0,0.0,0.0,0.0,0.0,0.0,True,0,3.0003626346588135,0.02993505859375
STABILIZE,2.947460889816284,29.825313413307356,0.032462390263875325,0.03258967399597168,0.0,0.0,0.0,0.3415891796148563,-1.634608449408562,20.53364380558623,-0.00042480492074896354,-0.00010141524378225282,0.005259054881619762,0.4,-0.0398045448152337,0.013772702164109186,0.8227342857736333,0.005018458174637149,-0.007581005047541112,0.0723642238881439,1.2965567409992218,-0.03745915864673001,1.4068390242755413,0.9273110888898373,14.608098566532135,0.0,0.0,0.0,0.0,0.0,0.0,0.0,0.0,0.0,0.0,0.0,0.0,0.0,0.0,0.0,0.0,True,0,3.029815435409546,0.029934814453125
STABILIZE,2.9808576107025146,29.942631962192493,0.032380135854085286,0.03250408172607422,0.0,0.0,0.0,0.3413868352606947,-1.6341608585745147,20.536970107712026,-0.000774811263079346,0.00016895327009347288,0.005276242822929052,0.4,-0.03672352477488731,0.015111169350341763,0.8178005661250928,0.005087380649772085,0.10003583738580346,0.11506201699376106,1.487485133111477,0.023606057581329738,2.131740003824234,1.1545521207153797,26.09999179840088,0.0,0.0,0.0,0.0,0.0,0.0,0.0,0.0,0.0,0.0,0.0,0.0,0.0,0.0,0.0,0.0,True,0,3.0585827827453613,0.034924072265625
STABILIZE,3.015354633331299,28.989411406928202,0.03242615063985189,0.033567190170288086,0.0,0.0,0.0,0.3404863175073108,-1.6340461327407996,20.540374957013277,-0.0012690167518686656,-0.0004738817299310147,0.004677647800526194,0.4,-0.03782693968759188,0.017016731177766142,0.8195092718624666,0.00208721343399101,-0.13605435378849506,0.14505096478387713,1.6241125762462616,-0.15745501691498168,3.7576954811811447,-0.968770869076252,22.30602651834488,0.0,0.0,0.0,0.0,0.0,0.0,0.0,0.0,0.0,0.0,0.0,0.0,0.0,0.0,0.0,0.0,True,1,3.087211847305298,0.034924072265625
STABILIZE,3.0520572662353516,27.244231968405735,0.03238633473714193,0.03586173057556152,0.0,0.0,0.0,0.3404863175073108,-1.6340461327407996,20.540374957013277,-0.0006245710247060083,-0.0009410341098301163,0.004450345501810793,0.4,-0.03880592704443426,0.01454857141967918,0.8179342336678106,0.0009472175436034139,-0.12786361621692777,-0.11483140988275409,1.4308376237750053,-0.04714540409138615,2.210867218673229,-1.1570793576538563,15.336661040782928,0.0,0.0,0.0,0.0,0.0,0.0,0.0,0.0,0.0,0.0,0.0,0.0,0.0,0.0,0.0,0.0,True,1,3.1168785095214844,0.02993505859375
STABILIZE,3.0855114459991455,29.89163109245494,0.03249100049336751,0.03262639045715332,0.0,0.0,0.0,0.3400336040313859,-1.6348517748977438,20.546540910286506,0.00034412068695395683,-0.0018057904774242365,0.004300131581148524,0.4,-0.03989953832571499,0.01148667950397186,0.8129307410511599,0.00019549384311723698,-0.10025204392150044,-0.00023306010916712694,1.7676802352070808,0.029933090594169317,-1.1194860562682152,-2.9851503670215607,20.64613550901413,0.0,0.0,0.0,0.0,0.0,0.0,0.0,0.0,0.0,0.0,0.0,0.0,0.0,0.0,0.0,0.0,True,0,3.175567150115967,0.034864013671875
STABILIZE,3.1190543174743652,29.813653293906913,0.03249791463216146,0.03262972831726074,0.0,0.0,0.0,0.3390568869800741,-1.6346673597901533,20.547930853782606,0.0004065634857675988,-0.002131641716896141,0.003878875462692119,0.4,-0.04225188639629129,0.012822037619719293,0.8160700124152281,-0.0019044153659315036,-0.20909039303660393,0.11194227263331413,1.6716856509447098,-0.11010776539237645,3.6659426987171173,0.9767888113856316,21.04399800300598,0.0,0.0,0.0,0.0,0.0,0.0,0.0,0.0,0.0,0.0,0.0,0.0,0.0,0.0,0.0,0.0,True,0,3.204272747039795,0.04989208984375
STABILIZE,3.152496337890625,29.902925911138993,0.03240040143330892,0.032523155212402344,0.0,0.0,0.0,0.3397516452847113,-1.6339788980661574,20.548700957611523,-0.0005054369706549552,-0.0016984174585083951,0.0034523308998564628,0.4,-0.041136765138119494,0.014847965883118066,0.8285366914600728,-0.004023682173968746,0.0395765615394339,0.14047910226508975,1.522713527083397,-0.09102181561298074,-1.065442617982626,-0.8752279914915562,22.599396109580994,0.0,0.0,0.0,0.0,0.0,0.0,0.0,0.0,0.0,0.0,0.0,0.0,0.0,0.0,0.0,0.0,True,0,3.232991933822632,0.019956787109375
STABILIZE,3.18589186668396,29.942418206868982,0.032393725713094075,0.032524824142456055,0.0,0.0,0.0,0.34022122079014966,-1.6301629567542357,20.5538082315634,-0.0006535372085747913,-8.398967911261455e-06,0.003584588967227975,0.4,-0.0347172984669544,0.012833905415207274,0.8160129416581358,-0.003351183125792974,0.27323607355356216,-0.08012668695300817,1.5253705903887749,0.03233163425118094,2.8679100796580315,-0.9756560437381268,20.592884719371796,0.0,0.0,0.0,0.0,0.0,0.0,0.0,0.0,0.0,0.0,0.0,0.0,0.0,0.0,0.0,0.0,True,0,3.2642898559570312,0.029935302734375
STABILIZE,3.219397783279419,29.846749402254353,0.03246310551961263,0.0325925350189209,0.0,0.0,0.0,0.3389155874416194,-1.6325670766203746,20.555672873206813,-1.0618827288563703e-05,0.0008197228748699087,0.0041981421298229555,0.4,-0.03315021305552963,0.011190923461410814,0.8154262081714345,-0.00028247267386011764,0.013510300777852535,-0.06873559323139489,1.692512072622776,0.19211203709386107,1.4675016514956951,-0.9306957945227623,21.508075296878815,0.0,0.0,0.0,0.0,0.0,0.0,0.0,0.0,0.0,0.0,0.0,0.0,0.0,0.0,0.0,0.0,True,1,3.2933080196380615,0.034923828125
STABILIZE,3.252824306488037,29.91721648822728,0.03240350087483724,0.032520294189453125,0.0,0.0,0.0,0.34052324321751115,-1.6352687366022318,20.55714307142566,-0.00039823046919345944,-0.0013578951350685594,0.008219512981781198,0.4,-0.04167403618370554,0.014643491570627444,0.8032968030852129,0.019758315209367716,-0.5966391414403915,-0.14012623578310013,1.5956087037920952,1.6381205540241237,-16.245584189891815,-8.989434689283371,15.782378613948822,0.0,0.0,0.0,0.0,0.0,0.0,0.0,0.0,0.0,0.0,0.0,0.0,0.0,0.0,0.0,0.0,True,0,3.351423740386963,0.034923828125
STABILIZE,3.28633975982666,29.835921439190777,0.03239563306172689,0.032552242279052734,0.0,0.0,0.0,0.33938537639046934,-1.6375285687221541,20.56285481711908,-0.00016755382516178924,-0.004654877330481734,0.013700352926142917,0.4,-0.05048573690499394,0.011897193088899123,0.8056111118952064,0.047005005781919795,-0.5966391414403915,-0.14012623578310013,1.5956087037920952,1.6381205540241237,-16.245584189891815,-8.989434689283371,15.782378613948822,0.0,0.0,0.0,0.0,0.0,0.0,0.0,0.0,0.0,0.0,0.0,0.0,0.0,0.0,0.0,0.0,True,0,3.37929105758667,0.034923828125
STABILIZE,3.319777488708496,29.906763829271423,0.032373698552449544,0.03250432014465332,0.0,0.0,0.0,0.3336828087637434,-1.6326091249724524,20.551436448374115,-0.0006728095266624197,-0.002963676562830511,0.007215492550559057,0.4,-0.04174461901789728,0.012659161176899483,0.8013079978168327,0.01453207383761286,0.46489303931593895,0.07353039109148085,1.2009545229375362,-1.9709398774663895,-11.548428982496262,1.1352390982210636,30.323851108551025,0.0,0.0,0.0,0.0,0.0,0.0,0.0,0.0,0.0,0.0,0.0,0.0,0.0,0.0,0.0,0.0,True,0,3.4080381393432617,0.034925048828125
STABILIZE,3.353410243988037,29.73249780247824,0.0323827584584554,0.03250455856323242,0.0,0.0,0.0,0.33387917670238126,-1.6323869303810155,20.547124891460545,0.0006542304948269668,0.0007088855008038377,0.01262733139771676,0.4,-0.03315456602966429,0.009872227612823354,0.7945448943091975,0.04145282921667199,0.4435286857187748,-0.14001550152897835,1.0633335448801517,1.6228369385391623,1.0293293744325638,-1.5722444280982018,-1.369301974773407,0.0,0.0,0.0,0.0,0.0,0.0,0.0,0.0,0.0,0.0,0.0,0.0,0.0,0.0,0.0,0.0,True,0,3.4367172718048096,0.034924072265625
STABILIZE,3.386626958847046,30.104460793109634,0.03219154675801595,0.03232979774475098,0.0,0.0,0.0,0.33491352347481507,-1.635270123984407,20.561381203805652,0.0035407377838675555,0.0009698062399210129,0.01391658574020406,0.4,-0.03967500409867249,-0.005105022053195787,0.791916042008532,0.047739351868173616,-0.4638284910470247,-0.8631831966340542,1.3188954442739487,0.37380216600963473,-16.36473536491394,-17.009492218494415,14.08492624759674,0.0,0.0,0.0,0.0,0.0,0.0,0.0,0.0,0.0,0.0,0.0,0.0,0.0,0.0,0.0,0.0,True,0,3.4655585289001465,0.029934814453125
STABILIZE,3.420651912689209,29.391841797299286,0.03243997891743978,0.033196210861206055,0.0,0.0,0.0,0.33863128081741767,-1.6340253220081722,20.543303400619923,0.007021951436697731,-0.002201965008483558,0.015060189933337312,0.4,-0.04602533544109442,-0.019836882224769384,0.7856492464766696,0.05327598341771784,-0.4638284910470247,-0.8631831966340542,1.3188954442739487,0.37380216600963473,-16.36473536491394,-17.009492218494415,14.08492624759674,0.0,0.0,0.0,0.0,0.0,0.0,0.0,0.0,0.0,0.0,0.0,0.0,0.0,0.0,0.0,0.0,True,1,3.4941794872283936,0.029934814453125
STABILIZE,3.45418119430542,29.8244650970967,0.03248146375020345,0.03260302543640137,0.0,0.0,0.0,0.3371335483984808,-1.6337358927420929,20.575958535041753,0.006033452857006713,-0.005983273762639859,0.013621661477664651,0.4,-0.05503319598549544,-0.017939578434057826,0.784917729878938,0.04592965003085404,-0.4074614495038986,-0.6136003881692886,1.7205478623509407,0.23373451620483118,-11.537685245275497,8.618360012769699,24.872146546840668,0.0,0.0,0.0,0.0,0.0,0.0,0.0,0.0,0.0,0.0,0.0,0.0,0.0,0.0,0.0,0.0,True,0,3.5514373779296875,0.064859130859375
STABILIZE,3.488093852996826,29.488135998368918,0.0323977788289388,0.032979726791381836,0.0,0.0,0.0,0.33670217926371215,-1.6330593838491443,20.576241987892306,0.0061281410536489665,-0.0066368830177373885,0.014951489268489895,0.4,-0.06365234069989772,-0.031517561227383445,0.8114636779042802,0.05240113154035607,-0.4074614495038986,-0.6136003881692886,1.7205478623509407,0.23373451620483118,-11.537685245275497,8.618360012769699,24.872146546840668,0.0,0.0,0.0,0.0,0.0,0.0,0.0,0.0,0.0,0.0,0.0,0.0,0.0,0.0,0.0,0.0,True,0,3.580310821533203,0.064859130859375
STABILIZE,3.5215542316436768,29.88588040814,0.0323822816212972,0.032524824142456055,0.0,0.0,0.0,0.33776875599129197,-1.633028327832762,20.544261334651015,-0.001743150524818007,-0.005695783184925295,0.011066274485356221,0.4,-0.0649425569096298,-0.009774295536724594,0.8272744647314055,0.032865075732699964,-0.0006660615326836705,1.2718944810330868,1.2553222477436066,-1.0947136918656712,-15.058544278144836,24.34704303741455,21.91712260246277,0.0,0.0,0.0,0.0,0.0,0.0,0.0,0.0,0.0,0.0,0.0,0.0,0.0,0.0,0.0,0.0,True,0,3.6089067459106445,0.0349248046875
STABILIZE,3.5551929473876953,29.728283057382626,0.032387765248616536,0.03269219398498535,0.0,0.0,0.0,0.33523689024333286,-1.6290228487713725,20.578436186163174,0.005121655833544973,-0.00452201025786119,0.0159433897743432,0.4,-0.06768797538843012,-0.03817439542763962,0.8180616600534513,0.05705888753768565,-0.24933551903814077,-1.4824405312538147,1.2214107438921928,1.3228330455208115,-6.584599614143372,-60.13527512550354,9.051626920700073,0.0,0.0,0.0,0.0,0.0,0.0,0.0,0.0,0.0,0.0,0.0,0.0,0.0,0.0,0.0,0.0,True,0,3.6375012397766113,0.034924072265625
STABILIZE,3.5886895656585693,29.851422715044198,0.03237417538960775,0.0325009822845459,0.0,0.0,0.0,0.33859029968239757,-1.630886103032611,20.59067930025042,0.00893017737653074,-0.0034388931248917234,0.020818807458771967,0.4,-0.07038935411932074,-0.06643275981629489,0.8092467523084436,0.08116440260079316,-0.24933551903814077,-1.4824405312538147,1.2214107438921928,1.3228330455208115,-6.584599614143372,-60.13527512550354,9.051626920700073,0.0,0.0,0.0,0.0,0.0,0.0,0.0,0.0,0.0,0.0,0.0,0.0,0.0,0.0,0.0,0.0,True,0,3.667341709136963,0.034924072265625
STABILIZE,3.6223502159118652,29.70806890299184,0.03232911427815755,0.032816410064697266,0.0,0.0,0.0,0.3379657642601645,-1.6520953345093814,20.59472106469178,0.010029317975024184,0.001456364384468986,0.011924053344380492,0.4,-0.04995830357506308,-0.0522387699319334,0.7920570251848702,0.03656708886423457,0.886764470487833,0.8741902187466621,1.763298176229,-2.36285869336266,9.792929887771606,14.942187070846558,45.520299673080444,0.0,0.0,0.0,0.0,0.0,0.0,0.0,0.0,0.0,0.0,0.0,0.0,0.0,0.0,0.0,0.0,True,0,3.7236645221710205,0.034924072265625
