E-kp,E-ki,E-kd,E-I-Tot,E-P,E-I,E-D,E-PID,N-kp,N-ki,N-kd,N-I-Tot,N-P,N-I,N-D,N-PID,Y-kp,Y-ki,Y-kd,Y-I-Tot,Y-P,Y-I,Y-D,Y-PID,D-kp,D-ki,D-kd,D-I-Tot,D-P,D-I,D-D,D-PID,errorN,desiredN,actualN,errorE,desiredE,actualE,errorD,desiredD,actualD,errorY,desiredY,actualY,roll,pitch,yaw-rate,thrust,dt,Time,Mode
0.06,0.0,0.0,-0.0008593999024719407,-0.0015189455835394193,-0.0,-0.0,-0.0015189455835394193,0.08,0.0,0.0,-0.000858690781563446,-0.0020235896645712332,-0.0,-0.0,-0.0020235896645712332,0.5,0,0,-0.0008599309496044972,-0.012665701519296068,-0.0,-0.0,-0.012665701519296068,0.002,8e-05,0.0,-0.0009897527039653044,-5.8311250837553004e-05,-7.918021631722436e-08,-0.0,-5.8390431053870225e-05,-0.025294870807140414,0.0,0.025294870807140414,-0.02531575972565699,0.0,0.02531575972565699,-0.0291556254187765,0.0,0.0291556254187765,-0.025331403038592135,0,0.025331403038592135,-0.0015198400972101045,0.002022917916087008,0.012665701519296068,0.4,0.03394722938537598,0.03420281410217285,STABILIZE
0.06,0.0,0.0,-0.003321962854476345,-0.00442612761768834,-0.0,-0.0,-0.00442612761768834,0.08,0.0,0.0,-0.0032887025766816726,-0.005823495021140054,-0.0,-0.0,-0.005823495021140054,0.5,0,0,-0.0033215980814979952,-0.03687097917355079,-0.0,-0.0,-0.03687097917355079,0.002,8e-05,0.0,-0.004177707319718014,-0.00019099740451623118,-3.342165855774412e-07,-0.0,-0.00019133162110180862,-0.07279368776425067,0.0,0.07279368776425067,-0.073768793628139,0.0,0.073768793628139,-0.09549870225811559,0.0,0.09549870225811559,-0.07374195834710158,0,0.07374195834710158,-0.00443361902059909,0.005817793596329146,0.03687097917355079,0.4,0.03338217735290527,0.06753277778625488,STABILIZE
0.06,0.0,0.0,-0.006452044078212381,-0.005616956401420848,-0.0,-0.0,-0.005616956401420848,0.08,0.0,0.0,-0.006327812890722911,-0.007271611144839159,-0.0,-0.0,-0.007271611144839159,0.5,0,0,-0.006405345725363101,-0.04611508677267926,-0.0,-0.0,-0.04611508677267926,0.002,8e-05,0.0,-0.008455414957505356,-0.0002558793801395057,-6.764331966004285e-07,-0.0,-0.0002565558133361061,-0.09089513931048948,0.0,0.09089513931048948,-0.0936159400236808,0.0,0.0936159400236808,-0.12793969006975284,0.0,0.12793969006975284,-0.09223017354535852,0,0.09223017354535852,-0.0056286543783733095,0.007262559999478882,0.04611508677267926,0.4,0.03343534469604492,0.10097241401672363,STABILIZE
0.06,0.0,0.0,-0.010983300364359584,-0.008130564854410216,-0.0,-0.0,-0.008130564854410216,0.08,0.0,0.0,-0.010760367700605697,-0.010604615902410295,-0.0,-0.0,-0.010604615902410295,0.5,0,0,-0.010858364912408557,-0.0665848479462022,-0.0,-0.0,-0.0665848479462022,0.002,8e-05,0.0,-0.015081785354869776,-0.0003963296332764906,-1.2065428283895822e-06,-0.0,-0.0003975361761048802,-0.13255769878012869,0.0,0.13255769878012869,-0.13550941424017027,0.0,0.13550941424017027,-0.1981648166382453,0.0,0.1981648166382453,-0.1331696958924044,0,0.1331696958924044,-0.008155190645893814,0.010585689813070757,0.0665848479462022,0.4,0.033438682556152344,0.1343991756439209,STABILIZE
0.06,0.0,0.0,-0.01574248385822869,-0.008541611932163844,-0.0,-0.0,-0.008541611932163844,0.08,0.0,0.0,-0.015464250286449429,-0.011256479793084887,-0.0,-0.0,-0.011256479793084887,0.5,0,0,-0.015578882320531,-0.0706017952294199,-0.0,-0.0,-0.0706017952294199,0.002,8e-05,0.0,-0.022530876201763212,-0.0004456453741386772,-1.802470096141057e-06,-0.0,-0.0004474478442348183,-0.1407059974135611,0.0,0.1407059974135611,-0.1423601988693974,0.0,0.1423601988693974,-0.2228226870693386,0.0,0.2228226870693386,-0.1412035904588398,0,0.1412035904588398,-0.008569327194319423,0.01123539510513581,0.0706017952294199,0.4,0.03343057632446289,0.16782307624816895,STABILIZE
0.06,0.0,0.0,-0.020843955140353677,-0.009149021438029972,-0.0,-0.0,-0.009149021438029972,0.08,0.0,0.0,-0.020438838195638125,-0.011895290308635318,-0.0,-0.0,-0.011895290308635318,0.5,0,0,-0.02058438886118405,-0.0748076455399192,-0.0,-0.0,-0.0748076455399192,0.002,8e-05,0.0,-0.031049490131097597,-0.0005092451252567332,-2.483959210487808e-06,-0.0,-0.000511729084467221,-0.14869112885794147,0.0,0.14869112885794147,-0.15248369063383288,0.0,0.15248369063383288,-0.25462256262836663,0.0,0.25462256262836663,-0.1496152910798384,0,0.1496152910798384,-0.009180052137187087,0.01187135912854009,0.0748076455399192,0.4,0.033455848693847656,0.20128893852233887,STABILIZE
0.06,0.0,0.0,-0.02622541222904065,-0.009661409092737562,-0.0,-0.0,-0.009661409092737562,0.08,0.0,0.0,-0.025605798360252847,-0.012368426145195191,-0.0,-0.0,-0.012368426145195191,0.5,0,0,-0.0258004215521822,-0.0780368353129456,-0.0,-0.0,-0.0780368353129456,0.002,8e-05,0.0,-0.04062781445556377,-0.0005732035530930018,-3.250225156445102e-06,-0.0,-0.000576453778249447,-0.15460532681493988,0.0,0.15460532681493988,-0.16102348487895937,0.0,0.16102348487895937,-0.28660177654650093,0.0,0.28660177654650093,-0.1560736706258912,0,0.1560736706258912,-0.009695064792176569,0.01234206261699714,0.0780368353129456,0.4,0.03342032432556152,0.23485064506530762,STABILIZE
0.06,0.0,0.0,-0.03191043700805184,-0.010138565052421427,-0.0,-0.0,-0.010138565052421427,0.08,0.0,0.0,-0.031059671085346567,-0.012968443835140063,-0.0,-0.0,-0.012968443835140063,0.5,0,0,-0.03133021945523706,-0.08218113662091599,-0.0,-0.0,-0.08218113662091599,0.002,8e-05,0.0,-0.05219633371147576,-0.0006877025729613667,-4.175706696918061e-06,-0.0,-0.0006918782796582847,-0.16210554793925078,0.0,0.16210554793925078,-0.16897608420702379,0.0,0.16897608420702379,-0.34385128648068336,0.0,0.34385128648068336,-0.16436227324183197,0,0.16436227324183197,-0.010175725377998506,0.012939306390178746,0.08218113662091599,0.4,0.03364396095275879,0.2683711051940918,STABILIZE
0.06,0.0,0.0,-0.037705398334106355,-0.010348630931883915,-0.0,-0.0,-0.010348630931883915,0.08,0.0,0.0,-0.036596165715206984,-0.013182748795505066,-0.0,-0.0,-0.013182748795505066,0.5,0,0,-0.03701249288209848,-0.0845616091290875,-0.0,-0.0,-0.0845616091290875,0.002,8e-05,0.0,-0.06483510191344974,-0.000752342941834664,-5.186808153075979e-06,-0.0,-0.0007575297499877399,-0.16478435994381332,0.0,0.16478435994381332,-0.17247718219806527,0.0,0.17247718219806527,-0.376171470917332,0.0,0.376171470917332,-0.169123218258175,0,0.169123218258175,-0.010387498063314259,0.013152144766325275,0.0845616091290875,0.4,0.03359842300415039,0.30198121070861816,STABILIZE
0.06,0.0,0.0,-0.04503658668017443,-0.010438920641175088,-0.0,-0.0,-0.010438920641175088,0.08,0.0,0.0,-0.04360355688433767,-0.013303818674082318,-0.0,-0.0,-0.013303818674082318,0.5,0,0,-0.04439732283428495,-0.08762751023485481,-0.0,-0.0,-0.08762751023485481,0.002,8e-05,0.0,-0.08203350575656768,-0.0008162968239179456,-6.562680460525414e-06,-0.0,-0.000822859504378471,-0.16629773342602897,0.0,0.16629773342602897,-0.17398201068625146,0.0,0.17398201068625146,-0.4081484119589728,0.0,0.4081484119589728,-0.17525502046970962,0,0.17525502046970962,-0.010479565160279675,0.013271826156074572,0.08762751023485481,0.4,0.04213762283325195,0.3441011905670166,STABILIZE
0.06,0.0,0.0,-0.05098796714248951,-0.010681324314400428,-0.0,-0.0,-0.010681324314400428,0.08,0.0,0.0,-0.04912127412840618,-0.013204001487777908,-0.0,0.0,-0.013204001487777908,0.5,0,0,-0.050283598038351016,-0.0880372977560481,-0.0,-0.0,-0.0880372977560481,0.002,8e-05,0.0,-0.09659437423044069,-0.0008711108257633038,-7.727549938435255e-06,-0.0,-0.0008788383757017391,-0.16505001859722385,0.0,0.16505001859722385,-0.17802207190667382,0.0,0.17802207190667382,-0.4355554128816519,0.0,0.4355554128816519,-0.1760745955120962,0,0.1760745955120962,-0.010721850785923106,0.013171114612022899,0.0880372977560481,0.4,0.03343057632446289,0.3775289058685303,STABILIZE
0.06,0.0,0.0,-0.0572009239871803,-0.010575690325080234,-0.0,0.0,-0.010575690325080234,0.08,0.0,0.0,-0.0547850661058973,-0.012854536418421644,-0.0,0.0,-0.012854536418421644,0.5,0,0,-0.05624990036440779,-0.0846319599554569,-0.0,0.0,-0.0846319599554569,0.002,8e-05,0.0,-0.11334035541634097,-0.0009501665398016314,-9.067228433307278e-06,-0.0,-0.0009592337682349386,-0.16068170523027056,0.0,0.16068170523027056,-0.1762615054180039,0.0,0.1762615054180039,-0.4750832699008157,0.0,0.4750832699008157,-0.1692639199109138,0,0.1692639199109138,-0.010613619155714616,0.012823237531995255,0.0846319599554569,0.4,0.035248517990112305,0.41277575492858887,STABILIZE
0.06,0.0,0.0,-0.06312146290314755,-0.01061469151184984,-0.0,-0.0,-0.01061469151184984,0.08,0.0,0.0,-0.060155763453235006,-0.012838537472042824,-0.0,0.0,-0.012838537472042824,0.5,0,0,-0.06193312039990902,-0.08491010183227883,-0.0,-0.0,-0.08491010183227883,0.002,8e-05,0.0,-0.13017144451921242,-0.0010058589889152037,-1.0413715561536995e-05,-0.0,-0.0010162727044767408,-0.1604817184005353,0.0,0.1604817184005353,-0.17691152519749734,0.0,0.17691152519749734,-0.5029294944576018,0.0,0.5029294944576018,-0.16982020366455766,0,0.16982020366455766,-0.010652697251716088,0.012807020011543095,0.08491010183227883,0.4,0.03346610069274902,0.44625401496887207,STABILIZE
0.06,0.0,0.0,-0.07001677578393829,-0.010439865859453893,-0.0,0.0,-0.010439865859453893,0.08,0.0,0.0,-0.06653260848588269,-0.012873171074964017,-0.0,-0.0,-0.012873171074964017,0.5,0,0,-0.06846729336944536,-0.08244234221585943,-0.0,0.0,-0.08244234221585943,0.002,8e-05,0.0,-0.15100813257672158,-0.0010515946703530108,-1.2080650606137727e-05,-0.0,-0.0010636753209591486,-0.1609146384370502,0.0,0.1609146384370502,-0.17399776432423156,0.0,0.17399776432423156,-0.5257973351765054,0.0,0.5257973351765054,-0.16488468443171886,0,0.16488468443171886,-0.010476868741201097,0.012843074167360575,0.08244234221585943,0.4,0.03962874412536621,0.4859025478363037,STABILIZE
0.06,0.0,0.0,-0.0769198341580105,-0.010351697489773342,-0.0,0.0,-0.010351697489773342,0.08,0.0,0.0,-0.0727794478418197,-0.012490191598312002,-0.0,0.0,-0.012490191598312002,0.5,0,0,-0.07504673698479503,-0.0822200903164586,-0.0,0.0,-0.0822200903164586,0.002,8e-05,0.0,-0.17403108808387496,-0.0011508264782351873,-1.3922487046709998e-05,-0.0,-0.0011647489652818973,-0.15612739497890002,0.0,0.15612739497890002,-0.17252829149622237,0.0,0.17252829149622237,-0.5754132391175937,0.0,0.5754132391175937,-0.1644401806329172,0,0.1644401806329172,-0.010387501938819571,0.012460430592613685,0.0822200903164586,0.4,0.04001116752624512,0.5259504318237305,STABILIZE
0.06,0.0,0.0,-0.08257081416759782,-0.010134226123709653,-0.0,0.0,-0.010134226123709653,0.08,0.0,0.0,-0.07788543980585907,-0.012209157128292705,-0.0,0.0,-0.012209157128292705,0.5,0,0,-0.08041003383881613,-0.0801525620261392,-0.0,0.0,-0.0801525620261392,0.002,8e-05,0.0,-0.19388057190716546,-0.0011865738754626685,-1.551044575257324e-05,-0.0,-0.0012020843212152417,-0.1526144641036588,0.0,0.1526144641036588,-0.16890376872849422,0.0,0.16890376872849422,-0.5932869377313342,0.0,0.5932869377313342,-0.1603051240522784,0,0.1603051240522784,-0.010168345831330833,0.01218075531173156,0.0801525620261392,0.4,0.03345680236816406,0.5593612194061279,STABILIZE
0.06,0.0,0.0,-0.0880981799304842,-0.00989582854710806,-0.0,0.0,-0.00989582854710806,0.08,0.0,0.0,-0.08299515076359076,-0.012197449498158347,-0.0,0.0,-0.012197449498158347,0.5,0,0,-0.08568063288534214,-0.07863442059986549,-0.0,0.0,-0.07863442059986549,0.002,8e-05,0.0,-0.21448174645963358,-0.0012294324878898057,-1.715853971677069e-05,-0.0,-0.0012465910276065763,-0.15246811872697932,0.0,0.15246811872697932,-0.16493047578513437,0.0,0.16493047578513437,-0.6147162439449029,0.0,0.6147162439449029,-0.15726884119973097,0,0.15726884119973097,-0.009929271506386414,0.012170240928031992,0.07863442059986549,0.4,0.03351330757141113,0.5928680896759033,STABILIZE
0.06,0.0,0.0,-0.0934634144403615,-0.009632628051244818,-0.0,0.0,-0.009632628051244818,0.08,0.0,0.0,-0.0880794930408457,-0.01217109347270283,-0.0,0.0,-0.01217109347270283,0.5,0,0,-0.09082372629784259,-0.07694833870451694,-0.0,0.0,-0.07694833870451694,0.002,8e-05,0.0,-0.23570355626092757,-0.0012700395482172582,-1.8856284500874208e-05,-0.0,-0.0012888958327181325,-0.15213866840878537,0.0,0.15213866840878537,-0.16054380085408032,0.0,0.16054380085408032,-0.6350197741086291,0.0,0.6350197741086291,-0.15389667740903387,0,0.15389667740903387,-0.009665284866549424,0.012145176324094625,0.07694833870451694,0.4,0.033419132232666016,0.6262838840484619,STABILIZE
0.06,0.0,0.0,-0.0988233823839019,-0.009603714377146938,-0.0,0.0,-0.009603714377146938,0.08,0.0,0.0,-0.09309607031952656,-0.011984592903743728,-0.0,0.0,-0.011984592903743728,0.5,0,0,-0.09578274540407469,-0.0740442909185417,-0.0,0.0,-0.0740442909185417,0.002,8e-05,0.0,-0.2576913131832571,-0.001313217662869758,-2.061530505466057e-05,-0.0,-0.0013338329679244186,-0.1498074112967966,0.0,0.1498074112967966,-0.16006190628578232,0.0,0.16006190628578232,-0.656608831434879,0.0,0.656608831434879,-0.1480885818370834,0,0.1480885818370834,-0.009634658043045929,0.011959730820543317,0.0740442909185417,0.4,0.03348684310913086,0.6597850322723389,STABILIZE
0.06,0.0,0.0,-0.10406619094840888,-0.009402697928326879,-0.0,0.0,-0.009402697928326879,0.08,0.0,0.0,-0.09803632219472025,-0.011813438160293828,-0.0,0.0,-0.011813438160293828,0.5,0,0,-0.10054000925605122,-0.07109916122105933,-0.0,0.0,-0.07109916122105933,0.002,8e-05,0.0,-0.2802979671086432,-0.0013514609928073843,-2.2423837368691458e-05,-0.0,-0.0013738848301760758,-0.14766797700367285,0.0,0.14766797700367285,-0.1567116321387813,0.0,0.1567116321387813,-0.6757304964036922,0.0,0.6757304964036922,-0.14219832244211866,0,0.14219832244211866,-0.00943198787284365,0.011790065914361093,0.07109916122105933,0.4,0.03345513343811035,0.6932363510131836,STABILIZE
0.06,0.0,0.0,-0.10909579938234736,-0.009026510296838026,-0.0,0.0,-0.009026510296838026,0.08,0.0,0.0,-0.10276193089985534,-0.011307906290252348,-0.0,0.0,-0.011307906290252348,0.5,0,0,-0.1052918052053308,-0.07106606082099173,-0.0,0.0,-0.07106606082099173,0.002,8e-05,0.0,-0.30366739386919195,-0.0013980171886536152,-2.429339150953536e-05,-0.0,-0.0014223105801631506,-0.14134882862815434,0.0,0.14134882862815434,-0.15044183828063376,0.0,0.15044183828063376,-0.6990085943268076,0.0,0.6990085943268076,-0.14213212164198347,0,0.14213212164198347,-0.009054533718102872,0.01128547969542233,0.07106606082099173,0.4,0.0334322452545166,0.7266716957092285,STABILIZE
0.06,0.0,0.0,-0.11402853016462967,-0.00884797715638023,-0.0,0.0,-0.00884797715638023,0.08,0.0,0.0,-0.10730231312188111,-0.010858947428204953,-0.0,0.0,-0.010858947428204953,0.5,0,0,-0.10988168272684133,-0.06860826395049756,-0.0,0.0,-0.06860826395049756,0.002,8e-05,0.0,-0.3273047291597059,-0.0014132983122950818,-2.6184378332776473e-05,-0.0,-0.0014394826906278582,-0.1357368428525619,0.0,0.1357368428525619,-0.1474662859396705,0.0,0.1474662859396705,-0.7066491561475409,0.0,0.7066491561475409,-0.13721652790099512,0,0.13721652790099512,-0.008873957636151586,0.010837726462691898,0.06860826395049756,0.4,0.03344988822937012,0.7601292133331299,STABILIZE
0.06,0.0,0.0,-0.11886613363123509,-0.008676231491721028,-0.0,0.0,-0.008676231491721028,0.08,0.0,0.0,-0.11168800511673747,-0.010487638975630329,-0.0,0.0,-0.010487638975630329,0.5,0,0,-0.11438687553097049,-0.0673337806507056,-0.0,0.0,-0.0673337806507056,0.002,8e-05,0.0,-0.35154100324220666,-0.0014489235278594816,-2.8123280259376536e-05,-0.0,-0.0014770468081188582,-0.1310954871953791,0.0,0.1310954871953791,-0.14460385819535046,0.0,0.14460385819535046,-0.7244617639297408,0.0,0.7244617639297408,-0.1346675613014112,0,0.1346675613014112,-0.008700857570108383,0.010467217477714872,0.0673337806507056,0.4,0.033454179763793945,0.7936305999755859,STABILIZE
0.06,0.0,0.0,-0.12359098573440552,-0.008479027657659125,-0.0,0.0,-0.008479027657659125,0.08,0.0,0.0,-0.11595519147030217,-0.010210292392145603,-0.0,0.0,-0.010210292392145603,0.5,0,0,-0.11874864193926297,-0.06522874015348215,-0.0,0.0,-0.06522874015348215,0.002,8e-05,0.0,-0.3762336180843027,-0.0014770787854965692,-3.009868944674422e-05,-0.0,-0.0015071774749433134,-0.12762865490182004,0.0,0.12762865490182004,-0.14131712762765208,0.0,0.14131712762765208,-0.7385393927482846,0.0,0.7385393927482846,-0.1304574803069643,0,0.1304574803069643,-0.008502253601581043,0.010190959937457167,0.06522874015348215,0.4,0.033434391021728516,0.8270325660705566,STABILIZE
0.06,0.0,0.0,-0.12818740954808203,-0.008241796715643974,-0.0,0.0,-0.008241796715643974,0.08,0.0,0.0,-0.12009165323439719,-0.009889391800720085,-0.0,0.0,-0.009889391800720085,0.5,0,0,-0.12295392177885746,-0.06283700650638946,-0.0,0.0,-0.06283700650638946,0.002,8e-05,0.0,-0.40119139007095816,-0.0014917168326773508,-3.2095311205676656e-05,-0.0,-0.0015238121438830275,-0.12361739750900105,0.0,0.12361739750900105,-0.13736327859406625,0.0,0.13736327859406625,-0.7458584163386754,0.0,0.7458584163386754,-0.12567401301277892,0,0.12567401301277892,-0.00826346851443293,0.009871290260200288,0.06283700650638946,0.4,0.033461809158325195,0.8605208396911621,STABILIZE
0.06,0.0,0.0,-0.13260302806531168,-0.007924824274234412,-0.0,0.0,-0.007924824274234412,0.08,0.0,0.0,-0.12404189707851426,-0.009452805817305876,-0.0,0.0,-0.009452805817305876,0.5,0,0,-0.12713129375170124,-0.06247697554284516,-0.0,0.0,-0.06247697554284516,0.002,8e-05,0.0,-0.4264187562950546,-0.00150920679588924,-3.411350050360437e-05,-0.0,-0.0015433202963928444,-0.11816007271632345,0.0,0.11816007271632345,-0.13208040457057355,0.0,0.13208040457057355,-0.7546033979446201,0.0,0.7546033979446201,-0.12495395108569032,0,0.12495395108569032,-0.00794542063797359,0.009435500436269935,0.06247697554284516,0.4,0.033431291580200195,0.8939287662506104,STABILIZE
0.06,0.0,0.0,-0.13668367942265264,-0.007320256751507903,-0.0,0.0,-0.007320256751507903,0.08,0.0,0.0,-0.12788420682303492,-0.009190262823478903,-0.0,0.0,-0.009190262823478903,0.5,0,0,-0.13095022617437482,-0.05708967229855269,-0.0,0.0,-0.05708967229855269,0.002,8e-05,0.0,-0.45255328031967174,-0.0015627523581048404,-3.6204262425573745e-05,-0.0,-0.001598956620530414,-0.11487828529348627,0.0,0.11487828529348627,-0.12200427919179838,0.0,0.12200427919179838,-0.7813761790524202,0.0,0.7813761790524202,-0.11417934459710538,0,0.11417934459710538,-0.007338556610329162,0.009175656736692454,0.05708967229855269,0.4,0.0334467887878418,0.9273760318756104,STABILIZE
0.06,0.0,0.0,-0.14066779489360595,-0.007143109966778388,-0.0,0.0,-0.007143109966778388,0.08,0.0,0.0,-0.13151492640938495,-0.008679343241233548,-0.0,0.0,-0.008679343241233548,0.5,0,0,-0.13464694505210348,-0.055231978198586724,-0.0,0.0,-0.055231978198586724,0.002,8e-05,0.0,-0.4789344465869628,-0.0015766240802422872,-3.8314755726957026e-05,-0.0,-0.0016149388359692441,-0.10849179051541934,0.0,0.10849179051541934,-0.11905183277963981,0.0,0.11905183277963981,-0.7883120401211435,0.0,0.7883120401211435,-0.11046395639717345,0,0.11046395639717345,-0.0071598301052161,0.008665555490623577,0.055231978198586724,0.4,0.03346538543701172,0.9608514308929443,STABILIZE
0.06,0.0,0.0,-0.14449588820836434,-0.006872141999128751,-0.0,0.0,-0.006872141999128751,0.08,0.0,0.0,-0.1349974422449843,-0.008335687897745251,-0.0,0.0,-0.008335687897745251,0.5,0,0,-0.13815009268938735,-0.05240669881817014,-0.0,0.0,-0.05240669881817014,0.002,8e-05,0.0,-0.5054852376243464,-0.0015887875172274056,-4.043881900994771e-05,-0.0,-0.0016292263362373534,-0.10419609872181564,0.0,0.10419609872181564,-0.11453569998547919,0.0,0.11453569998547919,-0.7943937586137028,0.0,0.7943937586137028,-0.10481339763634027,0,0.10481339763634027,-0.006887379289919011,0.008323102480541775,0.05240669881817014,0.4,0.03342270851135254,0.9942710399627686,STABILIZE
0.06,0.0,0.0,-0.148230394749059,-0.006701411440935681,-0.0,0.0,-0.006701411440935681,0.08,0.0,0.0,-0.13833089720133407,-0.007975655485368214,-0.0,0.0,-0.007975655485368214,0.5,0,0,-0.14177559734919268,-0.05421510209723237,-0.0,-0.0,-0.05421510209723237,0.002,8e-05,0.0,-0.5325967277291385,-0.0016216801156927305,-4.260773821833108e-05,-0.0,-0.0016642878539110616,-0.09969569356710269,0.0,0.09969569356710269,-0.11169019068226135,0.0,0.11169019068226135,-0.8108400578463653,0.0,0.8108400578463653,-0.10843020419446474,0,0.10843020419446474,-0.006716493073099595,0.007962959030473088,0.05421510209723237,0.4,0.03343629837036133,1.0277125835418701,STABILIZE
0.06,0.0,0.0,-0.15189052733102498,-0.006566265014786477,-0.0,0.0,-0.006566265014786477,0.08,0.0,0.0,-0.14150814690340577,-0.007599966429175256,-0.0,0.0,-0.007599966429175256,0.5,0,0,-0.1451915311278101,-0.0510681101505232,-0.0,0.0,-0.0510681101505232,0.002,8e-05,0.0,-0.5599511193133208,-0.001635789418712875,-4.479608954506567e-05,-0.0,-0.0016805855082579408,-0.0949995803646907,0.0,0.0949995803646907,-0.10943775024644128,0.0,0.10943775024644128,-0.8178947093564375,0.0,0.8178947093564375,-0.1021362203010464,0,0.1021362203010464,-0.0065798023762327915,0.007588249248589628,0.0510681101505232,0.4,0.033444881439208984,1.0611982345581055,STABILIZE
0.06,0.0,0.0,-0.1554699199647983,-0.006419084084432705,-0.0,0.0,-0.006419084084432705,0.08,0.0,0.0,-0.14452639277393017,-0.007217006165638743,-0.0,0.0,-0.007217006165638743,0.5,0,0,-0.14839108534385315,-0.04781585790024213,-0.0,0.0,-0.04781585790024213,0.002,8e-05,0.0,-0.5873455885017729,-0.0016375906861019697,-4.698764708014183e-05,-0.0,-0.0016845783331821116,-0.09021257707048429,0.0,0.09021257707048429,-0.10698473474054508,0.0,0.10698473474054508,-0.8187953430509848,0.0,0.8187953430509848,-0.09563171580048425,0,0.09563171580048425,-0.006431120958145149,0.007206282099639946,0.04781585790024213,0.4,0.033457040786743164,1.094637155532837,STABILIZE
0.06,0.0,0.0,-0.15896141048002216,-0.00588497687995073,-0.0,0.0,-0.00588497687995073,0.08,0.0,0.0,-0.14757382642932815,-0.006848680251601584,-0.0,0.0,-0.006848680251601584,0.5,0,0,-0.15174532888118633,-0.047113703017998845,-0.0,0.0,-0.047113703017998845,0.002,8e-05,0.0,-0.6169369237009059,-0.001662559516577559,-4.935495389607248e-05,-0.0,-0.0017119144704736316,-0.0856085031450198,0.0,0.0856085031450198,-0.09808294799917884,0.0,0.09808294799917884,-0.8312797582887795,0.0,0.8312797582887795,-0.09422740603599769,0,0.09422740603599769,-0.005896232108672848,0.006838992688027054,0.047113703017998845,0.4,0.03559732437133789,1.1302156448364258,STABILIZE
0.06,0.0,0.0,-0.1621298934564092,-0.005680683707646615,-0.0,0.0,-0.005680683707646615,0.08,0.0,0.0,-0.15034185730410865,-0.006616965914945426,-0.0,0.0,-0.006616965914945426,0.5,0,0,-0.15475330349852526,-0.044940940004713076,-0.0,0.0,-0.044940940004713076,0.002,8e-05,0.0,-0.6452161144680485,-0.0016900321010984022,-5.161728915744388e-05,-0.0,-0.0017416493902558461,-0.08271207393681781,0.0,0.08271207393681781,-0.09467806179411024,0.0,0.09467806179411024,-0.845016050549201,0.0,0.845016050549201,-0.08988188000942615,0,0.08988188000942615,-0.005691056977842705,0.006608046290759402,0.044940940004713076,0.4,0.03346586227416992,1.1637160778045654,STABILIZE
0.06,0.0,0.0,-0.16517502871662376,-0.005461910695609819,-0.0,0.0,-0.005461910695609819,0.08,0.0,0.0,-0.1530140048430179,-0.006390534399222924,-0.0,0.0,-0.006390534399222924,0.5,0,0,-0.15765674192636833,-0.043397966614361454,-0.0,0.0,-0.043397966614361454,0.002,8e-05,0.0,-0.6738546190623758,-0.0017122496614376548,-5.390836952499007e-05,-0.0,-0.0017661580309626449,-0.07988167999028654,0.0,0.07988167999028654,-0.09103184492683032,0.0,0.09103184492683032,-0.8561248307188274,0.0,0.8561248307188274,-0.08679593322872291,0,0.08679593322872291,-0.005471585284384978,0.006382252958804608,0.043397966614361454,0.4,0.03345131874084473,1.197145700454712,STABILIZE
0.06,0.0,0.0,-0.16807491124728427,-0.005201934092756194,-0.0,0.0,-0.005201934092756194,0.08,0.0,0.0,-0.15560263439597077,-0.006191460140262918,-0.0,0.0,-0.006191460140262918,0.5,0,0,-0.16051957241672052,-0.04279557123460734,-0.0,0.0,-0.04279557123460734,0.002,8e-05,0.0,-0.7025688597322381,-0.00171696135859386,-5.6205508778579056e-05,-0.0,-0.0017731668673724391,-0.07739325175328647,0.0,0.07739325175328647,-0.08669890154593657,0.0,0.08669890154593657,-0.85848067929693,0.0,0.85848067929693,-0.08559114246921468,0,0.08559114246921468,-0.005211177380735427,0.0061836823398647486,0.04279557123460734,0.4,0.0334477424621582,1.2305965423583984,STABILIZE
0.06,0.0,0.0,-0.17088783197422136,-0.0050439967465691895,-0.0,0.0,-0.0050439967465691895,0.08,0.0,0.0,-0.15800373502799805,-0.005740720506934114,-0.0,0.0,-0.005740720506934114,0.5,0,0,-0.16319222402422023,-0.0399372731571796,-0.0,0.0,-0.0399372731571796,0.002,8e-05,0.0,-0.7314678829276421,-0.0017273455022598124,-5.851743063421137e-05,-0.0,-0.0017858629328940238,-0.07175900633667642,0.0,0.07175900633667642,-0.08406661244281982,0.0,0.08406661244281982,-0.8636727511299062,0.0,0.8636727511299062,-0.0798745463143592,0,0.0798745463143592,-0.005051994830797191,0.0057336832270132344,0.0399372731571796,0.4,0.03346061706542969,1.2640786170959473,STABILIZE
0.06,0.0,0.0,-0.17365262359457256,-0.0048866970996841634,-0.0,0.0,-0.0048866970996841634,0.08,0.0,0.0,-0.16025049927656865,-0.0052947963028376465,-0.0,0.0,-0.0052947963028376465,0.5,0,0,-0.16570880780272917,-0.037066635091742364,-0.0,0.0,-0.037066635091742364,0.002,8e-05,0.0,-0.7607671798397061,-0.0017261914447013707,-6.086137438717649e-05,0.0,-0.0017870528190885473,-0.06618495378547058,0.0,0.06618495378547058,-0.08144495166140273,0.0,0.08144495166140273,-0.8630957223506853,0.0,0.8630957223506853,-0.07413327018348473,0,0.07413327018348473,-0.004893543783605722,0.005288469123530799,0.037066635091742364,0.4,0.03394675254821777,1.2985272407531738,STABILIZE
0.06,0.0,0.0,-0.17623304541209378,-0.004624125304805062,-0.0,0.0,-0.004624125304805062,0.08,0.0,0.0,-0.16213690034360786,-0.00450725011953621,-0.0,0.0,-0.00450725011953621,0.5,0,0,-0.1677693313911925,-0.03077054819055923,-0.0,0.0,-0.03077054819055923,0.002,8e-05,0.0,-0.7899593258215789,-0.0017437477343143811,-6.319674606572631e-05,-0.0,-0.0018069444803801074,-0.05634062649420262,0.0,0.05634062649420262,-0.07706875508008437,0.0,0.07706875508008437,-0.8718738671571905,0.0,0.8718738671571905,-0.06154109638111846,0,0.06154109638111846,-0.004628963850217558,0.004502280771784088,0.03077054819055923,0.4,0.03348207473754883,1.3314974308013916,STABILIZE
0.06,0.0,0.0,-0.17887681724214163,-0.004394526817954017,-0.0,0.0,-0.004394526817954017,0.08,0.0,0.0,-0.16395265049909968,-0.004024231674016327,-0.0,0.0,-0.004024231674016327,0.5,0,0,-0.16971297755091339,-0.02692304064855768,-0.0,0.0,-0.02692304064855768,0.002,8e-05,0.0,-0.8216415519953804,-0.0017554262309484245,-6.573132415963044e-05,-0.0,-0.001821157555108055,-0.05030289592520409,0.0,0.05030289592520409,-0.07324211363256695,0.0,0.07324211363256695,-0.8777131154742123,0.0,0.8777131154742123,-0.05384608129711536,0,0.05384608129711536,-0.004398306815107839,0.00402009995896237,0.02692304064855768,0.4,0.03609633445739746,1.3675975799560547,STABILIZE
0.06,0.0,0.0,-0.18119945536147364,-0.0041673393787823,-0.0,0.0,-0.0041673393787823,0.08,0.0,0.0,-0.1656749859524916,-0.004120347059177854,-0.0,-0.0,-0.004120347059177854,0.5,0,0,-0.1713937800422055,-0.025131172866235965,-0.0,0.0,-0.025131172866235965,0.002,8e-05,0.0,-0.8511920287876045,-0.0017673418367536412,-6.809536230300836e-05,-0.0,-0.0018354371990566495,-0.05150433823972318,0.0,0.05150433823972318,-0.06945565631303834,0.0,0.06945565631303834,-0.8836709183768205,0.0,0.8836709183768205,-0.05026234573247193,0,0.05026234573247193,-0.004170952322175591,0.004116689703167252,0.025131172866235965,0.4,0.033440589904785156,1.4010331630706787,STABILIZE
0.06,0.0,0.0,-0.1834825676949453,-0.004090151497161562,-0.0,0.0,-0.004090151497161562,0.08,0.0,0.0,-0.16729458975500072,-0.003868651764245143,-0.0,0.0,-0.003868651764245143,0.5,0,0,-0.17302498463446,-0.024352261776513215,-0.0,0.0,-0.024352261776513215,0.002,8e-05,0.0,-0.8809025806569576,-0.0017741959287821338,-7.047220645255661e-05,-0.0,-0.0018446681352346905,-0.048358147053064286,0.0,0.048358147053064286,-0.06816919161935937,0.0,0.06816919161935937,-0.8870979643910669,0.0,0.8870979643910669,-0.04870452355302643,0,0.04870452355302643,-0.004093438583063905,0.003865173516080979,0.024352261776513215,0.4,0.03349184989929199,1.4345393180847168,STABILIZE
0.06,0.0,0.0,-0.18571344843044185,-0.004004561643032679,-0.0,0.0,-0.004004561643032679,0.08,0.0,0.0,-0.1688259392227961,-0.0036651493694765352,-0.0,0.0,-0.0036651493694765352,0.5,0,0,-0.17460972165712382,-0.02370579847036951,-0.0,0.0,-0.02370579847036951,0.002,8e-05,0.0,-0.9105035730907997,-0.0017711838648915206,-7.284028584726398e-05,0.0,-0.0018440241507387846,-0.04581436711845669,0.0,0.04581436711845669,-0.06674269405054466,0.0,0.06674269405054466,-0.8855919324457603,0.0,0.8855919324457603,-0.04741159694073902,0,0.04741159694073902,-0.0040075931404955035,0.003661834386434786,0.02370579847036951,0.4,0.033425092697143555,1.4680795669555664,STABILIZE
0.06,0.0,0.0,-0.1877501798728976,-0.0036507920408632615,-0.0,0.0,-0.0036507920408632615,0.08,0.0,0.0,-0.1702814718948089,-0.0034786763297529246,-0.0,0.0,-0.0034786763297529246,0.5,0,0,-0.17616096434585357,-0.02317137621996886,-0.0,0.0,-0.02317137621996886,0.002,8e-05,0.0,-0.9401394206996788,-0.0017707180946788398,-7.52111536559743e-05,0.0,-0.0018459292483348141,-0.043483454121911555,0.0,0.043483454121911555,-0.06084653401438769,0.0,0.06084653401438769,-0.8853590473394198,0.0,0.8853590473394198,-0.04634275243993772,0,0.04634275243993772,-0.003653604516710409,0.003475722308857127,0.02317137621996886,0.4,0.03347325325012207,1.5014469623565674,STABILIZE
0.06,0.0,0.0,-0.18962566545093065,-0.00336696675498058,-0.0,0.0,-0.00336696675498058,0.08,0.0,0.0,-0.17173261520886007,-0.0034735546906537362,-0.0,0.0,-0.0034735546906537362,0.5,0,0,-0.1776530270554145,-0.022321888254252645,-0.0,0.0,-0.022321888254252645,0.002,8e-05,0.0,-0.9699774399835888,-0.0017855574780222677,-7.759819519868711e-05,-0.0,-0.001863155673220955,-0.0434194336331717,0.0,0.0434194336331717,-0.05611611258300967,0.0,0.05611611258300967,-0.8927787390111338,0.0,0.8927787390111338,-0.04464377650850529,0,0.04464377650850529,-0.0033696722600629267,0.003470930160327263,0.022321888254252645,0.4,0.03342151641845703,1.5348753929138184,STABILIZE
0.06,0.0,0.0,-0.1914218644177122,-0.003223086915727705,-0.0,0.0,-0.003223086915727705,0.08,0.0,0.0,-0.1731046486405549,-0.003282622978425931,-0.0,0.0,-0.003282622978425931,0.5,0,0,-0.17900720790889518,-0.020249439098438765,-0.0,0.0,-0.020249439098438765,0.002,8e-05,0.0,-0.9999632907004792,-0.0017935467226429989,-7.999706325603835e-05,-0.0,-0.0018735437858990371,-0.041032787230324136,0.0,0.041032787230324136,-0.05371811526212842,0.0,0.05371811526212842,-0.8967733613214994,0.0,0.8967733613214994,-0.04049887819687753,0,0.04049887819687753,-0.0032254063955550532,0.0032803439557975655,0.020249439098438765,0.4,0.033437490463256836,1.5683329105377197,STABILIZE
0.06,0.0,0.0,-0.19322872768986674,-0.0032378364034481824,-0.0,-0.0,-0.0032378364034481824,0.08,0.0,0.0,-0.17446380186678184,-0.0032474073432936725,-0.0,0.0,-0.0032474073432936725,0.5,0,0,-0.1802735884382173,-0.018910917064797497,-0.0,0.0,-0.018910917064797497,0.002,8e-05,0.0,-1.0300543944946887,-0.0017974071933816351,-8.24043515595751e-05,-0.0,-0.0018798115449412103,-0.040592591791170904,0.0,0.040592591791170904,-0.05396394005746971,0.0,0.05396394005746971,-0.8987035966908176,0.0,0.8987035966908176,-0.03782183412959499,0,0.03782183412959499,-0.003239979361879661,0.00324526928980721,0.018910917064797497,0.4,0.03348278999328613,1.6018123626708984,STABILIZE
0.06,0.0,0.0,-0.19502857655110276,-0.003227082151958983,-0.0,0.0,-0.003227082151958983,0.08,0.0,0.0,-0.1756210835308223,-0.0027666345274863003,-0.0,0.0,-0.0027666345274863003,0.5,0,0,-0.181477663763446,-0.01799063093271529,-0.0,0.0,-0.01799063093271529,0.002,8e-05,0.0,-1.060538295229571,-0.0018218946805728185,-8.484306361836569e-05,-0.0,-0.001906737744191184,-0.03458293159357875,0.0,0.03458293159357875,-0.05378470253264972,0.0,0.05378470253264972,-0.9109473402864092,0.0,0.9109473402864092,-0.03598126186543058,0,0.03598126186543058,-0.0032288189384425273,0.0027646074019517563,0.01799063093271529,0.4,0.03346395492553711,1.6352577209472656,STABILIZE
0.06,0.0,0.0,-0.1967717219968964,-0.0030418258499632336,-0.0,0.0,-0.0030418258499632336,0.08,0.0,0.0,-0.1767333335612822,-0.002587866589055633,-0.0,0.0,-0.002587866589055633,0.5,0,0,-0.18265548195575593,-0.017127648147828592,-0.0,0.0,-0.017127648147828592,0.002,8e-05,0.0,-1.091801700069264,-0.0018185101962034935,-8.734413600554112e-05,0.0,-0.0019058543322090346,-0.03234833236319541,0.0,0.03234833236319541,-0.05069709749938723,0.0,0.05069709749938723,-0.9092550981017468,0.0,0.9092550981017468,-0.034255296295657184,0,0.034255296295657184,-0.0030433725080897473,0.002586047517208164,0.017127648147828592,0.4,0.034383535385131836,1.669722557067871,STABILIZE
0.06,0.0,0.0,-0.19839941535342648,-0.0029215548821674574,-0.0,0.0,-0.0029215548821674574,0.08,0.0,0.0,-0.1778618402741363,-0.0027007497313262536,-0.0,-0.0,-0.0027007497313262536,0.5,0,0,-0.18364160259248252,-0.014749940199508125,-0.0,0.0,-0.014749940199508125,0.002,8e-05,0.0,-1.1219388415144425,-0.0018031101572971173,-8.97551073211554e-05,0.0,-0.0018928652646182727,-0.03375937164157817,0.0,0.03375937164157817,-0.04869258136945762,0.0,0.04869258136945762,-0.9015550786485587,0.0,0.9015550786485587,-0.02949988039901625,0,0.02949988039901625,-0.0029229450299941926,0.0026992451523356648,0.014749940199508125,0.4,0.03342795372009277,1.7030665874481201,STABILIZE
0.06,0.0,0.0,-0.19992277756369717,-0.0027218852698637696,-0.0,0.0,-0.0027218852698637696,0.08,0.0,0.0,-0.17894711545190775,-0.002585504178593658,-0.0,0.0,-0.002585504178593658,0.5,0,0,-0.18460138250738534,-0.014290816694107571,-0.0,0.0,-0.014290816694107571,0.002,8e-05,0.0,-1.1523158364194686,-0.0018092150467621411,-9.218526691355749e-05,-0.0,-0.0019014003136756986,-0.03231880223242072,0.0,0.03231880223242072,-0.0453647544977295,0.0,0.0453647544977295,-0.9046075233810705,0.0,0.9046075233810705,-0.028581633388215143,0,0.028581633388215143,-0.0027231746933801125,0.0025841460618859693,0.014290816694107571,0.4,0.03358030319213867,1.736649751663208,STABILIZE
0.06,0.0,0.0,-0.20132250120855885,-0.0025128189707114925,-0.0,0.0,-0.0025128189707114925,0.08,0.0,0.0,-0.18007183399374405,-0.002692163889171593,-0.0,-0.0,-0.002692163889171593,0.5,0,0,-0.1855858503608499,-0.014727844714934352,-0.0,-0.0,-0.014727844714934352,0.002,8e-05,0.0,-1.1826642559292315,-0.0018160747791225302,-9.461314047433852e-05,-0.0,-0.0019106879195968686,-0.033652048614644915,0.0,0.033652048614644915,-0.041880316178524876,0.0,0.041880316178524876,-0.908037389561265,0.0,0.908037389561265,-0.029455689429868703,0,0.029455689429868703,-0.002514202676712496,0.0026908716963353714,0.014727844714934352,0.4,0.033421993255615234,1.7700977325439453,STABILIZE
0.06,0.0,0.0,-0.20263579524494557,-0.002356397654303011,-0.0,0.0,-0.002356397654303011,0.08,0.0,0.0,-0.18111288334878337,-0.0024905580322059397,-0.0,0.0,-0.0024905580322059397,0.5,0,0,-0.18646799213823406,-0.01318996836325274,-0.0,0.0,-0.01318996836325274,0.002,8e-05,0.0,-1.2131759491773404,-0.00182486887695182,-9.705407593418724e-05,-0.0,-0.0019219229528860072,-0.031131975402574244,0.0,0.031131975402574244,-0.03927329423838352,0.0,0.03927329423838352,-0.91243443847591,0.0,0.91243443847591,-0.02637993672650548,0,0.02637993672650548,-0.002357544099144406,0.002489472843310336,0.01318996836325274,0.4,0.03343987464904785,1.8035225868225098,STABILIZE
0.06,0.0,0.0,-0.2039110783436554,-0.0022869567394915116,-0.0,0.0,-0.0022869567394915116,0.08,0.0,0.0,-0.18215732479233296,-0.002497319903056771,-0.0,-0.0,-0.002497319903056771,0.5,0,0,-0.18723595137430166,-0.011476468456012853,-0.0,0.0,-0.011476468456012853,0.002,8e-05,0.0,-1.243446735754868,-0.0018094800399801947,-9.947573886038945e-05,0.0,-0.0019089557788405842,-0.031216498788209635,0.0,0.031216498788209635,-0.03811594565819186,0.0,0.03811594565819186,-0.9047400199900973,0.0,0.9047400199900973,-0.022952936912025705,0,0.022952936912025705,-0.0022879569931018493,0.0024964035379372203,0.011476468456012853,0.4,0.03345799446105957,1.836984634399414,STABILIZE
0.06,0.0,0.0,-0.20512674801721345,-0.0021801455918603603,-0.0,0.0,-0.0021801455918603603,0.08,0.0,0.0,-0.1830849326650031,-0.002218058911412229,-0.0,0.0,-0.002218058911412229,0.5,0,0,-0.18793241145720782,-0.010408422155300195,-0.0,0.0,-0.010408422155300195,0.002,8e-05,0.0,-1.2736895261121655,-0.001807883822311802,-0.00010189516208897325,0.0,-0.001909778984400775,-0.02772573639265286,0.0,0.02772573639265286,-0.03633575986433934,0.0,0.03633575986433934,-0.903941911155901,0.0,0.903941911155901,-0.02081684431060039,0,0.02081684431060039,-0.0021809513185986787,0.0022172666691460566,0.010408422155300195,0.4,0.03345656394958496,1.8704469203948975,STABILIZE
0.06,0.0,0.0,-0.2063684590688268,-0.0022275458739659864,-0.0,-0.0,-0.0022275458739659864,0.08,0.0,0.0,-0.18399716614647843,-0.0021819804482573197,-0.0,0.0,-0.0021819804482573197,0.5,0,0,-0.18863197429437806,-0.010458071206755177,-0.0,-0.0,-0.010458071206755177,0.002,8e-05,0.0,-1.303976986259158,-0.001811122021119755,-0.00010431815890073265,-0.0,-0.0019154401800204875,-0.0272747556032165,0.0,0.0272747556032165,-0.03712576456609978,0.0,0.03712576456609978,-0.9055610105598775,0.0,0.9055610105598775,-0.020916142413510353,0,0.020916142413510353,-0.0022283422695975694,0.00218116712489549,0.010458071206755177,0.4,0.03344607353210449,1.9038968086242676,STABILIZE
0.06,0.0,0.0,-0.2075738505902529,-0.002159297206749599,-0.0,0.0,-0.002159297206749599,0.08,0.0,0.0,-0.18475910543143312,-0.0018198826859386341,-0.0,0.0,-0.0018198826859386341,0.5,0,0,-0.1893883751156474,-0.011291588331245264,-0.0,-0.0,-0.011291588331245264,0.002,8e-05,0.0,-1.3341388202349822,-0.00180102931141106,-0.00010673110561879858,0.0,-0.0019077604170298584,-0.022748533574232926,0.0,0.022748533574232926,-0.03598828677915998,0.0,0.03598828677915998,-0.9005146557055299,0.0,0.9005146557055299,-0.022583176662490528,0,0.022583176662490528,-0.0021600143471977003,0.0018190314559006198,0.011291588331245264,0.4,0.033493995666503906,1.9373846054077148,STABILIZE
0.06,0.0,0.0,-0.20874838227373171,-0.0021024595007291904,-0.0,0.0,-0.0021024595007291904,0.08,0.0,0.0,-0.18550299359352204,-0.0017754534348890449,-0.0,0.0,-0.0017754534348890449,0.5,0,0,-0.1901160903020722,-0.010855331597583852,-0.0,0.0,-0.010855331597583852,0.002,8e-05,0.0,-1.3646043963641192,-0.0018178206933841259,-0.00010916835170912955,-0.0,-0.0019269890450932553,-0.022193167936113062,0.0,0.022193167936113062,-0.03504099167881984,0.0,0.03504099167881984,-0.9089103466920629,0.0,0.9089103466920629,-0.021710663195167703,0,0.021710663195167703,-0.0021031321091279074,0.0017746566381193136,0.010855331597583852,0.4,0.03351879119873047,1.9709274768829346,STABILIZE
0.06,0.0,0.0,-0.20990853998523618,-0.0020846179228283185,-0.0,0.0,-0.0020846179228283185,0.08,0.0,0.0,-0.1863413135216971,-0.0020084358416772577,-0.0,-0.0,-0.0020084358416772577,0.5,0,0,-0.19071738819933248,-0.009003634887725157,-0.0,0.0,-0.009003634887725157,0.002,8e-05,0.0,-1.3948073970845736,-0.0018089987823985377,-0.0001115845917667659,0.0,-0.0019205833741653036,-0.025105448020965718,0.0,0.025105448020965718,-0.034743632047138644,0.0,0.034743632047138644,-0.9044993911992688,0.0,0.9044993911992688,-0.018007269775450314,0,0.018007269775450314,-0.002085249043424974,0.002007780575960958,0.009003634887725157,0.4,0.03339195251464844,2.0043082237243652,STABILIZE
0.06,0.0,0.0,-0.21098981086106308,-0.0019361248119724717,-0.0,0.0,-0.0019361248119724717,0.08,0.0,0.0,-0.18717716802409923,-0.0019955759806711943,-0.0,0.0,-0.0019955759806711943,0.5,0,0,-0.19137293112147188,-0.00978179894019324,-0.0,-0.0,-0.00978179894019324,0.002,8e-05,0.0,-1.4249450101709877,-0.0017988147643271748,-0.00011399560081367902,0.0,-0.0019128103651408538,-0.024944699758389928,0.0,0.024944699758389928,-0.03226874686620786,0.0,0.03226874686620786,-0.8994073821635874,0.0,0.8994073821635874,-0.01956359788038648,0,0.01956359788038648,-0.0019368060869104572,0.001994914776092914,0.00978179894019324,0.4,0.03350830078125,2.037838935852051,STABILIZE
0.06,0.0,0.0,-0.2119737055518931,-0.0017676364159685668,-0.0,0.0,-0.0017676364159685668,0.08,0.0,0.0,-0.18797118476864277,-0.0019020096705132253,-0.0,0.0,-0.0019020096705132253,0.5,0,0,-0.19204460529902623,-0.01005591813649969,-0.0,-0.0,-0.01005591813649969,0.002,8e-05,0.0,-1.4549777621536744,-0.00179853211836333,-0.00011639822097229396,0.0,-0.001914930339335624,-0.023775120881415316,0.0,0.023775120881415316,-0.029460606932809448,0.0,0.029460606932809448,-0.899266059181665,0.0,0.899266059181665,-0.02011183627299938,0,0.02011183627299938,-0.0017683039462336085,0.0019013890815713327,0.01005591813649969,0.4,0.03339695930480957,2.0712404251098633,STABILIZE
0.06,0.0,0.0,-0.21286608766606172,-0.0016004169826696359,-0.0,0.0,-0.0016004169826696359,0.08,0.0,0.0,-0.18872820195693527,-0.001810200877075871,-0.0,0.0,-0.001810200877075871,0.5,0,0,-0.19273784874209793,-0.010360645604246781,-0.0,-0.0,-0.010360645604246781,0.002,8e-05,0.0,-1.48505127398634,-0.0017978157675334258,-0.0001188041019189072,0.0,-0.001916619869452333,-0.022627510963448387,0.0,0.022627510963448387,-0.026673616377827267,0.0,0.026673616377827267,-0.8989078837667129,0.0,0.8989078837667129,-0.020721291208493562,0,0.020721291208493562,-0.0016010715457508195,0.0018096219602919048,0.010360645604246781,0.4,0.033455610275268555,2.104702949523926,STABILIZE
0.06,0.0,0.0,-0.2137787030323842,-0.0016340835649434472,-0.0,-0.0,-0.0016340835649434472,0.08,0.0,0.0,-0.1893604365918689,-0.001509397078999759,-0.0,0.0,-0.001509397078999759,0.5,0,0,-0.19332449597447227,-0.008753510663035263,-0.0,0.0,-0.008753510663035263,0.002,8e-05,0.0,-1.5153070129668758,-0.0018058139145205516,-0.00012122456103735007,-0.0,-0.0019270384755579017,-0.018867463487496988,0.0,0.018867463487496988,-0.02723472608239079,0.0,0.02723472608239079,-0.9029069572602758,0.0,0.9029069572602758,-0.017507021326070526,0,0.017507021326070526,-0.0016345446927265696,0.0015088977058736268,0.008753510663035263,0.4,0.033509254455566406,2.138188600540161,STABILIZE
0.06,0.0,0.0,-0.21467708529357007,-0.0016147335173429633,-0.0,0.0,-0.0016147335173429633,0.08,0.0,0.0,-0.19014340359660173,-0.0018763847271380779,-0.0,-0.0,-0.0018763847271380779,0.5,0,0,-0.1938589359440455,-0.008004927014944263,-0.0,0.0,-0.008004927014944263,0.002,8e-05,0.0,-1.5452156102087145,-0.0017919029389322945,-0.00012361724881669716,0.0,-0.0019155201877489917,-0.023454809089225974,0.0,0.023454809089225974,-0.02691222528904939,0.0,0.02691222528904939,-0.8959514694661472,0.0,0.8959514694661472,-0.016009854029888526,0,0.016009854029888526,-0.0016152577624733329,0.0018759334575185387,0.008004927014944263,0.4,0.03338193893432617,2.1715781688690186,STABILIZE
0.06,0.0,0.0,-0.21557660446747018,-0.001612791480122211,-0.0,0.0,-0.001612791480122211,0.08,0.0,0.0,-0.1909133949768373,-0.001840739769784845,-0.0,0.0,-0.001840739769784845,0.5,0,0,-0.194438393783307,-0.008657816803383594,-0.0,-0.0,-0.008657816803383594,0.002,8e-05,0.0,-1.5751835090013449,-0.0017910298913867868,-0.0001260146807201076,0.0,-0.0019170445721068945,-0.02300924712231056,0.0,0.02300924712231056,-0.026879858002036853,0.0,0.026879858002036853,-0.8955149456933934,0.0,0.8955149456933934,-0.01731563360676719,0,0.01731563360676719,-0.0016133477052980032,0.0018402522762469343,0.008657816803383594,0.4,0.03346443176269531,2.205038547515869,STABILIZE
0.06,0.0,0.0,-0.2164270568723099,-0.0015266772386259564,-0.0,0.0,-0.0015266772386259564,0.08,0.0,0.0,-0.19174521635255748,-0.0019909760243492143,-0.0,-0.0,-0.0019909760243492143,0.5,0,0,-0.19494170617961726,-0.007529282600966492,-0.0,0.0,-0.007529282600966492,0.002,8e-05,0.0,-1.6049631974615974,-0.001781952456007122,-0.0001283970557969278,0.0,-0.0019103495118040499,-0.024887200304365177,0.0,0.024887200304365177,-0.02544462064376594,0.0,0.02544462064376594,-0.890976228003561,0.0,0.890976228003561,-0.015058565201932984,0,0.015058565201932984,-0.001527200457283784,0.001990574711922207,0.007529282600966492,0.4,0.033423662185668945,2.238478899002075,STABILIZE
0.06,0.0,0.0,-0.2172033762473675,-0.0013914743104128445,-0.0,0.0,-0.0013914743104128445,0.08,0.0,0.0,-0.192670260118086,-0.002210730406576099,-0.0,-0.0,-0.002210730406576099,0.5,0,0,-0.19543170609096222,-0.007318962515593868,-0.0,0.0,-0.007318962515593868,0.002,8e-05,0.0,-1.6347960435560729,-0.0017824124228890098,-0.00013078368348448584,-0.0,-0.0019131961063734956,-0.027634130082201235,0.0,0.027634130082201235,-0.02319123850688074,0.0,0.02319123850688074,-0.8912062114445048,0.0,0.8912062114445048,-0.014637925031187736,0,0.014637925031187736,-0.0013920390623724567,0.002210374840593386,0.007318962515593868,0.4,0.03347468376159668,2.2719762325286865,STABILIZE
0.06,0.0,0.0,-0.2179040700468302,-0.0012571587234998006,-0.0,0.0,-0.0012571587234998006,0.08,0.0,0.0,-0.1936878187924319,-0.0024342211773678165,-0.0,-0.0,-0.0024342211773678165,0.5,0,0,-0.19590831182588342,-0.007125902186585911,-0.0,0.0,-0.007125902186585911,0.002,8e-05,0.0,-1.664602294955891,-0.0017825755458776222,-0.00013316818359647127,-0.0,-0.0019157437294740935,-0.030427764717097704,0.0,0.030427764717097704,-0.020952645391663343,0.0,0.020952645391663343,-0.8912877729388111,0.0,0.8912877729388111,-0.014251804373171821,0,0.014251804373171821,-0.0012577641749944803,0.0024339083952601955,0.007125902186585911,0.4,0.033441781997680664,2.305408000946045,STABILIZE
0.06,0.0,0.0,-0.21861344432504765,-0.0012677078160037707,-0.0,-0.0,-0.0012677078160037707,0.08,0.0,0.0,-0.19478831531058588,-0.0026222321659862026,-0.0,-0.0,-0.0026222321659862026,0.5,0,0,-0.19629544980330305,-0.005765384307891064,-0.0,0.0,-0.005765384307891064,0.002,8e-05,0.0,-1.6942958635895686,-0.0017688250146570264,-0.00013554366908716551,0.0,-0.001904368683744192,-0.03277790207482753,0.0,0.03277790207482753,-0.021128463600062847,0.0,0.021128463600062847,-0.8844125073285132,0.0,0.8844125073285132,-0.011530768615782129,0,0.011530768615782129,-0.001268235514230691,0.002621976986842897,0.005765384307891064,0.4,0.03357434272766113,2.338972568511963,STABILIZE
0.06,0.0,0.0,-0.21921655785527666,-0.001082377071017846,-0.0,0.0,-0.001082377071017846,0.08,0.0,0.0,-0.19595710498560098,-0.0027967562361453984,-0.0,-0.0,-0.0027967562361453984,0.5,0,0,-0.19654539371391716,-0.0037380131645987887,-0.0,0.0,-0.0037380131645987887,0.002,8e-05,0.0,-1.7237541628253021,-0.0017622435382292124,-0.00013790033302602417,0.0,-0.0019001438712552365,-0.03495945295181748,0.0,0.03495945295181748,-0.018039617850297434,0.0,0.018039617850297434,-0.8811217691146062,0.0,0.8811217691146062,-0.007476026329197577,0,0.007476026329197577,-0.0010827419861207863,0.0027966149823982853,0.0037380131645987887,0.4,0.033432722091674805,2.3724231719970703,STABILIZE
0.06,0.0,0.0,-0.21979471218841054,-0.0010369924659841899,-0.0,0.0,-0.0010369924659841899,0.08,0.0,0.0,-0.19704486293786724,-0.0026013741468193154,-0.0,0.0,-0.0026013741468193154,0.5,0,0,-0.19684182963408708,-0.004430792354310252,-0.0,-0.0,-0.004430792354310252,0.002,8e-05,0.0,-1.7532033377634018,-0.0017606932261337077,-0.00014025626702107214,0.0,-0.00190094949315478,-0.03251717683524144,0.0,0.03251717683524144,-0.017283207766403165,0.0,0.017283207766403165,-0.8803466130668538,0.0,0.8803466130668538,-0.008861584708620505,0,0.008861584708620505,-0.001037394792068785,0.0026012137304797646,0.004430792354310252,0.4,0.03345179557800293,2.4058642387390137,STABILIZE
0.06,0.0,0.0,-0.2203725444710353,-0.0010356545492524107,-0.0,0.0,-0.0010356545492524107,0.08,0.0,0.0,-0.19819482292492782,-0.002748112968345897,-0.0,-0.0,-0.002748112968345897,0.5,0,0,-0.1971606978436733,-0.004762588871662485,-0.0,-0.0,-0.004762588871662485,0.002,8e-05,0.0,-1.7825939672303317,-0.0017559039204566996,-0.00014260751737842656,0.0,-0.001898511437835126,-0.034351412104323714,0.0,0.034351412104323714,-0.017260909154206847,0.0,0.017260909154206847,-0.8779519602283498,0.0,0.8779519602283498,-0.00952517774332497,0,0.00952517774332497,-0.0010361113969398715,0.002747940757241578,0.004762588871662485,0.4,0.03347635269165039,2.4393413066864014,STABILIZE
0.06,0.0,0.0,-0.22099590892978802,-0.0011182737934622268,-0.0,-0.0,-0.0011182737934622268,0.08,0.0,0.0,-0.19931196104547855,-0.0026720939173404514,-0.0,0.0,-0.0026720939173404514,0.5,0,0,-0.1973308473232846,-0.002543639082895318,-0.0,0.0,-0.002543639082895318,0.002,8e-05,0.0,-1.8118394418961197,-0.0017488136320525332,-0.00014494715535168958,0.0,-0.0018937607874042227,-0.03340117396675564,0.0,0.03340117396675564,-0.01863789655770378,0.0,0.01863789655770378,-0.8744068160262666,0.0,0.8744068160262666,-0.005087278165790636,0,0.005087278165790636,-0.001118511043615365,0.0026719946155527156,0.002543639082895318,0.4,0.03344607353210449,2.472818374633789,STABILIZE
0.06,0.0,0.0,-0.22161440363421675,-0.0011096485236642022,-0.0,0.0,-0.0011096485236642022,0.08,0.0,0.0,-0.20039017218385066,-0.002579241480594409,-0.0,0.0,-0.002579241480594409,0.5,0,0,-0.19741918883065115,-0.0013207876926246364,-0.0,0.0,-0.0013207876926246364,0.002,8e-05,0.0,-1.8411448808222917,-0.0017525742638758277,-0.00014729159046578333,-0.0,-0.001899865854341611,-0.03224051850743011,0.0,0.03224051850743011,-0.01849414206107004,0.0,0.01849414206107004,-0.8762871319379139,0.0,0.8762871319379139,-0.0026415753852492728,0,0.0026415753852492728,-0.0011097674363187203,0.002579190318409162,0.0013207876926246364,0.4,0.03344273567199707,2.5062367916107178,STABILIZE
0.06,0.0,0.0,-0.22222993599824015,-0.0011028477651195778,-0.0,0.0,-0.0011028477651195778,0.08,0.0,0.0,-0.20142975896452286,-0.0024834999743812915,-0.0,0.0,-0.0024834999743812915,0.5,0,0,-0.19742642419221776,-0.00010802982372038904,-0.0,0.0,-0.00010802982372038904,0.002,8e-05,0.0,-1.8705509094151935,-0.0017562235451355182,-0.0001496440727532155,-0.0,-0.0019058676178887338,-0.031043749679766145,0.0,0.031043749679766145,-0.0183807960853263,0.0,0.0183807960853263,-0.8781117725677591,0.0,0.8781117725677591,-0.00021605964744077807,0,0.00021605964744077807,-0.0011028571302714994,0.002483495815577396,0.00010802982372038904,0.4,0.033487796783447266,2.5397379398345947,STABILIZE
0.06,0.0,0.0,-0.222796465822837,-0.0010165989173551101,-0.0,0.0,-0.0010165989173551101,0.08,0.0,0.0,-0.2025772497512649,-0.0027454580284619846,-0.0,-0.0,-0.0027454580284619846,0.5,0,0,-0.19726168640408803,0.0024634221916933845,-0.0,0.0,0.0024634221916933845,0.002,8e-05,0.0,-1.9001106789595301,-0.001768099307476809,-0.00015200885431676243,-0.0,-0.0019201081617935714,-0.034318225355774806,0.0,0.034318225355774806,-0.016943315289251835,0.0,0.016943315289251835,-0.8840496537384045,0.0,0.8840496537384045,0.004926844383386769,0,-0.004926844383386769,-0.001016362832604879,0.0027455454353030356,-0.0024634221916933845,0.4,0.03343677520751953,2.573188066482544,STABILIZE
0.06,0.0,0.0,-0.22342609627731472,-0.0011294582081706754,-0.0,-0.0,-0.0011294582081706754,0.08,0.0,0.0,-0.20362908238993394,-0.0025157635433459852,-0.0,0.0,-0.0025157635433459852,0.5,0,0,-0.1972447359642602,0.00025338690416867567,-0.0,-0.0,0.00025338690416867567,0.002,8e-05,0.0,-1.9292430873667463,-0.0017419656014259176,-0.00015433944698933972,0.0,-0.0018963050484152573,-0.031447044291824815,0.0,0.031447044291824815,-0.018824303469511257,0.0,0.018824303469511257,-0.8709828007129587,0.0,0.8709828007129587,0.0005067738083373513,0,-0.0005067738083373513,-0.0011294359565211846,0.0025157735331603156,-0.00025338690416867567,0.4,0.0334477424621582,2.606616258621216,STABILIZE
0.06,0.0,0.0,-0.22401341726435503,-0.0010533889654816605,-0.0,0.0,-0.0010533889654816605,0.08,0.0,0.0,-0.2047496609156455,-0.0026797499833692696,-0.0,-0.0,-0.0026797499833692696,0.5,0,0,-0.19725127065730222,-9.766910109877648e-05,-0.0,-0.0,-9.766910109877648e-05,0.002,8e-05,0.0,-1.9584471030523343,-0.0017459610984887244,-0.00015667576824418675,-0.0,-0.0019026368667329112,-0.03349687479211587,0.0,0.03349687479211587,-0.017556482758027677,0.0,0.017556482758027677,-0.8729805492443622,0.0,0.8729805492443622,-0.00019533820219755295,0,0.00019533820219755295,-0.0010533981015331771,0.002679746392040191,9.766910109877648e-05,0.4,0.03345322608947754,2.6400749683380127,STABILIZE
0.06,0.0,0.0,-0.22458145179773967,-0.0010195898186271292,-0.0,0.0,-0.0010195898186271292,0.08,0.0,0.0,-0.2057124866379017,-0.0023042901932396245,-0.0,0.0,-0.0023042901932396245,0.5,0,0,-0.19733321234889017,-0.0012256724658144167,-0.0,-0.0,-0.0012256724658144167,0.002,8e-05,0.0,-1.9873637648187858,-0.0017301256756394254,-0.00015898910118550288,0.0,-0.0018891147768249283,-0.028803627415495303,0.0,0.028803627415495303,-0.01699316364378549,0.0,0.01699316364378549,-0.8650628378197127,0.0,0.8650628378197127,-0.0024513449316288334,0,0.0024513449316288334,-0.0010196884045380983,0.00230424656895892,0.0012256724658144167,0.4,0.03342723846435547,2.6735222339630127,STABILIZE
0.06,0.0,0.0,-0.2251330894878915,-0.000988945191637321,-0.0,0.0,-0.000988945191637321,0.08,0.0,0.0,-0.20652356189264454,-0.001938733792254478,-0.0,0.0,-0.001938733792254478,0.5,0,0,-0.1974900851571694,-0.002343606625266551,-0.0,-0.0,-0.002343606625266551,0.002,8e-05,0.0,-2.0161949247299296,-0.0017228963546467976,-0.00016129559397839438,0.0,-0.001884191948625192,-0.024234172403180973,0.0,0.024234172403180973,-0.016482419860622016,0.0,0.016482419860622016,-0.8614481773233988,0.0,0.8614481773233988,-0.004687213250533102,0,0.004687213250533102,-0.0009891037909125684,0.0019386528828272463,0.002343606625266551,0.4,0.03346824645996094,2.706979990005493,STABILIZE
0.06,0.0,0.0,-0.2257494012287715,-0.0010994224874972542,-0.0,-0.0,-0.0010994224874972542,0.08,0.0,0.0,-0.2072939257970748,-0.0018323095146135918,-0.0,0.0,-0.0018323095146135918,0.5,0,0,-0.19740420056707067,0.0012767273905519155,-0.0,0.0,0.0012767273905519155,0.002,8e-05,0.0,-2.0452123213749425,-0.0017254459761226492,-0.0001636169857099954,-0.0,-0.0018890629618326447,-0.022903868932669897,0.0,0.022903868932669897,-0.01832370812495424,0.0,0.01832370812495424,-0.8627229880613246,0.0,0.8627229880613246,0.002553454781103831,0,-0.002553454781103831,-0.0010993408273455873,0.0018323585098689791,-0.0012767273905519155,0.4,0.03363466262817383,2.7406134605407715,STABILIZE
0.06,0.0,0.0,-0.22640274394486903,-0.001171835577546168,-0.0,-0.0,-0.001171835577546168,0.08,0.0,0.0,-0.20828124132109868,-0.0023611323303140684,-0.0,-0.0,-0.0023611323303140684,0.5,0,0,-0.1971148412489637,0.00432495757710947,-0.0,0.0,0.00432495757710947,0.002,8e-05,0.0,-2.074091658490432,-0.0017265994224297215,-0.00016592733267923457,-0.0,-0.0018925267551089561,-0.029514154128925853,0.0,0.029514154128925853,-0.0195305929591028,0.0,0.0195305929591028,-0.8632997112148607,0.0,0.8632997112148607,0.00864991515421894,0,-0.00864991515421894,-0.0011714791052273423,0.002361309214836771,-0.00432495757710947,0.4,0.03345227241516113,2.7740917205810547,STABILIZE
0.06,0.0,0.0,-0.2271325845103076,-0.0013088835438826113,-0.0,-0.0,-0.0013088835438826113,0.08,0.0,0.0,-0.20941508485797783,-0.0027112207186730246,-0.0,-0.0,-0.0027112207186730246,0.5,0,0,-0.19675752275699218,0.0053400737573582715,-0.0,0.0,0.0053400737573582715,0.002,8e-05,0.0,-2.1030046031527783,-0.001728399290923369,-0.00016824036825222228,-0.0,-0.0018966396591755912,-0.03389025898341281,0.0,0.03389025898341281,-0.021814725731376855,0.0,0.021814725731376855,-0.8641996454616845,0.0,0.8641996454616845,0.010680147514716543,0,-0.010680147514716543,-0.0013083781394675885,0.002711464652355237,-0.0053400737573582715,0.4,0.03345632553100586,2.8075389862060547,STABILIZE
0.06,0.0,0.0,-0.22783899576942462,-0.0012667665276126499,-0.0,0.0,-0.0012667665276126499,0.08,0.0,0.0,-0.21069382059047176,-0.003057443951483768,-0.0,-0.0,-0.003057443951483768,0.5,0,0,-0.1964712130423007,0.004278522348238032,-0.0,-0.0,0.004278522348238032,0.002,8e-05,0.0,-2.131998924715482,-0.0017331280974758345,-0.00017055991397723857,-0.0,-0.001903688011453073,-0.0382180493935471,0.0,0.0382180493935471,-0.02111277546021083,0.0,0.02111277546021083,-0.8665640487379173,0.0,0.8665640487379173,0.008557044696476064,0,-0.008557044696476064,-0.001266309888500175,0.003057633107197651,-0.004278522348238032,0.4,0.03345894813537598,2.841026782989502,STABILIZE
0.06,0.0,0.0,-0.22845114558214943,-0.0010965608525106065,-0.0,0.0,-0.0010965608525106065,0.08,0.0,0.0,-0.21189387023845555,-0.0028662427349075564,-0.0,0.0,-0.0028662427349075564,0.5,0,0,-0.19674149292869972,-0.004034665159918611,-0.0,-0.0,-0.004034665159918611,0.002,8e-05,0.0,-2.1607605165521275,-0.001717381105537327,-0.0001728608413241702,0.0,-0.0018902419468614972,-0.035828034186344455,0.0,0.035828034186344455,-0.01827601420851011,0.0,0.01827601420851011,-0.8586905527686635,0.0,0.8586905527686635,-0.008069330319837222,0,0.008069330319837222,-0.001096964512892378,0.002866088270818595,0.004034665159918611,0.4,0.03349471092224121,2.8745272159576416,STABILIZE
0.06,0.0,0.0,-0.22917189560705079,-0.0012734775627962326,-0.0,-0.0,-0.0012734775627962326,0.08,0.0,0.0,-0.2128009967691798,-0.002137042883261571,-0.0,0.0,-0.002137042883261571,0.5,0,0,-0.1967786350387071,-0.0005468798947294105,-0.0,0.0,-0.0005468798947294105,0.002,8e-05,0.0,-2.189828981679882,-0.001712014653540332,-0.0001751863185343906,0.0,-0.0018872009720747227,-0.026713036040769637,0.0,0.026713036040769637,-0.021224626046603877,0.0,0.021224626046603877,-0.856007326770166,0.0,0.856007326770166,-0.001093759789458821,0,0.001093759789458821,-0.0012735183580921334,0.0021370185725553903,0.0005468798947294105,0.4,0.03395819664001465,2.908464193344116,STABILIZE
0.06,0.0,0.0,-0.22992763333525945,-0.0013567096337115984,-0.0,-0.0,-0.0013567096337115984,0.08,0.0,0.0,-0.21356862327706724,-0.0018374033556355907,-0.0,0.0,-0.0018374033556355907,0.5,0,0,-0.197157094153894,-0.0056617870236223495,-0.0,-0.0,-0.0056617870236223495,0.002,8e-05,0.0,-2.21823329318945,-0.0016997256069827002,-0.00017745866345515601,0.0,-0.0018771842704378562,-0.022967541945444883,0.0,0.022967541945444883,-0.02261182722852664,0.0,0.02261182722852664,-0.8498628034913501,0.0,0.8498628034913501,-0.011323574047244699,0,0.011323574047244699,-0.00135707273994543,0.0018371351882765165,0.0056617870236223495,0.4,0.033422231674194336,2.941901922225952,STABILIZE
0.06,0.0,0.0,-0.23064343234516735,-0.0012839578541900898,-0.0,0.0,-0.0012839578541900898,0.08,0.0,0.0,-0.21472388732786443,-0.0027629922760494547,-0.0,-0.0,-0.0027629922760494547,0.5,0,0,-0.1972513169366366,-0.0014084270429670547,-0.0,0.0,-0.0014084270429670547,0.002,8e-05,0.0,-2.2468112433212553,-0.0017087144585044727,-0.00017974489946570043,-0.0,-0.0018884593579701731,-0.03453740345061818,0.0,0.03453740345061818,-0.02139929756983483,0.0,0.02139929756983483,-0.8543572292522363,0.0,0.8543572292522363,-0.0028168540859341094,0,0.0028168540859341094,-0.0012840936906729874,0.0027629291490045838,0.0014084270429670547,0.4,0.033449649810791016,2.9753689765930176,STABILIZE
0.06,0.0,0.0,-0.23122916406821592,-0.0010513927669567446,-0.0,0.0,-0.0010513927669567446,0.08,0.0,0.0,-0.21617829560371563,-0.0034808981228315627,-0.0,-0.0,-0.0034808981228315627,0.5,0,0,-0.1972499681615303,2.0175510608312023e-05,-0.0,0.0,2.0175510608312023e-05,0.002,8e-05,0.0,-2.2755566060125405,-0.0017199379413192569,-0.00018204452848100326,-0.0,-0.00190198246980026,-0.043511226535394534,0.0,0.043511226535394534,-0.01752321278261241,0.0,0.01752321278261241,-0.8599689706596284,0.0,0.8599689706596284,4.0351021216624046e-05,0,-4.0351021216624046e-05,-0.0010513903155055181,0.0034808988632826525,-2.0175510608312023e-05,0.4,0.03342604637145996,3.0087554454803467,STABILIZE
0.06,0.0,0.0,-0.23211626272594854,-0.0015917242068771685,-0.0,-0.0,-0.0015917242068771685,0.08,0.0,0.0,-0.21722873321778,-0.002513071819082874,-0.0,0.0,-0.002513071819082874,0.5,0,0,-0.1971016260013639,0.0022180904493079713,-0.0,0.0,0.0022180904493079713,0.002,8e-05,0.0,-2.3043734717226436,-0.0017235400789331968,-0.00018434987773781152,-0.0,-0.0019078899566710083,-0.03141339773853592,0.0,0.03141339773853592,-0.026528736781286144,0.0,0.026528736781286144,-0.8617700394665984,0.0,0.8617700394665984,0.004436180898615943,0,-0.004436180898615943,-0.0015915296251009282,0.0025131950523294756,-0.0022180904493079713,0.4,0.03343915939331055,3.042203903198242,STABILIZE
