Mode,Time,Freq,time2delay,actualDelay,North-Desired,East-Desired,Down-Desired,Roll-UAV,Pitch-UAV,Yaw-UAV,Roll-Control,Pitch-Control,Yaw-Control,Thrust-Control,North-Pos,East-Pos,Down-Pos,Yaw-Ang,North-Vel,East-Vel,Down-Vel,Yaw-Vel,North-Acc,East-Acc,Down-Acc,North-Avg,East-Avg,Down-Avg,Yaw-Avg,North-Dif,East-Dif,Down-Dif,Yaw-Dif,North-One,East-One,Down-One,Yaw-One,North-Two,East-Two,Down-Two,Yaw-Two,Landing-State,Q-Size,Kalman-Time,Kalman-Dt
STABILIZE,0.03444170951843262,29.043409618114463,0.033306392033894856,0.033434391021728516,0.0,0.0,0.0,-0.48392840092721795,-0.8101346605098833,-9.348445766050602,-0.017824351075761826,0.0174859514352852,0.022539786804165147,0.4,0.08591871593194164,0.08953180280158862,0.12613590453280477,0.09015914721666059,0.007732734957244247,0.0935617194045335,1.9771847873926163,0.11837853083777347,1.4186888001859188,-0.48058447428047657,34.45800244808197,0.0,0.0,0.0,0.0,0.0,0.0,0.0,0.0,0.0,0.0,0.0,0.0,0.0,0.0,0.0,0.0,False,0,0.144545316696167,0.02993701171875
STABILIZE,0.06764101982116699,30.1198098438824,0.03223398526509603,0.03235578536987305,0.0,0.0,0.0,-0.4841843195776819,-0.8102298029105874,-9.348780445319933,-0.004537984594145763,0.00467470497688266,0.02567177502685205,0.4,0.09824945649116745,0.10325595614913223,0.15389707213859638,0.1026871001074082,0.039414429920725524,0.20719908643513918,1.855292171239853,-0.06125540431292221,0.5016905255615711,-0.44206948950886726,24.3335098028183,0.0,0.0,0.0,0.0,0.0,0.0,0.0,0.0,0.0,0.0,0.0,0.0,0.0,0.0,0.0,0.0,False,0,0.17360615730285645,0.034927001953125
STABILIZE,0.10109734535217285,29.8905659839512,0.03251221974690755,0.0326385498046875,0.0,0.0,0.0,-0.4837733342887175,-0.8092549534891268,-9.350327483166941,-0.004981120615855472,0.005048290614854477,0.029240324254136123,0.4,0.11088548774910709,0.11783008959592435,0.18668672811155387,0.1169612970165445,-0.16789191868156195,0.0264367728959769,1.7290061339735985,0.00031941806540387754,1.6087444499135017,-0.5326652433723211,29.111433029174805,0.0,0.0,0.0,0.0,0.0,0.0,0.0,0.0,0.0,0.0,0.0,0.0,0.0,0.0,0.0,0.0,False,0,0.2018890380859375,0.034926025390625
STABILIZE,0.13571953773498535,28.88400407679806,0.0325043519337972,0.033783912658691406,0.0,0.0,0.0,-0.483312616684859,-0.8093760292643358,-9.35121796907998,-0.004681057458172802,0.005081031241315967,0.03224408098574563,0.4,0.12243048172169274,0.12978619739274058,0.21754153470147608,0.12897632394298253,0.043571231071837246,-0.024002051213756204,1.5000049956142902,0.007093311535616914,3.6190439015626907,1.18523258715868,20.498022437095642,0.0,0.0,0.0,0.0,0.0,0.0,0.0,0.0,0.0,0.0,0.0,0.0,0.0,0.0,0.0,0.0,False,1,0.23072266578674316,0.02993701171875
STABILIZE,0.16913914680480957,29.9212715262024,0.03247073491414388,0.032644033432006836,0.0,0.0,0.0,-0.48311560841598644,-0.8097112421421954,-9.351304200218253,-0.005319504361842184,0.005287781452997433,0.03522101161706333,0.4,0.1332225781154377,0.14339955975617555,0.26671617150155075,0.1408840464682533,-0.1518252887763083,0.16174670308828354,1.6616765409708023,-0.06565124469363366,-2.3108383640646935,1.4201237820088863,18.189658224582672,0.0,0.0,0.0,0.0,0.0,0.0,0.0,0.0,0.0,0.0,0.0,0.0,0.0,0.0,0.0,0.0,False,0,0.28803110122680664,0.034927001953125
STABILIZE,0.20282292366027832,29.68767208612623,0.03255513509114583,0.03271794319152832,0.0,0.0,0.0,-0.48285200580270626,-0.810229536106323,-9.351607289862672,-0.00471515193508145,0.004405665267608996,0.0372777380743064,0.4,0.13832470560941815,0.15262312221893037,0.29798386630907364,0.1491109522972256,-0.17515685176476836,0.21334919147193432,1.7228949815034866,0.12768155531223496,-2.415478229522705,1.6555899754166603,20.29767781496048,0.0,0.0,0.0,0.0,0.0,0.0,0.0,0.0,0.0,0.0,0.0,0.0,0.0,0.0,0.0,0.0,False,0,0.31672000885009766,0.06985205078125
STABILIZE,0.23615598678588867,30.00110153427989,0.032340319951375325,0.032479286193847656,0.0,0.0,0.0,-0.48306470216232866,-0.8102986917716694,-9.352326167272816,-0.0080545860540874,0.007493881406101429,0.04357783003757041,0.4,0.15791672191441677,0.17760316686379507,0.3716751507553316,0.17431132015028164,-0.17896851059049368,0.031728800968267024,1.7562558874487877,0.12997868666832776,-4.961364716291428,-0.43909712694585323,23.08962494134903,0.0,0.0,0.0,0.0,0.0,0.0,0.0,0.0,0.0,0.0,0.0,0.0,0.0,0.0,0.0,0.0,False,0,0.3452765941619873,0.029936767578125
STABILIZE,0.26958537101745605,29.913589227894505,0.03248122533162435,0.032613277435302734,0.0,0.0,0.0,-0.48355081953216317,-0.8110354450675316,-9.353189332429176,-0.0035772405443130068,0.003466558235337111,0.04387919100787406,0.4,0.15528709933208332,0.17767605140881895,0.39381861283445324,0.17551676403149624,-0.17896851059049368,0.031728800968267024,1.7562558874487877,0.12997868666832776,-4.961364716291428,-0.43909712694585323,23.08962494134903,0.0,0.0,0.0,0.0,0.0,0.0,0.0,0.0,0.0,0.0,0.0,0.0,0.0,0.0,0.0,0.0,False,0,0.37398338317871094,0.029936767578125
STABILIZE,0.3030526638031006,29.879280498664293,0.032483609517415364,0.03263521194458008,0.0,0.0,0.0,-0.4838400353548309,-0.8104279317573707,-9.352877705048295,-0.003473516553741598,0.003428613369150769,0.04272676322455018,0.4,0.15273719229695326,0.17722310906974936,0.4134942851015505,0.1709070528982007,-0.1118628541007638,0.04229364567436278,1.56467966735363,-0.30694027028561627,0.6471878848969936,-0.4076611716300249,21.416713297367096,0.0,0.0,0.0,0.0,0.0,0.0,0.0,0.0,0.0,0.0,0.0,0.0,0.0,0.0,0.0,0.0,False,0,0.4027211666107178,0.03492724609375
STABILIZE,0.3368813991546631,29.560459232216733,0.0324893315633138,0.03290534019470215,0.0,0.0,0.0,-0.4852397972478604,-0.8098603323651721,-9.352196393678586,-0.003855188048669032,0.004110445336621405,0.04322073839848252,0.4,0.1537997241220111,0.17872988456993325,0.4425756117510997,0.17288295359393008,0.08481963886879385,0.07421778282150626,1.849488914012909,0.12758038313515416,3.5969633609056473,-0.2509172074496746,25.39677321910858,0.0,0.0,0.0,0.0,0.0,0.0,0.0,0.0,0.0,0.0,0.0,0.0,0.0,0.0,0.0,0.0,False,1,0.43179821968078613,0.034926025390625
STABILIZE,0.3702406883239746,29.97751491977272,0.03240040143330892,0.032518863677978516,0.0,0.0,0.0,-0.48579859209933207,-0.8101640089789731,-9.352202370094108,-0.0036576688462691747,0.003929664464638526,0.04346499113440826,0.4,0.15378751402270807,0.17908661474321824,0.49766397166296694,0.17385996453763303,0.06063124747015536,0.05664796335622668,1.7496952787041664,0.0613082182170708,6.008938699960709,-0.16866298392415047,23.504839837551117,0.0,0.0,0.0,0.0,0.0,0.0,0.0,0.0,0.0,0.0,0.0,0.0,0.0,0.0,0.0,0.0,False,0,0.4890403747558594,0.064863037109375
STABILIZE,0.40378618240356445,29.80941551057539,0.03243759473164876,0.03268575668334961,0.0,0.0,0.0,-0.4860949582762872,-0.8102517875819784,-9.351941969132003,-0.005228623069478263,0.005142864515298417,0.04634314829114914,0.4,0.15970551702598892,0.18728686241810305,0.5599491717445725,0.18537259316459656,-0.020093073544558138,0.007177113729994744,1.6605809330940247,0.24103983040898294,-0.9623963385820389,-0.21255186293274164,20.513756573200226,0.0,0.0,0.0,0.0,0.0,0.0,0.0,0.0,0.0,0.0,0.0,0.0,0.0,0.0,0.0,0.0,False,0,0.5175991058349609,0.0349267578125
STABILIZE,0.43824172019958496,29.0233124589143,0.032503875096639,0.033644914627075195,0.0,0.0,0.0,-0.48777529153381605,-0.810306215651927,-9.351964167246805,-0.0033001000401108784,0.003810141710773636,0.045370479713129845,0.4,0.15823912225517942,0.18492849639238512,0.5787896657398134,0.18148191885251938,0.1312608364969492,0.09679332142695785,1.552923396229744,-0.009227745651245898,5.595038831233978,-0.06313181947916746,22.670122981071472,0.0,0.0,0.0,0.0,0.0,0.0,0.0,0.0,0.0,0.0,0.0,0.0,0.0,0.0,0.0,0.0,False,0,0.5461201667785645,0.02993701171875
STABILIZE,0.4718208312988281,29.779573289786644,0.03247192700703939,0.03273487091064453,0.0,0.0,0.0,-0.48756259517419365,-0.8100325278374504,-9.351524473818985,-0.002923479437573609,0.0027244795480872988,0.04422200289822429,0.4,0.15159864305973195,0.18098491514023807,0.5953272626699239,0.17688801159289716,-0.10573196923360229,0.10363137116655707,1.8498297780752182,0.054912866637264565,2.8290681540966034,-0.011182353046024218,21.472516655921936,0.0,0.0,0.0,0.0,0.0,0.0,0.0,0.0,0.0,0.0,0.0,0.0,0.0,0.0,0.0,0.0,False,0,0.5749375820159912,0.03492626953125
STABILIZE,0.5073177814483643,28.172758903263073,0.03251484235127767,0.034689903259277344,0.0,0.0,0.0,-0.48754253149350674,-0.809658681702098,-9.351724256852208,-0.003048916467527699,0.002617218201828351,0.042389629578650334,0.4,0.14487893587583464,0.17792494278335813,0.6172807761391608,0.16955851831460134,-0.17005044501274824,0.0773959793150425,1.8155284225940704,-0.18908016681410264,-5.160418897867203,-0.04236951936036348,20.510558784008026,0.0,0.0,0.0,0.0,0.0,0.0,0.0,0.0,0.0,0.0,0.0,0.0,0.0,0.0,0.0,0.0,False,0,0.6035537719726562,0.0349267578125
STABILIZE,0.5408587455749512,29.814289065332204,0.03251150449117025,0.03266167640686035,0.0,0.0,0.0,-0.48752417536011233,-0.8090130153821202,-9.351679860622603,-0.002479331000334341,0.0013142494715494444,0.0397772811225847,0.4,0.13287788769897071,0.17248785523864651,0.6496584593062222,0.1591091244903388,-0.08469050517305732,0.15012582298368216,1.7319126054644585,-0.0066302994150840965,-3.3189311623573303,2.162068337202072,24.90353286266327,0.0,0.0,0.0,0.0,0.0,0.0,0.0,0.0,0.0,0.0,0.0,0.0,0.0,0.0,0.0,0.0,False,0,0.6610615253448486,0.029937255859375
STABILIZE,0.5748140811920166,29.45065932677049,0.03242042859395345,0.033058881759643555,0.0,0.0,0.0,-0.4871774365380284,-0.8089314266380503,-9.35146897853198,-0.0026422696738039645,0.0022341996930529497,0.038847245578849096,0.4,0.12674137123463977,0.16835420787918964,0.6633649434864481,0.15538898231539638,-0.07661793497391045,0.0962392776273191,1.8176518380641937,0.11039112486143941,1.7178196460008621,0.15361406840384007,25.16423463821411,0.0,0.0,0.0,0.0,0.0,0.0,0.0,0.0,0.0,0.0,0.0,0.0,0.0,0.0,0.0,0.0,False,0,0.689525842666626,0.03492578125
STABILIZE,0.6082203388214111,29.934511404835995,0.03244903882344564,0.03256845474243164,0.0,0.0,0.0,-0.48848424382532224,-0.8086199059788742,-9.350811572824366,-0.002688354875684206,0.0031686339685698993,0.03760644463761738,0.4,0.12596263218707934,0.16490742808570566,0.6854332169872092,0.1504257785504695,0.20788260735571384,0.07464179652743042,1.9699465483427048,-0.019174608836473647,3.915279358625412,0.3295451635494828,27.932599186897278,0.0,0.0,0.0,0.0,0.0,0.0,0.0,0.0,0.0,0.0,0.0,0.0,0.0,0.0,0.0,0.0,False,0,0.7182834148406982,0.034926025390625
STABILIZE,0.6416912078857422,29.87693929594119,0.03248790105183919,0.03261113166809082,0.0,0.0,0.0,-0.48752844422834357,-0.8081360297648612,-9.35060581337562,-0.0029369014782144303,0.0025102043633086946,0.03660522176807296,0.4,0.12202065280562321,0.16306366546013734,0.7032891989048727,0.14642088707229184,0.016337825218215585,0.17778933979570866,1.7686765640974045,0.04454209149645968,-0.38149759639054537,2.323743887245655,24.840430915355682,0.0,0.0,0.0,0.0,0.0,0.0,0.0,0.0,0.0,0.0,0.0,0.0,0.0,0.0,0.0,0.0,False,0,0.746880292892456,0.02993701171875
STABILIZE,0.675105094909668,29.92703583991552,0.032456429799397786,0.03257870674133301,0.0,0.0,0.0,-0.48715758630075306,-0.8087396477327611,-9.350558002051429,-0.0028397943954359527,0.002511333972283088,0.0349476105801594,0.4,0.11852532793198843,0.16091969199294923,0.7114378787806414,0.1397904423206376,0.07135331979952753,0.21421965211629868,1.610635593533516,-0.07297135986435599,3.867785632610321,2.22440455108881,20.296166837215424,0.0,0.0,0.0,0.0,0.0,0.0,0.0,0.0,0.0,0.0,0.0,0.0,0.0,0.0,0.0,0.0,False,0,0.7757649421691895,0.034927001953125
STABILIZE,0.7086405754089355,29.819376213057296,0.0324886163075765,0.03273200988769531,0.0,0.0,0.0,-0.4866625043076329,-0.8086944510903626,-9.350186610515308,-0.0029824315056982548,0.002548163988409899,0.033457797983300466,0.4,0.11559023822108229,0.15970268070323607,0.725322377301403,0.13383119193320187,0.07135331979952753,0.21421965211629868,1.610635593533516,-0.07297135986435599,3.867785632610321,2.22440455108881,20.296166837215424,0.0,0.0,0.0,0.0,0.0,0.0,0.0,0.0,0.0,0.0,0.0,0.0,0.0,0.0,0.0,0.0,False,1,0.8041977882385254,0.034927001953125
STABILIZE,0.7421026229858398,29.884176926584587,0.032517464955647786,0.0326390266418457,0.0,0.0,0.0,-0.4871008103532773,-0.8088394325276667,-9.350067082204834,-0.0019556688544485924,0.0004957415225622741,0.032680414936004494,0.4,0.1029354463926364,0.1534862171920816,0.75282238119414,0.13072165974401798,-0.15450629871338606,0.08746599196456373,1.7001479864120483,0.1690636704613588,-2.4713363498449326,0.4416284151375294,22.106218338012695,0.0,0.0,0.0,0.0,0.0,0.0,0.0,0.0,0.0,0.0,0.0,0.0,0.0,0.0,0.0,0.0,False,0,0.861962080001831,0.02993701171875
STABILIZE,0.7755465507507324,29.90079416000114,0.032505067189534505,0.032622575759887695,0.0,0.0,0.0,-0.4859881298487999,-0.8072300158436295,-9.349687152932251,-0.002375027294224661,0.0016774215120046521,0.032116502869953455,0.4,0.09758305696134707,0.14998385406316794,0.7627613139955296,0.12846601147981382,-0.06036224658600986,0.1265256549231708,1.881064847111702,0.17015151148881558,-0.5126424133777618,0.7329634856432676,34.91199016571045,0.0,0.0,0.0,0.0,0.0,0.0,0.0,0.0,0.0,0.0,0.0,0.0,0.0,0.0,0.0,0.0,False,0,0.890216588973999,0.034927001953125
STABILIZE,0.8089690208435059,29.919777436958306,0.03249815305074056,0.03261113166809082,0.0,0.0,0.0,-0.48517181552127764,-0.8074990612639046,-9.348627619837254,-0.0024006223316388044,0.0008349503582822242,0.031636323515461626,0.4,0.08873728569602776,0.14697150228707284,0.7784775847189694,0.1265452940618465,-0.2864641370251775,0.11053011985495687,1.8904346972703934,0.15569616316242407,-2.297084592282772,0.4969360772520304,25.321462750434875,0.0,0.0,0.0,0.0,0.0,0.0,0.0,0.0,0.0,0.0,0.0,0.0,0.0,0.0,0.0,0.0,False,0,0.9189562797546387,0.03492578125
STABILIZE,0.842564582824707,29.765836349442907,0.03250268300374349,0.032761573791503906,0.0,0.0,0.0,-0.4843074764261537,-0.8084535802004139,-9.346873968767852,-0.002338342380703891,0.000625579030129069,0.031166462343230554,0.4,0.07989032130857526,0.14394032078900482,0.793419993912603,0.12466584937292222,-0.2864641370251775,0.11053011985495687,1.8904346972703934,0.15569616316242407,-2.297084592282772,0.4969360772520304,25.321462750434875,0.0,0.0,0.0,0.0,0.0,0.0,0.0,0.0,0.0,0.0,0.0,0.0,0.0,0.0,0.0,0.0,False,0,0.9478018283843994,0.03492578125
STABILIZE,0.8760011196136475,29.907616833758787,0.03249839146931966,0.032614707946777344,0.0,0.0,0.0,-0.48452134672453967,-0.8083769006548099,-9.34716169048664,-0.0023631353218327633,0.000763255433383802,0.030703431731961744,0.4,0.07280040112265995,0.1413449720575192,0.806694960498745,0.12281372692784698,-0.18545975908637047,0.13640489196404815,1.8369538709521294,0.1547545308718879,-4.287716373801231,2.5258706882596016,23.669998347759247,0.0,0.0,0.0,0.0,0.0,0.0,0.0,0.0,0.0,0.0,0.0,0.0,0.0,0.0,0.0,0.0,False,0,0.97633957862854,0.03492626953125
STABILIZE,0.9093940258026123,29.94669389328783,0.03249934514363607,0.03260993957519531,0.0,0.0,0.0,-0.48486808554662364,-0.808548722601118,-9.347360619746217,-0.0020417793149336465,0.0017540399903386316,0.029283456988493377,0.4,0.07140086088210203,0.13739238889101615,0.8156018435490637,0.11713382795397351,0.1421628170646727,0.056229036999866366,1.6252076253294945,-0.07185050180917309,-1.5980737283825874,0.46074334532022476,22.404348850250244,0.0,0.0,0.0,0.0,0.0,0.0,0.0,0.0,0.0,0.0,0.0,0.0,0.0,0.0,0.0,0.0,False,1,1.0050287246704102,0.02993701171875
STABILIZE,0.9429452419281006,29.804967134482148,0.03252414067586263,0.03264188766479492,0.0,0.0,0.0,-0.485670205887277,-0.807045227210069,-9.346994350851974,-0.0026825447882604147,-0.0007846557071289567,0.027907335965814448,0.4,0.0577357425179545,0.13707248899246502,0.8171316233741679,0.11162934386325779,-0.1932494225911796,0.2888950053602457,1.362253725528717,0.10493035526948116,-0.6636709906160831,2.419784665107727,16.647394001483917,0.0,0.0,0.0,0.0,0.0,0.0,0.0,0.0,0.0,0.0,0.0,0.0,0.0,0.0,0.0,0.0,False,0,1.0624606609344482,0.034926025390625
STABILIZE,0.9763758182525635,29.91465597786162,0.03242686589558919,0.032552480697631836,0.0,0.0,0.0,-0.48639804792070646,-0.8068489659931369,-9.346955077264246,-0.0025406408179910267,0.0016020242307346398,0.026925994821219067,0.4,0.057399314577559646,0.13605028292643095,0.8274460148718886,0.10770397928487627,0.18109814263880253,0.21694062743335962,1.8064022064208984,0.019548695095664072,6.868985295295715,0.5349690094590187,22.60083109140396,0.0,0.0,0.0,0.0,0.0,0.0,0.0,0.0,0.0,0.0,0.0,0.0,0.0,0.0,0.0,0.0,False,0,1.091144323348999,0.029936767578125
STABILIZE,1.0098025798797607,29.91486933698505,0.032434733708699544,0.03256583213806152,0.0,0.0,0.0,-0.48683870184387806,-0.8080351777528977,-9.346785176308643,-0.00219039402869284,0.00240579526741504,0.02648441872476204,0.4,0.06101349419933644,0.1333664282554596,0.8321491894004829,0.10593767489904816,0.3979785833507776,0.14766717795282602,1.8279185518622398,0.15955560690966472,3.893660753965378,2.5309592485427856,25.8528470993042,0.0,0.0,0.0,0.0,0.0,0.0,0.0,0.0,0.0,0.0,0.0,0.0,0.0,0.0,0.0,0.0,False,0,1.1197142601013184,0.03492724609375
STABILIZE,1.0432534217834473,29.893335423957122,0.03244212468465169,0.03255820274353027,0.0,0.0,0.0,-0.48705150492520627,-0.8082058791212952,-9.346344629107177,-0.0018513567990242005,0.0015814817262198393,0.025410755403550183,0.4,0.06012898664494068,0.12926141269681016,0.8381033600744514,0.10164302161420073,0.1269797794520855,0.027730493457056582,1.58680509775877,-0.013207378049516307,3.354615718126297,2.2720443084836006,18.587182462215424,0.0,0.0,0.0,0.0,0.0,0.0,0.0,0.0,0.0,0.0,0.0,0.0,0.0,0.0,0.0,0.0,False,0,1.1484792232513428,0.0347626953125
STABILIZE,1.0767478942871094,29.856522543813444,0.03245595296223958,0.03258848190307617,0.0,0.0,0.0,-0.48740368655428506,-0.8081638841300701,-9.34625498287432,-0.0024437271914009885,0.0017243256646503802,0.024762287571831593,0.4,0.060036157342217476,0.1285364889002101,0.8430833716897577,0.09904915028732637,0.16626374563202262,0.2282621804624796,1.575993373990059,0.08528707806206828,4.686787724494934,0.4423176869750023,15.050199627876282,0.0,0.0,0.0,0.0,0.0,0.0,0.0,0.0,0.0,0.0,0.0,0.0,0.0,0.0,0.0,0.0,False,0,1.1775636672973633,0.02993701171875
STABILIZE,1.1101269721984863,29.95995628477753,0.03241160710652669,0.03252768516540527,0.0,0.0,0.0,-0.48749920248095946,-0.8081202349524055,-9.346072275314024,-0.0023496875201490536,0.001742547723772424,0.02408168915836634,0.4,0.06002290929996571,0.1274139401311319,0.8425166266256412,0.09632675663346536,0.16626374563202262,0.2282621804624796,1.575993373990059,0.08528707806206828,4.686787724494934,0.4423176869750023,15.050199627876282,0.0,0.0,0.0,0.0,0.0,0.0,0.0,0.0,0.0,0.0,0.0,0.0,0.0,0.0,0.0,0.0,False,1,1.205740213394165,0.02993701171875
STABILIZE,1.1435365676879883,29.92981204241533,0.03246787389119466,0.032578229904174805,0.0,0.0,0.0,-0.4875377290167466,-0.8076876385180204,-9.345816996993793,-0.0020953224472303245,-0.0001566487067716322,0.022881576490196127,0.4,0.05070314034747449,0.1251443237658107,0.8523737145769681,0.09152630596078451,-0.03617307229433209,0.1647827448323369,1.7682498320937157,0.26544847190337556,0.1034286804497242,0.6775842979550362,24.579821527004242,0.0,0.0,0.0,0.0,0.0,0.0,0.0,0.0,0.0,0.0,0.0,0.0,0.0,0.0,0.0,0.0,False,0,1.2631258964538574,0.0399169921875
STABILIZE,1.176936388015747,29.940708274143926,0.03249815305074056,0.03260970115661621,0.0,0.0,0.0,-0.48716495009845195,-0.809020485901525,-9.34575894038585,-0.0020564457245201167,0.0016210050426970425,0.020638602427517607,0.4,0.05119833746827712,0.12289494571089292,0.8612828472208677,0.08255440971007043,0.18151990370824933,0.09466445771977305,1.5625117346644402,-0.32366353490114297,4.039774835109711,0.5332726519554853,21.381451189517975,0.0,0.0,0.0,0.0,0.0,0.0,0.0,0.0,0.0,0.0,0.0,0.0,0.0,0.0,0.0,0.0,False,0,1.2918486595153809,0.024947021484375
STABILIZE,1.2105014324188232,29.793111286324148,0.0325348695119222,0.03265738487243652,0.0,0.0,0.0,-0.48737391119837203,-0.8088508517501853,-9.346317308350496,-0.001697717031688729,0.000681824523509203,0.0185204602603359,0.4,0.047018358391042306,0.11907730750029955,0.8593545847140903,0.0740818410413436,-0.10644004214555025,0.07974987383931875,1.8746793270111084,-0.2828209246551708,-7.448339462280273,0.6627536844462156,26.11064612865448,0.0,0.0,0.0,0.0,0.0,0.0,0.0,0.0,0.0,0.0,0.0,0.0,0.0,0.0,0.0,0.0,False,0,1.32076096534729,0.034926025390625
STABILIZE,1.2472693920135498,27.197240270266764,0.03240564664204915,0.03592634201049805,0.0,0.0,0.0,-0.48422882252899274,-0.8147514415019887,-9.342873185461517,-0.001755252594102911,0.0015068878612738501,0.017734026918170664,0.4,0.04740077053039123,0.1156425493771166,0.863552624968826,0.07093610767268266,0.16387976938858628,0.043858931167051196,1.6050031408667564,0.02544605651586762,-3.360946848988533,0.4910733085125685,19.360598921775818,0.0,0.0,0.0,0.0,0.0,0.0,0.0,0.0,0.0,0.0,0.0,0.0,0.0,0.0,0.0,0.0,False,0,1.3494789600372314,0.034927001953125
STABILIZE,1.2807462215423584,29.872257990997664,0.0324890931447347,0.032607078552246094,0.0,0.0,0.0,-0.481393546971497,-0.8219069184312233,-9.343820020435212,-0.0016311759867105998,0.0015501189617307771,0.01697598459697363,0.4,0.04790014878538738,0.11221480339815287,0.867269516207471,0.06790393838789452,0.16387976938858628,0.043858931167051196,1.6050031408667564,0.02544605651586762,-3.360946848988533,0.4910733085125685,19.360598921775818,0.0,0.0,0.0,0.0,0.0,0.0,0.0,0.0,0.0,0.0,0.0,0.0,0.0,0.0,0.0,0.0,False,0,1.378197431564331,0.034927001953125
STABILIZE,1.3142383098602295,29.858860547728714,0.032453091939290364,0.032586097717285156,0.0,0.0,0.0,-0.4863828934384855,-0.8130669460979344,-9.34248984109435,-0.0016856474179470819,-0.0013072014705537809,0.017039789604642114,0.4,0.03434442685869119,0.10942008286777946,0.8812535383519438,0.06815915841856846,-0.41170637123286724,0.22533186711370945,2.073943428695202,0.3848702741162288,-16.213497519493103,4.951084777712822,48.21065068244934,0.0,0.0,0.0,0.0,0.0,0.0,0.0,0.0,0.0,0.0,0.0,0.0,0.0,0.0,0.0,0.0,False,0,1.435652494430542,0.034926025390625
STABILIZE,1.347583293914795,29.987373899863442,0.03235367139180501,0.03247880935668945,0.0,0.0,0.0,-0.4884090050227463,-0.8121121603571606,-9.345941647946146,-0.0021385384456978963,-0.00443308861497212,0.03257314928463535,0.4,0.0071753876931456816,0.1092205899380614,0.894571242369896,0.1302925971385414,-1.4990082941949368,0.2254146384075284,2.217576652765274,3.8983445560499406,-17.157290875911713,-4.682940989732742,-37.33270764350891,0.0,0.0,0.0,0.0,0.0,0.0,0.0,0.0,0.0,0.0,0.0,0.0,0.0,0.0,0.0,0.0,False,0,1.4644887447357178,0.0349267578125
STABILIZE,1.3810398578643799,29.88843599464128,0.0325191338857015,0.03264045715332031,0.0,0.0,0.0,-0.4895522079350772,-0.8043822004857045,-9.35025491240701,-0.0013568855723506718,0.0045760495308650225,0.03515247173198313,0.4,0.02738205068456856,0.1050143500801215,0.9313678061460994,0.14060988692793253,1.336604356765747,-0.0169952807482332,3.633818030357361,0.7549603390336673,-27.441728115081787,2.0360423251986504,29.395130276679993,0.0,0.0,0.0,0.0,0.0,0.0,0.0,0.0,0.0,0.0,0.0,0.0,0.0,0.0,0.0,0.0,False,0,1.4932880401611328,0.029937255859375
STABILIZE,1.4155585765838623,28.97058945419884,0.032511027654012044,0.03376913070678711,0.0,0.0,0.0,-0.4851649853321076,-0.8083566768915643,-9.371222739385303,-0.0012502299055511892,0.0050383004664389846,0.037391247397501284,0.4,0.04794776876868963,0.10055533944535765,0.9621815706995935,0.14956498959000514,1.336604356765747,-0.0169952807482332,3.633818030357361,0.7549603390336673,-27.441728115081787,2.0360423251986504,29.395130276679993,0.0,0.0,0.0,0.0,0.0,0.0,0.0,0.0,0.0,0.0,0.0,0.0,0.0,0.0,0.0,0.0,False,0,1.5218627452850342,0.029937255859375
STABILIZE,1.449040412902832,29.866940106670086,0.03257563908894857,0.032688140869140625,0.0,0.0,0.0,-0.48602462867217716,-0.8088569882482678,-9.356589912862196,-0.0012939908541693733,0.0002976520098716949,0.033789846036300156,0.4,0.04220511423799265,0.09695510170755303,0.9815305787502858,0.13515938414520062,-0.24542352184653282,0.026772444834932685,2.9618294909596443,-0.6509085435266055,-27.439549565315247,-8.710160851478577,57.59778618812561,0.0,0.0,0.0,0.0,0.0,0.0,0.0,0.0,0.0,0.0,0.0,0.0,0.0,0.0,0.0,0.0,False,0,1.55067777633667,0.034926025390625
STABILIZE,1.4825270175933838,29.863325026699894,0.032529624303181966,0.0326542854309082,0.0,0.0,0.0,-0.48751467712829777,-0.8108549253022023,-9.337052156741375,0.00017292594282974975,-0.0031650853424275245,0.03673572962097289,0.4,0.020197640958485693,0.0864023901712395,0.9973322998330464,0.14694291848389157,-1.235831342637539,-0.41222223080694675,2.376115508377552,0.8750547547972082,6.58368319272995,-10.62561646103859,50.703608989715576,0.0,0.0,0.0,0.0,0.0,0.0,0.0,0.0,0.0,0.0,0.0,0.0,0.0,0.0,0.0,0.0,False,0,1.5793590545654297,0.06985302734375
STABILIZE,1.5160408020019531,29.839317601360243,0.03248480161031087,0.03261852264404297,0.0,0.0,0.0,-0.4902318117574935,-0.8086284970761897,-9.341666803299365,-0.005094109779961548,0.0027522058137166333,0.02978612019747407,0.4,0.02988362866020335,0.10326347811691877,1.0279707866643832,0.11914448078989628,-0.6762983277440071,0.24313584435731173,1.2155617587268353,0.379769963755654,-14.19321596622467,-5.871859937906265,14.374607801437378,0.0,0.0,0.0,0.0,0.0,0.0,0.0,0.0,0.0,0.0,0.0,0.0,0.0,0.0,0.0,0.0,False,0,1.6365916728973389,0.034917236328125
STABILIZE,1.5494194030761719,29.95738845359941,0.032427342732747395,0.03258347511291504,0.0,0.0,0.0,-0.48551311153636667,-0.8071177446091474,-9.376393192587003,-0.0021937589755593066,-0.0017421178663478136,0.03039551360742532,0.4,0.016350998770590545,0.10392671011523437,1.0177073057196702,0.12158205442970128,-0.6762983277440071,0.24313584435731173,1.2155617587268353,0.379769963755654,-14.19321596622467,-5.871859937906265,14.374607801437378,0.0,0.0,0.0,0.0,0.0,0.0,0.0,0.0,0.0,0.0,0.0,0.0,0.0,0.0,0.0,0.0,True,0,1.665841817855835,0.034917236328125
STABILIZE,1.5829706192016602,29.807085243222115,0.03253224690755208,0.032668352127075195,0.0,0.0,0.0,-0.48647926313880613,-0.8063466802848765,-9.35790813937201,0.0016209756045080452,-0.0012461173587194475,0.02778664682126646,0.4,0.006862632062345263,0.08537799672533976,1.0066218886568452,0.11114658728506584,-0.4481977317482233,-0.8277972228825092,1.1897783726453781,-0.34037441979879896,-25.31369924545288,-35.296595096588135,16.786126792430878,0.0,0.0,0.0,0.0,0.0,0.0,0.0,0.0,0.0,0.0,0.0,0.0,0.0,0.0,0.0,0.0,True,0,1.6941213607788086,0.029936767578125
STABILIZE,1.6164405345916748,29.875662430907745,0.032427342732747395,0.03267216682434082,0.0,0.0,0.0,-0.48796088058017,-0.8021633495008024,-9.359132450780733,0.0010755151562192116,-0.004466342077886992,0.03267883617366059,0.4,-0.017274768115669324,0.07143162863212069,1.0051000894053326,0.13071534469464235,-1.3013745658099651,-0.5685451440513134,2.030373178422451,1.3667251217877827,24.723416566848755,6.382427364587784,35.0897490978241,0.0,0.0,0.0,0.0,0.0,0.0,0.0,0.0,0.0,0.0,0.0,0.0,0.0,0.0,0.0,0.0,True,0,1.72267484664917,0.03492626953125
STABILIZE,1.6499049663543701,29.882260741943988,0.032535823186238606,0.032662391662597656,0.0,0.0,0.0,-0.49010406587567307,-0.8027186758968361,-9.337923859634197,-0.004696760254454943,0.0023272036238655837,0.027494717397330816,0.4,-0.005095323153478382,0.08780237854025362,1.0036139223043237,0.10997886958932326,0.7659271359443665,1.1293189600110054,1.7113953828811646,-0.9394996706895412,-38.39646279811859,17.85736083984375,15.642121434211731,0.0,0.0,0.0,0.0,0.0,0.0,0.0,0.0,0.0,0.0,0.0,0.0,0.0,0.0,0.0,0.0,True,0,1.751521110534668,0.034926025390625
STABILIZE,1.6833460330963135,29.903778696706116,0.0325198491414388,0.03263401985168457,0.0,0.0,0.0,-0.48961965605313107,-0.8021073206052671,-9.335364246242735,-0.0050773138472150585,0.0026997101666692523,0.022269237257463055,0.4,0.0074035093351322075,0.10443346701037512,1.0019194418183595,0.08907694902985222,0.7659271359443665,1.1293189600110054,1.7113953828811646,-0.9394996706895412,-38.39646279811859,17.85736083984375,15.642121434211731,0.0,0.0,0.0,0.0,0.0,0.0,0.0,0.0,0.0,0.0,0.0,0.0,0.0,0.0,0.0,0.0,True,0,1.7801282405853271,0.034926025390625
STABILIZE,1.7167689800262451,29.919564007818185,0.03251174290974935,0.032616376876831055,0.0,0.0,0.0,-0.49652006810554805,-0.8022457386576657,-9.32905400522329,-0.0012635063422869299,0.0022381870045596894,0.019279061573978868,0.4,0.016077741348544734,0.1002827807451773,0.9825172657491026,0.07711624629591547,2.767331711947918,-0.51099075935781,1.6105035319924355,-0.25655028287958276,74.9264657497406,-68.07851791381836,23.43265265226364,0.0,0.0,0.0,0.0,0.0,0.0,0.0,0.0,0.0,0.0,0.0,0.0,0.0,0.0,0.0,0.0,True,0,1.837808609008789,0.039916015625
STABILIZE,1.7502233982086182,29.892909322861357,0.032518657048543294,0.032640695571899414,0.0,0.0,0.0,-0.5007852010771037,-0.8138183736283415,-9.326134099353109,0.0024420723514577474,-0.001300677460216311,0.02077990722238468,0.4,0.006354744754178769,0.07798537384166998,0.9844146574443137,0.08311962888953872,-0.5175699479877949,-1.0952322743833065,1.6415437683463097,0.5667586386004915,-90.9504771232605,25.430136919021606,18.58014017343521,0.0,0.0,0.0,0.0,0.0,0.0,0.0,0.0,0.0,0.0,0.0,0.0,0.0,0.0,0.0,0.0,True,0,1.8664801120758057,0.02993701171875
STABILIZE,1.783620834350586,29.941135739015596,0.03245690663655599,0.03256964683532715,0.0,0.0,0.0,-0.5379048246168899,-0.8151351060342731,-9.341572888198277,0.002978256280823231,-0.0015187731936043946,0.022292883442209543,0.4,-0.0032458109792870542,0.05524874204499658,0.9761538099647552,0.08917153376883817,-0.5175699479877949,-1.0952322743833065,1.6415437683463097,0.5667586386004915,-90.9504771232605,25.430136919021606,18.58014017343521,0.0,0.0,0.0,0.0,0.0,0.0,0.0,0.0,0.0,0.0,0.0,0.0,0.0,0.0,0.0,0.0,True,0,1.8954918384552002,0.02993701171875
STABILIZE,1.8171725273132324,29.804755340164576,0.032544644673665364,0.03267407417297363,0.0,0.0,0.0,-0.5286355108612422,-0.8372385586837864,-9.28685965785189,0.007947942129904503,0.01657996620480173,0.023195124547874344,0.4,0.07684374783633864,0.009690210678128822,0.96447825933371,0.09278049819149738,4.66032400727272,-2.4511154741048813,1.4120332896709442,0.42884658048948815,84.76396203041077,-90.83243012428284,21.12209051847458,0.0,0.0,0.0,0.0,0.0,0.0,0.0,0.0,0.0,0.0,0.0,0.0,0.0,0.0,0.0,0.0,True,0,1.9239962100982666,0.064864013671875
STABILIZE,1.8506417274475098,29.879280498664293,0.032434972127278645,0.03260183334350586,0.0,0.0,0.0,-0.524977624395583,-0.8210560796318808,-9.257348971769204,0.009174312382996288,0.010066957126064556,0.02223465400331212,0.4,0.11522001171560692,-0.03740804118336725,0.9872462661617968,0.08893861601324848,1.7416754737496376,-2.0581744611263275,1.5601472929120064,-0.10635565033061886,-47.11410999298096,13.211926817893982,-31.58038556575775,0.0,0.0,0.0,0.0,0.0,0.0,0.0,0.0,0.0,0.0,0.0,0.0,0.0,0.0,0.0,0.0,True,0,1.9525938034057617,0.034926025390625
STABILIZE,1.8840527534484863,29.930025617788306,0.032457860310872395,0.03258395195007324,0.0,0.0,0.0,-0.5244920406342775,-0.819605198041782,-9.322077820759768,-0.011456610392110305,0.000687187669110185,0.0072240010465620865,0.4,0.10304671684534361,0.023798977281561842,0.9949742106631551,0.028896004186248346,-0.5933506414294243,3.439708799123764,2.381063625216484,-3.0213437843086606,-80.43562173843384,130.8547019958496,-16.564100980758667,0.0,0.0,0.0,0.0,0.0,0.0,0.0,0.0,0.0,0.0,0.0,0.0,0.0,0.0,0.0,0.0,True,0,1.9811646938323975,0.034927001953125
STABILIZE,1.9175903797149658,29.817892282318148,0.03249100049336751,0.03262925148010254,0.0,0.0,0.0,-0.5241570411998294,-0.8171431816502568,-9.276861968454284,0.007700007675605995,-0.0015185178414597442,0.024111205188480915,0.4,0.08144403251546393,-0.017208779462825514,1.0107750970379286,0.09644482075392366,0.12591728009283543,-1.5907596796751022,1.9855746999382973,1.820282126075187,40.40408730506897,12.75234967470169,28.8058340549469,0.0,0.0,0.0,0.0,0.0,0.0,0.0,0.0,0.0,0.0,0.0,0.0,0.0,0.0,0.0,0.0,True,0,2.0387496948242188,0.034926025390625
STABILIZE,1.951019525527954,29.914229268744965,0.03240516980489095,0.03252553939819336,0.0,0.0,0.0,-0.5126777343608594,-0.8174892801421061,-9.246442867211986,-0.016438394114337115,-0.003965208023070686,0.007212572344417956,0.4,0.05059071582304725,0.06702015964626966,1.0015339239474526,0.028850289377671826,-1.598973385989666,4.738007485866547,1.397394947707653,-3.5397903604755365,-16.45689606666565,109.28188562393188,31.640663743019104,0.0,0.0,0.0,0.0,0.0,0.0,0.0,0.0,0.0,0.0,0.0,0.0,0.0,0.0,0.0,0.0,True,0,2.068763256072998,0.034927001953125
STABILIZE,1.9844393730163574,29.9212715262024,0.03241923650105794,0.03256559371948242,0.0,0.0,0.0,-0.5118937567101889,-0.8137381722664467,-9.302666423138591,-0.018200826853788765,-0.004743999378350604,-0.009691530376448118,0.4,0.019614980604527203,0.15155401158264936,0.992289681646937,-0.03876612150579247,-1.598973385989666,4.738007485866547,1.397394947707653,-3.5397903604755365,-16.45689606666565,109.28188562393188,31.640663743019104,0.0,0.0,0.0,0.0,0.0,0.0,0.0,0.0,0.0,0.0,0.0,0.0,0.0,0.0,0.0,0.0,True,0,2.096207618713379,0.034927001953125
STABILIZE,2.017944097518921,29.84653701371247,0.03247073491414388,0.0326080322265625,0.0,0.0,0.0,-0.5192280992183133,-0.8205503254681825,-9.26514648648042,-0.0014985517693840327,-0.0025302524283347103,-0.007649766258201784,0.4,0.0033058566071406687,0.14385880733799586,0.9767349721175559,-0.030599065032807137,-0.7902141660451889,-0.35222454462200403,1.0470801964402199,0.6321873151767179,25.587981939315796,-71.686851978302,8.873999863862991,0.0,0.0,0.0,0.0,0.0,0.0,0.0,0.0,0.0,0.0,0.0,0.0,0.0,0.0,0.0,0.0,True,0,2.1250078678131104,0.02993701171875
STABILIZE,2.0513405799865723,29.94541105915111,0.03242090543111165,0.03250718116760254,0.0,0.0,0.0,-0.5287416989584948,-0.8235616918402177,-9.24494534823646,0.003810770641449158,0.009385206093720786,-0.011471777248816529,0.4,0.04723814455274604,0.11040079561078717,0.9295145969852888,-0.045887108995266115,2.5457311421632767,-1.6919156536459923,-0.49300813116133213,-0.7761378741638209,66.11484289169312,-42.285969853401184,-13.478787243366241,0.0,0.0,0.0,0.0,0.0,0.0,0.0,0.0,0.0,0.0,0.0,0.0,0.0,0.0,0.0,0.0,True,0,2.153743267059326,0.03492578125
STABILIZE,2.0847373008728027,29.940067099721606,0.032422812779744466,0.03254842758178711,0.0,0.0,0.0,-0.5283755367859586,-0.8228560479215907,-9.280856775345095,-0.001611476770365591,-0.001257343306686987,-0.01627514359318848,0.4,0.03375445102529455,0.107402488369686,0.9248428612926951,-0.06510057437275392,-0.6692252587527037,-0.05659994785673916,1.6177067533135414,-0.9405421283116144,-49.40648972988129,-5.456370115280151,8.870476484298706,0.0,0.0,0.0,0.0,0.0,0.0,0.0,0.0,0.0,0.0,0.0,0.0,0.0,0.0,0.0,0.0,True,0,2.182448148727417,0.03492724609375
STABILIZE,2.1181886196136475,29.894826873458683,0.03248146375020345,0.03260159492492676,0.0,0.0,0.0,-0.5126587378972304,-0.8241824920027483,-9.288922374981233,0.0005843816537394205,0.002524924349403184,-0.004206943597345093,0.4,0.04041825383788661,0.09370326796222961,0.9206964520758584,-0.016827774389380372,1.05694979429245,-0.4787496291100979,1.6134517267346382,1.8017191660149732,2.276504784822464,-29.017913341522217,6.0386061668396,0.0,0.0,0.0,0.0,0.0,0.0,0.0,0.0,0.0,0.0,0.0,0.0,0.0,0.0,0.0,0.0,True,0,2.239790916442871,0.039916015625
STABILIZE,2.151627779006958,29.90441831780232,0.03247097333272298,0.03260970115661621,0.0,0.0,0.0,-0.5146499514837006,-0.7834815014603481,-9.271099850115732,0.0001738723534985914,0.004892056627648724,0.003326289484539377,0.4,0.05783399065861332,0.0834234937003513,0.9210248198427424,0.013305157938157508,1.05694979429245,-0.4787496291100979,1.6134517267346382,1.8017191660149732,2.276504784822464,-29.017913341522217,6.0386061668396,0.0,0.0,0.0,0.0,0.0,0.0,0.0,0.0,0.0,0.0,0.0,0.0,0.0,0.0,0.0,0.0,True,0,2.2684288024902344,0.039916015625
STABILIZE,2.1850779056549072,29.896105377202485,0.032500537236531575,0.032622337341308594,0.0,0.0,0.0,-0.49478936220289027,-0.7668968950210581,-9.286832337095209,0.0024502778652535397,-0.0004913680748906226,-0.0028442477964451124,0.4,0.04676445198530914,0.06276951471399514,0.9262072790707282,-0.01137699118578045,-0.5623594392091036,-1.0284362360835075,1.9028663635253906,-1.3294002724077787,-68.05269718170166,12.713353335857391,45.868468284606934,0.0,0.0,0.0,0.0,0.0,0.0,0.0,0.0,0.0,0.0,0.0,0.0,0.0,0.0,0.0,0.0,True,0,2.297182321548462,0.029937255859375
STABILIZE,2.2185709476470947,29.85737268469084,0.03249815305074056,0.03262925148010254,0.0,0.0,0.0,-0.4889792190967366,-0.8298670236611972,-9.340784855122786,-0.009967587071963584,-0.015413074498500549,-0.004795832766815689,0.4,-0.035983103758396334,0.10644725090267834,0.9246646925252134,-0.019183331067262756,-4.5909058302640915,2.6394296437501907,1.9921652972698212,-0.4182949787584498,-61.98843717575073,86.8802547454834,98.07788729667664,0.0,0.0,0.0,0.0,0.0,0.0,0.0,0.0,0.0,0.0,0.0,0.0,0.0,0.0,0.0,0.0,True,0,2.3257992267608643,0.029935791015625
STABILIZE,2.251957654953003,29.951184678444424,0.03245523770650228,0.03258824348449707,0.0,0.0,0.0,-0.4942490302065188,-0.8113137219153567,-9.307657583874578,-0.0034445246490889527,-0.003597597189303482,0.03823560545174734,0.4,-0.050703990851470884,0.11309262666745229,0.9060843327170419,0.15294242180698936,-0.8007888682186604,0.5704231094568968,0.9837495163083076,9.921500344961965,226.28400325775146,-67.98409223556519,58.87377858161926,0.0,0.0,0.0,0.0,0.0,0.0,0.0,0.0,0.0,0.0,0.0,0.0,0.0,0.0,0.0,0.0,True,0,2.354555368423462,0.03492724609375
STABILIZE,2.2854292392730713,29.87693929594119,0.03252724011739095,0.032645463943481445,0.0,0.0,0.0,-0.5020055637827145,-0.8127929914791934,-9.276313845773391,0.004317374375419851,-0.001479618830585029,-0.019725850624308927,0.4,-0.05326206101856816,0.08008471028199882,0.9529364310552922,-0.07890340249723571,-0.04996971692889929,-1.7583927139639854,4.481528326869011,-13.350827336651355,-95.73173522949219,-49.97439682483673,189.8220419883728,0.0,0.0,0.0,0.0,0.0,0.0,0.0,0.0,0.0,0.0,0.0,0.0,0.0,0.0,0.0,0.0,True,0,2.384054660797119,0.0349267578125
STABILIZE,2.318896532058716,29.878854798150694,0.032494576772054036,0.03260493278503418,0.0,0.0,0.0,-0.5071012050686614,-0.799098355471612,-9.34300722792398,0.0019322081912238062,-0.0012925073934166838,-0.026020102451818804,0.4,-0.05458468997052902,0.06236423189630396,0.9926657076678476,-0.10408040980727522,-0.0019837752915918827,-0.3472209442406893,3.0590619891881943,-0.6956418536393991,-143.2382345199585,22.530916333198547,168.16104650497437,0.0,0.0,0.0,0.0,0.0,0.0,0.0,0.0,0.0,0.0,0.0,0.0,0.0,0.0,0.0,0.0,True,0,2.4413669109344482,0.02993603515625
STABILIZE,2.352511167526245,29.7483137460725,0.032462151845296223,0.03284597396850586,0.0,0.0,0.0,-0.49114417562021906,-0.8139889682750332,-9.299954838038097,0.004011841881407366,0.00043029312902886273,-0.010869304477409355,0.4,-0.04725503682321949,0.03580667405151772,0.9913000560663572,-0.04347721790963742,0.42290715500712395,-1.4031590893864632,1.9648514688014984,3.538645876902736,45.35938799381256,-94.73885893821716,70.1366662979126,0.0,0.0,0.0,0.0,0.0,0.0,0.0,0.0,0.0,0.0,0.0,0.0,0.0,0.0,0.0,0.0,True,0,2.4694485664367676,0.06985400390625
STABILIZE,2.385999917984009,29.861836718711064,0.03255585034688314,0.03268694877624512,0.0,0.0,0.0,-0.49637033755233667,-0.8227918548155632,-9.261031297505486,0.005436578840076998,-0.0004893478962601375,0.0042814320646097255,0.4,-0.045377590792121336,0.004932029841937129,1.032624235348984,0.017125728258438902,0.42290715500712395,-1.4031590893864632,1.9648514688014984,3.538645876902736,45.35938799381256,-94.73885893821716,70.1366662979126,0.0,0.0,0.0,0.0,0.0,0.0,0.0,0.0,0.0,0.0,0.0,0.0,0.0,0.0,0.0,0.0,True,0,2.4979190826416016,0.06985400390625
STABILIZE,2.419525623321533,29.83019216818628,0.032523187001546223,0.03263211250305176,0.0,0.0,0.0,-0.49580887465822043,-0.8021472345232293,-9.303439942062095,0.005985123158925002,0.003321223241889405,-0.023159338165315936,0.4,-0.025034256332466212,-0.025536740257662935,1.0611849583592825,-0.09263735266126374,1.1719602160155773,-1.1247484013438225,1.5653163194656372,-5.631720635786355,-21.700972318649292,26.470038294792175,81.92570805549622,0.0,0.0,0.0,0.0,0.0,0.0,0.0,0.0,0.0,0.0,0.0,0.0,0.0,0.0,0.0,0.0,True,0,2.5265369415283203,0.02993701171875
STABILIZE,2.4529199600219727,29.942204454597373,0.03240564664204915,0.032584428787231445,0.0,0.0,0.0,-0.4885399525557402,-0.8291769077507615,-9.322319438701657,-0.008800301792634658,-0.008432703517300615,-0.006457744001983706,0.4,-0.06476834657445459,0.021198207845082785,1.0484111869085802,-0.025830976007934825,-2.067871391773224,2.3936666548252106,1.7938576638698578,3.270853369453577,-45.6515371799469,41.219329833984375,29.797935485839844,0.0,0.0,0.0,0.0,0.0,0.0,0.0,0.0,0.0,0.0,0.0,0.0,0.0,0.0,0.0,0.0,True,0,2.5553319454193115,0.034926025390625
STABILIZE,2.486436367034912,29.836345917184175,0.03253224690755208,0.03266644477844238,0.0,0.0,0.0,-0.49046414491097967,-0.8263347486432429,-9.262323057032265,0.006440698626920745,0.0046825937676981755,0.0011852491865664543,0.4,-0.03538568695536216,-0.01324827437428994,1.026585028677258,0.004740996746265817,1.436476781964302,-1.6705535352230072,1.0139215737581253,1.5293879978623404,89.12625312805176,-41.21232330799103,25.929152965545654,0.0,0.0,0.0,0.0,0.0,0.0,0.0,0.0,0.0,0.0,0.0,0.0,0.0,0.0,0.0,0.0,True,0,2.5840799808502197,0.039916015625
STABILIZE,2.5202085971832275,29.61096246302428,0.03244784673055013,0.032968997955322266,0.0,0.0,0.0,-0.4869957961947884,-0.8182967899289014,-9.34952578971311,-0.0063572767093399525,0.006363809721450909,-0.0069029543909860675,0.4,-0.0010566924585895497,0.020320705306389714,0.973361513223207,-0.02761181756394427,-0.20482658874243498,2.352520637214184,0.4059754777699709,-1.096721660759949,-59.65214967727661,46.54903709888458,0.12095922138541937,0.0,0.0,0.0,0.0,0.0,0.0,0.0,0.0,0.0,0.0,0.0,0.0,0.0,0.0,0.0,0.0,True,0,2.641300916671753,0.0348310546875
STABILIZE,2.55399227142334,29.599678195637292,0.03223708470662435,0.032399654388427734,0.0,0.0,0.0,-0.48911230106384607,-0.8205267933320577,-9.335084208486764,-0.0090476469747354,-0.0002983703850780507,-0.011983709124280116,0.4,-0.003887227152854515,0.06372210221765105,0.9425075980041464,-0.047934836497120464,-0.20482658874243498,2.352520637214184,0.4059754777699709,-1.096721660759949,-59.65214967727661,46.54903709888458,0.12095922138541937,0.0,0.0,0.0,0.0,0.0,0.0,0.0,0.0,0.0,0.0,0.0,0.0,0.0,0.0,0.0,0.0,True,0,2.6707348823547363,0.0348310546875
STABILIZE,2.5871944427490234,30.119377262021025,0.032240899403889973,0.03235149383544922,0.0,0.0,0.0,-0.4940666428113383,-0.8178221985032913,-9.280314629079726,0.0029949892291987906,-0.005136427597708575,-0.007766354144846989,0.4,-0.029966313162531708,0.04231003985448088,0.937976589122829,-0.031065416579387956,-1.4366828836500645,-1.0793269611895084,1.7709879204630852,0.8700122075598876,21.15120440721512,-20.55492103099823,73.87009859085083,0.0,0.0,0.0,0.0,0.0,0.0,0.0,0.0,0.0,0.0,0.0,0.0,0.0,0.0,0.0,0.0,True,0,2.6993155479431152,0.03492578125
STABILIZE,2.6207785606384277,29.776402101377254,0.032465489705403645,0.032697439193725586,0.0,0.0,0.0,-0.49159230006279536,-0.820706832849711,-9.328958382574909,-0.0024697368561714377,0.005064666353840886,-0.004867822761204716,0.4,-0.0028970440065060298,0.050484935521290054,0.9223825067813729,-0.019471291044818866,1.4014345593750477,0.5014828406274319,1.1481345631182194,0.5878339343365063,69.89903450012207,37.38636672496796,35.2159857749939,0.0,0.0,0.0,0.0,0.0,0.0,0.0,0.0,0.0,0.0,0.0,0.0,0.0,0.0,0.0,0.0,True,0,2.728182554244995,0.03492724609375
STABILIZE,2.6542062759399414,29.91486933698505,0.032410415013631184,0.03254079818725586,0.0,0.0,0.0,-0.4918081980735913,-0.8176220419440982,-9.33547950568498,-0.0024270421938877066,0.0002275071621177904,-0.01688927225078364,0.4,-0.0028907429784255398,0.05759377923064293,0.9128671498943778,-0.06755708900313456,-0.04615095385815948,0.4487302154302597,1.4469221234321594,-2.6221153853400074,-41.38132333755493,-32.79488980770111,48.884040117263794,0.0,0.0,0.0,0.0,0.0,0.0,0.0,0.0,0.0,0.0,0.0,0.0,0.0,0.0,0.0,0.0,True,0,2.7565531730651855,0.029936767578125
STABILIZE,2.6878609657287598,29.712488399934827,0.03241899808247884,0.03284478187561035,0.0,0.0,0.0,-0.4957779253635438,-0.8188021705666294,-9.289253639155978,0.0013638988378300505,-0.004262037294092733,-0.005593523959970743,0.4,-0.02498899900592844,0.04487184634125714,0.9034742344838322,-0.022374095839882972,-1.2448112480342388,-0.6002326495945454,1.6230328008532524,2.3962854257172905,-46.71815633773804,-3.519558161497116,43.27903687953949,0.0,0.0,0.0,0.0,0.0,0.0,0.0,0.0,0.0,0.0,0.0,0.0,0.0,0.0,0.0,0.0,True,0,2.7852461338043213,0.034927001953125
STABILIZE,2.7213809490203857,29.83337482484654,0.03255775769551595,0.03268599510192871,0.0,0.0,0.0,-0.4935431728444803,-0.8188197796480834,-9.315348376880014,-0.002996099484774093,0.003067388720746963,-0.0206371482681256,0.4,-0.00837657574327377,0.05542309368670463,0.8915025810742486,-0.0825485930725024,0.45260884799063206,-0.1469861133955419,1.9840193912386894,-2.0163915847416507,14.130052924156189,-34.843817353248596,35.97344160079956,0.0,0.0,0.0,0.0,0.0,0.0,0.0,0.0,0.0,0.0,0.0,0.0,0.0,0.0,0.0,0.0,True,0,2.842836856842041,0.029936767578125
STABILIZE,2.754925012588501,29.81386521470256,0.032485040028889973,0.032607316970825195,0.0,0.0,0.0,-0.4938524523478349,-0.8147727324822922,-9.323352504813622,0.0009140289325690483,-0.001481192763919441,-0.012629373227958568,0.4,-0.01602683637277154,0.04527182284239736,0.885363446023477,-0.05051749291183427,-0.46623493544757366,-0.47122035175561905,1.7166310921311378,1.7039247309221421,-33.35837125778198,5.9800829738378525,27.012300491333008,0.0,0.0,0.0,0.0,0.0,0.0,0.0,0.0,0.0,0.0,0.0,0.0,0.0,0.0,0.0,0.0,True,0,2.87155818939209,0.03492724609375
STABILIZE,2.795217752456665,24.81587059289894,0.03235987027486165,0.03949165344238281,0.0,0.0,0.0,-0.4959180509632349,-0.8171980899678813,-9.302164404234595,0.0007319260253944456,-0.0014288948508403704,-0.0048474187390981395,0.4,-0.02363123656747691,0.0355453417663937,0.8836260495458708,-0.019389674956392558,-0.46623493544757366,-0.47122035175561905,1.7166310921311378,1.7039247309221421,-33.35837125778198,5.9800829738378525,27.012300491333008,0.0,0.0,0.0,0.0,0.0,0.0,0.0,0.0,0.0,0.0,0.0,0.0,0.0,0.0,0.0,0.0,True,0,2.9001388549804688,0.03492724609375
STABILIZE,2.828970193862915,29.630625984613538,0.032552512486775716,0.03271317481994629,0.0,0.0,0.0,-0.4946642843637144,-0.8177646755038751,-9.30750219707096,-0.004303623309811059,-0.0022025896809889462,-0.009389814702207191,0.4,-0.032961445540104675,0.05359572068739521,0.8703266560400414,-0.037559258808828766,-0.5628710612654686,1.1011195369064808,1.0470294393599033,-1.0902295659538521,5.27891106903553,25.277140736579895,9.459792077541351,0.0,0.0,0.0,0.0,0.0,0.0,0.0,0.0,0.0,0.0,0.0,0.0,0.0,0.0,0.0,0.0,True,0,2.9297282695770264,0.03492578125
STABILIZE,2.8622164726257324,30.076181734740707,0.032271416982014973,0.03241562843322754,0.0,0.0,0.0,-0.4968227308631442,-0.81403838042481,-9.30722472063593,0.00011912149512258276,0.0004188760748820663,-0.01288224150035976,0.4,-0.028283817238508323,0.04762744990554821,0.8665823521134554,-0.05152896600143904,0.23044762201607227,-0.2625569235533476,1.5749244019389153,-0.8483133368969918,18.112705647945404,-33.15592706203461,22.584113478660583,0.0,0.0,0.0,0.0,0.0,0.0,0.0,0.0,0.0,0.0,0.0,0.0,0.0,0.0,0.0,0.0,True,0,2.964858293533325,0.02993701171875
STABILIZE,2.896824836730957,28.89474916987007,0.03242686589558919,0.03376150131225586,0.0,0.0,0.0,-0.4961146323452843,-0.8148151009994874,-9.311666904917375,0.0012498524294688631,0.000605981880803391,-0.009584943048307593,0.4,-0.023092073600593666,0.03623060488319853,0.8560597144792824,-0.03833977219323037,0.24802051484584808,-0.5598754622042179,1.3767004013061523,0.6771243036649954,-11.100714653730392,9.820633381605148,24.206961691379547,0.0,0.0,0.0,0.0,0.0,0.0,0.0,0.0,0.0,0.0,0.0,0.0,0.0,0.0,0.0,0.0,True,0,2.993387222290039,0.034927001953125
STABILIZE,2.9302635192871094,29.90441831780232,0.0325496514638265,0.03263044357299805,0.0,0.0,0.0,-0.49704983465304714,-0.8162244144851843,-9.296704521766816,0.0030986041621139876,-0.00012794079621964734,-0.005836502956193123,0.4,-0.02227441291551903,0.017071959194363523,0.8451707958652258,-0.023346011824772493,-0.2827884629368782,-0.37901957985013723,1.4582173898816109,0.061175589817210906,13.151152431964874,-27.318936586380005,19.688428938388824,0.0,0.0,0.0,0.0,0.0,0.0,0.0,0.0,0.0,0.0,0.0,0.0,0.0,0.0,0.0,0.0,True,0,3.0514748096466064,0.06486328125
STABILIZE,2.963731527328491,29.88077054599339,0.032448561986287434,0.032582759857177734,0.0,0.0,0.0,-0.4973059667469226,-0.8157585208785954,-9.301174880578591,0.0015473446845968356,-0.0013483402590705412,-0.005284039598612504,0.4,-0.027523121039150746,0.007593466273565715,0.8615291194457236,-0.021136158394450016,-0.2827884629368782,-0.37901957985013723,1.4582173898816109,0.061175589817210906,13.151152431964874,-27.318936586380005,19.688428938388824,0.0,0.0,0.0,0.0,0.0,0.0,0.0,0.0,0.0,0.0,0.0,0.0,0.0,0.0,0.0,0.0,True,0,3.0801267623901367,0.06486328125
STABILIZE,2.999321937561035,28.098585793623677,0.032492907842000325,0.03478646278381348,0.0,0.0,0.0,-0.49614664885701876,-0.815996510282488,-9.314315310768048,0.0002112129030188761,0.0022159638325463943,-0.008900241756302094,0.4,-0.01396637418438881,0.005674916232320621,0.871141463880001,-0.035600967025208374,0.6840164307504892,0.04775677225552499,1.2488095089793205,-0.7789181346819862,-4.990113899111748,25.629699230194092,26.964890956878662,0.0,0.0,0.0,0.0,0.0,0.0,0.0,0.0,0.0,0.0,0.0,0.0,0.0,0.0,0.0,0.0,True,0,3.108736276626587,0.039915771484375
STABILIZE,3.032801628112793,29.868003532059134,0.03250602086385091,0.032636404037475586,0.0,0.0,0.0,-0.49814170442489714,-0.8166205120961921,-9.293067446033785,-0.0018416775773346216,-0.0016452015662998022,-0.008865060992348685,0.4,-0.021680053418785334,0.014339053476074462,0.8652793873084038,-0.03546024396939474,-0.43190987780690193,0.4867235664278269,1.4471475966274738,-0.04104276680516529,-18.939390778541565,-7.751337438821793,25.209012627601624,0.0,0.0,0.0,0.0,0.0,0.0,0.0,0.0,0.0,0.0,0.0,0.0,0.0,0.0,0.0,0.0,True,0,3.1379802227020264,0.02993701171875
STABILIZE,3.0662782192230225,29.87161974489178,0.032494338353474934,0.032618045806884766,0.0,0.0,0.0,-0.4973679720579816,-0.8172193275873318,-9.296058215116604,0.0019124273152920522,-0.0035355686223733813,-0.004767238434481057,0.4,-0.03767831745976989,0.003302093215283783,0.8476547843281937,-0.019068953737924228,-0.8617296814918518,-0.5140398629009724,1.1805180460214615,0.7542494123906043,-8.332549780607224,-21.811547875404358,14.775373041629791,0.0,0.0,0.0,0.0,0.0,0.0,0.0,0.0,0.0,0.0,0.0,0.0,0.0,0.0,0.0,0.0,True,0,3.1661038398742676,0.02993701171875
STABILIZE,3.099803924560547,29.826585978111687,0.032433541615804036,0.03271770477294922,0.0,0.0,0.0,-0.4956515668638986,-0.8161588873578345,-9.31512810327928,-0.0013348451686052544,0.0009525613411047512,-0.009134491672236091,0.4,-0.02972542616325248,0.009694293327573529,0.8399120456275196,-0.036537966688944365,0.3435317659750581,0.36304816603660583,1.622053049504757,-0.962002369240383,14.284825325012207,17.73250848054886,27.7698814868927,0.0,0.0,0.0,0.0,0.0,0.0,0.0,0.0,0.0,0.0,0.0,0.0,0.0,0.0,0.0,0.0,True,1,3.1950948238372803,0.034927001953125
STABILIZE,3.133338451385498,29.820436254017007,0.03255155881245931,0.03269696235656738,0.0,0.0,0.0,-0.4963930692756681,-0.8171697553549964,-9.295544243381562,-3.0425806331791935e-05,-0.0025505530481037195,-0.0022774267309884294,0.4,-0.039906528421646915,0.008871808179853231,0.827924636249883,-0.009109706923953718,-0.6373282987624407,-0.35077554639428854,1.3579079881310463,1.001645640956783,-7.347339391708374,-4.157031327486038,22.401632368564606,0.0,0.0,0.0,0.0,0.0,0.0,0.0,0.0,0.0,0.0,0.0,0.0,0.0,0.0,0.0,0.0,True,0,3.2523629665374756,0.029937255859375
STABILIZE,3.166802167892456,29.882260741943988,0.032479317982991536,0.03261923789978027,0.0,0.0,0.0,-0.4960036417712716,-0.8189228728158683,-9.293122087547145,-0.001181706391655688,-0.0003103962261533362,-0.005065688368161857,0.4,-0.03786338431164687,0.013909244668962858,0.814864497918574,-0.02026275347264743,0.03908865328412503,0.30499636195600033,1.2405697256326675,-0.6465062731631208,14.096848666667938,13.55077475309372,21.08462154865265,0.0,0.0,0.0,0.0,0.0,0.0,0.0,0.0,0.0,0.0,0.0,0.0,0.0,0.0,0.0,0.0,True,0,3.281562089920044,0.0349267578125
STABILIZE,3.200282096862793,29.869279742490495,0.03248456319173177,0.03261256217956543,0.0,0.0,0.0,-0.49549564645175187,-0.8176888497319174,-9.314032711691139,-8.126636832208564e-05,-0.00010922117709654384,-0.005232856036584502,0.4,-0.03507259202791836,0.012921291122540549,0.8100185437581537,-0.020931424146338008,0.09928728686645627,-0.016920341295190156,1.4526942744851112,-0.08975973139051593,-7.435908913612366,-12.007404118776321,22.817155718803406,0.0,0.0,0.0,0.0,0.0,0.0,0.0,0.0,0.0,0.0,0.0,0.0,0.0,0.0,0.0,0.0,True,0,3.31030011177063,0.034926025390625
STABILIZE,3.2337000370025635,29.92426015239291,0.032442601521809895,0.03256559371948242,0.0,0.0,0.0,-0.49690757461924046,-0.8184502023809622,-9.299720050285378,-6.664463481479732e-05,-3.705039484179002e-05,-0.0054064775549803245,0.4,-0.03226052757058563,0.011959606869485684,0.8055481492505693,-0.021625910219921298,0.09928728686645627,-0.016920341295190156,1.4526942744851112,-0.08975973139051593,-7.435908913612366,-12.007404118776321,22.817155718803406,0.0,0.0,0.0,0.0,0.0,0.0,0.0,0.0,0.0,0.0,0.0,0.0,0.0,0.0,0.0,0.0,True,0,3.3394935131073,0.034926025390625
STABILIZE,3.267075538635254,29.962738598696994,0.032454522450764973,0.03255510330200195,0.0,0.0,0.0,-0.49624205806198735,-0.8202607894803974,-9.304726578946998,0.0003167465801653342,-0.0032811110722789543,-0.0030528817181246694,0.4,-0.04563729753935368,0.009170257498721149,0.8023388028643251,-0.012211526872498678,-0.7865608669817448,-0.11834390461444855,1.5026356093585491,0.46421081873215475,-22.24586009979248,1.5622700564563274,21.3822603225708,0.0,0.0,0.0,0.0,0.0,0.0,0.0,0.0,0.0,0.0,0.0,0.0,0.0,0.0,0.0,0.0,True,0,3.368272304534912,0.03492724609375
STABILIZE,3.3005597591400146,29.864600837344423,0.03252223332722982,0.03265118598937988,0.0,0.0,0.0,-0.4963068381373967,-0.8203740745710844,-9.310108768012967,-0.0018548116439728716,-0.002345028343273993,-0.004984730009243701,0.4,-0.052796633041388895,0.01755045364124454,0.8019366868321425,-0.019938920036974804,-0.449146656319499,0.49353973008692265,1.6393853351473808,-0.4742912174517415,-1.212863065302372,11.424949765205383,23.65153580904007,0.0,0.0,0.0,0.0,0.0,0.0,0.0,0.0,0.0,0.0,0.0,0.0,0.0,0.0,0.0,0.0,True,0,3.397059917449951,0.029936767578125
STABILIZE,3.335516929626465,28.605848974247053,0.03248766263326009,0.0341951847076416,0.0,0.0,0.0,-0.49745879222960165,-0.8211558644267865,-9.29630068683214,0.001404819423871999,0.0010769356205906524,-0.0032108594143322993,0.4,-0.04189020978234937,0.008377274539231714,0.7887058497640315,-0.012843437657329197,0.06011170335114002,-0.2599867293611169,0.9789085015654564,0.3304509820279902,-4.301174730062485,3.2880783081054688,17.05382913351059,0.0,0.0,0.0,0.0,0.0,0.0,0.0,0.0,0.0,0.0,0.0,0.0,0.0,0.0,0.0,0.0,True,0,3.454310417175293,0.024947998046875
STABILIZE,3.3690738677978516,29.80052008582837,0.03256800969441732,0.0326993465423584,0.0,0.0,0.0,-0.496852612940763,-0.8214277913331175,-9.299834455953976,-0.0023151912561544604,-0.003171372334538922,-0.004520806513470083,0.4,-0.053526080662250064,0.01915102954046017,0.7809227765437315,-0.01808322605388033,-0.764042092487216,0.6436506751924753,1.5689121559262276,-0.34052249616557073,-14.414951205253601,13.269007205963135,24.14177805185318,0.0,0.0,0.0,0.0,0.0,0.0,0.0,0.0,0.0,0.0,0.0,0.0,0.0,0.0,0.0,0.0,True,0,3.4830195903778076,0.03492626953125
STABILIZE,3.402721643447876,29.72091012804433,0.032453091939290364,0.03258800506591797,0.0,0.0,0.0,-0.4968672338144551,-0.8215878738917898,-9.3038719515271,-0.00047783517170290447,-0.00014291407233725688,-0.0037117331733332757,0.4,-0.04889307651017809,0.01962652383140052,0.776301172668384,-0.014846932693333103,0.2048960654065013,0.05510043120011687,1.3032197020947933,0.14260239703881872,12.06400841474533,-10.332925617694855,17.31119453907013,0.0,0.0,0.0,0.0,0.0,0.0,0.0,0.0,0.0,0.0,0.0,0.0,0.0,0.0,0.0,0.0,True,0,3.511683225631714,0.0349267578125
STABILIZE,3.4359378814697266,30.104460793109634,0.032268555959065755,0.03238034248352051,0.0,0.0,0.0,-0.4968223039763211,-0.8220053158439539,-9.300259635229809,-0.0005432458566595892,-0.00045951455964492866,-0.003132150418045984,0.4,-0.04636375198731798,0.02038138597517034,0.7771591327349632,-0.012528601672183936,0.07888642721809447,0.07197592640295625,1.6070274636149406,0.09042023869770392,-4.63385097682476,11.186116933822632,19.593314826488495,0.0,0.0,0.0,0.0,0.0,0.0,0.0,0.0,0.0,0.0,0.0,0.0,0.0,0.0,0.0,0.0,True,0,3.5495030879974365,0.034926025390625
STABILIZE,3.4694087505340576,29.87693929594119,0.032486708958943684,0.032614707946777344,0.0,0.0,0.0,-0.49656072907545074,-0.8227469249774292,-9.3011270692544,-0.0017184362191583124,-0.0023973505054291906,-0.0028231596138362626,0.4,-0.05360755001801767,0.026953887333296414,0.7764597384023392,-0.01129263845534505,-0.4854006692767143,0.40662772953510284,1.506470050662756,0.029541271856552646,-15.533480048179626,7.404272258281708,24.104149639606476,0.0,0.0,0.0,0.0,0.0,0.0,0.0,0.0,0.0,0.0,0.0,0.0,0.0,0.0,0.0,0.0,True,0,3.579540252685547,0.029937255859375
STABILIZE,3.503129720687866,29.657024471989082,0.032462151845296223,0.03283095359802246,0.0,0.0,0.0,-0.49784309709212066,-0.8234513415964396,-9.301415644746832,0.00038283857054089473,-0.0020576319141385455,-0.002794959464926248,0.4,-0.05831349699860504,0.022295332546725166,0.7716867228589208,-0.011179837859704993,-0.3679910907521844,-0.22852362599223852,1.4635038562119007,-0.031291337743649825,5.608809739351273,-6.340400874614716,22.699442505836487,0.0,0.0,0.0,0.0,0.0,0.0,0.0,0.0,0.0,0.0,0.0,0.0,0.0,0.0,0.0,0.0,True,0,3.608214855194092,0.0349267578125
STABILIZE,3.5366106033325195,29.86757815281635,0.03242305119832357,0.03256511688232422,0.0,0.0,0.0,-0.49799837717403267,-0.8236092897209961,-9.305695612035493,0.0004432920342589936,-0.0022745934862458813,-0.0027662984196301886,0.4,-0.06345110191992026,0.017834465589683213,0.7709231576588437,-0.011065193678520754,-0.3679910907521844,-0.22852362599223852,1.4635038562119007,-0.031291337743649825,5.608809739351273,-6.340400874614716,22.699442505836487,0.0,0.0,0.0,0.0,0.0,0.0,0.0,0.0,0.0,0.0,0.0,0.0,0.0,0.0,0.0,0.0,True,0,3.636929750442505,0.0349267578125
STABILIZE,3.5709378719329834,29.130752455168007,0.03240779240926107,0.03347969055175781,0.0,0.0,0.0,-0.4981563252985892,-0.8243225642415865,-9.304280909103653,-0.0004638706735969628,1.4252252944372387e-05,-0.002756580100229137,0.4,-0.05657968162407403,0.018385596319474,0.7685427003827432,-0.011026320400916547,0.32746971119195223,0.06581698544323444,1.363087259232998,-0.03375051266975854,3.441779315471649,9.370167553424835,26.756447553634644,0.0,0.0,0.0,0.0,0.0,0.0,0.0,0.0,0.0,0.0,0.0,0.0,0.0,0.0,0.0,0.0,True,1,3.6655755043029785,0.034926025390625
STABILIZE,3.6046249866485596,29.684310353369145,0.032482417424519856,0.032886505126953125,0.0,0.0,0.0,-0.499539331883811,-0.8237515497548028,-9.299466479512441,-0.0009151405399816672,-0.0016784436144480649,-0.0016732648833229313,0.4,-0.058993020751809684,0.021149976354135278,0.7683890489028358,-0.006693059533291725,-0.22018954623490572,0.1942165894433856,1.487281173467636,0.21760143596248918,-11.172422766685486,-2.538565918803215,20.588020980358124,0.0,0.0,0.0,0.0,0.0,0.0,0.0,0.0,0.0,0.0,0.0,0.0,0.0,0.0,0.0,0.0,True,1,3.6945950984954834,0.02988232421875
STABILIZE,3.6381537914276123,29.824889249169814,0.032497437795003255,0.0326237678527832,0.0,0.0,0.0,-0.4999766774341034,-0.8232366708852602,-9.305048451611635,-0.0009050007982003845,-0.0015479220039856458,-0.002185121324993631,0.4,-0.060437050153518176,0.023567913805081393,0.7605043066208339,-0.008740485299974524,0.24627726525068283,0.19182040123268962,1.4098024927079678,-0.21081472254736916,9.474730491638184,7.253846526145935,21.413518488407135,0.0,0.0,0.0,0.0,0.0,0.0,0.0,0.0,0.0,0.0,0.0,0.0,0.0,0.0,0.0,0.0,True,0,3.7566945552825928,0.034926025390625
