Mode,Time,Freq,North-Vision,East-Vision,Down-Vision,Yaw-Vision,North-Desired,East-Desired,Down-Desired,Roll-UAV,Pitch-UAV,Yaw-UAV,Roll-Control,Pitch-Control,Yaw-Control,Thrust-Control,northVraw,eastVraw,downVraw,N-Velocity,E-Velocity,D-Velocity,yawVraw,yawRate,Q-Size
GUIDED_NOGPS,0.00487208366394043,205.88572550559593,-19.56002006196807,58.69274884795175,94.69305916982347,-0.7467339559832239,-18.431748157423954,57.73583253089131,92.94553228416518,1.6072542888346015,-0.6683937744409852,-0.9529106404031555,-4.051790677242739,-3.947529899545896,-10.0,0.49650436522852426,-19.51093639845112,56.95985433671178,92.75473728989195,-15.012884140014648,-1.0623631998896599,3.8674436509609222,-0.4034189271997869,-0.7787223537127301,2
GUIDED_NOGPS,0.019492387771606445,68.42927529611381,-18.857438103833037,56.10192679901208,94.11493867287551,0.06171917590802273,-18.43163055964688,57.735585168844764,92.94525412887641,1.58274543565848,-0.6693828178493149,-0.8741653361012256,3.9964440945065114,3.303207851953861,10.0,0.4976586711338713,-19.342294493600598,57.24338344113856,92.76771778874257,-12.062964588403702,1.5950001776218414,7.500690966844559,-0.41232934514168545,-2.279995265238888,1
GUIDED_NOGPS,0.029865741729736328,96.42299822984437,-19.183580163219162,56.31024413751051,93.92073729785484,-0.06504044810409036,-18.430823284224704,57.73388709847706,92.94332948857333,1.58274543565848,-0.6693828178493149,-0.8741653361012256,-1.2110136412736927,-2.271450579350208,-2.481623667169495,0.4980424130361113,-20.555301522599137,57.02010559746229,92.5933270761022,-6.788113713264465,4.408510774374008,3.0074506998062134,-0.4173522905019338,-3.5864845218495054,0
GUIDED_NOGPS,0.04024457931518555,96.41413235868791,-19.393896490416815,56.46106785135841,93.85477722855003,-0.2310698336401657,-18.428679914080536,57.729378608278004,92.93817319666196,1.620168469007803,-0.6839073218410527,-0.7978744175888575,-0.8881599461781869,-1.522709393910717,-3.3524209613627822,0.4981632629373008,-20.233775608928358,57.00204507154122,92.96552100479133,-9.627601504325867,5.364975705742836,6.1667826026678085,-0.5230058454885889,-9.27819727043702,0
GUIDED_NOGPS,0.0744929313659668,29.204381035935356,-19.630620922247886,56.57887591443334,93.81592383324667,-0.3630781948246182,-18.424600237142283,57.72079717704855,92.92826615097646,1.4972656181957704,-0.8895229630891464,-0.4669270995877042,-0.15988662163961648,-0.6037153529228241,-0.9948861592681929,0.49821874282174844,-20.879510158857066,57.07437602820143,93.06789764110972,-9.627601504325867,5.364975705742836,6.1667826026678085,-0.6110026910552322,-9.27819727043702,0
GUIDED_NOGPS,0.10693693161010742,30.827776797789145,-19.99649490117372,56.78080695621516,93.89668067407311,-0.5535092206777114,-18.41802915916606,57.706975187069986,92.91215440254555,1.3122381414576523,-1.0613351977220535,-0.25286264773843703,-0.36745578380212357,-0.9343343450985222,-1.494446166397826,0.49802242485970255,-20.688934051242946,57.46286427915352,93.23234387884102,-13.431359827518463,7.216960191726685,6.2683433294296265,-0.7377040179801779,-6.40823886610958,0
GUIDED_NOGPS,0.1410388946533203,29.3275158024277,-20.41396179292708,57.00443678501276,93.89733464586214,-0.7742942638736829,-18.40845561655962,57.68683763727307,92.88844824435915,1.1137675717724795,-1.2240297701432283,-0.010610781418184124,-0.4280885004526334,-1.0525379156935255,-1.7608608745383205,0.4979709552396004,-21.908373863196395,57.6277524980263,93.14988000585711,-10.101493448019028,8.269297331571579,0.5864610895514488,-0.8820774784871281,-8.839910007812827,0
GUIDED_NOGPS,0.17524075508117676,29.24184473803465,-20.710751497772975,57.36168142343271,94.12867693661407,-0.9624112554224759,-18.395411489205756,57.65939985640718,92.85582130013478,0.9233751948847279,-1.4891215781058824,0.14789868847184792,-0.7229011381598123,-0.8309607232793741,-1.6778468064187204,0.49743953518823825,-21.179555549049415,59.05564108235765,95.7192534593672,-8.42166617512703,9.143024682998657,0.7416646927595139,-1.0111068733241195,-5.880215297509289,0
GUIDED_NOGPS,0.21105027198791504,27.93000026636124,-21.13128926593294,57.635755361797756,94.33366238847618,-1.1890022431575318,-18.378470513285713,57.62376521620944,92.81300961308405,0.662732401392691,-1.6864848033718667,0.5122156293748258,-0.5861832302527618,-1.0920943956668838,-1.98000735542493,0.49693958828663803,-22.44867671566014,58.16100794149563,95.15839051515691,-11.702410876750946,10.232584923505783,4.506843909621239,-1.1596668094815112,-8.498341638930597,0
GUIDED_NOGPS,0.24121975898742676,33.15236017578804,-21.45764133383498,57.90080051115069,94.44783427331507,-1.3816831060003316,-18.357247194102627,57.57912284457392,92.75881073467932,0.4706174828127738,-1.8675779844263518,0.7274875039228778,-0.7170702901178881,-1.0688297348850504,-2.1061105948544565,0.49659876949351306,-22.384093735266184,57.98176029525378,94.00654552388966,-6.930104643106461,10.98136082291603,5.508257821202278,-1.507671490650711,-4.896213422560824,0
GUIDED_NOGPS,0.2751350402832031,29.490209313280882,-21.625070145290973,58.1600023882012,94.63355360515413,-1.5975349112531703,-18.331395718904922,57.52474533872072,92.69208281342003,0.3439650715898158,-1.9176059184455219,0.9879586889120181,-0.6722558497014146,-0.6804444086583548,-2.2409654229284324,0.4960886465975276,-22.73715551873631,58.15812168124812,94.25453932277824,1.4330236241221428,11.968154460191727,10.316348820924759,-1.7628096028463087,-7.825680703805647,0
GUIDED_NOGPS,0.30902099609375,29.514904157401414,-21.95882974790609,58.43584252288573,94.83088926707565,-1.8431569643310552,-18.300608869709734,57.45998647836519,92.61174368359933,0.20564381577841992,-2.0282872129548744,1.2880602322911592,-0.765729310823022,-1.0642932506940173,-2.5659370633752223,0.4955273238076397,-23.38835087860207,58.488896784189585,94.34804954936448,-7.2566919028759,10.992960631847382,10.002803802490234,-2.0079271029611068,-8.238277063640485,0
GUIDED_NOGPS,0.3423757553100586,29.98501572776666,-22.27458140457178,58.76132790117611,95.04099080127162,-2.0866367297891264,-18.26461693612633,57.384278938887014,92.51676995407055,0.07688395769118242,-1.999511412538199,1.6054395929494938,-0.9130156487546635,-1.056859763689674,-2.6911322047689312,0.49491034039546167,-23.517731835641825,59.364085767964596,94.74368163959684,-7.307851314544678,11.12794354557991,9.35768187046051,-2.3670389934251532,-7.434688232315559,0
GUIDED_NOGPS,0.37518835067749023,30.48053137217854,-22.356724644882068,59.18311412580035,95.47860861798807,-2.3121366238890735,-18.223186628179523,57.2971320044994,92.4061960970137,0.0626069413351517,-1.9499184761917943,1.9012864620842456,-1.1724016405812392,-0.5892744962814269,-2.759072260889134,0.49380587617777155,-21.866070110928483,60.91439944488117,97.26276762448975,-0.49026962369680405,11.989705264568329,13.68703544139862,-2.5002406853729306,-6.715927789161254,0
GUIDED_NOGPS,0.40976524353027344,28.92523706079101,-22.683924722567713,59.50245699192749,95.69901517777662,-2.5395464681531927,-18.176119989133074,57.198129281418225,92.27911353670198,-0.02052890728284024,-1.9255139968439272,2.1200465355857645,-1.0121014067987462,-1.1227024374329115,-2.8424603663906405,0.49310146197619875,-23.855661913475956,60.13201821104501,95.25470440205527,-9.502164274454117,10.285472124814987,9.601090848445892,-2.885448887530556,-6.394376570302216,0
GUIDED_NOGPS,0.44325900077819824,29.862049325055533,-22.933645462821083,59.845544574623915,96.01264987227322,-2.7785186818272183,-18.123253308313135,57.08692641103114,92.1346697382683,-0.043693894059335166,-1.8849373370887623,2.4149053751683915,-1.1394367096307452,-1.0127716530972863,-3.0945443096351064,0.4921749173427842,-24.0956193976821,60.398112051067166,95.53787434623061,-4.329661652445793,11.53017207980156,14.469924569129944,-3.179739689907893,-6.3361142029083615,0
GUIDED_NOGPS,0.47597646713256836,30.568946417118536,-23.099087569904714,60.16352057886884,96.28049018346485,-3.0278406333132497,-18.06445603393165,56.9632487830668,91.97206729647178,-0.025195207146428325,-1.877049749257867,2.662245308034771,-1.1638166629631237,-0.8731553393532115,-3.337868759337387,0.49130273328770596,-23.68692992679191,60.29946034925055,95.90952514056488,-1.9620001316070557,11.792289465665817,11.213088780641556,-3.357129582452725,-7.556161439156944,0
GUIDED_NOGPS,0.5103456974029541,29.099224354438107,-23.381271731179975,60.55983731308674,96.59910593689983,-3.276425768756209,-17.999629685909763,56.82688924876393,91.79056302446428,-0.05971026077619194,-1.9482926777259197,2.842542451885832,-1.3546945289142764,-1.117695105977716,-3.413546590131339,0.49028928232720276,-25.96408625999624,61.88694970887887,96.96863178846756,-1.9620001316070557,11.792289465665817,11.213088780641556,-3.6324615751459586,-7.556161439156944,0
GUIDED_NOGPS,0.5431396961212158,30.498040384797168,-23.50690893513651,60.92047934396359,96.89056192981107,-3.5497853171831455,-17.928706768701264,56.67770583404054,91.58946704255686,-0.08950103797570169,-1.944841084317536,3.0881654459495995,-1.3850071656856262,-0.8397217499188906,-3.7987741864894087,0.4892902856117631,-23.785425260458858,61.49635313102591,96.47157127131754,-0.9294443763792515,11.800559610128403,11.743930727243423,-3.94063195648501,-8.336747900904559,0
GUIDED_NOGPS,0.57686448097229,29.656185701861684,-23.62628240271099,61.25435652187963,97.10208771641572,-3.7214955275408843,-17.851649684115973,56.51561945266301,91.36814186698636,0.06410531408432325,-1.843842863617146,3.363353127279179,-1.3692903418810398,-0.8422165835826056,-3.2508834393044044,0.48840910878808436,-23.785425260458858,61.49635313102591,96.47157127131754,-1.630384474992752,11.84738352894783,8.17776471376419,-3.94063195648501,-3.5332854590647456,0
GUIDED_NOGPS,0.6104178428649902,29.807297070653952,-23.83767337308217,61.58687611115188,97.2353268309327,-3.941910658116669,-17.768449644143175,56.34061161941531,91.12600149868184,0.0865661110254325,-1.8599710746816616,3.534598136045857,-1.4537601509967728,-1.0653132794826938,-3.6783303407717165,0.4876419428263608,-23.993952189657186,61.891869784136006,96.53200251575312,-7.339403033256531,10.812970995903015,3.242277354001999,-4.029622265450907,-6.591090714153639,0
GUIDED_NOGPS,0.645451545715332,28.549188306163426,-23.963809106151945,61.89530032847529,97.48398220509313,-4.110077240046045,-17.679125583775026,56.152722163268095,90.86251051203114,0.045502413425720825,-1.8155946953138542,3.6696168886718463,-1.4229407183882208,-0.8998928240321069,-3.428313420770748,0.48659913532373644,-23.10043291506733,61.572763785118525,98.57476667362555,-5.478323996067047,11.544542014598846,4.359782487154007,-4.560282090963742,-2.4408556117027973,0
GUIDED_NOGPS,0.6772890090942383,31.41400720507501,-24.034574927214027,62.26578141169326,97.63729115800814,-4.281592033240393,-17.583723073829983,55.95204694054786,90.57718314364733,0.03931606296647434,-1.7534549149055476,3.741977620286254,-1.7067027264479555,-0.8233035206591972,-3.6459839475213642,0.4857038737390056,-24.246457477737273,62.7043970369748,97.48667342208239,2.0792944356799126,11.812262237071991,2.468777075409889,-5.005336333549494,-1.4655720463430304,0
GUIDED_NOGPS,0.7152807712554932,26.325130078392238,-24.145890272072762,62.64027632562064,97.8062581308623,-4.401909226396542,-17.482313233776214,55.73873554810613,90.26958238113531,-0.10272572495187443,-1.6543256047168022,3.7956168033856565,-1.5964940338269717,-0.8745305525093723,-3.2744080336715404,0.48472782728459646,-25.205681948494586,63.48597804625606,97.29947641193608,0.9509827941656113,12.280160933732986,6.094260141253471,-5.170240863317519,0.2765848285408169,0
GUIDED_NOGPS,0.7453529834747314,33.26120124978192,-24.17403550022979,63.04768052155514,97.98975382681829,-4.578664146377754,-17.37499164455501,55.512989036488555,89.93931905185822,-0.0652699013584501,-1.528045758968727,3.822792418545845,-2.0217717619088456,-0.7755638575517083,-3.938182724905558,0.4836811928910566,-24.860310854644556,63.79954453625825,97.34707452628396,5.3536828607320786,12.902507185935974,6.189003586769104,-5.2027609175838885,-2.764114377854338,0
GUIDED_NOGPS,0.7780442237854004,30.594365909521933,-23.90855853490737,63.35703989292872,98.29463778129778,-4.731619096110388,-17.261877261404205,55.27505762310409,89.58605091170402,-0.08729317932649508,-1.4166319266708907,3.842308403438687,-1.699802278998305,-0.13969888248986287,-3.76277437863791,0.48234181847437785,-19.52101875027648,63.172610986182434,100.58049737185078,5.3536828607320786,12.902507185935974,6.189003586769104,-5.485396025517076,-2.764114377854338,0
GUIDED_NOGPS,0.8127760887145996,28.79793471842687,-24.08192347636634,63.72399362751829,98.44945525193017,-4.855146177218085,-17.143111326681595,55.025238405394134,89.20948173385196,-0.21906022829902902,-1.296108756454373,3.8429448916919675,-1.9158659469664658,-1.0635490059917636,-3.6305278071365352,0.4812535905209008,-24.213543453580733,64.75156825127355,98.08863242327944,-7.178986072540283,10.069675743579865,4.242221266031265,-5.511106983012529,-0.43634407380532586,0
GUIDED_NOGPS,0.8460569381713867,30.050108542238334,-24.17564935554767,64.10992887278509,98.60001948227298,-4.966245444699603,-17.01885628268835,54.763873074001694,88.80936039753911,-0.281538743401486,-1.1791116713968741,3.8061472475385236,-2.0472125113838033,-0.9294642977095547,-3.6427536651846717,0.4801259696245668,-24.391620972487146,64.76364759410944,98.25660979051735,-1.4981206506490707,11.770253628492355,3.626501187682152,-5.542085546651277,0.14818906489306602,0
GUIDED_NOGPS,0.8796179294586182,29.802002287923035,-24.234397266059673,64.47697599116809,98.69466463289268,-5.026092106586159,-16.889294684492437,54.49134562594051,88.38547997682686,-0.28748501004336385,-1.038043825765487,3.765467921502397,-2.075635980941924,-0.8793942133160288,-3.37229184802965,0.4790612389754929,-24.46976599705593,65.04818183248611,98.20715877495823,0.38024219684302807,11.49599477648735,1.358675304800272,-5.5533230656593915,2.3905139158686297,0
GUIDED_NOGPS,0.9125735759735107,30.348863628141213,-24.151294567010993,64.89535779311153,98.76547292467957,-5.124367270762064,-16.75462811275203,54.20808007776422,87.9376768293674,-0.3783452556638981,-1.0115241222090314,3.665487185544927,-2.249009765455848,-0.5809013928478135,-3.670744381494717,0.47799545550477585,-23.831040232378676,65.62593089688289,98.42525992547098,7.451165467500687,14.087672531604767,-0.31348264310508966,-5.5844343595267025,-0.37529381529134204,0
GUIDED_NOGPS,0.9464249610900879,29.544218022498185,-24.070137233761056,65.31719624723584,98.88040678153838,-5.198152197847508,-16.61507608653893,53.914538178735505,87.46582968517032,-0.38830041646175034,-0.9540033639486518,3.573053168290087,-2.2958650266889453,-0.5906945795716141,-3.554927126829935,0.4767909887476663,-23.005727748153433,66.35798714517144,98.77238705012715,4.405476152896881,13.244819641113281,2.0961474627256393,-5.543067984593019,0.38057088347711737,0
GUIDED_NOGPS,0.9803693294525146,29.46431381364505,-23.969073513979776,65.6247793320754,99.07890240545161,-5.196895588171787,-16.470874976161983,53.61121712399524,86.969858735369,-0.3661698564989686,-0.8712951091850865,3.5062020514583523,-2.135828648662843,-0.577480887422213,-3.1107349765636525,0.4753691659642785,-21.13086357716715,64.6929322170133,100.12926563287006,-0.11491747573018074,11.87545657157898,3.591052070260048,-5.671013975713219,5.040805112195409,0
GUIDED_NOGPS,1.013613224029541,30.086321543085454,-23.831190471601097,65.93890267333931,99.22998454077097,-5.252025642717638,-16.322276915990486,53.298647267731624,86.44972472098719,-0.4058974383629362,-0.9299112590336069,3.408237288523094,-2.241609322444231,-0.500469792624507,-3.4851753482269032,0.47399297745455693,-21.48280998096533,64.82784780246533,100.09887853884767,3.5278651863336563,12.869614362716675,1.3089010491967201,-5.660094622396779,1.1322714080076903,0
GUIDED_NOGPS,1.0468087196350098,30.251238739550953,-23.755198552854903,66.36739698898475,99.3121253669307,-5.216398008550413,-16.169548717277628,52.97738983634939,85.90542802170552,-0.410246454595236,-0.9101333790747772,3.2692617219335522,-2.541982389062503,-0.6210155658854913,-2.915530165131783,0.47270444176705884,-22.510082397165295,67.88540263561228,98.66756339051568,2.6050299406051636,12.106692045927048,2.208179607987404,-5.403351347277238,5.389499502816077,0
GUIDED_NOGPS,1.0804805755615234,29.5856892951865,-23.620474854604158,66.73314211621286,99.41244157928402,-5.223840589256889,-16.012970780983874,52.648034641638844,85.337007744628,-0.4264359239188703,-0.9397747992470459,3.1139528251609825,-2.452763595639975,-0.5142065982646464,-3.1782495158368036,0.47132882759700284,-20.753211117362476,66.86524567784718,100.55705311684507,1.2156115844845772,12.07066923379898,-2.0160017535090446,-5.307880255120982,2.1610406906539463,0
GUIDED_NOGPS,1.114830732345581,29.117607447569196,-23.48670474850236,67.084489982745,99.4702167353947,-5.128044142582487,-15.852836010600406,52.31119779394514,84.74454081304847,-0.5482812693483144,-0.9860984228585417,2.9164698581411117,-2.4776324447249922,-0.5274196954296583,-2.517201677794083,0.46998801161620735,-20.641763030807972,66.99904542089125,100.51407621780447,1.038833986967802,11.509834229946136,-4.061105474829674,-5.275837749829061,8.210273288043432,0
GUIDED_NOGPS,1.1478002071380615,30.335254764401693,-23.469927042115515,67.64776610865442,99.57448009837879,-5.053074841020356,-15.689448724972536,51.967519415337335,84.12814105521724,-0.5904033661249005,-1.0021234340335667,2.751056763708566,-3.0415319570097945,-0.751381662751409,-2.578866467890297,0.46850578272117405,-24.594848131097237,71.78767078280194,101.10722157828661,5.345115065574646,11.88386082649231,-2.309892140328884,-4.939132048064984,5.635972001657865,0
GUIDED_NOGPS,1.184554100036621,27.211179519784093,-23.421543938099724,68.07315941418665,99.5543891318471,-4.959856472656574,-15.523123571123108,51.617661352777574,83.48795829310745,-0.855714113666965,-0.9948198273767075,2.451706007529597,-2.684886590569382,-0.7125289319027743,-2.468324208019236,0.46721838977048086,-22.819319003725496,69.37125109999158,98.6873481320453,1.8721414729952812,12.183458358049393,-2.163052558898926,-4.949200269338693,6.554802345980184,0
GUIDED_NOGPS,1.219285488128662,28.796748414027956,-23.368043510154678,68.49467994390353,99.45322958596341,-4.898744283562629,-15.354184437075935,51.26230489129025,82.8241774311817,-1.1012681121479446,-1.009006130282824,2.1948447909602202,-2.824864840871472,-0.721766389903254,-2.587615674999348,0.46604690602391957,-22.435289144073426,69.99852311628949,98.61010696209661,1.0872043669223785,10.961957275867462,-7.307741791009903,-4.850535163551232,4.268347002446933,0
GUIDED_NOGPS,1.249077320098877,33.593400344399505,-23.24718217271099,68.95035410894683,99.56375015195523,-4.802877980893329,-15.1829633646792,50.90214846713112,82.13701754515847,-1.471073123389241,-1.0952887084164216,1.9302417684100452,-3.2108084746213525,-0.584780385520181,-2.2350004232018006,0.46441021360134516,-17.398040789798443,71.60897811656199,102.62965283316038,-9.30362343788147,8.833656460046768,-5.272926762700081,-4.625635640641016,5.511242075242854,0
GUIDED_NOGPS,1.2834563255310059,29.07703399700516,-22.952281357970904,69.20579696548158,99.67029654964769,-4.648281899411057,-15.009799462428878,50.537905380956495,81.42673097077868,-1.8035966142630806,-1.0378627190307759,1.6642207345551523,-2.606693323865875,-0.2645615832831676,-1.8926330629196926,0.46272620254537955,-16.422188987472964,68.38999781190628,102.65734592270385,-0.07702398579567671,10.641702264547348,-4.082517325878143,-4.417677213789319,8.458569447393613,0
GUIDED_NOGPS,1.3164851665496826,30.280066706613628,-22.79410056096404,69.56280469606016,99.62758702614744,-4.481200752438236,-14.835037818292157,50.170301510992346,80.6936023925722,-2.003817419923069,-1.06199025555214,1.4136426516919522,-2.9473826709192306,-0.5303744441607752,-1.6720673881493504,0.46129557735349425,-20.030933272046468,69.73504755294253,99.83329923605605,2.2359073162078857,10.559240728616714,-5.3877487778663635,-4.1097020640188795,8.298949634037708,0
GUIDED_NOGPS,1.3490245342254639,30.73673411061198,-22.624579800540094,69.92234802115436,99.63145491023704,-4.285261061900125,-14.659028412530851,49.8000730262035,79.93794793262433,-2.265536395096206,-1.0197022065230639,1.1364537249355595,-3.0151796514592055,-0.5145825790399026,-1.3741386886825244,0.45972495462961416,-20.22097461412647,71.05467843563741,99.89259216431003,3.816736862063408,8.82401168346405,-2.1971065551042557,-3.7119311902097003,9.025661271159555,0
GUIDED_NOGPS,1.3830695152282715,29.376196779638462,-22.441493050197415,70.26417441871968,99.59323280601541,-4.046508906159655,-14.482125030524802,49.42796409946273,79.16011423934232,-2.263458950371464,-0.8790848332117802,0.9369103886638718,-2.9808129131601926,-0.502467953990178,-1.0240682390865983,0.45819013011609316,-19.505259907325087,71.71260596353339,99.6663041395311,2.874285914003849,6.95851668715477,-3.9735734462738037,-3.535795353318272,11.305466571762151,0
GUIDED_NOGPS,1.4172306060791016,29.27715653837026,-22.365924825405212,70.66549627069244,99.41389262970213,-3.8528257398039374,-14.30468417559533,49.054724620719945,78.36047757622188,-2.2929429560277055,-0.7701274677767682,0.6597944061933806,-3.1734025414957197,-0.7324243137026176,-1.1694644862489598,0.456892418157035,-20.99986966626769,73.61542317476645,97.48859190992505,0.3389009740203619,5.7768478989601135,-6.429031491279602,-3.291126370415034,7.836305063059601,0
GUIDED_NOGPS,1.4501371383666992,30.39438824313748,-22.375085639053847,71.0162482336189,99.21831759313699,-3.6795112914370804,-14.127063981828622,48.68110791017136,77.53944291061373,-2.2717288153524686,-0.7607065024772051,0.3630809568076832,-3.175815515733409,-0.9435974482275051,-1.1614281196866507,0.4555840417435233,-23.393487288010817,73.45303438439922,98.04439332428777,1.8578991293907166,4.584306478500366,-9.071554988622665,-3.116497034073543,6.3701477548820655,0
GUIDED_NOGPS,1.4921483993530273,23.80638423466376,-22.268952456095295,71.27964815946329,99.03576577730725,-3.5284044998349904,-13.94962312689915,48.30786843142859,76.69744300249002,-2.231878716970264,-0.68642936919208,0.13584519217534727,-2.7702384531253617,-0.7072698854865934,-1.397516088434879,0.45419008571307595,-20.535530485311263,72.32359648628918,98.68009568021859,1.193537749350071,3.6280322819948196,-10.114430636167526,-2.9715036410861053,4.939569755864773,0
GUIDED_NOGPS,1.5175034999847412,39.447214724387976,-22.0942367637229,71.5705162967073,98.9086569782862,-3.334383959626273,-13.772719744893102,47.93575950468781,75.8349374932109,-2.2286557214556644,-0.6133888203118446,-0.041973863662308854,-3.5254009251951177,-0.5599273631412727,-0.46955640185319525,0.4526725091785327,-20.628824348855836,72.85456591580967,99.49843699187201,6.135686859488487,3.758055344223976,-8.921103179454803,-2.7477272771011267,6.902932392220679,0
GUIDED_NOGPS,1.5510263442993164,29.8371949094065,-21.747192353622314,71.77421289201648,98.74284228223647,-3.1313015723564703,-13.596710339131793,47.565531019898955,74.95241199429105,-2.194569022072481,-0.5152106139650234,-0.19328376138206205,-2.963376631137964,-0.22304581590719616,-0.6633195470636193,0.4511754881213702,-16.83283123054622,73.66812152075579,98.70113373864089,7.7985987067222595,2.750309184193611,-9.629062563180923,-1.979756410017384,7.345416806089847,0
GUIDED_NOGPS,1.5843229293823242,30.036336033113482,-21.588445610263285,71.99005044558461,98.5802541693402,-2.92106461144238,-13.421948694995073,47.19792714993481,74.0503771761661,-2.2672497053608214,-0.541106689233745,-0.4224942110766854,-3.0446623733980407,-0.6237529135495119,-0.4954062736238014,0.449630963740433,-20.238287763881694,72.77892832918404,98.4518667955239,4.8623450100421906,2.030644565820694,-8.312749117612839,-1.822206564928945,6.205723757218703,0
GUIDED_NOGPS,1.6182913780212402,29.444663629279663,-21.48280683177327,72.22278493906401,98.41811047749755,-2.73126267089954,-13.24878479274475,46.833684063760174,73.12936785695925,-2.3064584062912794,-0.5950858876877674,-0.6297865036834585,-3.1041244404864914,-0.7432853975046142,-0.5190695078736995,0.44804464406439504,-20.9069606343602,74.12195914006627,98.4693118358328,3.4294046461582184,0.2027729293331504,-8.41863751411438,-1.8060434074120177,5.273475506271893,0
GUIDED_NOGPS,1.6542813777923584,27.788257430203128,-21.405346087008983,72.51496606945024,98.17696313021413,-2.5268733358690616,-13.077563720348017,46.47352763960105,72.18994209124769,-2.4402458038759622,-0.5806492156598876,-0.7849812615916948,-3.188480477908878,-0.8024529218990957,-0.3790014506679684,0.4465733516424169,-19.633811025317605,76.60884416744926,96.93009005986491,-1.9688921049237251,-2.001952938735485,-9.12277102470398,-1.5172498424360183,5.797915359992044,0
GUIDED_NOGPS,1.686516523361206,31.026859886228298,-21.242057321003717,72.78582942850333,97.89428812335508,-2.326447297558429,-12.908624586300846,46.118171178113734,71.23268025882916,-2.400734653631319,-0.47469483894300696,-0.9906075216495137,-3.3554890430669517,-0.6374726231545033,-0.10720336613287462,0.44515783112364377,-18.426200807377306,75.73182904347294,95.87218094012186,0.36896434612572193,-0.919886864721775,-8.529067039489746,-1.4096310177037226,5.068621911363932,0
GUIDED_NOGPS,1.7202110290527344,29.683259968011775,-21.093115920959075,72.98375459029404,97.57225608731831,-2.1470169708830316,-12.742299432451414,45.768313115553966,70.25818415348844,-2.5561551813081365,-0.42819549804294194,-1.2626207658406234,-3.10923322631351,-0.6811925867540152,-0.25895623946958746,0.4437767161837829,-18.813812511145525,75.8053785415658,95.40288875625788,1.568661443889141,-2.1888749673962593,-10.939611494541168,-1.2747406314199434,4.94852285320619,0
GUIDED_NOGPS,1.752622365951538,30.856579537846965,-20.764625203276463,73.15982076663082,97.35542928427189,-1.9170729962484103,-12.578912146823546,45.42463473694616,69.26707607176385,-2.5517949592967293,-0.32445324884349924,-1.448386970226161,-3.1516366671505454,-0.28661889977285804,0.2656153475369143,0.44215516616746775,-14.46969553478666,75.46897037737325,98.46675979230446,1.0864568874239922,-3.2998502254486084,-12.787282466888428,-0.7638152312524085,6.206002941201027,0
GUIDED_NOGPS,1.7872087955474854,28.918257032542748,-20.407518580705176,73.30892840035212,97.17002975098413,-1.656361777361841,-12.41877737644008,45.08779788925245,68.25999790171377,-2.5926108891162563,-0.30187389742748,-1.6710679991980901,-3.0604530107510315,-0.2426753556540804,0.5158985363231763,0.44043192980012924,-14.408797976804951,75.77610244947826,98.36565562399888,3.7702471017837524,-4.211176559329033,-11.144456267356873,-0.5040099604786843,8.35334269926675,0
GUIDED_NOGPS,1.820636510848999,29.918710321706257,-20.14295044381169,73.4646255129026,96.79665017287267,-1.4264287676399903,-12.262199440146322,44.75844269454191,67.23761021168319,-2.586042168125408,-0.2283413081227392,-1.9457095855591855,-3.1292142382899923,-0.41695438148547415,0.5194531830769985,0.4390548437307405,-17.197552974957,76.53700306568717,95.7567922358473,6.079306825995445,-5.602342635393143,-15.39546549320221,-0.5305803799793913,6.605193774129245,0
GUIDED_NOGPS,1.8590788841247559,26.01651190631261,-19.835505095057886,73.51422238703239,96.45782522649367,-1.1680276201737023,-12.109471241433463,44.43718526315968,66.2005913390701,-2.696021660697542,-0.2797767413586078,-2.2870047468746137,-2.8387944242620824,-0.36775702299634005,0.6430392068187,0.43756536846126476,-14.352760211135132,75.38425460458969,95.64307820504882,1.4508186839520931,-7.851037383079529,-13.585278391838074,-0.1363001109311379,7.967509581920962,0
GUIDED_NOGPS,1.8906331062316895,31.705134892018354,-19.625715216991658,73.65122194420091,96.0920332072419,-0.8958992144120115,-11.96087318126197,44.12461540689607,65.14963647909214,-2.662449786823048,-0.1630730876311552,-2.5434721603496575,-3.179980693974056,-0.5154814128136797,1.2001712522945562,0.4361175126850746,-17.677046774923184,77.46561044192123,94.54688079103937,4.564354568719864,-8.361957967281342,-11.582081019878387,-0.12168793212940991,8.365564469012842,0
GUIDED_NOGPS,1.9213390350341797,32.570794020578525,-19.48142357826112,73.68625168312786,95.79094347515671,-0.6109727134922476,-11.816672070885023,43.821294352155796,64.08545677355303,-2.6695320526621167,-0.10704990837726025,-2.8723363773756625,-2.9866250468036633,-0.6701144403654247,1.4847143170253578,0.43451325792878537,-17.91530530325474,76.59433905217648,94.47097542872268,2.329116500914097,-9.931987524032593,-9.741224348545074,0.12780620178175264,10.55339614979934,0
GUIDED_NOGPS,1.9556221961975098,29.172896351217883,-19.197539143212275,73.67924860476298,95.56763648207354,-0.3682913967617549,-11.677120044671916,43.52775245312708,63.00877839960905,-2.7582647477170448,-0.04697744747185929,-3.1562893258444835,-2.8315934649395134,-0.3773237323039215,1.1908344722352215,0.4327169684953642,-13.35479058703091,76.1963597091821,95.17361042485598,-0.8119668811559677,-10.781096667051315,-7.830309867858887,0.6803669717278212,7.192401785661343,0
GUIDED_NOGPS,1.9887785911560059,30.165517142179038,-19.08016839834491,73.57800997749293,95.19370162870472,-0.08513322950708194,-11.54245347293151,43.24448690495079,61.92034165853568,-2.8225464327603853,-0.05500882279097531,-3.5601951237341263,-2.659712956446603,-0.7237461195399362,1.6558798817029452,0.43119965216782175,-18.753929468784204,74.30958332904163,93.89344698883245,3.5943444818258286,-11.668611317873001,-13.08153122663498,0.7010068671393265,9.20705145872123,0
GUIDED_NOGPS,2.0224170684814453,29.731444004168054,-18.959928871297247,73.40042328019413,94.8295574485253,0.2021284473259567,-11.412891874735603,42.971959456889614,60.82090006449394,-2.8459692858584744,-0.03284643974955082,-3.7629420321699616,-2.491103403082478,-0.7204912986912344,1.8294179602565555,0.4296375484113568,-17.23198527801556,73.65220483306817,93.97719734047612,-0.18230625428259373,-14.26466554403305,-13.427849113941193,0.9187661883922384,9.513617669428081,0
GUIDED_NOGPS,2.0562100410461426,29.596754048618706,-18.85603096447231,73.4003291157265,94.44555615201182,0.5034468840509598,-11.288636830742355,42.710594125497174,59.71121943329702,-2.9041324020659527,-0.0760568711414828,-4.084935505777757,-2.827237550060661,-0.7614659971761962,2.0871136095294913,0.4280923783861377,-15.994305133218012,78.31173785773876,94.1882659603088,-4.387331381440163,-15.688538551330566,-16.011585295200348,1.4198615150301925,9.501662277059621,0
GUIDED_NOGPS,2.088913679122925,30.585218944835383,-18.688639814670097,73.38461555064156,94.01560787528555,0.7709375582983997,-11.169870896019749,42.460774907787204,58.59207697117675,-2.9304977860358483,-0.17831027917410158,-4.358671131578474,-2.8066498659060914,-0.6239637268186718,2.098910161571519,0.4266213401259323,-15.994305133218012,78.31173785773876,94.1882659603088,0.4515411797910929,-16.023889183998108,-19.57560032606125,1.4198615150301925,8.147419325980037,0
GUIDED_NOGPS,2.1232783794403076,29.104272341842858,-18.200933977800467,73.10780353332231,93.65836099199849,1.031754112790235,-11.056756512868944,42.22284349440276,57.464260363550096,-2.9272743636344254,-0.15478817488963548,-4.598748438923014,-2.275470473153797,0.06566478151972314,2.137744046099456,0.42498074642857797,-7.558229974398903,73.17662076672252,94.629976060941,-1.575867086648941,-17.75798499584198,-17.127828299999237,2.210956311161566,6.312329349784262,0
GUIDED_NOGPS,2.1563355922698975,30.254511880202546,-18.32990496242811,72.87831179413934,93.04329527702848,1.2784897668646011,-10.949434923647736,41.99709698278518,56.328566863785674,-2.8120441631378443,-0.28018503192450117,-4.792896992967449,-2.31386882102252,-1.2337558056518199,2.2693210931376755,0.4238430065740012,-18.797463008159166,74.64920545443888,89.58188475353502,-9.83094573020935,-18.736137449741364,-19.021479785442352,2.5104807920705547,4.701894967560785,0
GUIDED_NOGPS,2.189021110534668,30.59816015815928,-18.336835203948468,72.62210547057971,92.42980902056277,1.5471488076283022,-10.848025083593967,41.783785590343435,55.185802381970284,-2.7893139339102766,-0.37025559028310556,-4.96329014907858,-2.2359062436345436,-0.9788875241319347,2.556926335714235,0.42268615012119165,-18.71361528725889,74.27572526174266,89.49429873912354,-1.5699731186032295,-19.248861074447632,-20.157697796821594,2.5943878465534267,7.030705167910931,0
GUIDED_NOGPS,2.223383665084839,29.10649401118652,-18.31928791040826,72.39527926701578,91.92336375612172,1.7738241641925372,-10.752622573648935,41.58311036762321,54.03678057367541,-2.7874403276435773,-0.4442889178313729,-5.130598621005805,-2.2680277265682354,-0.9250770282034794,2.3858571050108406,0.42129702369513833,-18.383695930103265,75.48144701047306,90.18733122161059,-0.7381463889032602,-20.62526047229767,-16.257238388061523,3.1090298727142245,3.583100163115764,0
GUIDED_NOGPS,2.25807785987854,28.8274259950377,-18.316931209089677,72.13288157269267,91.35051483915875,2.007019059299561,-10.663298513280779,41.395220911475995,52.88232192872367,-2.644278281979641,-0.512639367907631,-5.278482461820336,-2.167118918085008,-0.9577014315308805,2.5645879125952096,0.4200282971374163,-19.180418013050023,75.05741591518148,89.53061186523331,0.6331818643957376,-21.38047367334366,-18.985842168331146,3.194872041786606,4.04662967047821,0
GUIDED_NOGPS,2.290313243865967,31.025482842538963,-18.364058410339968,71.8618418067898,90.81543003835081,2.238161327062583,-10.580098473307977,41.22021307822829,51.72325285995544,-2.618480870927914,-0.5524499258978437,-5.364720430280917,-2.1029955483712084,-1.077612559250332,2.7568144800322543,0.4186780781852134,-19.180418013050023,75.05741591518148,89.53061186523331,-2.4431977421045303,-22.000940144062042,-18.196609616279602,3.194872041786606,4.77362860243202,0
GUIDED_NOGPS,2.324465036392212,29.285742214774473,-18.435387512577392,71.43975883247658,90.29678949829442,2.407969922848975,-10.503041388722693,41.05812669685077,50.560404791995225,-2.5140284954982017,-0.7641932606876437,-5.541735454792375,-1.7755922149750525,-1.1092627260152457,2.440133635328893,0.4172811976724107,-19.817682695684315,71.8649927504006,88.66293320977039,-2.055269666016102,-22.95105755329132,-16.407208144664764,3.246381960545591,2.0653463252874826,0
GUIDED_NOGPS,2.3598716259002686,28.25417483445493,-18.230359006633744,71.0866843358393,89.83255036113638,2.5774274694690087,-10.432118471514187,40.908943282127375,49.394613250018324,-2.317858845789677,-0.7865351829887256,-5.593257279249074,-1.9041964354671224,-0.5378423638755774,2.5060693532957456,0.4157638382283732,-15.573403721791756,73.64534565722857,89.72896670796939,4.169046878814697,-23.47305417060852,-16.335289180278778,3.4127215683007206,1.801298895937606,0
GUIDED_NOGPS,2.39162278175354,31.499883592558938,-18.122929634193557,70.6264405559282,89.2705350306689,2.725172677575789,-10.367292123492298,40.772583747824505,48.22671694851718,-2.2197608941656037,-0.8140751460524517,-5.6570883852506055,-1.5837290488846452,-0.6959977841898404,2.566146699979221,0.41444786581550275,-15.831889751052499,71.49349875891431,87.38775359187852,-1.151267159730196,-24.774685502052307,-17.352396249771118,3.8322257993708524,0.1754462154364713,0
GUIDED_NOGPS,2.425791025161743,29.270414180536655,-17.980491128145616,70.13147979251056,88.87347984848068,2.8771441256004895,-10.308494849110815,40.64890611986015,47.057556880068006,-2.1116089040832713,-0.8979211075605001,-5.72719942330714,-1.5128909360047043,-0.6111037955367624,2.6203009671213437,0.41278992497624645,-14.333085727335082,70.45537647870154,88.61576722948658,-2.5308288633823395,-25.44240951538086,-13.160131871700287,3.9107032525588172,1.438069862763151,0
GUIDED_NOGPS,2.4589905738830566,30.126516452023015,-17.833569622320912,69.67510018169743,88.41255172434695,3.038104124247445,-10.255628168290883,40.537703249473076,45.88797540409726,-1.9013274432192657,-0.8651277685296822,-5.780731884700761,-1.5259367642242456,-0.5829234017811878,2.78692708608231,0.41125901998191716,-14.700501923363424,71.5021556977025,88.37734902701476,-0.9224004112184048,-25.577545166015625,-16.170836985111237,4.123487769897739,1.416026280990581,0
GUIDED_NOGPS,2.4920008182525635,30.298002672734498,-17.77887880339159,69.17642190104675,87.82683471718744,3.1735405306802256,-10.208561529244434,40.438700526391905,44.7188153356481,-1.7661116823244043,-0.8859198248585531,-5.858667331338369,-1.372719278649038,-0.7589950681831639,2.722556443071019,0.4099779957152932,-16.841129644595625,70.75529268716713,85.7461384436741,-0.5335941910743713,-27.03644335269928,-18.056370317935944,4.023345637936428,0.7383400341837933,0
GUIDED_NOGPS,2.5265932083129883,28.91207753444865,-17.73915733754913,68.55082015418336,87.32359772318969,3.2976103157469567,-10.167131221297616,40.35155359200429,43.550919034146915,-1.644833349317777,-0.877498415055339,-5.927986494338005,-1.1016605413546259,-0.7664828731403561,2.6976398201250253,0.408527835693119,-15.290679039251764,68.02743566872273,86.23791585254364,-5.729351192712784,-28.047412633895874,-15.491059422492981,4.177595943503416,0.2517121077088337,0
GUIDED_NOGPS,2.563225746154785,27.3031115740138,-17.925907169612717,67.92483141059978,86.67801498143773,3.4876660209232955,-10.13113928771422,40.275846052526084,42.38512749217004,-1.4874540514530472,-0.724316748683258,-5.962884919015361,-1.0203632817577695,-1.2296754189139254,3.1814257673427253,0.40736371620062267,-17.15174405425854,67.7604220234949,84.71181353364733,-15.214604139328003,-27.70465910434723,-20.50189971923828,4.1870385325396455,4.510672722688876,0
GUIDED_NOGPS,2.595303773880005,31.18070712777662,-17.92349919883383,67.37240092090853,86.08624873648557,3.594566653322488,-10.100352438519032,40.2110871921706,41.222279424209816,-1.4407114384246533,-0.6516083711122674,-6.025609961258174,-1.0412285052155106,-0.8504750998281386,2.8242409597694453,0.40610659274066285,-18.00960398687453,68.79534309353954,83.34531216809569,0.054561253637075424,-27.729308605194092,-15.87594449520111,4.303215566366683,0.07141325631047989,0
GUIDED_NOGPS,2.628098964691162,30.49670988053776,-17.925118801939636,66.79969560781628,85.53736977175151,3.74222974014504,-10.07450096332132,40.15670968631736,40.06321035544158,-1.353201560674569,-0.5396670134227533,-6.05442268738505,-0.972138934915448,-0.8476371456330086,3.138356092078743,0.40476590404366636,-17.705198354571614,67.85900206378525,83.12370051033085,-1.0256177745759487,-27.90464460849762,-14.66217041015625,4.2321798105735535,3.4898313686783013,0
GUIDED_NOGPS,2.67915415763855,19.588750128433855,-17.98415409470447,66.07623247160383,85.00879253137104,3.810933347240377,-10.053277644138234,40.11206731468187,38.90875171048987,-1.2329458350527396,-0.5923866823051429,-6.122991383349631,-0.6800129294964595,-0.9385827232294695,2.676848717472738,0.403384299339842,-17.144688814946022,64.73616105283628,82.26402785941744,-6.444781273603439,-29.17017638683319,-11.618492007255554,4.278381768975369,-1.3207611503247703,0
GUIDED_NOGPS,2.694558620452881,64.93836411772902,-17.973306820761486,65.29764589536016,84.4066400171399,3.9125759881478865,-10.03633666821819,40.07643267448412,37.75972990219496,-1.1310088902282958,-0.5022933388623542,-6.135453063490319,-0.3880520054049849,-0.7740650148467593,2.9786728269394676,0.40217036146691854,-16.335067273429285,62.953231267987434,82.41044146399699,-3.9514802396297455,-28.556039929389954,-16.12236797809601,4.437060136057174,0.14060371293294374,0
GUIDED_NOGPS,2.7319319248199463,26.760993287905467,-17.976625846325792,64.60862880702679,83.78566810386306,3.9954416802830166,-10.023292540864347,40.048994893618264,36.6169654203796,-1.029671721390344,-0.4197737680746105,-6.166674711960093,-0.7007508784858623,-0.8153454740649015,2.8345788272434342,0.4009837699294213,-18.335247444405375,63.96263743654826,80.7520724434986,0.9130856953561306,-28.201135993003845,-16.783782839775085,4.634372077756526,-0.3195116603398479,0
GUIDED_NOGPS,2.766618251800537,28.834164014216675,-17.964730674908566,63.84963220761517,83.15372013785876,4.104759146540086,-10.013718998257914,40.02885734382132,35.481271920615185,-0.8284462909529816,-0.5291327806493309,-6.223311921218309,-0.1307080869005988,-0.7399980410155477,3.215147481971309,0.3998654403834248,-18.00542002488451,62.241626306423235,80.12820718411265,0.9662868455052376,-28.24038863182068,-13.96590769290924,4.503991091914459,1.2782942357168046,0
GUIDED_NOGPS,2.7943875789642334,36.018686452322065,-17.94521144773243,63.160587366767494,82.50849824146195,4.203230788579138,-10.007147920281668,40.01503535384273,34.35345531298853,-0.6740697150021188,-0.5303793968945639,-6.257975558142946,-0.4196122342659128,-0.7390568865570251,3.1112598618966416,0.3987715088181505,-18.150202560390227,62.02763430577359,78.274056238648,1.8824728205800056,-28.858250379562378,-17.350363731384277,4.479310353606537,2.5617247736894586,0
GUIDED_NOGPS,2.832465410232544,26.264795576512434,-17.893745629199422,62.39205502849388,81.7962092458703,4.306610399214608,-10.00306824334342,40.0064539226133,33.234312850868236,-0.4787872961946082,-0.5076793165488794,-6.247425477196216,-0.3843946735061493,-0.6732128139471318,3.126417264313803,0.39780972407643134,-17.11414421289561,61.40635068931395,79.45987159408566,1.0811634361743927,-29.06980812549591,-22.72440940141678,4.4996495197762645,2.2242062800982243,0
GUIDED_NOGPS,2.8650848865509033,30.660341084364653,-17.94225244629332,61.57240910206482,81.05389457606589,4.396678954317039,-10.000924873199239,40.001945432414196,32.12463221967133,-0.21666870159417254,-0.49081589965323535,-6.220450925729719,0.019338555906057812,-0.8439619290909609,3.190136310044602,0.3969472832026759,-18.190838892264317,60.82753182759089,78.71010019495063,-2.5633899495005608,-27.706649899482727,-19.20430213212967,4.638771520304517,0.35954798809864125,0
GUIDED_NOGPS,2.8998265266418457,28.7922018191179,-17.959931033612836,60.82355795515373,80.4268052585584,4.463713858991038,-10.000117597777077,40.00024736204653,31.025190625629563,-0.06933268997584409,-0.6030841459275581,-6.208916870655684,-0.15463521448256282,-0.787919669880606,3.064329629997824,0.3958653449276839,-18.319147373126757,60.065942407096216,77.88517552330742,-0.10121874511241913,-27.802810072898865,-16.46338850259781,4.635731528482664,0.49042807297442553,0
GUIDED_NOGPS,2.9314980506896973,31.578145351332225,-17.934743385097295,60.02345883497148,79.80029697211702,4.5144646224731915,-10.0,39.99999999999999,29.936753884556225,0.10827525365250978,-0.5709861521707591,-6.165152433548827,0.14266112655226626,-0.669571652447044,3.0296875507248724,0.39481535499970966,-18.485920256203023,58.911328871773996,77.27123169776286,3.204856812953949,-27.148282527923584,-14.421515166759491,4.6453748681010385,-0.5733376048750947,0
GUIDED_NOGPS,2.9659769535064697,29.009461627842636,-17.97062429815238,59.29782386323452,79.11553239876044,4.537201564883262,-10.0,40.0,28.860075510612262,0.361398569157318,-0.5651632558207647,-6.086360651944029,-0.06799657097396562,-0.8185430830722932,2.854254655707526,0.3938929541262019,-18.508137943294408,58.47222560737465,77.00019219985069,-0.8667329326272011,-26.324042677879333,-21.923543512821198,4.639290422173287,-1.3926875245966475,0
GUIDED_NOGPS,3.0082709789276123,23.647334088820482,-18.069167819987218,58.53650011406743,78.40758773325501,4.567603672754886,-10.0,40.0,27.795895805073087,0.6287257432888438,-0.6319215781293221,-6.013537601900176,-0.13119888253171333,-0.9331124121048449,2.892864289223493,0.3930188366610127,-19.75679788391979,57.75013788124346,75.99155228761613,-1.5528173185884953,-25.377565622329712,-19.549092650413513,4.776711966339152,-1.4711625561786859,0
GUIDED_NOGPS,3.0344536304473877,38.20157749968122,-18.101245324428003,57.747633787469994,77.70739172542957,4.527155469842424,-10.0,40.0,26.744940945095152,0.7152145611188641,-0.5808393403787372,-5.956780864331486,0.475383615281276,-0.7936915966891606,2.4327553949706866,0.39220099787821694,-19.036983728305792,56.16093444338695,74.29989706471088,0.727716414257884,-23.382095992565155,-15.177464485168457,4.536010255222331,-5.050818169518648,0
GUIDED_NOGPS,3.0687594413757324,29.154848710231263,-18.226147558593677,57.08992967972104,76.9985948589129,4.509617487811642,-10.0,40.0,25.70792207248209,0.8342750036359413,-0.5295000100389248,-5.806897912524257,-0.00946008021580759,-1.0206030887904083,2.6034131331978885,0.3914039429863117,-20.01059397624209,55.213606918228756,73.39956746888443,-2.9004374518990517,-22.604848444461823,-21.98362499475479,4.500843100294196,-2.2919335821344244,0
GUIDED_NOGPS,3.1041977405548096,28.22318520711652,-18.35002860570116,56.31975703039604,76.171126212793,4.427698245919975,-10.0,40.0,24.685534382451493,0.7782361296211899,-0.39158880570156773,-5.634097968504342,0.2672543061963637,-1.009752669895721,2.1760104780931186,0.39087369420099816,-19.74281272469397,53.69501999843909,72.26297829827946,-3.6755554378032684,-20.13627141714096,-21.981653571128845,4.361113152407546,-6.330076315682071,0
GUIDED_NOGPS,3.135820150375366,31.627674094182407,-18.47249375317336,55.56650518008936,75.35802910702262,4.338094161470844,-10.0,40.0,23.678456212401386,0.7225052010884708,-0.306147381372513,-5.411795374701114,0.33483341301799585,-1.021140671259453,2.060905482676656,0.3903490200614248,-19.760416332508278,52.93028440891294,71.60062206947562,-3.6755554378032684,-20.13627141714096,-21.981653571128845,4.290168154361398,-6.330076315682071,0
GUIDED_NOGPS,3.1699366569519043,29.31521708742207,-18.561125590980616,54.85068607511218,74.62846197049308,4.218633253243437,-10.0,40.0,22.68734813067684,0.6568858661848659,-0.25844822169520004,-5.199019187242762,0.2659599298554481,-0.9576932347327134,1.829927542658863,0.389684364436922,-19.819850984166735,52.447229861770815,71.90426039702015,-1.4037937857210636,-18.749283254146576,-19.989466667175293,4.250075839396028,-7.8749571035727035,0
GUIDED_NOGPS,3.202091693878174,31.103708592573916,-18.638128096722063,54.15696469515811,73.87001579962431,4.118002660810758,-10.0,40.0,21.712852025336048,0.5802928718842834,-0.23258402953608073,-4.878443404774567,0.3506845716452152,-0.944527603616548,1.845384410416904,0.3891179898749987,-19.82586465121425,51.85359893594408,71.63269109531686,-0.7799330167472363,-17.4099400639534,-21.728484332561493,4.1894903517437525,-6.459954497183978,0
GUIDED_NOGPS,3.2371551990509033,28.530545333342403,-18.76495857416067,53.48717304893133,73.12508671974214,3.9115966823072474,-10.0,40.0,20.755590192917538,0.5699924663682281,-0.1229262762264516,-4.548654550889671,0.24570553863690633,-1.0506528918689566,1.1683732687115722,0.3885465805433506,-19.809050947452413,51.18078380796754,70.9489859667843,-4.3644726276397705,-16.914325952529907,-22.693537175655365,3.8602533879880925,-11.934145357500451,0
GUIDED_NOGPS,3.2714357376098633,29.170461658297747,-18.912301735343533,52.83234330261798,72.32593215038341,3.758878052077851,-10.0,40.0,19.816164427206076,0.5579906500577521,-0.11638151425855132,-4.358223754187838,0.293565202448427,-1.1089363307765816,1.3647362611370422,0.38812196800089077,-20.671198255817636,51.5203121364021,70.62466412595737,-3.2568641006946564,-15.735630691051483,-24.055543541908264,4.062940285091618,-9.099289002865,0
GUIDED_NOGPS,3.30672287940979,28.345254507609546,-19.038833624635267,52.17341303385834,71.53741814812594,3.4741893713638143,-10.0,40.0,18.89515510799916,0.5903789268542765,-0.037000088559204496,-3.8387707923354433,0.30956095223743757,-1.0714253683143549,0.4681083917786426,0.387708631829604,-19.96127991643049,50.15790111827859,68.56623804553152,-4.122599959373474,-14.825144410133362,-19.94350254535675,3.522047326653713,-15.568926146971117,0
GUIDED_NOGPS,3.340449094772339,29.654088984099378,-19.220566273730594,51.51267254772258,70.66591289719773,3.1978318555017458,-10.0,40.0,17.993120289874156,0.7293678336570412,0.032544287255110396,-3.117047968072056,0.41415666731007467,-1.2080352180820322,0.2858262855856377,0.3875049379780772,-20.955686361503233,49.68445814432604,67.55206100484861,-5.044158920645714,-14.879824221134186,-23.51060062646866,3.1316126678278566,-13.82224101675011,0
GUIDED_NOGPS,3.3716280460357666,32.07856154063831,-19.43438332679531,50.94664379641094,69.94840087853909,2.8851763812850253,-10.0,40.0,17.11059479095431,0.7137265937360062,0.06338979173780492,-2.712026501470174,0.37179123045240564,-1.337837936973138,-0.282146402877798,0.3870436207276711,-21.979417952142704,49.084785888704374,66.3319483187164,-5.045132339000702,-14.199641346931458,-17.25882589817047,2.744301691368471,-15.712915072411448,0
GUIDED_NOGPS,3.4056472778320312,29.398846280551485,-19.644324903697687,50.38431597068799,69.23455061563554,2.5608258763366387,-10.0,40.0,16.24808928167525,0.8047824068823849,0.03128193622838114,-2.244256513850208,0.2938062692928727,-1.3120487717700704,-0.3689678339199025,0.3866019994212681,-22.035138528270053,48.55452796784449,65.63364110946577,-5.045132339000702,-14.199641346931458,-17.25882589817047,2.341611549739479,-15.712915072411448,0
GUIDED_NOGPS,3.438809633255005,30.158359458137998,-19.866652269890785,49.7812668979361,68.36378916352436,2.179168522628733,-10.0,40.0,15.406089373551538,0.854231108843426,0.057302532382376495,-1.6230860270004563,0.4381963050952708,-1.3652799457654996,-0.9899714240059796,0.3865187647314352,-20.92785429539356,47.433629715342875,65.13233930429152,-8.995473384857178,-12.2568778693676,-24.530471861362457,1.9080587728900347,-17.687541544482354,0
GUIDED_NOGPS,3.4725725650787354,29.624138320714206,-20.080885040927196,49.21792651767755,67.63515929729216,1.7461138297550867,-10.0,40.0,14.585054707943385,0.8743278198982779,-0.13872530418948445,-0.9735413335128849,0.3750404572444541,-1.365778569528794,-1.519066948190156,0.38619074692740996,-21.187385595548797,47.10242015854457,64.71043843312793,-8.063876628875732,-11.392255872488022,-17.29687601327896,1.6525035042355962,-20.66073996566183,0
GUIDED_NOGPS,3.506415605545044,29.556293117420317,-20.267387852513533,48.681056116445134,66.88622879812361,1.3482436806951332,-10.0,40.0,13.785418044822933,0.9625290408584144,-0.20335671626267057,-0.3659862151237452,0.3516410491877538,-1.3275530202394743,-1.544858026827829,0.38594572212962763,-21.11138930949951,46.85236621014967,64.3868368223462,-6.662420928478241,-10.363272577524185,-19.25923526287079,1.4034371466832962,-18.11545118843636,0
GUIDED_NOGPS,3.539766550064087,29.98780269827765,-20.455083205154235,48.1751540950477,66.19694204014901,0.9635612385263439,-10.0,40.0,13.007584351540999,1.0648367368887428,-0.18911350400694613,0.006750619800719416,0.33311876169344184,-1.354498482680358,-1.7253962127163862,0.38562650908881413,-21.070199023162033,46.682413532344306,64.0814957531983,-7.203936576843262,-9.941434115171432,-16.678796708583832,1.1590586025616538,-17.031780204911307,0
GUIDED_NOGPS,3.576667547225952,27.104091813787576,-20.76113545044925,47.68310283251433,65.40512573466559,0.5307061936783237,-10.0,40.0,12.25192989159305,1.1420469028138596,-0.30693151910574223,1.0940958799109024,0.2451181894521372,-1.5738027387324007,-2.0315127257718566,0.3855421808564749,-21.767447620194023,46.51598632683547,63.41362740098002,-13.411037623882294,-10.454600304365158,-23.213985562324524,0.6599952791409516,-19.15822641430596,0
GUIDED_NOGPS,3.609586238861084,30.382719179421798,-20.988829255017354,47.15485607308051,64.60367368287956,0.05142593448834429,-10.0,40.0,11.51880131338649,1.1803091956574479,-0.44370493665733685,1.6545588983656403,0.49823561422942403,-1.523206190294628,-3.0263917466618375,0.3855456751792996,-21.391412969497082,45.514901042479536,62.672489253003526,-8.831259608268738,-8.564857393503189,-20.113605260849,0.05721822653963263,-19.30771193448086,0
GUIDED_NOGPS,3.6406517028808594,32.19725337570719,-21.208776895974758,46.7070580962186,63.874186581909676,-0.4136590340558485,-10.0,40.0,10.80851473900671,1.2664995662372502,-0.46901201483185057,2.2230703342618865,0.3151183478533899,-1.5090255195689812,-3.0952166105014216,0.38544537661812683,-22.063356473660562,44.584633916069635,61.2024821507555,-8.200892806053162,-7.882429659366608,-19.85241174697876,-1.195963644858185,-18.201467175748913,0
GUIDED_NOGPS,3.67551589012146,28.685670514854735,-21.48934844676698,46.27325469515071,63.101717018417105,-0.9223824236440701,-10.0,40.0,10.121354852983558,1.2832730167349207,-0.40424773423496657,2.9893349565370424,0.24969634937311996,-1.6284518407011956,-3.4705673964154893,0.38546816697104425,-22.74597773096422,44.56911636803349,60.54180765172632,-10.094965249300003,-6.667140871286392,-20.701470971107483,-1.7947950787899813,-19.27842749841443,0
GUIDED_NOGPS,3.711775779724121,27.58484982012614,-21.778649856225254,45.839412004452115,62.30888705080095,-1.400542543172608,-10.0,40.0,9.457573991057785,1.1492275660656586,-0.5444230662409035,3.5013603011104597,0.2786205756507856,-1.6836838014127573,-3.6208669272719995,0.38558084665259507,-22.59420801791483,44.354260648961684,59.959804982456276,-11.195691674947739,-6.126967817544937,-20.22332102060318,-2.4311494744025146,-15.446288392876246,0
GUIDED_NOGPS,3.742949962615967,32.080524387538915,-22.012484377990386,45.43688769515491,61.53021847742143,-1.8906045963767548,-10.0,40.0,8.817391228947969,1.11104446072776,-0.5872098791619493,4.1485066377040045,0.26943554115220414,-1.6147409582989019,-4.104179018015566,0.3857186443783632,-22.406271647033954,43.812002334398684,60.08068696898484,-9.030238538980484,-5.925694108009338,-23.83582592010498,-2.8012132321186005,-16.89636145933205,0
GUIDED_NOGPS,3.786365509033203,23.03600694215602,-22.261917899457888,45.09090733489549,60.791987074295456,-2.4028507951438893,-10.0,40.0,8.200991471116737,0.9724204354370622,-0.7425165347786975,4.930138545281454,0.1578156078188217,-1.6615126112889889,-4.502057005786266,0.3858214632915753,-22.857115834479146,43.802299163880356,59.00317309083111,-9.494321048259735,-4.43543829023838,-21.095949411392212,-3.4072821981300274,-17.869084557526705,0
GUIDED_NOGPS,3.8097453117370605,42.781994920388826,-22.539712669844533,44.73562647726162,60.054067715765946,-2.9415889358137153,-10.0,40.0,7.608524539537285,0.8006168452623234,-0.8647572307672091,5.167640017535254,0.18688323692215403,-1.754075156672144,-5.005823000436659,0.38597287761329174,-23.05375564088289,43.08560745351441,58.63588458071036,-11.155044287443161,-4.005851969122887,-21.13986760377884,-4.057834050253889,-18.352001129961412,0
GUIDED_NOGPS,3.842729091644287,30.323192596876808,-22.82714866314469,44.41668850243453,59.39383391265664,-3.3822575526880323,-10.0,40.0,7.040104262459778,0.5649887658318119,-0.9650447916288005,5.700845992168292,0.12686096313634088,-1.8029181567707668,-4.695720379981109,0.38601806517463183,-23.494840004481865,42.97674326528922,57.34530361861241,-10.970749706029892,-2.659861743450165,-14.669090509414673,-4.92349231562118,-11.107371449037919,0
GUIDED_NOGPS,3.878952741622925,27.61081707349185,-22.974236962798606,44.13337294757353,58.74430322287798,-3.8315103806642465,-10.0,40.0,6.495807563178147,0.33424499202937363,-1.1425078338611296,6.235445325392013,0.03658353213519877,-1.4876295823579948,-4.782304052996507,0.386077303035666,-23.42347356021206,42.36801731286562,57.1173165784849,-2.375968173146248,-0.01921030634548515,-15.6733438372612,-5.549793192559335,-11.12621423341069,0
GUIDED_NOGPS,3.913637638092041,28.836344636031132,-23.311340233301337,43.79179106553579,58.11491166241732,-4.263763506960691,-10.0,40.0,5.975673548796323,0.1405955887430911,-1.2955336331819167,6.594305598818599,0.15096478671206728,-1.9262710934371867,-5.055487485017707,0.38615141906636635,-23.96980750367689,42.17698730072895,56.41596953599867,-13.772736489772797,-4.099699482321739,-13.40399831533432,-6.211986060198381,-8.818547737409965,0
GUIDED_NOGPS,3.9462356567382812,30.680750212130967,-23.634402647364357,43.452473941003625,57.382212554843285,-4.727251119950916,-10.0,40.0,5.479702598994919,0.013275433147271814,-1.4961275379253172,6.979936798697049,0.19410947139511225,-1.9760692200149044,-5.688265803072069,0.3864899138878038,-24.313661667932287,41.86953366345698,55.39513333494273,-12.214956432580948,-3.980962187051773,-18.145368993282318,-6.873465030620178,-9.670313308045575,0
GUIDED_NOGPS,3.9798619747161865,29.74282898049199,-23.91474675083864,43.13356550943742,56.712489358748094,-5.1607101174609955,-10.0,40.0,5.007855454797806,-0.060997751434739345,-1.7076244522964676,7.273401852802171,0.14577947873174846,-1.8845151783059348,-5.6606839084068055,0.3867458245859683,-24.099848698432197,41.17185434045278,55.1559078846783,-11.347825080156326,-3.509623184800148,-18.390466272830963,-7.304577058769015,-9.505063711266287,0
GUIDED_NOGPS,4.013181924819946,30.018063925110575,-24.172048384906187,42.841051178527316,56.018303083776246,-5.628708051897139,-10.0,40.0,4.560052307338395,-0.07811505926843755,-1.9050729482053714,7.495441911209177,0.11205161119565171,-1.868152805516777,-6.189842123583122,0.3871015947120836,-24.977726177747932,41.530216761926795,54.10809160283972,-7.434556633234024,-3.2448038458824158,-17.29240119457245,-7.784171362234556,-10.565094556300279,0
GUIDED_NOGPS,4.049375057220459,27.63574068827378,-24.384356654623172,42.5633770588542,55.34497673725262,-6.083700695721211,-10.0,40.0,4.1361718866261015,-0.03754306858790067,-2.2417077860727357,7.887286448798223,0.08178009670932976,-1.7780128621237659,-6.300284595126712,0.3874598129622007,-24.626172917670495,41.49429298017017,54.133250725727926,-6.209154054522514,-3.478829562664032,-18.430528044700623,-8.039161727800757,-10.58150323200759,0
GUIDED_NOGPS,4.081640243530273,30.99888400280847,-24.66517206108434,42.2772216435718,54.63389502979025,-6.499959187946986,-10.0,40.0,3.7360505503132515,0.12168973184220161,-2.2804795683397243,8.169122252067751,0.09109529423292184,-1.952172017337737,-6.343711082303336,0.3879430171574907,-25.206334908240954,41.32678127207458,53.05659794075919,-9.459556639194489,-4.313953593373299,-18.95540952682495,-8.537900383646663,-7.445205016090086,0
GUIDED_NOGPS,4.12514591217041,23.000257733372084,-24.88265314408772,42.026870166286265,53.88988809323883,-6.882296072250094,-10.0,40.0,3.35948137246109,0.16341929284471018,-2.4554638922335736,8.423732921305609,-0.05003175399433857,-1.728124002117378,-5.8830789908343535,0.3885016287900867,-25.303931715255825,41.12441526381218,52.46197453670675,-6.023706495761871,-2.98117995262146,-21.806946396827698,-8.865757156959628,-5.9821921562516955,0
GUIDED_NOGPS,4.14850378036499,42.82523994282214,-25.1291138420342,41.69631372586193,53.01149858280392,-7.312897087384221,-10.0,40.0,3.006213232306976,0.05588104595211387,-2.536404835549398,8.604197618234748,0.453892211881366,-2.2117620930495137,-8.08635503312544,0.3894587239442473,-24.862745773871307,41.14084021550093,52.77244477277661,-5.061735212802887,-2.728099375963211,-20.71751058101654,-8.870050620082889,-3.9958531904146892,0
GUIDED_NOGPS,4.182184457778931,29.69692077854953,-25.174260363009388,41.61091777057067,52.54988575852812,-7.551383335992258,-10.0,40.0,2.675949903029874,-0.08092560207061845,-2.5021303059640396,8.809660807526132,-0.21639161346484623,-1.477586064028239,-5.943091769784269,0.38958666890341653,-25.269221672492137,41.21296648238011,52.009629477611085,-0.8907562121748924,-1.5080532059073448,-20.251403748989105,-9.15654691879276,-6.048269540716515,0
GUIDED_NOGPS,4.215546607971191,29.97794343627826,-25.29134332394783,41.39951038663109,51.86086519021786,-7.861806193565953,-10.0,40.0,2.3683491405178927,-0.08094230401757325,-2.40925937004573,8.925190896015959,0.014071414661195825,-1.6739453889975284,-6.577560025520885,0.39021738227888153,-25.8546761100773,40.627224281604725,51.117235111092185,0.2779030706733465,-2.169240079820156,-20.710229873657227,-9.45614803263662,-3.8766493139250415,0
GUIDED_NOGPS,4.253556489944458,26.312578809683632,-25.425274156176215,41.185815155276124,51.08468371679604,-8.22164252289941,-10.0,40.0,2.083021772134117,-0.07475001716344268,-2.187809696115107,8.991342985674825,-0.028061202020540466,-1.683564082309261,-6.828663462228186,0.3910502670820749,-25.401000643572786,40.60488520566025,49.761828475557635,-2.829379215836525,-3.2594628632068634,-24.3242084980011,-10.09212534024056,-6.354998395302977,0
