E-kp,E-ki,E-kd,E-I-Tot,E-P,E-I,E-D,E-PID,N-kp,N-ki,N-kd,N-I-Tot,N-P,N-I,N-D,N-PID,D-kp,D-ki,D-kd,D-I-Tot,D-P,D-I,D-D,D-PID,Y-kp,Y-ki,Y-kd,Y-I-Tot,Y-P,Y-I,Y-D,Y-PID,errorN,desiredN,actualN,errorE,desiredE,actualE,errorD,desiredD,actualD,errorY,desiredY,actualY,roll,pitch,yaw-rate,thrust,dt,Time,Mode
0.15,0.004,0.07,-0.0005997080677882765,-0.0027256116285857435,-2.398832271153106e-06,-0.03853927827914955,-0.041267288740006444,0.15,0.004,0.07,-0.0003743839459854443,-0.001701536616802693,-1.4975357839417773e-06,-0.024059184547560612,-0.025762218700147246,0.002,8e-05,0,-0.021495331605991923,-0.0013025876851864616,-1.719626528479354e-06,-0.0,-0.001304307311714941,0.2,0.02,0,5.903626169071058e-05,0.0003577516684428756,1.1807252338142116e-06,0.0,0.00035893239367668984,-0.011343577445351286,0.0,0.011343577445351286,-0.018170744190571624,0.0,0.018170744190571624,-0.6512938425932308,0.0,0.6512938425932308,0.001788758342214378,0,-0.001788758342214378,-0.04126648443057433,0.02576350704089887,-0.00035893239367668984,0.4,0.033004045486450195,0.033324241638183594,STABILIZE
0.15,0.004,0.07,-0.001058614990122536,-0.002056258606909345,-4.234459960490144e-06,-0.014604185493441823,-0.016664678560311657,0.15,0.004,0.07,-0.0004895916524243949,-0.0005162197962549493,-1.95836660969758e-06,-0.0037678223210621275,-0.004286000483926774,0.002,8e-05,0,-0.043435128531209684,-0.0013107638772541638,-3.474810282496775e-06,-0.0,-0.0013142386875366605,0.2,0.02,0,-0.0001466647922443704,-0.0012289334852562152,-2.933295844887408e-06,-0.0,-0.0012318667811011025,-0.0034414653083663285,0.0,0.0034414653083663285,-0.013708390712728967,0.0,0.013708390712728967,-0.6553819386270818,0.0,0.6553819386270818,-0.006144667426281076,0,0.006144667426281076,-0.016665138115218966,0.004284213261196001,0.0012318667811011025,0.4,0.03347635269165039,0.0667276382446289,STABILIZE
0.15,0.004,0.07,-0.001366039447526503,-0.0013787075403144495,-5.464157790106012e-06,-0.006584966702037257,-0.007969138400141813,0.15,0.004,0.07,-0.00033623525682477455,0.0006877579641973991,-1.3449410272990982e-06,0.0030875825917803432,0.0037739956149504435,0.002,8e-05,0,-0.06549192225370487,-0.0013189090669475639,-5.23935378029639e-06,-0.0,-0.0013241484207278604,0.2,0.02,0,-0.0006205269779368378,-0.002833508537353652,-1.2410539558736757e-05,-0.0,-0.0028459190769123885,0.004585053094649328,0.0,-0.004585053094649328,-0.00919138360209633,0.0,0.00919138360209633,-0.6594545334737819,0.0,0.6594545334737819,-0.014167542686768259,0,0.014167542686768259,-0.007968204959621849,-0.0037759660305328167,0.0028459190769123885,0.4,0.0334470272064209,0.1001887321472168,STABILIZE
0.15,0.004,0.07,-0.0017936417268624865,-0.0019091096298092837,-7.174566907449947e-06,-0.006780563809802589,-0.008696848006519322,0.15,0.004,0.07,-0.00043192430914604734,-0.0004272215095241035,-1.7276972365841894e-06,-0.0015561161239304039,-0.0019850653306910915,0.002,8e-05,0,-0.08739606116560567,-0.0013039345064398814,-6.991684893248454e-06,-0.0,-0.00131092619133313,0.2,0.02,0,-0.0009991356223519865,-0.0022538246213418436,-1.998271244703973e-05,-0.0,-0.0022738073337888833,-0.0028481433968273566,0.0,0.0028481433968273566,-0.012727397532061892,0.0,0.012727397532061892,-0.6519672532199408,0.0,0.6519672532199408,-0.011269123106709219,0,0.011269123106709219,-0.00869723826750495,0.001983354767523539,0.0022738073337888833,0.4,0.03359699249267578,0.133758544921875,STABILIZE
0.15,0.004,0.07,-0.0020796046977367053,-0.0012829529774621015,-8.31841879094682e-06,-0.003676499238024146,-0.004967770634277195,0.15,0.004,0.07,-0.00036628658016095433,0.0002944791053814988,-1.4651463206438173e-06,0.000769775301284696,0.0010627892603455509,0.002,8e-05,0,-0.10910430317224765,-0.0012985669033883111,-8.728344253779812e-06,-0.0,-0.0013072952476420908,0.2,0.02,0,-0.0013909531603095038,-0.002343816172691687,-2.7819063206190077e-05,-0.0,-0.002371635235897877,0.001963194035876659,0.0,-0.001963194035876659,-0.008553019849747344,0.0,0.008553019849747344,-0.6492834516941556,0.0,0.6492834516941556,-0.011719080863458435,0,0.011719080863458435,-0.00496755315112004,-0.0010638053287561837,0.002371635235897877,0.4,0.033434152603149414,0.1671919822692871,STABILIZE
0.15,0.004,0.07,-0.0021920432971238328,-0.0004949154859905545,-8.768173188495332e-06,0.0061896375469426175,0.005685953887763568,0.15,0.004,0.07,-4.922699922037607e-05,0.0013955856569228362,-1.969079968815043e-07,0.008597328489628752,0.009992717238554707,0.002,8e-05,0,-0.1313140991692126,-0.0013034636432095112,-1.050512793353701e-05,-0.0,-0.0013139687711430483,0.2,0.02,0,-0.002049448733507832,-0.003864623695758937,-4.098897467015664e-05,-0.0,-0.003905612670429094,0.009303904379485575,0.0,-0.009303904379485575,-0.0032994365732703637,0.0,0.0032994365732703637,-0.6517318216047556,0.0,0.6517318216047556,-0.019323118478794685,0,0.019323118478794685,0.005689323628608439,-0.00999079907076705,0.003905612670429094,0.4,0.034078121185302734,0.20134258270263672,STABILIZE
0.15,0.004,0.07,-0.0025482602671679,-0.0015955030744210774,-1.01930410686716e-05,0.001256177884283741,-0.00034951823120600795,0.15,0.004,0.07,0.00023922821688246877,0.0012919967964130138,9.56912867529875e-07,0.005003923945559715,0.006296877654840259,0.002,8e-05,0,-0.15321528573468768,-0.0013079448178025608,-1.2257222858775015e-05,0.0,-0.0013202020406613358,0.2,0.02,0,-0.00250256225540722,-0.002706006275380615,-5.00512451081444e-05,-0.0,-0.0027560575204887594,0.008613311976086759,0.0,-0.008613311976086759,-0.010636687162807183,0.0,0.010636687162807183,-0.6539724089012804,0.0,0.6539724089012804,-0.013530031376903074,0,0.013530031376903074,-0.00034803125414522993,-0.0062969600157623705,0.0027560575204887594,0.4,0.03348946571350098,0.2348155975341797,STABILIZE
0.15,0.004,0.07,-0.0031493869369153475,-0.002699280560375846,-1.2597547747661391e-05,-0.0037184787281611875,-0.006430356836284695,0.15,0.004,0.07,0.000496662903545935,0.0011559767354342911,1.98665161418374e-06,0.0012642044085227175,0.0024221677955711925,0.002,8e-05,0,-0.17503071999455033,-0.0013061246617354794,-1.4002457599564028e-05,0.0,-0.0013201271193350435,0.2,0.02,0,-0.00275377289306058,-0.0015040379449747197,-5.50754578612116e-05,0.0,-0.0015591134028359313,0.007706511569561941,0.0,-0.007706511569561941,-0.017995203735838974,0.0,0.017995203735838974,-0.6530623308677397,0.0,0.6530623308677397,-0.007520189724873598,0,0.007520189724873598,-0.006430038866357731,-0.0024230117723578032,0.0015591134028359313,0.4,0.03340482711791992,0.26817870140075684,STABILIZE
0.15,0.004,0.07,-0.0034273785900636546,-0.0012482316467425823,-1.3709514360254618e-05,0.001809060055510645,0.0005471188944078081,0.15,0.004,0.07,0.0008006431632094159,0.0013649250824612211,3.202572652837664e-06,0.004945425085931178,0.0063135527410452365,0.002,8e-05,0,-0.19666549448356574,-0.0012952528073649728,-1.573323955868526e-05,0.0,-0.0013109860469236582,0.2,0.02,0,-0.0032221382039030848,-0.0028040573478089015,-6.44427640780617e-05,-0.0,-0.002868500111886963,0.009099500549741475,0.0,-0.009099500549741475,-0.008321544311617215,0.0,0.008321544311617215,-0.6476264036824864,0.0,0.6476264036824864,-0.014020286739044506,0,0.014020286739044506,0.0005486638054138511,-0.006313418671940475,0.002868500111886963,0.4,0.03340625762939453,0.3015913963317871,STABILIZE
0.15,0.004,0.07,-0.0037848479473260397,-0.0016022760503584103,-1.5139391789304159e-05,-0.0009263114216787258,-0.00254372686382644,0.15,0.004,0.07,0.0011551953576089467,0.0015892005234770523,4.620781430435787e-06,0.003556254645403866,0.005150075950311354,0.002,8e-05,0,-0.2190117361411731,-0.0013354934102216287,-1.7520938891293852e-05,-0.0,-0.0013530143491129226,0.2,0.02,0,-0.0035181442454725546,-0.001769040736061489,-7.03628849094511e-05,0.0,-0.0018394036209709401,0.010594670156513683,0.0,-0.010594670156513683,-0.010681840335722736,0.0,0.010681840335722736,-0.6677467051108144,0.0,0.6677467051108144,-0.008845203680307445,0,0.008845203680307445,-0.0025429317754675656,-0.0051504685842207664,0.0018394036209709401,0.4,0.03346514701843262,0.33506250381469727,STABILIZE
0.15,0.004,0.07,-0.004370213183111688,-0.002223912816953519,-1.748085273244675e-05,-0.004554104228491789,-0.006795497898177754,0.15,0.004,0.07,0.001610823443605878,0.001731016941675066,6.4432937744235125e-06,0.0008757837925618852,0.0026132440280113747,0.002,8e-05,0,-0.24529802434094072,-0.0013315541514666441,-1.962384194727526e-05,-0.0,-0.0013511779934139193,0.2,0.02,0,-0.0033570612959225783,0.0008159792990691602,-6.714122591845156e-05,0.0,0.0007488380731507086,0.01154011294450044,0.0,-0.01154011294450044,-0.014826085446356793,0.0,0.014826085446356793,-0.665777075733322,0.0,0.665777075733322,0.0040798964953458,0,-0.0040798964953458,-0.006795683963855187,-0.002612760130107016,-0.0007488380731507086,0.4,0.03948211669921875,0.37456822395324707,STABILIZE
0.15,0.004,0.07,-0.004934768269587069,-0.002529464097803772,-1.9739073078348276e-05,-0.0023386538471344416,-0.004887857018016562,0.15,0.004,0.07,0.0020520346358068754,0.0019768272343256787,8.208138543227502e-06,0.0018497599126760115,0.003834795285544918,0.002,8e-05,0,-0.26769426075764646,-0.0013379379573783589,-2.141554086061172e-05,-0.0,-0.0013593534982389707,0.2,0.02,0,-0.0033426793269544903,8.591703456876099e-05,-6.68535865390898e-05,0.0,1.9063448029671187e-05,0.013178848228837858,0.0,-0.013178848228837858,-0.01686309398535848,0.0,0.01686309398535848,-0.6689689786891794,0.0,0.6689689786891794,0.00042958517284380493,0,-0.00042958517284380493,-0.004887885769930541,-0.003834758637870421,-1.9063448029671187e-05,0.4,0.033478736877441406,0.40805673599243164,STABILIZE
0.15,0.004,0.07,-0.00562711743504637,-0.0030220654875422583,-2.250846974018548e-05,-0.0005925796881837927,-0.0036371536454662366,0.15,0.004,0.07,0.0024931034324733865,0.00192524069434444,9.972413729893546e-06,0.0020896937140945245,0.004024906822168858,0.002,8e-05,0,-0.29062878519803814,-0.0013347722650612292,-2.325030281584305e-05,-0.0,-0.0013580225678770722,0.2,0.02,0,-0.0032477565310747897,0.0005524436122126494,-6.49551306214958e-05,0.0,0.00048748848159115357,0.012834937962296266,0.0,-0.012834937962296266,-0.020147103250281722,0.0,0.020147103250281722,-0.6673861325306145,0.0,0.6673861325306145,0.002762218061063247,0,-0.002762218061063247,-0.003637347681191658,-0.004024731471042436,-0.00048748848159115357,0.4,0.03436470031738281,0.4423990249633789,STABILIZE
0.15,0.004,0.07,-0.0063787711801758335,-0.003372073919507442,-2.5515084720703335e-05,-0.005623667065275565,-0.00902125606950371,0.15,0.004,0.07,0.002886522020936327,0.0017649570300176114,1.1546088083745309e-05,0.0010584968846098768,0.0028350000027112334,0.002,8e-05,0,-0.3123629507402327,-0.0013000527306087962,-2.4989036059218617e-05,-0.0,-0.0013250417666680148,0.2,0.02,0,-0.003099085951171043,0.000889289229852544,-6.198171902342087e-05,0.0,0.0008273075108291231,0.01176638020011741,0.0,-0.01176638020011741,-0.02248049279671628,0.0,0.02248049279671628,-0.6500263653043981,0.0,0.6500263653043981,0.00444644614926272,0,-0.00444644614926272,-0.009021476052868467,-0.002834299898467171,-0.0008273075108291231,0.4,0.033435821533203125,0.4758284091949463,STABILIZE
0.15,0.004,0.07,-0.007225820591124282,-0.0037965733634504175,-2.890328236449713e-05,-0.0058201219761645565,-0.009645598621979471,0.15,0.004,0.07,0.003314813801942402,0.0019196532652466065,1.3259255207769608e-05,0.0008644271109007868,0.002797339631355163,0.002,8e-05,0,-0.3337637646592477,-0.0012789456204231786,-2.6701101172739817e-05,0.0,-0.0013056467215959184,0.2,0.02,0,-0.0027712339788633507,0.001959293911515507,-5.5424679577267015e-05,0.0,0.0019038692319382402,0.012797688434977377,0.0,-0.012797688434977377,-0.02531048908966945,0.0,0.02531048908966945,-0.6394728102115893,0.0,0.6394728102115893,0.009796469557577535,0,-0.009796469557577535,-0.00964607677193081,-0.0027956903797630066,-0.0019038692319382402,0.4,0.033466339111328125,0.5093944072723389,STABILIZE
0.15,0.004,0.07,-0.00832713345700374,-0.004941527373937905,-3.330853382801496e-05,-0.0075471790742217704,-0.01252201498198769,0.15,0.004,0.07,0.004465261240434965,0.0051619913702252015,1.786104496173986e-05,0.009581385224800102,0.014761237639987042,0.002,8e-05,0,-0.3551501940220987,-0.001279462350817994,-2.8412015521767897e-05,0.0,-0.001307874366339762,0.2,0.02,0,-0.00276229438564609,5.348191958112116e-05,-5.52458877129218e-05,-0.0,-1.7639681318006351e-06,0.034413275801501345,0.0,-0.034413275801501345,-0.032943515826252705,0.0,0.032943515826252705,-0.639731175408997,0.0,0.639731175408997,0.0002674095979056058,0,-0.0002674095979056058,-0.012522083875173914,-0.01476117919735425,1.7639681318006351e-06,0.4,0.03343033790588379,0.5427346229553223,STABILIZE
0.15,0.004,0.07,-0.009388472613056292,-0.004761047131109991,-3.755389045222517e-05,-0.006191591486106764,-0.010990192507668979,0.15,0.004,0.07,0.005664527630649266,0.005379773066889202,2.2658110522597065e-05,0.00950398193529576,0.014906413112707559,0.002,8e-05,0,-0.37675807339796835,-0.001292406629557614,-3.014064587183747e-05,0.0,-0.0013225472754294515,0.2,0.02,0,-0.0032837739275239086,-0.003119064140344105,-6.567547855047817e-05,-0.0,-0.0031847396188945834,0.03586515377926135,0.0,-0.03586515377926135,-0.03174031420739994,0.0,0.03174031420739994,-0.646203314778807,0.0,0.646203314778807,-0.015595320701720525,0,0.015595320701720525,-0.01098613472857661,-0.014909403977620505,0.0031847396188945834,0.4,0.03343820571899414,0.5761735439300537,STABILIZE
0.15,0.004,0.07,-0.010405339237750246,-0.004564998592255485,-4.1621356951000984e-05,-0.004306075036317446,-0.008912694985523932,0.15,0.004,0.07,0.0069074737310899255,0.005579932570280559,2.76298949243597e-05,0.01020320063849881,0.015810763103703728,0.002,8e-05,0,-0.3985681478218578,-0.001305486961930829,-3.1885451825748626e-05,0.0,-0.0013373724137565777,0.2,0.02,0,-0.004341357786449382,-0.006330386188244306,-8.682715572898764e-05,-0.0,-0.006417213343973293,0.03719955046853706,0.0,-0.03719955046853706,-0.030433323948369898,0.0,0.030433323948369898,-0.6527434809654146,0.0,0.6527434809654146,-0.031651930941221526,0,0.031651930941221526,-0.00890395927964647,-0.015815684334635035,0.006417213343973293,0.4,0.033412933349609375,0.609616756439209,STABILIZE
0.15,0.004,0.07,-0.011182969379975883,-0.003486173256057756,-4.473187751990353e-05,-0.0003197065622816444,-0.003850611695859304,0.15,0.004,0.07,0.0073332052025752254,0.0019085855724500986,2.9332820810300902e-05,0.00040951393344699556,0.002347432326707395,0.002,8e-05,0,-0.41994071875975963,-0.001277530815247836,-3.3595257500780775e-05,0.0,-0.001311126072748617,0.2,0.02,0,-0.005661389884856032,-0.007890401616775797,-0.00011322779769712064,-0.0,-0.008003629414472918,0.012723903816333992,0.0,-0.012723903816333992,-0.023241155040385042,0.0,0.023241155040385042,-0.638765407623918,0.0,0.638765407623918,-0.039452008083878984,0,0.039452008083878984,-0.0038489944176890983,-0.0023500831758381494,0.008003629414472918,0.4,0.03345918655395508,0.643043041229248,STABILIZE
0.15,0.004,0.07,-0.01164277932194767,-0.0020616997600242703,-4.6571117287790684e-05,0.004838342711119549,0.0027300718338074885,0.15,0.004,0.07,0.007793597552557514,0.002064311166055068,3.117439021023006e-05,0.0004125487261084211,0.002508034282373719,0.002,8e-05,0,-0.44073702006344223,-0.0012432884544523557,-3.525896160507538e-05,0.0,-0.001278547416057431,0.2,0.02,0,-0.007219153362956962,-0.009312950984930539,-0.00014438306725913925,-0.0,-0.009457334052189677,0.01376207444036712,0.0,-0.01376207444036712,-0.01374466506682847,0.0,0.01374466506682847,-0.6216442272261778,0.0,0.6216442272261778,-0.04656475492465269,0,0.04656475492465269,0.002732109232234011,-0.0025058147023378483,0.009457334052189677,0.4,0.03345370292663574,0.6765198707580566,STABILIZE
0.15,0.004,0.07,-0.012684347675904057,-0.004658605947441438,-5.073739070361623e-05,0.0008077130502418459,-0.0039016302879032088,0.15,0.004,0.07,0.008797509626630666,0.004490181312844775,3.5190038506522664e-05,-0.0018884502391799465,0.0026369211121713507,0.002,8e-05,0,-0.4622834982868925,-0.0012849411334603087,-3.6982679862951403e-05,-0.0,-0.00132192381332326,0.2,0.02,0,-0.008698992327087688,-0.008825135765525448,-0.00017397984654175377,-0.0,-0.008999115612067203,0.02993454208563183,0.0,-0.02993454208563183,-0.031057372982942925,0.0,0.031057372982942925,-0.6424705667301543,0.0,0.6424705667301543,-0.04412567882762724,0,0.04412567882762724,-0.003899598336895854,-0.0026399251251082406,0.008999115612067203,0.4,0.03353691101074219,0.7101030349731445,STABILIZE
0.15,0.004,0.07,-0.014385821057326824,-0.007632671116651496,-5.7543284229307294e-05,-0.007997371173509267,-0.01568758557439007,0.15,0.004,0.07,0.009507047217566126,0.003182927888053705,3.80281888702645e-05,-0.006145182268612962,-0.002924226191688992,0.002,8e-05,0,-0.48323712966427634,-0.0012532838009638061,-3.865897037314211e-05,0.0,-0.0012919427713369482,0.2,0.02,0,-0.00936894768859724,-0.004007153637603073,-0.0001873789537719448,-0.0,-0.0041945325913750175,0.02121951925369137,0.0,-0.02121951925369137,-0.05088447411100998,0.0,0.05088447411100998,-0.626641900481903,0.0,0.626641900481903,-0.020035768188015366,0,0.020035768188015366,-0.015688607188222087,0.0029187402192791334,0.0041945325913750175,0.4,0.03343796730041504,0.7434988021850586,STABILIZE
0.15,0.004,0.07,-0.01627087757936457,-0.008247965898820158,-6.508351031745828e-05,-0.010220139811193072,-0.01853318922033069,0.15,0.004,0.07,0.009104473354132525,-0.0017614408154548336,3.64178934165301e-05,-0.020165340896286525,-0.021890363818324828,0.002,8e-05,0,-0.5038519639787136,-0.0012026550111187352,-4.0308157118297086e-05,0.0,-0.0012429631682370323,0.2,0.02,0,-0.009152371284675966,0.001263491588111297,-0.00018304742569351932,0.0,0.0010804441624177776,-0.011742938769698891,0.0,0.011742938769698891,-0.05498643932546772,0.0,0.05498643932546772,-0.6013275055593676,0.0,0.6013275055593676,0.006317457940556484,0,-0.006317457940556484,-0.01853077546650078,0.02189240716288045,-0.0010804441624177776,0.4,0.03428220748901367,0.7777683734893799,STABILIZE
0.15,0.004,0.07,-0.01687009779045515,-0.002686501526677895,-6.74803911618206e-05,0.0022849231577554098,-0.0004690587600843059,0.15,0.004,0.07,0.0072787137712432065,-0.008185481424019455,2.9114855084972826e-05,-0.02784491346752327,-0.03600128003645775,0.002,8e-05,0,-0.5241831333970837,-0.0012153510327962294,-4.19346506717667e-05,0.0,-0.001257285683467996,0.2,0.02,0,-0.008822907669203527,0.001969458505281145,-0.00017645815338407055,0.0,0.0017930003518970743,-0.054569876160129704,0.0,0.054569876160129704,-0.017910010177852632,0.0,0.017910010177852632,-0.6076755163981147,0.0,0.6076755163981147,0.009847292526405723,0,-0.009847292526405723,-0.0004628712968184879,0.03600136012078495,-0.0017930003518970743,0.4,0.033457279205322266,0.8112649917602539,STABILIZE
0.15,0.004,0.07,-0.018251555707546753,-0.006194943407057454,-7.300622283018701e-05,-0.011478728478230744,-0.017746678108118384,0.15,0.004,0.07,0.004820672103279824,-0.011022723773794514,1.9282688413119295e-05,-0.036196029708428716,-0.04719947079381011,0.002,8e-05,0,-0.5447666278853938,-0.001230715095957137,-4.3581330230831506e-05,0.0,-0.0012742964261879684,0.2,0.02,0,-0.005587378077301744,0.019345670942468206,-0.00011174756154603488,0.0,0.019233923380922172,-0.0734848251586301,0.0,0.0734848251586301,-0.041299622713716365,0.0,0.041299622713716365,-0.6153575479785686,0.0,0.6153575479785686,0.09672835471234102,0,-0.09672835471234102,-0.0176669693750294,0.047229363961318334,-0.019233923380922172,0.4,0.033449649810791016,0.8446857929229736,STABILIZE
0.15,0.004,0.07,-0.019136797465491462,-0.003973842564534324,-7.654718986196585e-05,0.0019523381155502333,-0.002098051638846057,0.15,0.004,0.07,0.0019869335670027717,-0.012720627682954682,7.947734268011087e-06,-0.04768973484595185,-0.06040241479463852,0.002,8e-05,0,-0.5652372699647521,-0.0012252337938684279,-4.521898159718017e-05,0.0,-0.001270452775465608,0.2,0.02,0,-0.002599053899085189,0.017886081716396236,-5.1981077981703786e-05,0.0,0.01783410063841453,-0.08480418455303122,0.0,0.08480418455303122,-0.02649228376356216,0.0,0.02649228376356216,-0.612616896934214,0.0,0.612616896934214,0.08943040858198117,0,-0.08943040858198117,-0.0020037697053730793,0.060405615969632,-0.01783410063841453,0.4,0.03341507911682129,0.8780896663665771,STABILIZE
0.15,0.004,0.07,-0.0193685742850652,-0.0010390281466739703,-7.74742971402608e-05,0.01843988376051224,0.01732338131669801,0.15,0.004,0.07,-0.0021544031043155337,-0.01856512387332952,-8.617612417262135e-06,-0.060343217742008244,-0.07891695922775502,0.002,8e-05,0,-0.5861286173227447,-0.001248712617411757,-4.689028938581958e-05,0.0,-0.0012956029067975766,0.2,0.02,0,-0.0005044978422117643,0.012519530364772892,-1.0089956844235287e-05,0.0,0.012509440407928656,-0.12376749248886346,0.0,0.12376749248886346,-0.0069268543111598024,0.0,0.0069268543111598024,-0.6243563087058785,0.0,0.6243563087058785,0.06259765182386445,0,-0.06259765182386445,0.017409590510845133,0.07889798572995106,-0.012509440407928656,0.4,0.03346061706542969,0.9115557670593262,STABILIZE
0.15,0.004,0.07,-0.02017209869375221,-0.003605393437396832,-8.068839477500885e-05,0.01295000136288929,0.00926391953071745,0.15,0.004,0.07,-0.006791462821069364,-0.020806368158647507,-2.7165851284277457e-05,-0.05313948966320473,-0.07397302367313652,0.002,8e-05,0,-0.6072589839300432,-0.0012641521820970292,-4.858071871440346e-05,-0.0,-0.0013127329008114327,0.2,0.02,0,0.004127640489866185,0.02771238137557465,8.25528097973237e-05,0.0,0.02779493418537197,-0.13870912105765004,0.0,0.13870912105765004,-0.024035956249312214,0.0,0.024035956249312214,-0.6320760910485146,0.0,0.6320760910485146,0.13856190687787323,0,-0.13856190687787323,0.009442785778428232,0.07395040387422327,-0.02779493418537197,0.4,0.03343009948730469,0.944988489151001,STABILIZE
0.15,0.004,0.07,-0.020466574597026662,-0.0011222595562961285,-8.186629838810665e-05,0.00332387970079137,0.0021197538461071347,0.15,0.004,0.07,-0.012302098072141401,-0.021001253423490126,-4.9208392288565605e-05,-0.03568094593948244,-0.05673140775526113,0.002,8e-05,0,-0.6314422478744242,-0.001228845269951516,-5.0515379829953934e-05,-0.0,-0.0012793606497814697,0.2,0.02,0,0.009977619029573257,0.029726005862443634,0.00019955238059146514,0.0,0.0299255582430351,-0.14000835615660084,0.0,0.14000835615660084,-0.007481730375307524,0.0,0.007481730375307524,-0.6144226349757579,0.0,0.6144226349757579,0.14863002931221816,0,-0.14863002931221816,0.002266912550777229,0.056725718062876185,-0.0299255582430351,0.4,0.039359331130981445,0.984356164932251,STABILIZE
0.15,0.004,0.07,-0.01898313661792919,0.006646951623260916,-7.593254647171677e-05,0.03477421030266052,0.04134522937944972,0.15,0.004,0.07,-0.016626229977210052,-0.0193754615902967,-6.650491990884021e-05,-0.023231523555567575,-0.04267349006577312,0.002,8e-05,0,-0.6516027513651759,-0.0012044623664023027,-5.212822010921407e-05,0.0,-0.0012565905865115168,0.2,0.02,0,0.014176623947971867,0.025086394309890982,0.00028353247895943735,0.0,0.02536992678885042,-0.12916974393531133,0.0,0.12916974393531133,0.04431301082173944,0.0,-0.04431301082173944,-0.6022311832011513,0.0,0.6022311832011513,0.1254319715494549,0,-0.1254319715494549,0.0414385510717493,0.04258287486662889,-0.02536992678885042,0.4,0.03347635269165039,1.0178289413452148,STABILIZE
0.15,0.004,0.07,-0.01925683675786023,-0.0012265197390006514,-7.702734703144092e-05,0.006616461831582621,0.005312914745550529,0.15,0.004,0.07,-0.021099971938876985,-0.02004797229757556,-8.439988775550794e-05,-0.02036420852366643,-0.0404965807089975,0.002,8e-05,0,-0.671496717268883,-0.0011886654192212317,-5.371973738151065e-05,0.0,-0.0012423851566027424,0.2,0.02,0,0.019576099721742013,0.03226189370821926,0.0003915219944348403,0.0,0.0326534157026541,-0.13365314865050373,0.0,0.13365314865050373,-0.008176798260004343,0.0,0.008176798260004343,-0.5943327096106158,0.0,0.5943327096106158,0.1613094685410963,0,-0.1613094685410963,0.005426906856565876,0.040481462352340916,-0.0326534157026541,0.4,0.03347277641296387,1.0513253211975098,STABILIZE
0.15,0.004,0.07,-0.017869525581937558,0.006227050227320277,-7.147810232775023e-05,0.019247249835934812,0.025402821960927337,0.15,0.004,0.07,-0.02620744136324029,-0.022925259445747945,-0.00010482976545296116,-0.012097819521983775,-0.03512790873318468,0.002,8e-05,0,-0.6913913953445059,-0.0011906500553814348,-5.531131162756047e-05,0.0,-0.0012459613670089953,0.2,0.02,0,0.02380594171733731,0.02531461724168962,0.00047611883434674624,0.0,0.025790736076036366,-0.15283506297165297,0.0,0.15283506297165297,0.04151366818213518,0.0,-0.04151366818213518,-0.5953250276907174,0.0,0.5953250276907174,0.1265730862084481,0,-0.1265730862084481,0.025480361576254728,0.035071705254932306,-0.025790736076036366,0.4,0.03341817855834961,1.0847461223602295,STABILIZE
0.15,0.004,0.07,-0.01659742997064795,0.005708063965182237,-6.63897198825918e-05,0.02496326578905237,0.030604940034352015,0.15,0.004,0.07,-0.031235869597921604,-0.022563233261053098,-0.00012494347839168643,-0.004829725223767955,-0.02751790196321274,0.002,8e-05,0,-0.711096688681844,-0.001178937325402009,-5.688773509454752e-05,0.0,-0.0012358250604965566,0.2,0.02,0,0.02794768707667334,0.024779424050387685,0.0005589537415334668,-0.0,0.025338377791921152,-0.15042155507368732,0.0,0.15042155507368732,0.038053759767881584,0.0,-0.038053759767881584,-0.5894686627010045,0.0,0.5894686627010045,0.12389712025193841,0,-0.12389712025193841,0.03066437349340879,0.027451657167100102,-0.025338377791921152,0.4,0.03342890739440918,1.118156909942627,STABILIZE
0.15,0.004,0.07,-0.012576297491043883,0.018040273872856196,-5.0305189964175534e-05,0.05350054807561424,0.07149051675850626,0.15,0.004,0.07,-0.036602007271848584,-0.02407446006022315,-0.00014640802908739433,-0.008586206223816518,-0.03280707431312706,0.002,8e-05,0,-0.7315127595937273,-0.0012212530094483658,-5.852102076749819e-05,0.0,-0.001279774030215864,0.2,0.02,0,0.029809039847156254,0.01113428084379445,0.0005961807969431251,-0.0,0.011730461640737575,-0.16049640040148766,0.0,0.16049640040148766,0.12026849248570798,0.0,-0.12026849248570798,-0.6106265047241829,0.0,0.6106265047241829,0.05567140421897225,0,-0.05567140421897225,0.07152235997719424,0.032737595126672805,-0.011730461640737575,0.4,0.03343462944030762,1.1516010761260986,STABILIZE
0.15,0.004,0.07,-0.006063196436966788,0.029218282924959114,-2.4252785747867153e-05,0.06304129320478476,0.092235323343996,0.15,0.004,0.07,-0.04188020816189231,-0.023678423789160977,-0.00016752083264756924,-0.012013504146466417,-0.03585944876827496,0.002,8e-05,0,-0.7518959310335903,-0.0012192067753758222,-6.015167448268723e-05,-0.0,-0.0012793584498585094,0.2,0.02,0,0.029136350732761246,-0.004023648274811662,0.000582727014655225,-0.0,-0.0034409212601564368,-0.15785615859440652,0.0,0.15785615859440652,0.19478855283306076,0.0,-0.19478855283306076,-0.6096033876879111,0.0,0.6096033876879111,-0.020118241374058307,0,0.020118241374058307,0.092222726346148,0.03589183310475418,0.0034409212601564368,0.4,0.03343677520751953,1.1850426197052002,STABILIZE
0.15,0.004,0.07,-0.0012340927010563336,0.02166342974053894,-4.936370804225335e-06,0.06390732725657397,0.08556582062630869,0.15,0.004,0.07,-0.04531316539345594,-0.015400296174054442,-0.00018125266157382376,0.01296840208768703,-0.002613146747941235,0.002,8e-05,0,-0.7724486741558723,-0.001229332069203537,-6.179589393246978e-05,-0.0,-0.001291127963136007,0.2,0.02,0,0.029562612443459684,0.0025496216622638845,0.0005912522488691937,-0.0,0.0031408739111330785,-0.10266864116036295,0.0,0.10266864116036295,0.14442286493692627,0.0,-0.14442286493692627,-0.6146660346017685,0.0,0.6146660346017685,0.012748108311319423,0,-0.012748108311319423,0.08556639992425961,0.002594108590936694,-0.0031408739111330785,0.4,0.033437252044677734,1.2185137271881104,STABILIZE
0.15,0.004,0.07,0.0044079499821278985,0.02530234748832813,1.7631799928511594e-05,0.053244436045791495,0.07856441533404813,0.15,0.004,0.07,-0.04743216599519451,-0.009502886199880054,-0.00018972866398077803,0.03746061726150655,0.027768002397645715,0.002,8e-05,0,-0.7933279838697418,-0.0012484734799361576,-6.346623870957934e-05,-0.0,-0.001311939718645737,0.2,0.02,0,0.027954961500555375,-0.009612911512477456,0.0005590992300111076,-0.0,-0.009053812282466349,-0.06335257466586702,0.0,0.06335257466586702,0.16868231658885421,0.0,-0.16868231658885421,-0.6242367399680788,0.0,0.6242367399680788,-0.048064557562387276,0,0.048064557562387276,0.07858768184200587,-0.027702086142313086,0.009053812282466349,0.4,0.0334477424621582,1.2519361972808838,STABILIZE
0.15,0.004,0.07,0.011853145653923466,0.03340759354151405,4.741258261569387e-05,0.07732324723556001,0.11077825335968976,0.15,0.004,0.07,-0.050155751433522036,-0.012221093885271744,-0.00020062300573408815,0.028860620523668466,0.016438903632662635,0.002,8e-05,0,-0.8140398000013161,-0.0012391560326640147,-6.512318400010529e-05,-0.0,-0.00130427921666412,0.2,0.02,0,0.02498606567986952,-0.017762446051003085,0.0004997213135973904,-0.0,-0.017262724737405696,-0.08147395923514496,0.0,0.08147395923514496,0.22271729027676032,0.0,-0.22271729027676032,-0.6195780163320073,0.0,0.6195780163320073,-0.08881223025501542,0,0.08881223025501542,0.11080360164870041,-0.01626717036683704,0.017262724737405696,0.4,0.03342890739440918,1.2853970527648926,STABILIZE
0.15,0.004,0.07,0.0165641973349171,0.021128724240588453,6.62567893396684e-05,0.008631999056714697,0.029826980086642817,0.15,0.004,0.07,-0.05507551810566935,-0.02206479579988685,-0.0002203020724226774,0.005609190229958712,-0.016675907642350815,0.002,8e-05,0,-0.8342484022744036,-0.0012084548239010466,-6.673987218195228e-05,0.0,-0.0012751946960829989,0.2,0.02,0,0.02746297283759997,0.014811664669657049,0.0005492594567519995,0.0,0.015360924126409048,-0.14709863866591233,0.0,0.14709863866591233,0.14085816160392303,0.0,-0.14085816160392303,-0.6042274119505233,0.0,0.6042274119505233,0.07405832334828524,0,-0.07405832334828524,0.029848509801991965,0.01663734051420452,-0.015360924126409048,0.4,0.03344535827636719,1.3187973499298096,STABILIZE
0.15,0.004,0.07,0.023693050219771868,0.03187264282402295,9.477220087908747e-05,0.007319074369398303,0.039286489394300336,0.15,0.004,0.07,-0.05880115216674962,-0.016657070308478496,-0.0002352046086669985,0.019547554829028455,0.0026552799118829615,0.002,8e-05,0,-0.8552660647748137,-0.0012529148998517634,-6.84212851819851e-05,-0.0,-0.0013213361850337485,0.2,0.02,0,0.026903792224567694,-0.003333414083334488,0.0005380758444913539,0.0,-0.002795338238843134,-0.11104713538985664,0.0,0.11104713538985664,0.2124842854934863,0.0,-0.2124842854934863,-0.6264574499258817,0.0,0.6264574499258817,-0.01666707041667244,0,0.01666707041667244,0.03928726014040533,-0.002643851546331772,0.002795338238843134,0.4,0.03355002403259277,1.352349042892456,STABILIZE
0.15,0.004,0.07,0.03324909460095964,0.042859080788931976,0.00013299637840383856,0.05906656546887835,0.10205864263621417,0.15,0.004,0.07,-0.06133823149642187,-0.011378859664194713,-0.0002453529259856875,0.011170636837876368,-0.00045357575230403277,0.002,8e-05,0,-0.8770692792630396,-0.0013038389720456476,-7.016554234104317e-05,-0.0,-0.0013740045143866909,0.2,0.02,0,0.023314579125031595,-0.02146360538111973,0.0004662915825006319,-0.0,-0.020997313798619098,-0.07585906442796475,0.0,0.07585906442796475,0.28572720525954654,0.0,-0.28572720525954654,-0.6519194860228238,0.0,0.6519194860228238,-0.10731802690559863,0,0.10731802690559863,0.10205761403782032,0.0006447360831001012,0.020997313798619098,0.4,0.03344464302062988,1.385802984237671,STABILIZE
0.15,0.004,0.07,0.039790115324969094,0.02931573126665593,0.00015916046129987638,0.011144201928873372,0.040619093656829176,0.15,0.004,0.07,-0.06507357208930414,-0.016741154879455114,-0.0002602942883572166,-0.02023942442444556,-0.03724087359225789,0.002,8e-05,0,-0.8986360247716474,-0.0012887793150407206,-7.18908819817318e-05,-0.0,-0.0013606701970224524,0.2,0.02,0,0.02330711985121136,-4.457491187488394e-05,0.0004661423970242272,0.0,0.00042156748514934325,-0.11160769919636744,0.0,0.11160769919636744,0.19543820844437287,0.0,-0.19543820844437287,-0.6443896575203603,0.0,0.6443896575203603,-0.0002228745593744197,0,0.0002228745593744197,0.04061894879343835,0.037241031595980585,-0.00042156748514934325,0.4,0.03346848487854004,1.4192821979522705,STABILIZE
0.15,0.004,0.07,0.050906910282466286,0.04981469376227936,0.00020362764112986516,0.045669534350477874,0.0956878557538871,0.15,0.004,0.07,-0.06837333598015662,-0.014786341597475178,-0.0002734933439206265,-0.007199799219938664,-0.022259634161334467,0.002,8e-05,0,-0.9214121886811928,-0.001360809039621399,-7.371297509449542e-05,-0.0,-0.0014345220147158944,0.2,0.02,0,0.020264998161259824,-0.018175785491161774,0.0004052999632251965,-0.0,-0.01777048552793658,-0.09857561064983453,0.0,0.09857561064983453,0.33209795841519574,0.0,-0.33209795841519574,-0.6804045198106995,0.0,0.6804045198106995,-0.09087892745580887,0,0.09087892745580887,0.09565242858324839,0.022411380098059902,0.01777048552793658,0.4,0.03347444534301758,1.4527812004089355,STABILIZE
0.15,0.004,0.07,0.058071802795502135,0.032132647584573286,0.00023228721118200853,0.03059342362858726,0.06295835842434255,0.15,0.004,0.07,-0.07071596394487448,-0.010506066723972408,-0.0002828638557794979,0.03221436212556252,0.021425431545810617,0.002,8e-05,0,-0.9439878002297468,-0.001349941944606683,-7.551902401837975e-05,-0.0,-0.0014254609686250627,0.2,0.02,0,0.021715031008342763,0.008670684987313576,0.00043430062016685525,-0.0,0.009104985607480432,-0.07004044482648272,0.0,0.07004044482648272,0.21421765056382192,0.0,-0.21421765056382192,-0.6749709723033415,0.0,0.6749709723033415,0.04335342493656788,0,-0.04335342493656788,0.06294212863579161,-0.021473063479803337,-0.009104985607480432,0.4,0.0334467887878418,1.4862337112426758,STABILIZE
0.15,0.004,0.07,0.06215837494267487,0.01831570579648853,0.0002486334997706995,-0.03782728437104428,-0.019262945074785053,0.15,0.004,0.07,-0.07433846957276458,-0.016235794924717478,-0.0002973538782910583,0.0011917314627530194,-0.015341417340255516,0.002,8e-05,0,-0.9670240520339204,-0.0013766230653433288,-7.736192416271363e-05,-0.0,-0.0014539849895060424,0.2,0.02,0,0.0258167044673456,0.024511184971275926,0.0005163340893469119,0.0,0.025027519060622838,-0.10823863283144985,0.0,0.10823863283144985,0.12210470530992353,0.0,-0.12210470530992353,-0.6883115326716644,0.0,0.6883115326716644,0.12255592485637963,0,-0.12255592485637963,-0.019230085673271446,0.015382585737148308,-0.025027519060622838,0.4,0.033467769622802734,1.519674301147461,STABILIZE
0.15,0.004,0.07,0.06504456579908366,0.012950079719221642,0.00026017826319633464,-0.08346698107323443,-0.07025672309081646,0.15,0.004,0.07,-0.07737424102182314,-0.01362123443338811,-0.00030949696408729256,-0.006238596556090084,-0.020169327953565484,0.002,8e-05,0,-0.9891382218347715,-0.0013229906410359444,-7.913105774678173e-05,-0.0,-0.0014021216987827262,0.2,0.02,0,0.03141964215381948,0.03351983903654045,0.0006283928430763897,0.0,0.03414823187961684,-0.09080822955592073,0.0,0.09080822955592073,0.08633386479481095,0.0,-0.08633386479481095,-0.6614953205179722,0.0,0.6614953205179722,0.16759919518270222,0,-0.16759919518270222,-0.07019742413108167,0.02037475337075698,-0.03414823187961684,0.4,0.03343057632446289,1.5530900955200195,STABILIZE
0.15,0.004,0.07,0.0665209843680909,0.006620638815469579,0.0002660839374723636,-0.06335916512319599,-0.05647244237025405,0.15,0.004,0.07,-0.08128035006721303,-0.017515992894043892,-0.00032512140026885213,-0.0021519703905221025,-0.019993084684834846,0.002,8e-05,0,-1.0111520632460076,-0.0013162093368759092,-8.089216505968062e-05,-0.0,-0.0013971015019355899,0.2,0.02,0,0.0382659528134158,0.040934146135505035,0.0007653190562683159,0.0,0.04169946519177335,-0.11677328596029263,0.0,0.11677328596029263,0.04413759210313053,0.0,-0.04413759210313053,-0.6581046684379546,0.0,0.6581046684379546,0.20467073067752517,0,-0.20467073067752517,-0.05640066335553321,0.020194686319238916,-0.04169946519177335,0.4,0.03345036506652832,1.586575984954834,STABILIZE
0.15,0.004,0.07,0.07024849961795622,0.016722403154489928,0.0002809939984718249,-0.09231606128295124,-0.07531266412998948,0.15,0.004,0.07,-0.08386369828680387,-0.01158943358259708,-0.0003354547931472155,0.00894112660635891,-0.002983761769385385,0.002,8e-05,0,-1.0327466780799148,-0.0012917053533416502,-8.26197342463932e-05,0.0,-0.0013743250875880434,0.2,0.02,0,0.04167171430991107,0.02037193249828306,0.0008334342861982213,0.0,0.021205366784481282,-0.0772628905506472,0.0,0.0772628905506472,0.11148268769659953,0.0,-0.11148268769659953,-0.6458526766708251,0.0,0.6458526766708251,0.10185966249141529,0,-0.10185966249141529,-0.07530724062769467,0.0031176468202062783,-0.021205366784481282,0.4,0.033435821533203125,1.6199872493743896,STABILIZE
0.15,0.004,0.07,0.07701845379028806,0.026923771980203407,0.00030807381516115225,-0.017730509042601088,0.009501336752763472,0.15,0.004,0.07,-0.08528197951995321,-0.005640434123051382,-0.00034112791807981284,0.01171808899125731,0.005736526950126115,0.002,8e-05,0,-1.0566417499785847,-0.0012670602111895055,-8.453133999828679e-05,0.0,-0.0013515915511877923,0.2,0.02,0,0.041599923185656904,-0.0003806796541343638,0.0008319984637131381,-0.0,0.00045131880957877433,-0.03760289415367588,0.0,0.03760289415367588,0.17949181320135604,0.0,-0.17949181320135604,-0.6335301055947528,0.0,0.6335301055947528,-0.0019033982706718189,0,0.0019033982706718189,0.009501527318197317,-0.005736211307168456,-0.00045131880957877433,0.4,0.037717342376708984,1.6577112674713135,STABILIZE
0.15,0.004,0.07,0.07986690653657744,0.012758005468404734,0.00031946762614630975,-0.018676858645246812,-0.005599385550695767,0.15,0.004,0.07,-0.08665571857699556,-0.006152873845191351,-0.00034662287430798223,0.026268772710441368,0.019769275990942036,0.002,8e-05,0,-1.0775441070932297,-0.0012482677913173686,-8.620352856745839e-05,0.0,-0.001334471319884827,0.2,0.02,0,0.04333757994944945,0.010377111819065048,0.0008667515989889891,-0.0,0.011243863418054037,-0.04101915896794234,0.0,0.04101915896794234,0.0850533697893649,0.0,-0.0850533697893649,-0.6241338956586843,0.0,0.6241338956586843,0.05188555909532524,0,-0.05188555909532524,-0.005617285791503914,-0.01976419722852274,-0.011243863418054037,0.4,0.03349018096923828,1.6912131309509277,STABILIZE
0.15,0.004,0.07,0.08284928540534298,0.013368223931609758,0.0003313971416213719,-0.001994876521803636,0.011704744551427494,0.15,0.004,0.07,-0.08866121924945376,-0.00898946219247872,-0.00035464487699781507,0.011057909177765038,0.0017138021082885018,0.002,8e-05,0,-1.0987943953361259,-0.0012700314048736858,-8.790355162689008e-05,0.0,-0.0013579349565005759,0.2,0.02,0,0.044957928331832854,0.009684072559115164,0.0008991585666366571,-0.0,0.01058323112575182,-0.05992974794985814,0.0,0.05992974794985814,0.08912149287739839,0.0,-0.08912149287739839,-0.6350157024368429,0.0,0.6350157024368429,0.048420362795575815,0,-0.048420362795575815,0.011703292046748606,-0.0017236931133634335,-0.01058323112575182,0.4,0.03346419334411621,1.7246739864349365,STABILIZE
0.15,0.004,0.07,0.08677546663371212,0.01762736043153224,0.0003471018665348485,0.027563828540579982,0.04553829083864707,0.15,0.004,0.07,-0.09028279611246891,-0.007280387269253632,-0.0003611311844498756,0.02669953109147739,0.01905801263777388,0.002,8e-05,0,-1.1200454602293943,-0.001272144300491612,-8.960363681835155e-05,0.0,-0.0013617479373099635,0.2,0.02,0,0.045893453737226496,0.005600299648106658,0.00091786907474453,-0.0,0.006518168722851188,-0.048535915128357546,0.0,0.048535915128357546,0.11751573621021494,0.0,-0.11751573621021494,-0.636072150245806,0.0,0.636072150245806,0.02800149824053329,0,-0.02800149824053329,0.045528971400411386,-0.01908026575882209,-0.006518168722851188,0.4,0.033409833908081055,1.758084774017334,STABILIZE
0.15,0.004,0.07,0.08807805396106208,0.005838430144180139,0.0003523122158442483,-0.0335126970769559,-0.027321954716931513,0.15,0.004,0.07,-0.09276984268593419,-0.011147389030753602,-0.0003710793707437368,-0.0006286958541561241,-0.012147164255653464,0.002,8e-05,0,-1.14078162420871,-0.0012392427727954008,-9.126252993669681e-05,0.0,-0.0013305053027320977,0.2,0.02,0,0.04988525781154548,0.023855976228050097,0.0009977051562309095,0.0,0.024853681384281005,-0.07431592687169068,0.0,0.07431592687169068,0.03892286762786759,0.0,-0.03892286762786759,-0.6196213863977004,0.0,0.6196213863977004,0.11927988114025048,0,-0.11927988114025048,-0.02729660723815529,0.012204017465317293,-0.024853681384281005,0.4,0.03346586227416992,1.7915692329406738,STABILIZE
0.15,0.004,0.07,0.09200694619723998,0.017620544783118915,0.00036802778478895994,-0.02587751009646599,-0.007888937528558116,0.15,0.004,0.07,-0.0958301899643318,-0.013725239337019938,-0.0003833207598573272,-0.022543475861964195,-0.036652035958841464,0.002,8e-05,0,-1.161813182998736,-0.0012576488952144994,-9.294505463989889e-05,0.0,-0.0013505939498543982,0.2,0.02,0,0.051027504263976835,0.006830425663190795,0.0010205500852795367,0.0,0.007850975748470332,-0.09150159558013292,0.0,0.09150159558013292,0.1174702985541261,0.0,-0.1174702985541261,-0.6288244476072496,0.0,0.6288244476072496,0.034152128315953975,0,-0.034152128315953975,-0.00786708905613988,0.036656731783404596,-0.007850975748470332,0.4,0.03344583511352539,1.8250048160552979,STABILIZE
0.15,0.004,0.07,0.09517419023553314,0.01421661518520001,0.0003806967609421326,0.0040939330856015555,0.018691245031743697,0.15,0.004,0.07,-0.09589148731042893,-0.00027514165968926737,-0.0003835659492417157,0.016449829534054876,0.015791121925123892,0.002,8e-05,0,-1.1824601232576695,-0.0012356888233184791,-9.459680986061356e-05,0.0,-0.0013302856331790928,0.2,0.02,0,0.0497032593972252,-0.007925409579629396,0.0009940651879445038,-0.0,-0.006931344391684892,-0.0018342777312617825,0.0,0.0018342777312617825,0.09477743456800007,0.0,-0.09477743456800007,-0.6178444116592395,0.0,0.6178444116592395,-0.03962704789814698,0,0.03962704789814698,0.018702162055043894,-0.015778190864534764,0.006931344391684892,0.4,0.033417701721191406,1.8584129810333252,STABILIZE
0.15,0.004,0.07,0.09435122272672826,-0.003687663452922305,0.00037740489090691304,-0.04752757862789317,-0.05083783718990856,0.15,0.004,0.07,-0.0916161592759796,0.01915746463039378,-0.00036646463710391844,0.07854198667960816,0.09733298667289803,0.002,8e-05,0,-1.2028921699012585,-0.0012207288197057305,-9.623137359210069e-05,0.0,-0.0013169601932978311,0.2,0.02,0,0.04848288530778223,-0.007291221715532939,0.0009696577061556446,-0.0,-0.006321564009377294,0.12771643086929188,0.0,-0.12771643086929188,-0.024584423019482035,0.0,0.024584423019482035,-0.6103644098528652,0.0,0.6103644098528652,-0.036456108577664695,0,0.036456108577664695,-0.05077589595540722,-0.09736531402270449,0.006321564009377294,0.4,0.03347516059875488,1.8918969631195068,STABILIZE
0.15,0.004,0.07,0.09310111008863564,-0.005610743952405961,0.00037240444035454255,-0.06479634870092509,-0.07003468821297651,0.15,0.004,0.07,-0.08587200297117706,0.025780869072741637,-0.00034348801188470825,0.09226439806809454,0.11770177912895147,0.002,8e-05,0,-1.2233597628787043,-0.0012248328139318968,-9.786878103029635e-05,0.0,-0.0013227015949621931,0.2,0.02,0,0.04923368066128493,0.00449295032655312,0.0009846736132256987,-0.0,0.005477623939778819,0.17187246048494426,0.0,-0.17187246048494426,-0.03740495968270641,0.0,0.03740495968270641,-0.6124164069659485,0.0,0.6124164069659485,0.022464751632765602,0,-0.022464751632765602,-0.07008083179902207,-0.11767431061011781,-0.005477623939778819,0.4,0.03342103958129883,1.9253730773925781,STABILIZE
0.15,0.004,0.07,0.09314951897906236,0.00021720635305629945,0.00037259807591624944,-0.01564726939095482,-0.01505746496198227,0.15,0.004,0.07,-0.07924415486390224,0.029738560485531702,-0.00031697661945560894,0.11409842629044882,0.1435200101565249,0.002,8e-05,0,-1.2430814561965347,-0.0011798596067516133,-9.944651649572277e-05,0.0,-0.001279306123247336,0.2,0.02,0,0.047150665276954905,-0.012461737806211726,0.0009430133055390981,-0.0,-0.011518724500672628,0.1982570699035447,0.0,-0.1982570699035447,0.0014480423537086631,0.0,-0.0014480423537086631,-0.5899298033758066,0.0,0.5899298033758066,-0.06230868903105863,0,0.06230868903105863,-0.014901379258214636,-0.1435363001564872,0.011518724500672628,0.4,0.03343057632446289,1.9587435722351074,STABILIZE
0.15,0.004,0.07,0.09307091479936506,-0.0003525893267988947,0.0003722836591974603,-0.05011655560059042,-0.05009686126819185,0.15,0.004,0.07,-0.07289556913257053,0.028477411478062778,-0.00029158227653028215,0.11777218655199961,0.14595801575353212,0.002,8e-05,0,-1.2615890834025942,-0.0011069117600548202,-0.00010092712667220754,0.0,-0.0012078388867270277,0.2,0.02,0,0.046175546751608974,-0.005832028877258393,0.0009235109350321795,-0.0,-0.004908517942226213,0.18984940985375187,0.0,-0.18984940985375187,-0.0023505955119926315,0.0,0.0023505955119926315,-0.5534558800274101,0.0,0.5534558800274101,-0.029160144386291963,0,0.029160144386291963,-0.05002257083346231,-0.1459834931724955,0.004908517942226213,0.4,0.03344011306762695,1.9921948909759521,STABILIZE
0.15,0.004,0.07,0.0929031021727701,-0.0007527025483485959,0.00037161240869108044,-0.041726291255976274,-0.04210738139563379,0.15,0.004,0.07,-0.06694414821477937,0.026694354185449562,-0.0002677765928591175,0.07523065798048773,0.10165723557307817,0.002,8e-05,0,-1.278825709430371,-0.0010308364036161009,-0.0001023060567544297,0.0,-0.0011331424603705305,0.2,0.02,0,0.046329446781419384,0.0009203991140175297,0.0009265889356283877,0.0,0.0018469880496459175,0.1779623612363304,0.0,-0.1779623612363304,-0.0050180169889906395,0.0,0.0050180169889906395,-0.5154182018080504,0.0,0.5154182018080504,0.004601995570087648,0,-0.004601995570087648,-0.04211554636640696,-0.1016538531813561,-0.0018469880496459175,0.4,0.033442020416259766,2.025637149810791,STABILIZE
0.15,0.004,0.07,0.09111916088360282,-0.007862518653416677,0.0003644766435344113,-0.011304483117360396,-0.01880252512724266,0.15,0.004,0.07,-0.060191490000502945,0.029761574269452938,-0.0002407659600020118,0.029461353631517702,0.05898216194096863,0.002,8e-05,0,-1.2968544752110978,-0.001059463171871625,-0.00010374835801688783,0.0,-0.001163211529888513,0.2,0.02,0,0.04750096479523077,0.00688444348278245,0.0009500192959046155,0.0,0.007834462778687065,0.19841049512968625,0.0,-0.19841049512968625,-0.05241679102277785,0.0,0.05241679102277785,-0.5297315859358125,0.0,0.5297315859358125,0.03442221741391225,0,-0.03442221741391225,-0.01883795709582507,-0.058970855096794166,-0.007834462778687065,0.4,0.034033775329589844,2.0596675872802734,STABILIZE
0.15,0.004,0.07,0.09072294788384708,-0.0017767585101649958,0.0003628917915353883,0.011046885241789121,0.009633018523159514,0.15,0.004,0.07,-0.05202540260086559,0.03661960937930178,-0.00020810161040346237,0.030100214214661827,0.06651172198356015,0.002,8e-05,0,-1.314345206342514,-0.0010457945736564137,-0.00010514761650740113,0.0,-0.0011509421901638149,0.2,0.02,0,0.0466147138051064,-0.005299015057780715,0.000932294276102128,-0.0,-0.004366720781678587,0.2441307291953452,0.0,-0.2441307291953452,-0.011845056734433305,0.0,0.011845056734433305,-0.5228972868282068,0.0,0.5228972868282068,-0.026495075288903575,0,0.026495075288903575,0.009663774261570862,-0.06650726031124221,0.004366720781678587,0.4,0.033449649810791016,2.093121290206909,STABILIZE
0.15,0.004,0.07,0.09129073499048652,0.0025462660727549875,0.0003651629399619461,0.006838984125799217,0.00975041313851615,0.15,0.004,0.07,-0.043758331241731896,0.03707404250053448,-0.00017503332496692758,0.020318954605374875,0.05721796378094243,0.002,8e-05,0,-1.331946743728204,-0.0010524648399473841,-0.00010655573949825633,0.0,-0.0011590205794456405,0.2,0.02,0,0.04356557413902222,-0.018231999968659,0.0008713114827804445,-0.0,-0.017360688485878555,0.24716028333689655,0.0,-0.24716028333689655,0.016975107151699916,0.0,-0.016975107151699916,-0.5262324199736921,0.0,0.5262324199736921,-0.091159999843295,0,0.091159999843295,0.009841436950672867,-0.05720237804807523,0.017360688485878555,0.4,0.033448219299316406,2.126584529876709,STABILIZE
0.15,0.004,0.07,0.09122477072335006,-0.00029568474754292795,0.0003648990828934002,0.0005028030996032883,0.0005720174349537606,0.15,0.004,0.07,-0.034972462834737775,0.039382644492856445,-0.0001398898513389511,0.030277841801911464,0.06952059644342896,0.002,8e-05,0,-1.3495631553885885,-0.001052873919074323,-0.00010796505243108709,0.0,-0.00116083897150541,0.2,0.02,0,0.03935059804213897,-0.025191500332100943,0.0007870119608427795,-0.0,-0.02440448837125816,0.26255096328570965,0.0,-0.26255096328570965,-0.0019712316502861864,0.0,0.0019712316502861864,-0.5264369595371614,0.0,0.5264369595371614,-0.1259575016605047,0,0.1259575016605047,0.0007248481402325372,-0.06951917094564349,0.02440448837125816,0.4,0.033463478088378906,2.1600394248962402,STABILIZE
0.15,0.004,0.07,0.09046581604271778,-0.003402958999402807,0.00036186326417087113,-0.007049460520715756,-0.01009055625594769,0.15,0.004,0.07,-0.026525124817580056,0.037875706758322254,-0.00010610049927032023,0.031049992484346804,0.06881959874339874,0.002,8e-05,0,-1.3677309946580398,-0.0010861326983789157,-0.0001094184795726432,-0.0,-0.0011955511779515589,0.2,0.02,0,0.03739091579734621,-0.011715619743955864,0.0007478183159469241,-0.0,-0.01096780142800894,0.2525047117221484,0.0,-0.2525047117221484,-0.022686393329352045,0.0,0.022686393329352045,-0.5430663491894578,0.0,0.5430663491894578,-0.058578098719779315,0,0.058578098719779315,-0.010020191165565172,-0.06882987916422913,0.01096780142800894,0.4,0.033454179763793945,2.1934974193573,STABILIZE
0.15,0.004,0.07,0.08843779575577312,-0.009097858305823913,0.0003537511830230925,-0.0034480746989735663,-0.012192181821774388,0.15,0.004,0.07,-0.019335100508861523,0.03225501381680005,-7.73404020354461e-05,0.006949276061430021,0.03912694947619462,0.002,8e-05,0,-1.3855243359130176,-0.0010642976868759984,-0.00011084194687304142,-0.0,-0.0011751396337490397,0.2,0.02,0,0.037311390205706424,-0.00047567740098272557,0.0007462278041141285,-0.0,0.0002705504031314029,0.21503342544533366,0.0,-0.21503342544533366,-0.06065238870549276,0.0,0.06065238870549276,-0.5321488434379992,0.0,0.5321488434379992,-0.0023783870049136277,0,0.0023783870049136277,-0.012190557624830076,-0.03912745554829229,-0.0002705504031314029,0.4,0.03343677520751953,2.2269365787506104,STABILIZE
0.15,0.004,0.07,0.08481335482785061,-0.016262309672388845,0.00033925341931140247,-0.04043077501218788,-0.05635383126526532,0.15,0.004,0.07,-0.013190557603621728,0.02756962011726454,-5.276223041448691e-05,-0.02526720312986182,0.0022496547569882328,0.002,8e-05,0,-1.403361588315371,-0.0010671068192868408,-0.00011226892706522968,-0.0,-0.0011793757463520705,0.2,0.02,0,0.039325724737216225,0.012050679479175125,0.0007865144947443245,0.0,0.012837193973919449,0.18379746744843029,0.0,-0.18379746744843029,-0.10841539781592563,0.0,0.10841539781592563,-0.5335534096434204,0.0,0.5335534096434204,0.060253397395875624,0,-0.060253397395875624,-0.0563561658861589,-0.002190390698340012,-0.012837193973919449,0.4,0.033431053161621094,2.2603538036346436,STABILIZE
0.15,0.004,0.07,0.08778872935644573,0.013355191651453944,0.0003511549174257829,0.030224787596574553,0.04393113416545428,0.15,0.004,0.07,-0.010845481269286682,0.010526050949666988,-4.338192507714673e-05,-0.07413607803003423,-0.06365340900544439,0.002,8e-05,0,-1.4195995827863275,-0.0009718060751039637,-0.00011356796662290621,0.0,-0.0010853740417268699,0.2,0.02,0,0.03983240540036924,0.003032365526854361,0.0007966481080073848,0.0,0.0038290136348617457,0.07017367299777992,0.0,-0.07017367299777992,0.08903461100969295,0.0,-0.08903461100969295,-0.48590303755198183,0.0,0.48590303755198183,0.015161827634271804,0,-0.015161827634271804,0.04394797683489327,0.06364178155266567,-0.0038290136348617457,0.4,0.03341817855834961,2.2937800884246826,STABILIZE
0.15,0.004,0.07,0.08636638176139849,-0.006372947036623695,0.00034546552704559395,-0.016849142051988987,-0.022876623561567087,0.15,0.004,0.07,-0.012137458403301273,-0.0057888113118582645,-4.8549833613205095e-05,-0.12605953115523888,-0.13189689230071036,0.002,8e-05,0,-1.4346764843722484,-0.0009007108681266329,-0.00011477411874977988,0.0,-0.0010154849868764127,0.2,0.02,0,0.048281236729273036,0.05047425797365898,0.0009656247345854607,0.0,0.05143988270824444,-0.03859207541238843,0.0,0.03859207541238843,-0.0424863135774913,0.0,0.0424863135774913,-0.4503554340633164,0.0,0.4503554340633164,0.2523712898682949,0,-0.2523712898682949,-0.022295435967143874,0.1319963773714939,-0.05143988270824444,0.4,0.033477783203125,2.3272831439971924,STABILIZE
0.15,0.004,0.07,0.08463990808803241,-0.007648888197243158,0.00033855963235212964,-0.011697543810261649,-0.01900787237515268,0.15,0.004,0.07,-0.012119821591389418,7.813730643605326e-05,-4.847928636555767e-05,-0.10568213994800144,-0.10565248192793095,0.002,8e-05,0,-1.4520681674525158,-0.0010273506550377185,-0.00011616545339620128,0.0,-0.0011435161084339198,0.2,0.02,0,0.05386266583633101,0.032970269885428546,0.0010772533167266202,0.0,0.034047523202155164,0.0005209153762403551,0.0,-0.0005209153762403551,-0.050992587981621054,0.0,0.050992587981621054,-0.5136753275188592,0.0,0.5136753275188592,0.16485134942714272,0,-0.16485134942714272,-0.01870381092169622,0.10570673397077078,-0.034047523202155164,0.4,0.03385734558105469,2.361144542694092,STABILIZE
0.15,0.004,0.07,0.08598121145262148,0.0058438485782693695,0.00034392484581048595,0.04077663735565998,0.04696441077973983,0.15,0.004,0.07,-0.009972017124943357,0.00935764750093409,-3.988806849977343e-05,-0.06483683390210168,-0.05551907446966736,0.002,8e-05,0,-1.4695594402279004,-0.001016089794837908,-0.00011756475521823204,0.0,-0.00113365455005614,0.2,0.02,0,0.05611158661629197,0.013064260578755935,0.0011222317323258393,0.0,0.014186492311081773,0.06238431667289393,0.0,-0.06238431667289393,0.0389589905217958,0.0,-0.0389589905217958,-0.508044897418954,0.0,0.508044897418954,0.06532130289377967,0,-0.06532130289377967,0.04702767597627689,0.05546549559975934,-0.014186492311081773,0.4,0.03442859649658203,2.39557147026062,STABILIZE
0.15,0.004,0.07,0.0844390488770524,-0.006919446576122879,0.00033775619550820965,0.025145698330070194,0.018564007949455525,0.15,0.004,0.07,-0.00786417401562938,0.009457568233598689,-3.145669606251752e-05,-0.051477118764019385,-0.042051007226483215,0.002,8e-05,0,-1.4864715975317069,-0.001011763357980102,-0.00011891772780253655,0.0,-0.0011306810857826387,0.2,0.02,0,0.06181983041387433,0.03414935072482511,0.0012363966082774866,0.0,0.035385747333102596,0.06305045489065793,0.0,-0.06305045489065793,-0.04612964384081919,0.0,0.04612964384081919,-0.505881678990051,0.0,0.505881678990051,0.17074675362412556,0,-0.17074675362412556,0.018689241244843512,0.041995498111121764,-0.035385747333102596,0.4,0.033431053161621094,2.428990602493286,STABILIZE
0.15,0.004,0.07,0.08013102568989816,-0.019329576112339063,0.00032052410275959265,-0.09221979683103225,-0.11122884884061172,0.15,0.004,0.07,-0.0057600608743702125,0.00944089976911391,-2.3040243497480852e-05,-0.003922821805105885,0.005495037720510545,0.002,8e-05,0,-1.503470597949864,-0.0010169659668073144,-0.00012027764783598912,-0.0,-0.0011372436146433035,0.2,0.02,0,0.07107112222192415,0.055345894972394005,0.0014214224444384829,0.0,0.05676731741683249,0.06293933179409274,0.0,-0.06293933179409274,-0.1288638407489271,0.0,0.1288638407489271,-0.5084829834036572,0.0,0.5084829834036572,0.27672947486197,0,-0.27672947486197,-0.1112540915578912,-0.004957758120949926,-0.05676731741683249,0.4,0.03343081474304199,2.46242094039917,STABILIZE
0.15,0.004,0.07,0.07486138135374996,-0.023640712690049616,0.0002994455254149999,-0.04925353428356078,-0.0725948014481954,0.15,0.004,0.07,-0.0037268204277921043,0.00912153651388086,-1.4907281711168417e-05,0.0406702094509285,0.04977683868309819,0.002,8e-05,0,-1.5186051805778142,-0.000905291506770431,-0.00012148841444622515,-0.0,-0.0010267799212166561,0.2,0.02,0,0.07427843977169721,0.0191849184658918,0.0014855687954339442,-0.0,0.020670487261325744,0.0608102434258724,0.0,-0.0608102434258724,-0.15760475126699744,0.0,0.15760475126699744,-0.45264575338521545,0.0,0.45264575338521545,0.09592459232945899,0,-0.09592459232945899,-0.07267803605146962,-0.04965523076461709,-0.020670487261325744,0.4,0.033435821533203125,2.495863676071167,STABILIZE
0.15,0.004,0.07,0.06960202557351282,-0.02334041453914359,0.0002784081022940513,-0.044906964489453055,-0.0679689709263026,0.15,0.004,0.07,-0.0014817388645465964,0.009963413115584255,-5.9269554581863855e-06,0.02682171843932628,0.03677920459945235,0.002,8e-05,0,-1.530939390373444,-0.000729837345540916,-0.00012247515122987553,0.0,-0.0008523124967707915,0.2,0.02,0,0.07970385542528327,0.03210315881340322,0.0015940771085056656,-0.0,0.03369723592190889,0.06642275410389503,0.0,-0.06642275410389503,-0.15560276359429062,0.0,0.15560276359429062,-0.364918672770458,0.0,0.364918672770458,0.16051579406701608,0,-0.16051579406701608,-0.06807174207449049,-0.03658864346614924,-0.03369723592190889,0.4,0.03379988670349121,2.529662847518921,STABILIZE
0.15,0.004,0.07,0.06464099981755524,-0.02226587096389176,0.00025856399927022094,-0.0784839532936495,-0.10049126025827104,0.15,0.004,0.07,0.005611390434521091,0.03183509005442698,2.2445561738084365e-05,0.06274521167673222,0.09460274729289728,0.002,8e-05,0,-1.5448428526879245,-0.0008320126067310323,-0.00012358742821503397,0.0,-0.0009556000349460662,0.2,0.02,0,0.08560120269286539,0.03529097401723336,0.0017120240538573079,0.0,0.03700299807109067,0.21223393369617988,0.0,-0.21223393369617988,-0.14843913975927842,0.0,0.14843913975927842,-0.41600630336551614,0.0,0.41600630336551614,0.1764548700861668,0,-0.1764548700861668,-0.10078213306267834,-0.09429281435505012,-0.03700299807109067,0.4,0.03342127799987793,2.563084840774536,STABILIZE
0.15,0.004,0.07,0.0585559469339517,-0.023670136748010547,0.0002342237877358068,-0.04625003177083997,-0.06968594473111471,0.15,0.004,0.07,0.012232363217570725,0.025754801836139905,4.89294528702829e-05,0.04774969859346906,0.07355342988247925,0.002,8e-05,0,-1.559987604473661,-0.0007854839339172575,-0.0001247990083578929,0.0,-0.0009102829422751504,0.2,0.02,0,0.09496987399246769,0.048590699221099536,0.0018993974798493538,0.0,0.05049009670094889,0.17169867890759938,0.0,-0.17169867890759938,-0.15780091165340365,0.0,0.15780091165340365,-0.39274196695862873,0.0,0.39274196695862873,0.24295349610549766,0,-0.24295349610549766,-0.06999720874022428,-0.07325727751645045,-0.05049009670094889,0.4,0.03856158256530762,2.6016576290130615,STABILIZE
0.15,0.004,0.07,0.05379467209611914,-0.021379728319782645,0.00021517868838447657,-0.0052036199701464775,-0.026368169601544644,0.15,0.004,0.07,0.015258432659046273,0.013588071417653134,6.1033730636185095e-05,0.013802542303968265,0.027451647452257585,0.002,8e-05,0,-1.5730591844471056,-0.0007826106468291405,-0.00012584473475576844,0.0,-0.0009084553815849089,0.2,0.02,0,0.09913077352855043,0.02491178789358441,0.0019826154705710084,-0.0,0.02689440336415542,0.09058714278435423,0.0,-0.09058714278435423,-0.1425315221318843,0.0,0.1425315221318843,-0.39130532341457025,0.0,0.39130532341457025,0.12455893946792204,0,-0.12455893946792204,-0.026427786127523483,-0.027394259186492718,-0.02689440336415542,0.4,0.03340506553649902,2.6350574493408203,STABILIZE
0.15,0.004,0.07,0.05030603840954708,-0.01564058215161717,0.00020122415363818834,0.02284052529063675,0.00740116729265777,0.15,0.004,0.07,0.01808070522901476,0.012653087125413243,7.232282091605905e-05,0.01208577949590727,0.02481118944223657,0.002,8e-05,0,-1.5849865919449868,-0.0007129881918890838,-0.00012679892735559896,0.0,-0.0008397871192446827,0.2,0.02,0,0.10421404861556806,0.03038644494884011,0.002084280972311361,0.0,0.03247072592115147,0.08435391416942162,0.0,-0.08435391416942162,-0.10427054767744781,0.0,0.10427054767744781,-0.3564940959445419,0.0,0.3564940959445419,0.15193222474420054,0,-0.15193222474420054,0.0073353490819611285,-0.0248307279933197,-0.03247072592115147,0.4,0.03345751762390137,2.66851544380188,STABILIZE
