Mode,Time,Freq,North-Vision,East-Vision,Down-Vision,Yaw-Vision,North-Desired,East-Desired,Down-Desired,Roll-UAV,Pitch-UAV,Yaw-UAV,Roll-Control,Pitch-Control,Yaw-Control,Thrust-Control,northVraw,eastVraw,downVraw,N-Velocity,E-Velocity,D-Velocity,N-Acceleration,E-Acceleration,D-Acceleration,yawVraw,yawRate,Landing-State,Q-Size
GUIDED_NOGPS,0.006238460540771484,160.71977621948884,4.708615850979487,28.42518308372528,45.624493566837174,-9.518883358637137,4.282442022165981,28.259683646254885,45.194022206790734,0.002164209471542009,-0.09804501765800584,9.871042322468496,0.65496030927052,3.9460196194673225,-10.0,0.49913890140186357,7.291177983815949,29.62791954500947,47.37959969077297,15.702325105667114,6.996802985668182,16.870170831680298,35.56172251701355,0.008800067007541656,-57.794976234436035,-10.413942542167423,-2.9569321122276784,False,3
GUIDED_NOGPS,0.038805246353149414,30.706805669438914,6.486446347191356,28.79795525965719,47.67641630314353,-9.83878170327436,4.741335875233581,28.425834926519762,45.73114519461251,0.002164209471542009,-0.09804501765800584,9.871042322468496,0.4106137351456242,2.454908190248849,-9.701868789831291,0.49610405964473103,7.52050577966053,29.759647465011238,47.64154551206316,20.976881682872772,9.418889880180359,18.413250148296356,45.09919285774231,9.90726724267006,55.95579147338867,-10.475629960919814,3.9221695365354146,False,3
GUIDED_NOGPS,0.04694986343383789,122.87760004687408,6.703204529880122,28.965642775923996,47.765424493721696,-9.776937999766458,5.199247793344105,28.591930338725792,46.26753990196274,0.002164209471542009,-0.09804501765800584,9.871042322468496,-0.30206764223100246,-1.6647708125429048,-2.7676584338799612,0.49699787598723055,7.52050577966053,29.759647465011238,47.64154551206316,20.976881682872772,9.418889880180359,18.413250148296356,45.09919285774231,9.90726724267006,55.95579147338867,-10.475629960919814,3.9221695365354146,False,2
GUIDED_NOGPS,0.1005246639251709,18.668565731377296,6.905816461988401,29.112302735182755,47.86403448167274,-9.733610322754016,5.655229353062203,28.7579149886863,46.802496039160424,-0.09352140471504757,-0.059768850992665955,9.977232981041976,-0.045052315142329366,-0.1783768656534934,-5.516677552184229,0.49786601848816037,8.134856537795667,30.031229957477763,48.240602278807415,20.976881682872772,9.418889880180359,18.413250148296356,45.09919285774231,9.90726724267006,55.95579147338867,-10.458082468951266,3.9221695365354146,False,3
GUIDED_NOGPS,0.11748075485229492,58.984151091985545,7.0371279817013335,29.26533351869747,47.9332557831807,-9.777293790658142,6.108368256868157,28.923735038928523,47.33532277651061,-0.09352140471504757,-0.059768850992665955,9.977232981041976,-0.19353750210983134,-1.0421706497375562,-6.893001164651771,0.49879241520347506,8.734200325590978,30.341261384856853,48.83821883442785,15.80130159854889,10.917309671640396,15.153007209300995,33.19472372531891,8.240146189928055,-21.308933198451996,-10.510221183312552,-1.8097704649425372,False,2
GUIDED_NOGPS,0.13600444793701172,53.99951076950806,7.310815892081124,29.445244117458046,48.16648501975306,-9.831457147158112,6.5577878578389805,29.089337702432303,47.86534856134046,-0.1715209377369767,0.011235981349788319,10.07980620067629,-0.10099127463029386,-0.49883645722048575,-7.068731944081007,0.4993855621448867,8.734200325590978,30.341261384856853,48.83821883442785,15.80130159854889,10.917309671640396,15.153007209300995,33.19472372531891,8.240146189928055,-21.308933198451996,-10.510221183312552,-1.8097704649425372,False,2
GUIDED_NOGPS,0.15614843368530273,49.65377466822933,7.619492354007437,29.670026911006136,48.461881528564746,-9.937553489088042,7.002646684329536,29.254671236368747,48.391920935035245,-0.1715209377369767,0.011235981349788319,10.07980620067629,-0.07771309493416498,-0.3466370444894397,-8.063745892242034,0.4998478008342675,9.297799479632324,30.67338399023422,49.36796124474442,15.98508507013321,13.810962438583374,17.374244332313538,-45.962780714035034,8.688125014305115,-4.660650342702866,-10.518793280831531,-6.33212750686719,False,1
GUIDED_NOGPS,0.1672508716583252,90.13999269304335,7.827558816993881,29.865986339166643,48.65536697806472,-10.023524236779336,7.442137964653638,29.419684935838937,48.91440635007444,-0.38069681508993947,0.08175661731311216,10.18425430723777,-0.23403644722531636,-1.2208403803726924,-9.169619592929207,0.5005060266036382,10.554238909240572,31.607350215847582,50.82074577003567,15.98508507013321,13.810962438583374,17.374244332313538,-45.962780714035034,8.688125014305115,-4.660650342702866,-10.630138402527429,-6.33212750686719,False,1
GUIDED_NOGPS,0.18867850303649902,46.6806602041157,7.957338584591954,30.042625389139204,48.852413474391064,-10.098652146560434,7.875489151765173,29.584329127612605,49.43218998706767,-0.5102081940890767,0.19009232881194715,10.339758931618743,-0.1655390192597006,-0.8241020598860129,-7.457098669905079,0.5011484979730045,11.259366644667413,32.18620576197193,51.70812696184706,12.551948428153992,14.147573709487915,21.90157026052475,-110.187828540802,-27.36591100692749,-68.77041459083557,-10.683052096588597,-6.891784242834749,False,0
GUIDED_NOGPS,0.20775079727172852,52.43732106467301,8.095330111984934,30.21365488574268,49.02023582211509,-10.153017811054562,8.3019614479392,29.74855516386682,49.944675571790846,-0.5728253406873438,0.3478127626092073,10.406634167555984,-0.1810477731459272,-0.9045353690295074,-7.230233672405971,0.5018392371459917,11.259366644667413,32.18620576197193,51.70812696184706,13.631092011928558,15.52278995513916,20.09160965681076,-66.91487431526184,-3.87355275452137,-66.39847755432129,-10.683052096588597,-5.578466931488235,False,0
GUIDED_NOGPS,0.24314284324645996,28.258362696813922,8.436615740410863,30.48644541758105,49.41808780709548,-10.243497038187007,8.720849329453069,29.912315415924667,50.45128519222211,-0.5974173300722689,0.7372547811577018,10.621652791496217,-0.05015326511334171,-0.14726660953870843,-7.167824897104397,0.5020596802574829,11.714578298480943,32.72148123021429,52.27164985851156,13.631092011928558,15.52278995513916,20.09160965681076,-66.91487431526184,-3.87355275452137,-66.39847755432129,-10.838470826670235,-5.578466931488235,False,0
GUIDED_NOGPS,0.2760591506958008,30.387341698785754,9.012649701025826,30.893178206419435,50.015985673080486,-10.40188983933929,9.131480071267523,30.075563267993946,50.95145911557793,-0.5887314105212754,0.875784891347312,10.690795650237902,0.020983638518975556,0.2968490836990546,-8.187811586230291,0.5018666680668078,12.202863361315227,33.152841452661896,52.59198029953575,13.053512573242188,15.141145884990692,12.788861989974976,-49.904897809028625,-31.129366159439087,-72.99559712409973,-11.033850151735201,-7.250192870002468,False,0
GUIDED_NOGPS,0.3040761947631836,35.69893864210876,9.388836711869242,31.225970359034193,50.40547166625856,-10.53338344492926,9.533213271707814,30.238253110905852,51.444655605349105,-0.7873562464321552,1.3047390206358014,11.022619046721815,-0.0511018304565976,-0.05701555224433828,-8.179173367762981,0.502076441042961,12.768724040608753,33.54895317684558,53.246918904513734,8.436492085456848,15.055538713932037,9.484129399061203,-81.58122301101685,-29.343342781066895,-151.34313106536865,-11.212129818605282,-6.980281296363311,False,0
GUIDED_NOGPS,0.35384058952331543,20.09632504431987,9.838191287441362,31.588403806790932,50.83333679336219,-10.688169197266772,9.925440377144815,30.400340335853652,51.9303507383368,-0.953399212372223,1.3735061122514303,11.199101743364835,-0.03558422088206447,0.07000315593334476,-7.656478136208165,0.5021964704422228,12.961694254139315,33.80686419178575,53.49890187222522,12.881730496883392,15.338048338890076,10.001476109027863,-16.59739911556244,-33.54937136173248,-53.03427577018738,-11.332292560253126,-8.075342047216184,False,0
GUIDED_NOGPS,0.3741419315338135,49.26534879077252,10.58827682902761,32.18627234043267,51.59243231705817,-10.927378232009756,10.307584206676124,30.56178132813138,52.408038221688585,-0.953399212372223,1.3735061122514303,11.199101743364835,0.14512175625600632,1.097059881290446,-10.0,0.5016349857912555,14.211598269274468,35.10378371740611,54.837511937168614,9.993208199739456,15.04899263381958,7.234354317188263,-45.675405859947205,-14.323629438877106,-131.02656602859497,-11.925993778666992,-6.69635417454729,False,0
GUIDED_NOGPS,0.4038231372833252,33.69812078703592,10.940161803838235,32.543346925832935,51.922181673590266,-11.053523048040645,10.67909847680718,30.722533460872523,52.877229209934484,-1.0151527669273066,1.3193137905509624,11.484782943137082,-0.07563798145614717,-0.004177340134590221,-8.33881352627565,0.5019161279040112,15.098940207057183,36.14403937787847,55.92248057395898,10.466432571411133,14.72650021314621,8.51084440946579,-16.15331619977951,-11.051395535469055,-49.73854422569275,-12.4173285846401,-4.7337885358901595,False,0
GUIDED_NOGPS,0.44240713119506836,25.9205260360661,11.426218240274096,32.99681108283719,52.36991599197023,-11.185388409606045,11.039467326132364,30.882555088788695,53.337452122022974,-1.0792924053802517,1.0438996457617151,11.70671542606466,-0.039792479726645735,0.2386711126764069,-8.075818183096427,0.5019440969927321,15.098940207057183,36.14403937787847,55.92248057395898,12.148378044366837,16.167661547660828,7.985332608222961,24.685275554656982,21.26493901014328,59.41765904426575,-12.4173285846401,-2.5854152848256478,False,0
GUIDED_NOGPS,0.4832792282104492,24.470851808634773,11.938045005363145,33.510673918617435,52.82441539092238,-11.325237814408968,11.388204840016122,31.04180554190834,53.78825245835706,-0.8815753976596019,0.5874766300655501,12.000238536777726,-0.026949007762324007,0.3729955434771508,-8.60183856889894,0.5019390862893824,15.707067121628775,36.9437522397523,56.56017080625316,11.164498329162598,17.39497482776642,5.551870912313461,-69.41437721252441,-7.425853610038757,-55.16561269760132,-12.72911837950663,-2.0219912726440037,False,0
GUIDED_NOGPS,0.5152788162231445,31.25133371084553,12.427496382946789,34.01797890808044,53.20952869588042,-11.489992031527157,11.724854575274076,31.200245119315397,54.22919261783027,-0.7944311484735248,0.24153672667110138,12.11912224815003,-0.05679064737184672,0.2922290617217665,-8.463713594464451,0.5020541646928559,15.902834567842715,37.19689816191653,56.797034052586554,12.491432577371597,18.453694880008698,3.4511372447013855,-62.18535900115967,-5.480499565601349,-82.02816247940063,-12.837082560334647,-4.7776998220641715,False,0
GUIDED_NOGPS,0.5471963882446289,31.3344489600765,13.039244488259481,34.675118855102816,53.74832558746634,-11.637707042585795,12.04898908485411,31.357835082888013,54.659851714862725,-0.3474560986684857,-0.33948388052490563,12.384234333236781,-0.006032644205899912,0.6352712019824363,-8.835782167220321,0.5018402141483912,16.19258054065859,37.477357853746085,56.56094460918564,10.312395542860031,19.911952316761017,5.8447618037462234,-43.5265839099884,9.331999719142914,-29.585176706314087,-12.961419995449162,-0.10661258283728771,False,0
GUIDED_NOGPS,0.5807790756225586,29.7835910982347,13.569176456877653,35.27684706496795,54.19847175696564,-11.758253134097929,12.360209442517514,31.514537651037195,55.07982539643716,-0.04567774384810652,-0.694838666081688,12.560437845897479,-0.04936277232633972,0.5092856266366766,-8.492407237973124,0.5017822343239526,17.053889079887824,38.58162787769989,57.291121011359564,13.523785769939423,21.562811732292175,9.10467728972435,-7.84035325050354,23.380047082901,15.3719961643219,-13.33878969069859,-0.34894796139360457,False,0
GUIDED_NOGPS,0.6117372512817383,32.309109676624196,14.114019219054269,35.898518322461726,54.61732616249448,-11.893115335596057,12.658144767520065,31.670315992445524,55.48872565913492,0.07084400273184163,-0.7577608233150783,12.616265250852225,-0.04441107938328821,0.6189142649019967,-8.881173339563146,0.5017644807362951,17.053889079887824,38.58162787769989,57.291121011359564,14.709058403968811,22.685174643993378,7.064725458621979,-19.460593163967133,-8.303625881671906,-14.865511655807495,-13.33878969069859,-1.5878260291839117,False,0
GUIDED_NOGPS,0.6496686935424805,26.365838786530134,14.66057759544436,36.522616482050026,54.98640898536386,-11.983140116041346,12.942451749293165,31.825134219805822,55.88618066617207,0.2814110508805185,-0.8372090501321378,12.688878699465922,-0.07124661381305224,0.5800950774377145,-8.138182998421124,0.5018239584789473,17.45789984412332,39.176925186927534,57.57478221978346,16.748930513858795,23.65415245294571,5.7754285633563995,17.138735949993134,10.128694772720337,81.08184933662415,-13.508036682864727,1.2683422232092727,False,0
GUIDED_NOGPS,0.7042009830474854,18.339042188982507,15.238563106273508,37.251269323289584,55.424311342792464,-12.018530362130459,13.212814172124919,31.978957383559845,56.271834564435366,0.605162444425946,-0.9393613593588485,12.869603797357167,-0.10464478437462191,0.5347666460898588,-7.470455363511806,0.5017231625721613,17.813455644487696,39.850447154951354,57.71486527646491,12.903186678886414,23.988589644432068,6.0783810913562775,-36.62843704223633,-8.114558458328247,-79.08219695091248,-13.685891971102341,6.5025535332637014,False,0
GUIDED_NOGPS,0.7221989631652832,55.57725128531298,16.10616897011362,38.327070037365495,56.17170770797897,-12.121944794637901,13.468942439841278,32.13175146563698,56.645347301518306,0.605162444425946,-0.9393613593588485,12.869603797357167,0.22906295521946887,2.2610382238964557,-9.580662915743746,0.5009760745792797,19.398968353301505,42.66108365329063,59.81591691071472,13.655732572078705,24.112053215503693,9.0150848031044,-96.00456357002258,-30.242589116096497,17.617908120155334,-13.849524293419332,4.334417983609405,False,0
GUIDED_NOGPS,0.7590725421905518,27.123547404566825,16.4671316191358,38.844947559994864,56.39306677115428,-12.107668160324147,13.710573100487132,32.2834833731929,57.00639444275719,0.48180495914728444,-0.9122327017492041,12.882579449232898,-0.17280778928878915,0.4625184659241072,-7.109787800261356,0.5012572606608174,19.398968353301505,42.66108365329063,59.81591691071472,16.7583629488945,24.719420075416565,6.161351874470711,6.476381421089172,0.9374206885695457,-75.28133988380432,-13.849524293419332,5.448575943381633,False,0
GUIDED_NOGPS,0.7898163795471191,32.53138500438219,17.108540836228336,39.657467663983425,56.78356411993285,-12.126857116304617,13.937468371007407,32.43412093234828,57.35466698826712,0.46292279446507845,-0.7605325994576342,12.902120620448304,-0.06286606300636188,1.1016592443135564,-7.525672233007525,0.5011742162739938,19.9654906204123,43.194310536733894,58.57719220987529,16.7583629488945,24.719420075416565,6.161351874470711,6.476381421089172,0.9374206885695457,-75.28133988380432,-13.745224996356221,5.448575943381633,False,0
GUIDED_NOGPS,0.8225874900817871,30.5204546446815,17.626187253610507,40.3886584157569,57.13381417851002,-12.084667376315064,14.149415661928213,32.583632881927464,57.68987118997804,0.31429296892713504,-0.4362965826462531,12.828967586890176,-0.13372192221514417,0.888032904833255,-6.735158825750745,0.5011455804490481,20.105997413093725,44.15144467965989,59.857287809272385,15.50997942686081,24.706636369228363,6.240813434123993,0.12355020735412836,-18.778890371322632,51.029324531555176,-13.665419572496633,8.198254716425149,False,0
GUIDED_NOGPS,0.8573639392852783,28.75923259417726,18.14720831823827,41.21446153364518,57.52418152108079,-12.015545268805788,14.346227102037915,32.73198886719717,58.01172836867079,0.1390644657704579,-0.22296512215271938,12.758394657291019,-0.15666398373571935,0.9181158744838153,-6.414418376422242,0.5010099167656268,20.203159890143002,45.740169896479856,60.289069102374576,14.3230602145195,25.453782081604004,6.964310258626938,-9.291667491197586,-3.0200783163309097,92.89668798446655,-13.550432712617305,9.59098919857234,False,0
GUIDED_NOGPS,0.8904531002044678,30.225296898420385,18.66288994040691,42.029737892341835,57.875804229436056,-11.894148320225833,14.527739063068271,32.87915943360514,58.319974731013126,0.0029506417214455083,-0.14454665307474515,12.66287702306933,-0.17030116604366663,0.9948750951980913,-5.67057075000648,0.500924341131191,20.203159890143002,45.740169896479856,60.289069102374576,14.239338040351868,24.99728351831436,4.7624073922634125,-74.59717392921448,-21.73321545124054,62.267255783081055,-13.550432712617305,12.738912396457204,False,0
GUIDED_NOGPS,0.933509111404419,23.22736133262449,19.12654526816303,42.867890664641365,58.21369986209451,-11.803866776205357,14.693811684375522,33.025116020518865,58.614361186595744,-0.07230294181072693,0.06005742648509899,12.617010595245402,-0.23387783328652328,0.8373810120261929,-6.243946383142441,0.500838703443394,20.97203661495727,47.229985931288184,60.447377185097125,11.567270755767822,25.878530740737915,5.728161707520485,-42.1472430229187,-14.957119524478912,-61.61363124847412,-13.29808228042733,9.691925734126789,False,0
GUIDED_NOGPS,0.9572727680206299,42.090356246864026,19.641752858853994,43.777709907362706,58.54556185906508,-11.68641100680279,14.844328397621517,33.169830954964254,58.89465316496835,-0.13179927892767995,0.23394459788266198,12.421132722680483,-0.1571493488482128,1.3697217873162042,-5.030527038322214,0.5007362256361767,22.587796330451077,49.4261590910424,60.588204887051575,11.567270755767822,25.878530740737915,5.728161707520485,-42.1472430229187,-14.957119524478912,-61.61363124847412,-12.6943927876986,9.691925734126789,False,0
GUIDED_NOGPS,0.9962167739868164,25.680565249868362,20.03200959942872,44.54941901596332,58.78701798860706,-11.511289563877568,14.979195451454824,33.31327744536431,59.16063043267563,-0.13202008613694177,0.3822929982824597,12.275682990531415,-0.28840857456981384,0.8755991724858636,-5.110756772315714,0.5007864336484937,23.079412964423547,50.327111275348074,60.507262914743364,12.120772898197174,27.926990389823914,7.372163236141205,22.07989990711212,15.520888566970825,62.607282400131226,-12.414534041808498,13.440827885570966,False,0
GUIDED_NOGPS,1.0243885517120361,35.50673427751488,20.63200882384276,45.60823601281071,59.17509064218563,-11.308655216968887,15.09834143619182,33.455429575277826,59.41208691029337,-0.11271919884210223,0.5226700343123236,12.022312854401562,-0.19617313753316645,1.5417469825719248,-3.8999119916427327,0.5005137339152718,23.348503548255167,50.829709185812476,60.53778731878562,12.120772898197174,27.926990389823914,7.372163236141205,22.07989990711212,15.520888566970825,62.607282400131226,-12.245118862059478,13.440827885570966,False,0
GUIDED_NOGPS,1.0673041343688965,23.30609115055066,21.048878273443016,46.412674103287394,59.43125783222536,-11.127404574505144,15.201716808497824,33.59626229713807,59.648830489464416,0.019563689495326365,0.82378324610142,11.46948161184896,-0.3338677176657962,1.008896127205771,-4.928056268490358,0.5004756084595182,23.348503548255167,50.829709185812476,60.53778731878562,12.120772898197174,27.926990389823914,7.372163236141205,22.07989990711212,15.520888566970825,62.607282400131226,-12.245118862059478,13.440827885570966,False,0
GUIDED_NOGPS,1.1014044284820557,29.32587537755901,21.61778521033075,47.56326449979987,59.79748367287448,-10.909082433123704,15.289293416068205,33.735751425991474,59.87068284993474,0.12025476512647747,0.96479890481868,11.169794255409958,-0.3030839805570275,1.4061711317941699,-4.088389393371032,0.5001870696308387,23.412730755189333,52.32073748005537,61.941284517959076,10.428472608327866,29.910466074943542,2.608378976583481,-45.48306465148926,-19.03907209634781,6.8197086453437805,-11.974851235101898,12.861099358066856,False,0
GUIDED_NOGPS,1.155648946762085,18.436420059692047,22.089754138794703,48.59268452258757,60.09462522854325,-10.698961957944734,15.361064022309469,33.87387363323631,60.07747927658947,0.07463091573979057,1.045210295030417,10.84275967530787,-0.40739659793810457,1.0808574388362608,-4.86930479977554,0.5000063049976393,23.603808004506753,52.96398495046976,62.13640075298704,10.428472608327866,29.910466074943542,2.608378976583481,-45.48306465148926,-19.03907209634781,6.8197086453437805,-11.82774546374346,12.861099358066856,False,0
GUIDED_NOGPS,1.1869773864746094,31.92352305420669,22.725909797035627,50.005591595071856,60.6080685470301,-10.444189217969312,15.417041831020402,34.01060644036138,60.26906847648894,0.12565616409948818,1.1347769134943215,10.461883567752217,-0.3341172307734808,1.789761894495061,-3.0196660602889094,0.49936174554238816,23.603808004506753,52.96398495046976,62.13640075298704,7.082439213991165,31.4536452293396,6.930321455001831,-25.384461879730225,-6.842919439077377,18.383681774139404,-11.82774546374346,11.604090126237926,False,0
GUIDED_NOGPS,1.20180344581604,67.48787591111683,22.81654367895513,50.54646501899857,60.73500101557648,-10.32628380225143,15.45726001107316,34.145928212684694,60.44531239590468,0.12565616409948818,1.1347769134943215,10.461883567752217,-0.515592932127489,0.9064839760816564,-3.0048349557141654,0.4994600259152704,23.85532777815486,53.96625241272751,62.18833950858754,7.082439213991165,31.4536452293396,6.930321455001831,-25.384461879730225,-6.842919439077377,18.383681774139404,-11.44164842327109,11.604090126237926,False,0
GUIDED_NOGPS,1.2335059642791748,31.544184227546893,22.9229450002828,51.10228794729597,60.8535676383405,-10.19274988150639,15.481771221094377,34.27981815309219,60.60608603735551,0.19210643420430754,1.1580515301430803,10.12025799603569,-0.5429705042824339,0.8661667518363834,-4.434202119970644,0.4995438110243917,24.401902073736316,55.61393401637004,62.2400878724204,7.082439213991165,31.4536452293396,6.930321455001831,-25.384461879730225,-6.842919439077377,18.383681774139404,-10.707304203311452,11.604090126237926,False,0
GUIDED_NOGPS,1.2666127681732178,30.20918742167356,23.277632151938448,52.12916189926156,61.08286636072612,-9.924359917095112,15.490647134146291,34.41225629577636,60.75127727664351,0.11106869430133923,1.1276239978860256,9.747812903236772,-0.49638738161970297,1.3673543391719738,-2.6875479980275463,0.49937472437573355,25.17626201866506,57.41692054915761,62.26778889651365,6.86430037021637,32.6373428106308,3.7652529776096344,-61.68762445449829,-11.898046731948853,-57.38661289215088,-10.068398910039978,14.13284386925644,False,0
GUIDED_NOGPS,1.306016445159912,25.381874515879165,23.630146863010054,53.15301905354607,61.310630058975676,-9.654201142225906,15.483977962407847,34.543223499974985,60.88078667989012,0.14873878839954627,1.1561238159715501,9.382713678890202,-0.5491443199287572,1.3144892414533298,-3.0623055092493128,0.49917685470958456,25.17626201866506,57.41692054915761,62.26778889651365,6.86430037021637,32.6373428106308,3.7652529776096344,-61.68762445449829,-11.898046731948853,-57.38661289215088,-10.068398910039978,14.13284386925644,False,0
GUIDED_NOGPS,1.338019847869873,31.249936670193268,24.063736259970696,54.40662290421111,61.59669096829138,-9.314101701075124,15.46187198185579,34.672701443709805,60.994527320572125,-0.05504854994595246,1.1278052113424424,8.626414516057507,-0.5467856418921863,1.658752735464262,-1.348882320127224,0.4988306683921571,25.307682277589926,59.11933600143597,62.39827761297046,6.86430037021637,32.6373428106308,3.7652529776096344,-61.68762445449829,-11.898046731948853,-57.38661289215088,-9.330592009263434,14.13284386925644,False,0
GUIDED_NOGPS,1.382227897644043,22.622876899261602,24.32292167790871,55.50850139493717,61.81599068800565,-8.974531162564475,15.42445505694581,34.800672617525194,61.092424596557706,-0.0364282803297341,1.164060922673928,8.466983386677423,-0.663113956213743,1.242532478318066,-2.3083760034102614,0.4985853077246531,25.612622447519144,60.97525819919853,62.53143227335599,2.5841036811470985,33.89963209629059,4.742322117090225,-96.11656665802002,-18.778853118419647,19.397926330566406,-8.696329177452832,15.925520078253728,False,0
GUIDED_NOGPS,1.4053514003753662,43.25451695404669,24.7306441889716,56.949950328831314,62.07896130046785,-8.556793197534805,15.371870165293624,34.92712031822687,61.17441604714246,-0.10367826953682675,1.2582045149336814,7.687886759942518,-0.6016450597153036,2.0666379342152115,2.102127472910678,0.4982216784124067,25.591734936971154,62.204431596324675,62.60712693985592,4.397646337747574,34.091487526893616,1.6386481001973152,-27.542975544929504,10.111721605062485,77.53741145133972,-8.210113418928337,14.770326768834886,False,0
GUIDED_NOGPS,1.4352185726165771,33.489328744919874,24.879329098957285,57.82891572425439,62.15453176317924,-8.272749419768477,15.304276922356092,35.05202864262054,61.24045117008548,-0.1334213421338522,1.3593110581654397,7.3472191222570835,-0.7501750961388377,1.3316016191085218,-1.1650144662588744,0.49820042051442204,25.673181649648036,63.3773226898985,62.56440792369351,4.397646337747574,34.091487526893616,1.6386481001973152,-27.542975544929504,10.111721605062485,77.53741145133972,-7.684403853092078,14.770326768834886,False,0
GUIDED_NOGPS,1.4715945720672607,27.49822330033436,25.119614793490417,58.96269624872664,62.28355300102219,-7.920731241174273,15.22185110611234,35.17538248125064,61.290491238645316,-0.23636691379963642,1.4304968905208992,6.883018975695507,-0.7826184635069167,1.4582939922223581,-0.8687766034528175,0.49803957779518326,26.134698485991848,65.66203528532131,62.606646422176084,4.397646337747574,34.091487526893616,1.6386481001973152,-27.542975544929504,10.111721605062485,77.53741145133972,-7.056335899913731,14.770326768834886,False,0
GUIDED_NOGPS,1.5135447978973389,23.83723203528155,25.42336156499947,60.31340863349471,62.44838233317544,-7.50511435806697,15.124784181744854,35.29716751213896,61.32450911861609,-0.36250039072823215,1.5884547267526703,6.13472266013595,-0.8347721765091389,1.529306394071184,-0.5505840491280733,0.49777417316274586,26.475050270997517,67.81006203503037,62.64586505517565,4.397646337747574,34.091487526893616,1.6386481001973152,-27.542975544929504,10.111721605062485,77.53741145133972,-6.4246578577303035,14.770326768834886,False,0
GUIDED_NOGPS,1.53987717628479,37.98259483640776,25.67332450673729,61.82282044204511,62.63429446846455,-7.080725147861672,15.01328282632059,35.4173701945234,61.34248908536347,-0.40222135584644125,1.7103578086249422,5.571199183324518,-0.867781132780846,1.8104093081985617,2.2069843713574127,0.4974355912168951,26.34936337411049,68.60451600317433,62.77836119153247,-1.1140518821775913,34.77763831615448,1.0744408704340458,-34.4406932592392,-12.418677657842636,24.354197084903717,-6.233714932254223,12.448142705753298,False,0
GUIDED_NOGPS,1.607755184173584,14.734434061687628,25.749269590908153,62.82278476330843,62.70112645954167,-6.801747848471946,14.887568453472118,35.53597776259657,61.344426640860725,-0.5018198680146548,1.7147218726177573,5.063885602061352,-0.9897179235570224,1.1865597503501137,-2.4348534322971123,0.4972984449983911,26.34936337411049,68.60451600317433,62.77836119153247,-1.1140518821775913,34.77763831615448,1.0744408704340458,-34.4406932592392,-12.418677657842636,24.354197084903717,-6.233714932254223,12.448142705753298,False,1
GUIDED_NOGPS,1.6241319179534912,61.05868137947098,26.161478009364593,64.8225328192545,62.953955273578664,-6.270988151540839,14.74787673807868,35.65297821924456,61.330328330724754,-0.5356037979185362,1.805642896249734,4.800101988768167,-0.8727580884168934,3.0396309177215812,9.054123546900545,0.49676243917058677,26.34936337411049,68.60451600317433,62.77836119153247,1.1419622227549553,35.36156415939331,-0.4342776257544756,-13.16603422164917,-7.337282598018646,34.214359521865845,-6.233714932254223,10.070784374556348,False,0
GUIDED_NOGPS,1.6440861225128174,50.131522960342316,26.159083034943,65.53783400062584,62.90598552110753,-6.100934762972504,14.594457140947329,35.768360329785565,61.30021156125213,-0.5891525877331419,1.8355096059429072,4.6602969810812915,-1.069200733485617,1.520376514825516,-0.21829060423883817,0.4967956066509167,26.463515689665872,71.49217377055703,62.51489805180269,1.1419622227549553,35.36156415939331,-0.4342776257544756,-13.16603422164917,-7.337282598018646,34.214359521865845,-5.147328220413501,10.070784374556348,False,0
GUIDED_NOGPS,1.6757972240447998,31.535883188848203,26.18846364107281,66.38629615954939,62.890781680073786,-5.887798626357785,14.427572433494047,35.88211361570859,61.25410441645513,-0.7107912665793403,1.8770836867603056,3.9303452729719197,-1.1133223262730827,1.44868954632038,-0.8480004354880415,0.49672964210745707,26.255134167650972,72.64254514847943,62.55536280725524,1.1419622227549553,35.36156415939331,-0.4342776257544756,-13.16603422164917,-7.337282598018646,34.214359521865845,-4.76641845179447,10.070784374556348,False,0
GUIDED_NOGPS,1.7049577236175537,34.30530654976117,26.328404046603644,67.66491145612548,62.898917449499365,-5.613515496352397,14.247498222424841,35.994228348412165,61.19204547509776,-0.7427734672853663,1.8885093125812675,3.7749670070905923,-1.13792577382429,1.7593798385502444,0.3877426110502924,0.4965852638923049,26.582990786916817,74.9161409128383,62.44926325723786,1.3984818011522293,35.42413413524628,-2.8525246307253838,-0.8194386959075928,-20.28582990169525,-7.026311010122299,-3.836786639258354,4.997733939289309,False,0
GUIDED_NOGPS,1.7506768703460693,21.87575430416256,26.435770111642448,68.79937146580032,62.88721889910411,-5.378982355743718,14.054522474416853,36.10469554294297,61.11408362773181,-0.8993765781839476,1.8855637935016993,3.5504168541636068,-1.2100686757004038,1.5328562481574028,-1.1178528048681935,0.49644642904685876,26.582990786916817,74.9161409128383,62.44926325723786,1.3984818011522293,35.42413413524628,-2.8525246307253838,-0.8194386959075928,-20.28582990169525,-7.026311010122299,-3.836786639258354,4.997733939289309,False,0
GUIDED_NOGPS,1.78204345703125,31.87912046150689,26.64057016449082,70.37246664572575,62.933175485265764,-5.028014367147198,13.848945040799473,36.21350695173458,61.02027789373285,-1.0383550262595456,1.912849545462254,3.0299933651188358,-1.2465362868387542,1.9111571631637638,1.278937960902116,0.4961619032488024,26.582990786916817,74.9161409128383,62.44926325723786,1.3984818011522293,35.42413413524628,-2.8525246307253838,-0.8194386959075928,-20.28582990169525,-7.026311010122299,-3.836786639258354,4.997733939289309,False,0
GUIDED_NOGPS,1.8175735473632812,28.151202749140893,26.585647283113694,71.64740873854991,62.951513010331595,-4.807076135701468,13.631077182235458,36.320655058346105,60.910697238336326,-1.1429255426175582,1.9722638669483141,2.5338917528216567,-1.3404808738154448,1.462585842796206,-0.2620923222274647,0.49590056430534357,26.2362677715267,77.95699638925555,62.459564973718514,-8.5234634578228,34.770628809928894,-0.958007201552391,-48.71218800544739,-23.715399205684662,-175.71091651916504,-3.0473704116834037,1.6799268612733025,False,0
GUIDED_NOGPS,1.8516063690185547,29.388958568355555,26.526943589994563,72.90662502455764,62.96860141344366,-4.591497552831635,13.401241093402028,36.4261330712009,60.78542038967353,-1.452256912721208,1.9565584872821045,1.910610737518371,-1.3929767751599547,1.480526112542031,-0.28053053135617034,0.4956097471136869,26.2362677715267,77.95699638925555,62.459564973718514,-8.5234634578228,34.770628809928894,-0.958007201552391,-48.71218800544739,-23.715399205684662,-175.71091651916504,-3.0473704116834037,1.6799268612733025,False,0
GUIDED_NOGPS,1.8853256702423096,29.663946136328274,26.393699499364274,74.1217268425668,62.96518750709863,-4.424769308251018,13.15976942767199,36.529934917325264,60.644535655807665,-1.4505584367736961,1.9025210187767254,1.4428158837409577,-1.451637662131994,1.3837449280871996,-0.719701103567373,0.4953284073418887,26.2362677715267,77.95699638925555,62.459564973718514,-12.789541482925415,34.877973794937134,-1.994684711098671,-63.337117433547974,-24.807798862457275,-147.2121238708496,-3.0473704116834037,-0.6762792278377651,False,0
GUIDED_NOGPS,1.9191370010375977,29.577552589082345,26.268348725223117,75.32012874272496,62.94242101917794,-4.229353052382677,12.907004821794828,36.63205523608707,60.48814074176989,-1.5597135041686683,1.9631999924762957,1.237661333622693,-1.499233608151961,1.4292088452165035,-0.24272740746088584,0.49505446283242666,25.834044921784248,79.87942329237413,62.5122613204678,-10.260926932096481,34.56867337226868,-2.852274291217327,14.938370883464813,-20.43538987636566,-68.34118962287903,-2.5491403522722926,1.3142559287488622,False,0
GUIDED_NOGPS,1.9520843029022217,30.35479388605836,26.087415697790806,76.72292002234065,62.940982513342014,-4.044459546446326,12.643299420577847,36.73248937293452,60.3163425665953,-1.7034621990492855,1.9067416487969702,0.999577694463856,-1.5631007132019266,1.3621815026645994,-0.18205516006138023,0.4947068252090142,24.95226378891698,85.12180415865231,62.32808863718158,-11.343549191951752,34.22020077705383,-0.9088808670639992,1.1536478996276855,-17.602387070655823,7.229112833738327,-1.8046190818224972,-1.1613599030223052,False,0
GUIDED_NOGPS,1.986121416091919,29.3833996525248,25.90075224804895,78.04620555729188,62.93464389974005,-3.8772964718034304,12.369014401567231,36.83123337313479,60.129257080359054,-1.7773779726386345,1.9226504400343993,0.7526347129821309,-1.6179586592770163,1.3726340045218448,-0.36338284527986975,0.4943376867033299,24.95226378891698,85.12180415865231,62.32808863718158,-11.343549191951752,34.22020077705383,-0.9088808670639992,1.1536478996276855,-17.602387070655823,7.229112833738327,-1.8046190818224972,-1.1613599030223052,False,0
GUIDED_NOGPS,2.0235843658447266,26.70068624829711,25.659099334603788,79.43413503516558,62.95266707340945,-3.749473475515368,12.084519499729222,36.92828397551271,59.927009081212326,-1.8834675657567401,1.7945032846002664,0.6288253146403379,-1.6801681369298413,1.299533722361891,-0.7221218873350201,0.49388904258778854,24.146602445798514,87.07691908012015,62.347641108749926,-12.665551900863647,33.37788283824921,0.5944340024143457,27.535143494606018,-26.610109210014343,28.508830070495605,-1.6320412516549616,-4.016009932429043,False,0
GUIDED_NOGPS,2.0756304264068604,19.215862704044934,25.338195696420033,80.76113672201727,62.98351715799501,-3.635459378491716,11.790192532131172,37.023638606189486,59.709732032418366,-1.9993410846957718,1.7294660098799934,0.6030023971009295,-1.7428670566006512,1.181786528943405,-1.033409150368876,0.4933823827161963,23.783812970808075,87.86050952543259,62.34375059596,-16.645489633083344,33.39035511016846,1.7699139192700386,-46.716928482055664,-24.986813962459564,64.65580463409424,-1.6467546405859752,-3.639129058651025,False,0
GUIDED_NOGPS,2.0903377532958984,67.99111673069753,25.0865699912465,82.32112670617259,63.00482004414671,-3.4846593041942913,11.486418922622676,37.11729537232133,59.47756787938852,-1.9993410846957718,1.7294660098799934,0.6030023971009295,-1.7984177509649937,1.3269330888004123,-0.1412633773122236,0.492866717765685,23.71600033387812,89.33974008810414,62.081313567515565,-11.72129511833191,32.76124596595764,1.1219462379813194,8.190969377756119,-11.277135461568832,67.81757473945618,-1.573936217606792,-3.101588048329144,False,0
GUIDED_NOGPS,2.1221187114715576,31.46939571735118,24.788046764039947,83.64856959120587,62.99788009643525,-3.392712975418279,11.173591226516674,37.209253055838204,59.23066686671833,-1.9082033092793529,1.6623606819450873,0.6556219076624432,-1.8570941173668396,1.2551474534774982,-0.8790193125599626,0.4923772122668923,22.53367393755201,92.1203062139934,61.88346630044668,-11.72129511833191,32.76124596595764,1.1219462379813194,8.190969377756119,-11.277135461568832,67.81757473945618,-1.6215726626410951,-3.101588048329144,False,0
GUIDED_NOGPS,2.1566526889801025,28.960787698426397,24.41485843540803,84.97016598025387,62.9433068190256,-3.3222938947833995,10.852108655270595,37.29951110718247,58.96918735522347,-1.8499533216033686,1.6119897443635358,0.7453291853345676,-1.9180522397776427,1.1359295329187535,-1.176321953768876,0.49195243930082555,22.113307180604068,92.6779218279726,61.94296229097596,-15.727093815803528,33.00151228904724,-2.165202982723713,-15.349631011486053,-18.06420385837555,-38.14045190811157,-1.7145655619205116,-3.929724579531095,False,0
GUIDED_NOGPS,2.1908257007598877,29.26735049891843,24.04276759316173,86.3050502633992,62.89101085111551,-3.2512170297019143,10.522376601167394,37.388069639047586,58.693295638975854,-1.6777940279832602,1.5139910439258393,0.8978409595594583,-1.971824703481965,1.1496957848925162,-1.1187479127224345,0.49149377215863427,22.113307180604068,92.6779218279726,61.94296229097596,-15.727093815803528,33.00151228904724,-2.165202982723713,-15.349631011486053,-18.06420385837555,-38.14045190811157,-1.7145655619205116,-3.929724579531095,False,0
GUIDED_NOGPS,2.2270565032958984,27.605183659231667,23.661600216378776,87.6064227566463,62.8346671806598,-3.1926667928359804,10.184806161996772,37.47492942011679,58.403165762339654,-1.548469625412652,1.3600977038587547,1.1198964926138024,-2.025148952582452,1.1503148142580362,-1.269734434674489,0.49101334429442783,21.78461907148457,93.28963505389541,61.883114509492344,-15.727093815803528,33.00151228904724,-2.165202982723713,-15.349631011486053,-18.06420385837555,-38.14045190811157,-1.7999056980204116,-3.929724579531095,False,0
GUIDED_NOGPS,2.2741611003875732,21.23053249645677,23.21628302417108,88.9616430831645,62.820368671639734,-3.2097403280641874,9.83981366573617,37.56009186880178,58.098979337007265,-1.5648610122036248,1.1875836672886289,1.387109287757157,-2.083855355722651,1.0918821392333482,-2.0706391401517967,0.49041575329665194,20.99872832218618,94.42683636259947,61.92930866788132,-17.59367287158966,33.08185338973999,0.3694059792906046,27.923542261123657,-16.07690006494522,128.27832698822021,-1.9776070976044486,-8.190139597917527,False,0
GUIDED_NOGPS,2.30031418800354,38.24407323655993,22.732547415021713,90.65847496409388,62.78090961338202,-3.1905589094707034,9.487820195231958,37.643559046981416,57.78092535903548,-1.5660622717239008,1.206073096093559,1.5586566391163146,-2.1617479540640727,0.9095251551950302,-1.6197743778841436,0.4898481445027604,20.99872832218618,94.42683636259947,61.92930866788132,-16.586841642856598,32.725074887275696,-1.8612757325172424,-27.627915143966675,-25.095978379249573,-104.9451231956482,-1.9776070976044486,-7.320968143955786,False,0
GUIDED_NOGPS,2.3313546180725098,32.21951313191836,22.32048369386512,91.53134714434954,62.776705125545185,-3.2704904070237495,9.129251112880482,37.725333653740385,57.44920002588138,-1.5660622717239008,1.206073096093559,1.5586566391163146,-2.1841851511056607,1.1109365466649823,-2.9911554618287575,0.4891798583292807,20.99872832218618,94.42683636259947,61.92930866788132,-19.585847854614258,32.45687782764435,1.7635732889175415,-22.788402438163757,-32.66715705394745,50.65650939941406,-1.9776070976044486,-9.424402592263021,False,0
GUIDED_NOGPS,2.3652780055999756,29.48481930082318,21.865664901512435,92.58032839134039,62.75440081835329,-3.3188984792145466,8.764535585309282,37.8054190191079,57.10400655343848,-1.6163777140184459,1.1189800733262572,1.67016662767106,-2.229259316706033,1.0529408930712973,-2.562152050199937,0.4885187460964957,21.008678245435306,94.76130131011496,61.902614661163,-21.072688698768616,32.28086531162262,0.30814330093562603,-89.16248083114624,-21.27089500427246,51.43161416053772,-1.936060482220178,-8.327836211584984,False,0
GUIDED_NOGPS,2.3986923694610596,29.931093540376217,21.337399495542407,93.74528855864482,62.70099962278844,-3.3876077353596297,8.394106108058068,37.88381909779639,56.74555499307267,-1.7177620538503533,1.1205672385346388,1.959952024082543,-2.2831327386095737,0.9228385183064948,-2.8550586524359343,0.4878927252346156,19.602188786520404,97.16758432439138,61.92828695285942,-21.49757742881775,30.7971328496933,-1.901552826166153,-30.137866735458374,-35.75525879859924,65.29459357261658,-2.4081264267287765,-8.314225352116441,False,0
GUIDED_NOGPS,2.4329137802124023,29.22635895506268,20.651891128513185,94.98660552235614,62.65217015953721,-3.4671878229106525,8.018398030259895,37.96053846294015,56.3740620486583,-1.7867809019699206,1.1832639995254188,2.25021393291034,-2.349431895762448,0.6452922919613597,-3.0115361499814286,0.4872302298939879,17.603016564561937,100.43633996185042,61.78134124532347,-26.82536244392395,30.19016683101654,-1.1798309162259102,-91.13301038742065,-34.25924777984619,-14.149318635463715,-3.080381421554626,-6.897633019198396,False,0
GUIDED_NOGPS,2.4672482013702393,29.12792022000611,19.989537359644757,96.2761172186913,62.58728385913338,-3.5469179710678684,7.637849079322358,38.03558229983409,55.98975089361428,-2.115400512846275,1.1700132190921826,2.632148933230756,-2.3990927396791486,0.6829327168690401,-3.054090752007216,0.48657320113040275,16.06108507660225,103.00403613549076,61.65696957794937,-21.92423790693283,29.562169313430786,-1.8828865140676498,-12.276843190193176,-39.61289823055267,24.302804470062256,-3.64950729417842,-5.185934252340309,False,0
GUIDED_NOGPS,2.499938726425171,30.596374512163987,19.3532196966351,97.4797305439019,62.52272436960226,-3.627492391293634,7.252898885608495,38.10895639967236,55.59285098793992,-2.311321927867152,0.9878813156753266,3.0388965167019473,-2.4466019201569256,0.6973258948786036,-3.167307508072944,0.4858904867502413,16.06108507660225,103.00403613549076,61.65696957794937,-21.92423790693283,29.562169313430786,-1.8828865140676498,-12.276843190193176,-39.61289823055267,24.302804470062256,-3.64950729417842,-5.185934252340309,False,0
GUIDED_NOGPS,2.5329885482788086,30.26106028686041,18.694704737043384,98.61342760552775,62.36046470679793,-3.7286249407279874,6.86398850711808,38.180667153287054,55.18359789525116,-2.288766935680477,0.8035723961822349,3.3050132799269263,-2.4946980368523826,0.6594839958397659,-3.4579177654029154,0.48537747370839307,15.524746839123988,103.93292522985087,61.62748680768904,-23.629382252693176,27.682387828826904,-8.204858750104904,-45.91997265815735,-28.63202691078186,-51.38707160949707,-3.813408520151357,-6.069504598846084,False,0
GUIDED_NOGPS,2.5667569637298584,29.617862640699364,18.014788553439516,99.78280031526201,62.19736871963998,-3.838959495096613,6.471559954168697,38.25072154488692,54.762233099816555,-2.3734392967172444,0.5417349065548275,3.7813203636791735,-2.5447319341128134,0.6179311568018353,-3.6226076154329157,0.4848410371827523,14.929595324323573,104.91626652834535,61.58342209630186,-23.629382252693176,27.682387828826904,-8.204858750104904,-45.91997265815735,-28.63202691078186,-51.38707160949707,-4.030104071155936,-6.069504598846084,False,0
GUIDED_NOGPS,2.600491523742676,29.646124159769293,17.34166924687459,100.9314722946425,62.02928060082549,-3.953510694958813,6.07605571407678,38.31912714579602,54.32900382359319,-2.4739999584239305,0.41260953996550176,4.103920016575808,-2.5905425803827997,0.6307140096541419,-3.719279532501438,0.4842898025271507,14.681871801865764,105.54977718965262,61.44312547346664,-23.629382252693176,27.682387828826904,-8.204858750104904,-45.91997265815735,-28.63202691078186,-51.38707160949707,-4.140780133414234,-6.069504598846084,False,0
GUIDED_NOGPS,2.634037733078003,29.81640849926424,16.714674831035,102.06790150875074,62.01130593936689,-4.074547961841162,5.677918275838792,38.385892108192415,53.88416284326291,-2.6741603595984467,0.3432211679396662,4.388864836578161,-2.6318614354169054,0.6992219098304289,-3.898477118397479,0.4834144169051052,13.704753041569932,106.94750326717225,61.397358826121774,-19.00445520877838,25.97951889038086,1.6116434708237648,1.0699616745114326,-34.71658527851105,113.85715007781982,-4.490916352245726,-5.560076220261152,False,0
GUIDED_NOGPS,2.674321174621582,24.824389348895295,16.112554484152152,103.14204545589094,61.99596414177823,-4.193555482984369,5.277589654812324,38.45102515884687,53.42796830726816,-2.6512177541763737,0.37422238272614916,4.568074913134133,-2.668653847515217,0.8068338588807464,-3.687670010993333,0.4825048599835511,13.704753041569932,106.94750326717225,61.397358826121774,-19.00445520877838,25.97951889038086,1.6116434708237648,1.0699616745114326,-34.71658527851105,113.85715007781982,-4.490916352245726,-5.560076220261152,False,0
GUIDED_NOGPS,2.701530694961548,36.765372579613086,15.444659685401485,104.3807545309032,61.958175704012575,-4.315988512718283,4.8755109173971505,38.514535592861506,52.96068355284823,-2.732324969909806,0.4068392574164575,4.685668999413773,-2.740921967199723,0.5039541875693192,-4.402954736746218,0.4816264278260989,13.704753041569932,106.94750326717225,61.397358826121774,-17.85839945077896,23.67793768644333,0.43169697746634483,105.4950475692749,-16.994211077690125,86.89496517181396,-4.490916352245726,-5.142137798721718,False,0
GUIDED_NOGPS,2.7388112545013428,26.826548298997754,14.970677537039597,105.12756950224276,61.93248369511375,-4.420308879589149,4.47212170571639,38.57643326740853,52.482576923075044,-2.6907342405063055,0.42469993529177635,4.71017998702401,-2.735890667164767,0.9817501343763828,-3.7749827078956333,0.48069350253756443,13.115473959257358,107.73884598787083,61.34941673709156,-17.85839945077896,23.67793768644333,0.43169697746634483,105.4950475692749,-16.994211077690125,86.89496517181396,-4.642117316726107,-5.142137798721718,False,0
GUIDED_NOGPS,2.7793631553649902,24.662946520448063,14.344448752455254,106.20006993746004,61.894472890487044,-4.54857862262957,4.0678597622976795,38.63672859546888,51.99392158388937,-2.6273889317094916,0.4637214997111468,4.855607094171452,-2.7977286355275477,0.7629347389449028,-3.9864483024877364,0.4797598917623958,12.35530925226692,108.76031372015436,61.20937639000047,-17.85839945077896,23.67793768644333,0.43169697746634483,105.4950475692749,-16.994211077690125,86.89496517181396,-4.85583961528422,-5.142137798721718,False,0
GUIDED_NOGPS,2.806025743484497,37.50875498560212,13.628587267932184,107.39167536768497,61.79353001337392,-4.613474048022749,3.66316045475412,38.69543253957094,51.494995341136836,-2.5000020617073457,0.47850459039599313,4.883688990057136,-2.877649892852643,0.3739562282092967,-3.7404821613895454,0.4789419314697224,10.628919303836833,110.74540048819765,61.137262003557595,-16.804535686969757,21.872705221176147,-3.342144936323166,53.79256010055542,-30.342194437980652,-12.306071072816849,-5.292904355075088,0.4725585905583797,False,0
GUIDED_NOGPS,2.839988946914673,29.44921186589433,13.087588543054805,108.09125715071512,61.68172487429222,-4.656780033606324,3.258456300465518,38.75255660552919,50.986080457603904,-2.435530625471126,0.5046325719313778,4.847814702102114,-2.8713240537180167,0.8246634730753917,-3.305819379024235,0.47811874882659144,10.628919303836833,110.74540048819765,61.137262003557595,-20.03595381975174,21.464434266090393,-5.000140517950058,-37.499406933784485,-22.503747045993805,-91.19873046875,-5.292904355075088,-0.04421448254013707,False,0
GUIDED_NOGPS,2.8786990642547607,25.833994431988963,12.443443821586605,109.00627681304586,61.56341244175584,-4.710507861754785,2.85417649125948,38.80811283618296,50.46746347005391,-2.4762925541075274,0.5166539183140118,4.79860831177405,-2.9224047892733718,0.68293101616164,-3.3808199812725594,0.4772837364081346,10.177614698519605,111.44970839957116,61.09960985378713,-20.03595381975174,21.464434266090393,-5.000140517950058,-37.499406933784485,-22.503747045993805,-91.19873046875,-5.2992077106129525,-0.04421448254013707,False,0
GUIDED_NOGPS,2.907687187194824,34.50540084735305,11.781863095413376,109.9544987464216,61.443096554785264,-4.765345366805218,2.4507464180924714,38.86211380513501,49.93943500626319,-2.4054765124626005,0.5414952096036424,4.761302245414263,-2.976673592071036,0.5071017423917517,-3.6151566277708107,0.47644160757969917,10.177614698519605,111.44970839957116,61.09960985378713,-20.03595381975174,21.464434266090393,-5.000140517950058,-37.499406933784485,-22.503747045993805,-91.19873046875,-5.2992077106129525,-0.04421448254013707,False,0
GUIDED_NOGPS,2.940657377243042,30.333938425266325,11.324999217692142,110.60190761142377,61.41670472907101,-4.756927829681507,2.048587195730967,38.91457261049031,49.402289602056946,-2.412242455165733,0.5559562141804403,4.734809649171076,-2.9694749334300057,0.9380452148434466,-2.7520484614126803,0.47538840643557506,9.760276641298631,111.85280035098543,61.016162853091785,-15.207421779632568,19.482038915157318,0.39250683039426804,8.309133350849152,-22.945985198020935,75.5307137966156,-5.357305060322757,3.1907121986008784,False,0
GUIDED_NOGPS,2.975175142288208,28.974792238026485,10.81750849729118,111.35077559570075,61.38548522844237,-4.753401753870873,1.6481151874325164,38.965502868594704,48.85632551834548,-2.4013820274985895,0.6251929880232133,4.603367354349235,-3.010166411137042,0.8463503155575633,-2.811147006582909,0.47432434694216896,9.760276641298631,111.85280035098543,61.016162853091785,-15.207421779632568,19.482038915157318,0.39250683039426804,8.309133350849152,-22.945985198020935,75.5307137966156,-5.357305060322757,3.1907121986008784,False,0
GUIDED_NOGPS,3.0185470581054688,23.058295766904894,10.19016723331476,112.09904635198345,61.2568916669056,-4.738350655481166,1.249741529626931,39.014918707773546,48.30184455816007,-2.578345185261038,0.5747210917079926,4.599838707869277,-3.0567729377998223,0.7012210666966819,-2.704393551295944,0.47342755881209075,8.76783490835879,113.25677446873641,60.8176249320948,-21.135883033275604,16.98514074087143,-5.558474734425545,-52.87013053894043,-25.436300039291382,-44.15557682514191,-5.2005215899235555,3.372460117320333,False,0
GUIDED_NOGPS,3.06113862991333,23.48132099449679,9.53374889934704,112.89598295664722,61.12480213634309,-4.723618321157356,0.8538716565973843,39.062834762070445,47.73915188368907,-2.5643744602006002,0.7205144143888237,4.427308556321578,-3.098930485230771,0.6325651205577463,-2.6957141848257784,0.47252077542274745,8.76783490835879,113.25677446873641,60.8176249320948,-21.135883033275604,16.98514074087143,-5.558474734425545,-52.87013053894043,-25.436300039291382,-44.15557682514191,-5.2005215899235555,3.372460117320333,False,0
GUIDED_NOGPS,3.085385322570801,41.252067863289895,8.836678498842726,113.78427570813903,61.00597697379404,-4.713707590968028,0.46090482516140696,39.10926616498592,47.16855583331394,-2.604309509060607,0.8348173099838697,4.178510804954224,-3.1698184910192655,0.2275028785468412,-2.6647632623166033,0.4715903866409492,8.76783490835879,113.25677446873641,60.8176249320948,-18.886972963809967,15.250930190086365,-4.0349081158638,-11.294060200452805,-27.01207995414734,11.620563268661499,-5.2005215899235555,3.103872746606513,False,0
GUIDED_NOGPS,3.1127519607543945,36.557084709717344,8.554909461175601,113.9826269922955,60.937891785886265,-4.687753597817521,0.07123363935210847,39.15422854321609,46.59036773864527,-2.650927471136648,0.8699351011274605,4.059119098262402,-3.096657029747639,1.2409159907340848,-2.402099977258527,0.4705411564601336,8.76783490835879,113.25677446873641,60.8176249320948,-18.886972963809967,15.250930190086365,-4.0349081158638,-11.294060200452805,-27.01207995414734,11.620563268661499,-5.2005215899235555,3.103872746606513,False,0
GUIDED_NOGPS,3.143944263458252,32.059926467778055,8.184373411300202,114.34116092687347,60.86062987998307,-4.666494872005954,-0.31475642490074307,39.197738010391376,46.004901741558854,-2.721577667250791,0.9050909919200153,3.745843080469658,-3.1330495571161867,1.015689929934227,-2.5433958086141595,0.4694853486702629,8.76783490835879,113.25677446873641,60.8176249320948,-18.886972963809967,15.250930190086365,-4.0349081158638,-11.294060200452805,-27.01207995414734,11.620563268661499,-5.2005215899235555,3.103872746606513,False,0
GUIDED_NOGPS,3.177189350128174,30.084379348434204,7.699719584962052,114.8336315542493,60.77230112619019,-4.621592150478543,-0.6966874950895985,39.23981116081515,45.41247461123163,-2.7790031230279078,0.9115286586561638,3.5956476475079007,-3.1746243351823846,0.7947167230759581,-2.2324830347856985,0.46843631663623003,8.76783490835879,113.25677446873641,60.8176249320948,-19.44516897201538,12.737815082073212,-3.8809679448604584,-31.603339314460754,-36.75092160701752,138.3449912071228,-5.2005215899235555,4.84523032927491,False,0
GUIDED_NOGPS,3.2099883556365967,30.491610689464654,7.240090538840116,115.28793460612246,60.674496791904886,-4.510401274205963,-1.074189777447998,39.28046506320247,44.813405561177824,-2.778454573460191,0.9511305223507209,3.502857393199162,-3.1953135561767714,0.8197061283585747,-1.3533308618109336,0.46739207306236213,8.76783490835879,113.25677446873641,60.8176249320948,-18.863651156425476,11.967677623033524,-4.678550735116005,33.645087480545044,-29.22493815422058,96.61835432052612,-5.2005215899235555,9.269248015077013,False,0
GUIDED_NOGPS,3.2715659141540527,16.242638288644144,6.681184443884402,115.75346142409704,60.51606602892395,-4.4126592855289415,-1.4469020322695272,39.31971725441871,44.208016066284905,-2.893601744469674,0.9818562350537291,3.158715963990542,-3.2299770713449645,0.689134386645444,-1.7272066932337924,0.4664427361984042,7.466148964024173,114.5014283109155,60.484297701276844,-22.650393843650818,10.453025996685028,-7.941792905330658,-82.93826580047607,-33.80323052406311,-44.228461384773254,-5.0301146718300735,7.750091854034762,False,0
GUIDED_NOGPS,3.291990041732788,48.959985058598306,6.0104936246248775,116.36517976678675,60.33804704373593,-4.306445453937496,-1.8144720492266941,39.3575857332183,43.596629679849656,-2.906611974178079,0.9684395023680026,2.7549693948859253,-3.2768061168776486,0.46486264467138333,-1.5082516540868223,0.46552310011618037,7.466148964024173,114.5014283109155,60.484297701276844,-22.650393843650818,10.453025996685028,-7.941792905330658,-82.93826580047607,-33.80323052406311,-44.228461384773254,-5.0301146718300735,7.750091854034762,False,0
GUIDED_NOGPS,3.3145201206207275,44.400613984015244,5.526130573746592,116.7030355676177,60.16041533253851,-4.188156243017773,-2.176557122689779,39.39408895398336,42.97957185061421,-3.0556569471515123,0.900554679094069,2.6312663447239433,-3.284306489401884,0.5809509519958685,-0.3913414735190526,0.46461359397153057,7.466148964024173,114.5014283109155,60.484297701276844,-22.709310054779053,9.507524967193604,-9.919016808271408,-32.56848454475403,-37.62933313846588,-26.522642374038696,-5.0301146718300735,9.08335417153136,False,0
GUIDED_NOGPS,3.3465359210968018,31.236903644786036,5.229335299109341,116.81079554015967,60.02098804785297,-4.087489927247806,-2.5328245270457828,39.42924582046244,42.357169739802096,-3.1153261200709785,0.9542633380239354,2.313364581315809,-3.2611546223719685,1.02234675292984,-1.1712281492729013,0.46360323444893375,7.466148964024173,114.5014283109155,60.484297701276844,-22.709310054779053,9.507524967193604,-9.919016808271408,-32.56848454475403,-37.62933313846588,-26.522642374038696,-5.0301146718300735,9.08335417153136,False,0
GUIDED_NOGPS,3.3801770210266113,29.73249780247824,4.855348490543563,117.10537149213138,59.853191343490245,-4.005329182082732,-2.8829519920170554,39.463075679509146,41.72975203815418,-3.147968661331527,0.9873077932284571,2.0838687310994994,-3.2892537151385,0.8620605616662667,-1.4352610948689386,0.46263476491400324,7.466148964024173,114.5014283109155,60.484297701276844,-17.298050224781036,8.721361309289932,-9.869363903999329,-77.78049111366272,-34.07808244228363,-76.70927047729492,-5.0301146718300735,6.855535148249022,False,0
GUIDED_NOGPS,3.416934013366699,27.208708231432407,4.444554140003156,117.40047760616277,59.71125091433163,-3.919005021218069,-3.2266281779807215,39.49559831482087,41.097648782964846,-3.2616087084119645,1.005337358203175,1.7162880136501,-3.311691467993914,0.7852646895545452,-1.4042024758833425,0.4616001553878213,7.466148964024173,114.5014283109155,60.484297701276844,-18.47216784954071,7.265274226665497,-7.738619297742844,-10.124411433935165,-33.053210377693176,12.040919065475464,-5.0301146718300735,6.892471530619981,False,0
GUIDED_NOGPS,3.449390172958374,30.813961518399612,4.000796317360272,117.72814721013964,59.56041710900169,-3.8263341511710487,-3.563553151287074,39.52683394067747,40.46119117511795,-3.196000899452584,1.0626874684560104,1.510608072574273,-3.3360026642661893,0.6909903065481586,-1.1815333665398644,0.4605780778344955,7.466148964024173,114.5014283109155,60.484297701276844,-18.47216784954071,7.265274226665497,-7.738619297742844,-10.124411433935165,-33.053210377693176,12.040919065475464,-5.0301146718300735,6.892471530619981,False,0
GUIDED_NOGPS,3.488408088684082,25.634264550393898,3.5877123373299105,117.94525495980938,59.43063412656043,-3.723208844943508,-3.8934388595786373,39.55680319567993,39.82071139612274,-3.2231105605985992,1.1119827579649906,1.1874122722291438,-3.347060297530339,0.7414242775846447,-1.1521250920976327,0.4594968645664752,7.466148964024173,114.5014283109155,60.484297701276844,-21.86063677072525,6.155061721801758,-7.55266398191452,-42.06787645816803,-32.97083377838135,4.307946562767029,-5.0301146718300735,8.208651118115554,False,0
GUIDED_NOGPS,3.5188775062561035,32.83495252037358,3.15635557003689,118.14717262464505,59.229301301966174,-3.6452930648468658,-4.216009607109122,39.585527136489084,39.17654242515022,-3.325537784939403,1.040414008129187,0.955228422409317,-3.3653597713899055,0.6516005333343763,-1.1898462446501448,0.45856106075900266,7.466148964024173,114.5014283109155,60.484297701276844,-21.79013043642044,4.06620129942894,-12.016116082668304,-65.90061783790588,-40.654757618904114,-46.897315979003906,-5.0301146718300735,6.183453498543053,False,0
GUIDED_NOGPS,3.5528430938720703,29.44507704728141,2.807639329508463,118.26237351015128,59.04889247655124,-3.579118796304832,-4.531002530062274,39.61302723156426,38.529017856068776,-3.268020975382137,0.9697405466831843,0.6968030391591542,-3.365767431626236,0.7953323557034384,-1.3714463961055468,0.4575708356982409,7.466148964024173,114.5014283109155,60.484297701276844,-21.79013043642044,4.06620129942894,-12.016116082668304,-65.90061783790588,-40.654757618904114,-46.897315979003906,-5.0301146718300735,6.183453498543053,False,0
GUIDED_NOGPS,3.5856244564056396,30.50713527195496,2.3680684358925497,118.37771801663618,58.82544747710583,-3.4507955562558164,-4.838168071870612,39.639325354901985,37.878471714480554,-3.3601574525212587,0.837270468473815,0.4695117925800251,-3.387866361664793,0.5957233806242158,-0.5059444857717825,0.4566616550338709,7.466148964024173,114.5014283109155,60.484297701276844,-25.73763132095337,2.1482113748788834,-14.25517052412033,-83.27929973602295,-39.920616149902344,-24.16228950023651,-5.0301146718300735,9.947178441146628,False,0
GUIDED_NOGPS,3.6258695125579834,24.85174761365858,1.987805323256264,118.43196480622461,58.64503099348661,-3.3742515226260923,-5.13727045853468,39.66444377977468,37.22523827475715,-3.287873987421837,0.7298597139989879,0.2667612022453403,-3.3893707405763926,0.7064649434033217,-1.262520932079275,0.45564717102918784,7.466148964024173,114.5014283109155,60.484297701276844,-24.52419102191925,0.7873735390603542,-12.122388929128647,-109.58828926086426,-32.19529390335083,-5.638109520077705,-5.0301146718300735,6.840432746220477,False,0
GUIDED_NOGPS,3.652005434036255,38.265007480932745,1.6109875301776082,118.4588421914817,58.460776317837265,-3.288479045599276,-5.428088173941433,39.688405172469345,36.56965187707615,-3.1532733704391,0.4913696785845353,-0.024124144772152394,-3.3993926095858846,0.6191759513130555,-0.6613665632841508,0.45465870135254294,7.466148964024173,114.5014283109155,60.484297701276844,-24.59128350019455,-0.6199238821864128,-12.437877804040909,-79.59890365600586,-23.319153487682343,-46.65898084640503,-5.0301146718300735,7.4492826390245845,False,0
GUIDED_NOGPS,3.685805082321167,29.5915337942712,1.393486254256413,118.36530212191269,58.36569090537374,-3.211099905348894,-5.710414435183608,39.71123258602621,35.912046744456624,-3.0236844047598597,0.47355297005199837,-0.11427818952015764,-3.383078771504568,0.9320874870688483,-1.0113728864149019,0.4534729179113534,7.466148964024173,114.5014283109155,60.484297701276844,-22.392506897449493,-2.268323302268982,-9.241169691085815,-6.233612820506096,-38.28199803829193,101.42655372619629,-5.0301146718300735,8.504195111049299,False,0
