Mode,Time,Freq,time2delay,actualDelay,North-Desired,East-Desired,Down-Desired,Roll-UAV,Pitch-UAV,Yaw-UAV,Roll-Control,Pitch-Control,Yaw-Control,Thrust-Control,North-Pos,East-Pos,Down-Pos,Yaw-Ang,North-Vel,East-Vel,Down-Vel,Yaw-Vel,North-Acc,East-Acc,Down-Acc,North-Avg,East-Avg,Down-Avg,Yaw-Avg,North-Dif,East-Dif,Down-Dif,Yaw-Dif,North-One,East-One,Down-One,Yaw-One,North-Two,East-Two,Down-Two,Yaw-Two,Landing-State,Q-Size,Kalman-Time,Kalman-Dt
STABILIZE,0.03432965278625488,29.138037875314353,0.03280165990193685,0.03294563293457031,-10.0,40.0,10.0,-0.09296047542946026,-1.040873551794282,162.4183740852915,3.999918120000598,4.0000818783233525,0.00023534274690528608,0.5187775003367792,-0.010051994202947213,0.01591528864304789,0.6236611120990534,0.001172832594331822,-0.05873654154129326,0.12366385199129581,0.9414376690983772,-0.245698819835725,-2.1546220406889915,-0.4025400150567293,14.32492733001709,0.0,0.0,0.0,0.0,0.0,0.0,0.0,0.0,0.0,0.0,0.0,0.0,0.0,0.0,0.0,0.0,False,0,3.488325357437134,0.0299326171875
STABILIZE,0.06816339492797852,29.56525171640844,0.03236559232076009,0.03249645233154297,-10.0,40.0,10.0,-0.09317125079837862,-1.0412492121986328,162.42170721760647,3.999400158996147,4.000599751065033,0.0017248060358789384,0.5188003236755694,-0.014851667217768228,0.01585496738939774,0.6247783372390052,0.008591445367759383,-0.2810168778523803,0.03118678869213909,1.5139181166887283,0.40229208565694796,-5.488488078117371,1.8159640952944756,21.676811575889587,0.0,0.0,0.0,0.0,0.0,0.0,0.0,0.0,0.0,0.0,0.0,0.0,0.0,0.0,0.0,0.0,False,0,3.516948699951172,0.034922119140625
STABILIZE,0.10200023651123047,29.544009917727937,0.0319700558980306,0.03302311897277832,-10.0,40.0,10.0,-0.09320380091864197,-1.041608971068822,162.42777242558944,3.999443161891374,4.000556760602245,0.0016071090497303726,0.518831593648386,-0.015454794749190134,0.017788984101254752,0.6220291887145314,0.007975563301271336,-0.05587428458966315,0.13287446927279234,1.129863690584898,-0.02433869208635947,-2.549654059112072,-0.22717085666954517,17.65558421611786,0.0,0.0,0.0,0.0,0.0,0.0,0.0,0.0,0.0,0.0,0.0,0.0,0.0,0.0,0.0,0.0,False,1,3.545633554458618,0.03991015625
STABILIZE,0.13566136360168457,29.711856962724735,0.032550843556722005,0.03269362449645996,-10.0,40.0,10.0,-0.0949393092980599,-1.0402843412566627,162.4298761238538,3.9994352005807303,4.0005647196809315,0.0016353303337381792,0.5188560472743005,-0.013988682192761778,0.02212484264402585,0.6223614192937476,0.008089584691997236,0.09640803327783942,0.14401875669136643,1.1239203624427319,0.04299278581320393,-0.843227282166481,1.5175892040133476,12.715630233287811,0.0,0.0,0.0,0.0,0.0,0.0,0.0,0.0,0.0,0.0,0.0,0.0,0.0,0.0,0.0,0.0,False,0,3.6032750606536865,0.02494384765625
STABILIZE,0.16906118392944336,29.93707531547993,0.032329591115315755,0.032499074935913086,-10.0,40.0,10.0,-0.09515179221427075,-1.0390381518982528,162.4321027655232,3.999459455613025,3.7188847375653857,0.0016887240791529994,0.5189057701948573,-0.017966513575070467,0.020696978322311238,0.6100782288957701,0.008328661771500049,-0.25412978138774633,-0.02682927588466555,0.9223844856023788,0.03186670113994406,-1.8636157736182213,-0.38320934399962425,15.190525352954865,0.0,0.0,0.0,0.0,0.0,0.0,0.0,0.0,0.0,0.0,0.0,0.0,0.0,0.0,0.0,0.0,False,0,3.6317808628082275,0.0349208984375
STABILIZE,0.20250678062438965,29.899941544647056,0.032425673802693684,0.03254818916320801,-10.0,40.0,10.0,-0.0943719767101257,-1.039084362396856,162.4362965016736,3.999795059042792,1.7241129121848673,0.001389853944072437,0.518934095048241,-0.017458989693210292,0.021616988842396996,0.6084718623237524,0.006811544258272243,0.002750985004240647,0.0823002599645406,1.148818340152502,-0.07320619430782145,0.5219570361077785,1.7911765724420547,18.8676118850708,0.0,0.0,0.0,0.0,0.0,0.0,0.0,0.0,0.0,0.0,0.0,0.0,0.0,0.0,0.0,0.0,False,0,3.6604745388031006,0.034921142578125
STABILIZE,0.2360548973083496,29.808779946982025,0.032421382268269856,0.03255319595336914,-10.0,40.0,10.0,-0.09417336761566643,-1.0389802020120134,162.43917884150335,3.999840094083589,1.7316529885408005,0.0010893702434088498,0.5189621003893418,-0.016937204806755694,0.022518319566137784,0.6070378289466104,0.005291424736778405,0.002750985004240647,0.0823002599645406,1.148818340152502,-0.07320619430782145,0.5219570361077785,1.7911765724420547,18.8676118850708,0.0,0.0,0.0,0.0,0.0,0.0,0.0,0.0,0.0,0.0,0.0,0.0,0.0,0.0,0.0,0.0,False,0,3.689359426498413,0.034921142578125
STABILIZE,0.26940417289733887,29.98330092645545,0.03231838544209798,0.0324399471282959,-10.0,40.0,10.0,-0.09437731279541478,-1.0383362432393282,162.4427032191151,3.9998555035734316,1.7370891206678551,0.000987572463661567,0.5189904003222754,-0.016653429954126928,0.023601024405810352,0.6054544970002121,0.004766496053136057,-0.01116409112000838,0.09352967608720064,1.131562702357769,-0.017739862234267677,1.099033746868372,1.6665417701005936,16.695798933506012,0.0,0.0,0.0,0.0,0.0,0.0,0.0,0.0,0.0,0.0,0.0,0.0,0.0,0.0,0.0,0.0,False,0,3.718096971511841,0.064842529296875
STABILIZE,0.3028380870819092,29.91038943442512,0.032401355107625325,0.03251457214355469,-10.0,40.0,10.0,-0.0944881966477217,-1.0381632473542564,162.4475936345608,3.999612022904584,1.7409477290509532,0.0025971856887079055,0.5189856799050343,-0.018203714718672732,0.027403815192195178,0.6203583626105204,0.01277186175888013,-0.05385250551626086,0.11016158387064934,1.2109524570405483,0.218903987721765,0.9674971923232079,1.7482465133070946,18.56265664100647,0.0,0.0,0.0,0.0,0.0,0.0,0.0,0.0,0.0,0.0,0.0,0.0,0.0,0.0,0.0,0.0,False,0,3.7757184505462646,0.034922119140625
STABILIZE,0.3363363742828369,29.852485035693697,0.03241399129231771,0.03254532814025879,-10.0,40.0,10.0,-0.09444742895611319,-1.0375773451895163,162.44979295547355,3.9996671120297242,1.747562827810228,0.0022334106394962844,0.519019166255445,-0.01845480440199469,0.02659870708962614,0.6161674916646539,0.010916480377663195,-0.04554461920633912,0.0006264817784540355,1.0659903287887573,-0.08512882311260761,-7.183524966239929,1.6716357320547104,19.61280107498169,0.0,0.0,0.0,0.0,0.0,0.0,0.0,0.0,0.0,0.0,0.0,0.0,0.0,0.0,0.0,0.0,False,0,3.8049638271331787,0.0299326171875
STABILIZE,0.3697209358215332,29.95417928355139,0.03236082394917806,0.03248929977416992,-10.0,40.0,10.0,-0.09414337881634184,-1.0374833233667227,162.45488827659437,3.999709750474906,1.7513476903053493,0.0019559440611793843,0.5190531942793146,-0.01981180052607715,0.028336153425316774,0.6117129960267469,0.009497383824913282,-0.11201105080544949,0.14762241626158357,1.1872829869389534,-0.05734434728072299,0.8674068376421928,-0.396067276597023,15.378870069980621,0.0,0.0,0.0,0.0,0.0,0.0,0.0,0.0,0.0,0.0,0.0,0.0,0.0,0.0,0.0,0.0,False,0,3.833651065826416,0.03492138671875
STABILIZE,0.403289794921875,29.790360384675484,0.032422574361165364,0.032546043395996094,-10.0,40.0,10.0,-0.09399215415924954,-1.0376855609991786,162.45785257869417,3.999530743662869,1.7550078530035125,0.003131620232557489,0.5190887231331326,-0.022132939288935848,0.027696006828168668,0.6065199596609686,0.015324492369087827,-0.1578550203703344,0.008661066385684535,0.9625325910747051,0.3297584115183215,-0.9416163899004459,1.4693530276417732,16.76715761423111,0.0,0.0,0.0,0.0,0.0,0.0,0.0,0.0,0.0,0.0,0.0,0.0,0.0,0.0,0.0,0.0,False,0,3.862266778945923,0.0349208984375
STABILIZE,0.43682146072387695,29.82425302558414,0.032285245259602864,0.03263664245605469,-10.0,40.0,10.0,-0.09326655328164146,-1.0383713546805302,162.46318012624678,3.999511252954593,1.761467061545755,0.003257946674573232,0.5191215256487339,-0.01977987049705359,0.027792969205921187,0.6027617090613918,0.015902636219603652,0.09565104264765978,0.04970584996044636,1.0286220349371433,0.04582303211031474,1.035817340016365,-0.56261345744133,13.970896601676941,0.0,0.0,0.0,0.0,0.0,0.0,0.0,0.0,0.0,0.0,0.0,0.0,0.0,0.0,0.0,0.0,False,0,3.8909783363342285,0.029932861328125
STABILIZE,0.4703195095062256,29.85036046999879,0.032424004872639973,0.03257346153259277,-10.0,40.0,10.0,-0.09387049141465868,-1.0382702892251552,162.46648593780506,3.999468419882618,1.7659226821530472,0.003539599071627711,0.5191452886684349,-0.021929039176938996,0.026500423243773955,0.6034658928489238,0.017253126222553053,-0.15994521090760827,-0.01613321073818952,1.4178229495882988,0.09975816784006256,1.7361795529723167,-0.5150302313268185,17.036373913288116,0.0,0.0,0.0,0.0,0.0,0.0,0.0,0.0,0.0,0.0,0.0,0.0,0.0,0.0,0.0,0.0,False,0,3.9196572303771973,0.034922119140625
STABILIZE,0.503861665725708,29.815136802746718,0.032396825154622395,0.03254246711730957,-10.0,40.0,10.0,-0.0940797726796961,-1.0387792450400268,162.46891748514957,3.9995360881138273,1.77202678618723,0.0030998734404033097,0.51917404630162,-0.02017954806512051,0.027750710565174818,0.601660041252647,0.01500431666496821,-0.0029093838747940026,0.07613133639097214,1.3282998465001583,-0.021878988554301808,4.914942756295204,-0.4036966245621443,18.58365386724472,0.0,0.0,0.0,0.0,0.0,0.0,0.0,0.0,0.0,0.0,0.0,0.0,0.0,0.0,0.0,0.0,False,0,3.978280782699585,0.034921142578125
STABILIZE,0.5395200252532959,28.041102575930793,0.03230431874593099,0.03473782539367676,-10.0,40.0,10.0,-0.09408745664251236,-1.0388296176851557,162.47468216480908,3.999534515902972,1.778030461427952,0.003110607152636194,0.5192009396494042,-0.02017954806512051,0.027750710565174818,0.601660041252647,0.01500431666496821,-0.0029093838747940026,0.07613133639097214,1.3282998465001583,-0.021878988554301808,4.914942756295204,-0.4036966245621443,18.58365386724472,0.0,0.0,0.0,0.0,0.0,0.0,0.0,0.0,0.0,0.0,0.0,0.0,0.0,0.0,0.0,0.0,False,0,3.978280782699585,0.034921142578125
STABILIZE,0.5729701519012451,29.89631847179158,0.03242448170979818,0.03254437446594238,-10.0,40.0,10.0,-0.09418115830018847,-1.0397027079601537,162.47801529712405,3.9996090996293607,1.7853527742189317,0.002627715824092972,0.5192449754544296,-0.018055565680662137,0.027717094167478376,0.5922244069700471,0.012547905070795826,-0.09395802044309676,0.10621018009260297,0.893379095941782,-0.07035988639399053,0.574048375710845,-0.710277259349823,10.918307304382324,0.0,0.0,0.0,0.0,0.0,0.0,0.0,0.0,0.0,0.0,0.0,0.0,0.0,0.0,0.0,0.0,False,0,4.036057949066162,0.0349208984375
STABILIZE,0.6064212322235107,29.895466111661523,0.03240493138631185,0.032538652420043945,-10.0,40.0,10.0,-0.09462906929935322,-1.0390299343269076,162.48432639191714,3.99965822848597,1.7884530618740222,0.0023157617034934783,0.5192793624688906,-0.01909891852991347,0.028772499865430172,0.5876237194876189,0.010951504418964699,-0.09395802044309676,0.10621018009260297,0.893379095941782,-0.07035988639399053,0.574048375710845,-0.710277259349823,10.918307304382324,0.0,0.0,0.0,0.0,0.0,0.0,0.0,0.0,0.0,0.0,0.0,0.0,0.0,0.0,0.0,0.0,False,0,4.072620391845703,0.0349208984375
STABILIZE,0.6398880481719971,29.879067646891208,0.03239944775899251,0.03254199028015137,-10.0,40.0,10.0,-0.09417091301643346,-1.0382234383963171,162.48696284493676,3.9997413892691815,1.795706011535194,0.0017815528282847785,0.519304071057514,-0.016933558002373377,0.02800302837569282,0.5878677529024184,0.008252843551512163,0.08969163172878325,0.0024351920728804544,1.16624990478158,-0.13284539176817617,6.181268393993378,-0.48018917441368103,17.225146293640137,0.0,0.0,0.0,0.0,0.0,0.0,0.0,0.0,0.0,0.0,0.0,0.0,0.0,0.0,0.0,0.0,False,0,4.101255178451538,0.034921875
STABILIZE,0.6732733249664307,29.952895808041134,0.032379897435506184,0.032486915588378906,-10.0,40.0,10.0,-0.09385245544638161,-1.0383468086882004,162.49036427914342,3.999732911005727,1.7998034042539433,0.001837475330386395,0.5193327461777123,-0.017067976655448996,0.027325707296814564,0.5861136311161458,0.008504037927236564,-0.042489482439123094,0.00871135707711801,1.0464826598763466,0.03632338289811085,4.602092131972313,-0.5494365468621254,15.172755718231201,0.0,0.0,0.0,0.0,0.0,0.0,0.0,0.0,0.0,0.0,0.0,0.0,0.0,0.0,0.0,0.0,False,0,4.129918336868286,0.0349208984375
STABILIZE,0.7069730758666992,29.67464961122942,0.032446893056233723,0.032839059829711914,-10.0,40.0,10.0,-0.09347818242420607,-1.0385797821719214,162.4924406566511,3.999790234411985,1.8054428712336992,0.0014727103024003987,0.5193529891876119,-0.015949857940694298,0.025068062761233377,0.5886799279027426,0.006657773715989543,0.02962463186122477,-0.08110058261081576,1.2896607629954815,-0.0846154650273724,-0.7384700700640678,-0.6075744517147541,15.540963411331177,0.0,0.0,0.0,0.0,0.0,0.0,0.0,0.0,0.0,0.0,0.0,0.0,0.0,0.0,0.0,0.0,False,0,4.158494234085083,0.02993310546875
STABILIZE,0.7407495975494385,29.606991091722783,0.03246453603108724,0.032663822174072266,-10.0,40.0,10.0,-0.09324851731336439,-1.038973585266255,162.49749499663693,3.999778625855582,1.8090410182957664,0.0015483302441950252,0.519389530726615,-0.016641334140847657,0.02664974860736649,0.5830773018242981,0.0070122901641747485,-0.07803954067640007,0.14781636418774724,0.9745433926582336,0.04120691812887038,-1.4757782220840454,1.4293128624558449,14.886097609996796,0.0,0.0,0.0,0.0,0.0,0.0,0.0,0.0,0.0,0.0,0.0,0.0,0.0,0.0,0.0,0.0,False,1,4.187217712402344,0.034904541015625
STABILIZE,0.7740747928619385,30.00689665040278,0.03219130833943685,0.03234362602233887,-10.0,40.0,10.0,-0.09411904626742368,-1.0392968453130669,162.50234443094763,3.9998156628269466,1.8144055531257475,0.0013140976424764193,0.5194195600200148,-0.016716142268376373,0.025441114216352406,0.5806356294701466,0.0058217001317598495,-0.18497912678867579,-0.017093091446440667,1.0271625593304634,-0.06936483988971075,-4.183561354875565,-0.5826261825859547,15.22909700870514,0.0,0.0,0.0,0.0,0.0,0.0,0.0,0.0,0.0,0.0,0.0,0.0,0.0,0.0,0.0,0.0,False,0,4.2445738315582275,0.034922119140625
STABILIZE,0.8074836730957031,29.930666362196185,0.03233364423116048,0.03246021270751953,-10.0,40.0,10.0,-0.09515627452591358,-1.0377968717383086,162.50383341218668,3.999863124032005,1.8165832571609921,0.0010161414000584676,0.5194471126654102,-0.01931892779104953,0.02433850464619719,0.5794593661178291,0.004317482239612062,-0.18497912678867579,-0.017093091446440667,1.0271625593304634,-0.06936483988971075,-4.183561354875565,-0.5826261825859547,15.22909700870514,0.0,0.0,0.0,0.0,0.0,0.0,0.0,0.0,0.0,0.0,0.0,0.0,0.0,0.0,0.0,0.0,False,0,4.273303031921387,0.034922119140625
STABILIZE,0.8408892154693604,29.935365992919948,0.032382996877034505,0.032508134841918945,-10.0,40.0,10.0,-0.09307157272517876,-1.0384323994962372,162.5107045824917,3.9998502148438546,1.8186070392992875,0.0010996926547017947,0.5194678881275415,-0.024058038928768812,0.025429560018136246,0.5816706230452008,0.004719455363006616,-0.30908586923033,0.11221322929486632,1.225891150534153,0.042280084921782195,-4.660206660628319,1.5149673447012901,19.04672384262085,0.0,0.0,0.0,0.0,0.0,0.0,0.0,0.0,0.0,0.0,0.0,0.0,0.0,0.0,0.0,0.0,False,0,4.302169322967529,0.0349208984375
STABILIZE,0.8743593692779541,29.878854798150694,0.03241732915242513,0.03255033493041992,-10.0,40.0,10.0,-0.0957844384861432,-1.0389532014204508,162.51160616746216,3.999836542671291,1.820018489786674,0.0011885019859612588,0.5194885953169763,-0.028824781684713852,0.02653450971565348,0.5839154379777834,0.005146288111183623,-0.30908586923033,0.11221322929486632,1.225891150534153,0.042280084921782195,-4.660206660628319,1.5149673447012901,19.04672384262085,0.0,0.0,0.0,0.0,0.0,0.0,0.0,0.0,0.0,0.0,0.0,0.0,0.0,0.0,0.0,0.0,False,0,4.330820083618164,0.0349208984375
STABILIZE,0.9080777168273926,29.65996054111008,0.03239563306172689,0.0325314998626709,-10.0,40.0,10.0,-0.09500611708587908,-1.040034185578311,162.51282194113443,3.9998190188987697,1.8256479622490565,0.0012991568927466152,0.5195154266199946,-0.02845074376735385,0.02869124131839473,0.5831452073979366,0.005680492525454695,-0.00786488817539066,0.17326411325484514,1.0481644421815872,0.0473528777575319,0.7307355292141438,5.319226905703545,13.540466129779816,0.0,0.0,0.0,0.0,0.0,0.0,0.0,0.0,0.0,0.0,0.0,0.0,0.0,0.0,0.0,0.0,False,0,4.362400770187378,0.06485400390625
STABILIZE,0.9423003196716309,29.217400996133886,0.032122166951497395,0.03334212303161621,-10.0,40.0,10.0,-0.09395800321339946,-1.0406720612137668,162.52350435699634,3.999798309481283,1.832604901027792,0.001428705582249646,0.5195186733305348,-0.025725061142485576,0.029091170186671733,0.5944622523344848,0.006306544176139791,0.18941853195428848,0.01322964089922607,0.8072859607636929,0.04692747503312713,7.2687216103076935,-0.5881994962692261,13.173934817314148,0.0,0.0,0.0,0.0,0.0,0.0,0.0,0.0,0.0,0.0,0.0,0.0,0.0,0.0,0.0,0.0,False,0,4.391160249710083,0.034921875
STABILIZE,0.9757356643676758,29.908256619057465,0.032451661427815755,0.03257870674133301,-10.0,40.0,10.0,-0.09314104855564248,-1.0395368624293695,162.52433764007506,4.0005308873091625,1.8342927883837383,-0.0031591978692978506,0.5195513064096107,-0.03029611633797976,0.02936673313935812,0.5907376865151944,-0.01657751082174309,-0.17591248033568263,0.06612504366785288,1.1655542068183422,-0.6158584673053331,-7.788962870836258,-0.4173210822045803,18.769706785678864,0.0,0.0,0.0,0.0,0.0,0.0,0.0,0.0,0.0,0.0,0.0,0.0,0.0,0.0,0.0,0.0,False,0,4.4488279819488525,0.02993212890625
STABILIZE,1.0092501640319824,29.836770407255912,0.03244212468465169,0.032566070556640625,-10.0,40.0,10.0,-0.09277125784510976,-1.0390128588539824,162.52715167801313,4.000439913613584,1.8422769209770247,-0.002588446235769773,0.519593085408149,-0.02950699610175759,0.030874842519408426,0.5824490079946402,-0.013677999247282571,-0.012675384641624987,0.1468815142288804,0.8524585515260696,0.16081563006918662,2.5139447301626205,1.3551809825003147,13.340556621551514,0.0,0.0,0.0,0.0,0.0,0.0,0.0,0.0,0.0,0.0,0.0,0.0,0.0,0.0,0.0,0.0,False,0,4.477520227432251,0.034921875
STABILIZE,1.042811632156372,29.797556123898836,0.03237322171529134,0.03250265121459961,-10.0,40.0,10.0,-0.09368725024583194,-1.038999945527583,162.53612654658252,4.000491328447656,1.850449077088886,-0.002904763145465161,0.5196179155501625,-0.027969673808957853,0.030359613510761746,0.5826307425097288,-0.01520872528384462,0.04149852611590177,0.023084398708306253,1.150126289576292,-0.07299150358632223,10.639776289463043,3.608633577823639,19.93515193462372,0.0,0.0,0.0,0.0,0.0,0.0,0.0,0.0,0.0,0.0,0.0,0.0,0.0,0.0,0.0,0.0,False,0,4.506179094314575,0.034921142578125
STABILIZE,1.076136589050293,30.00711132732853,0.032273085912068684,0.03240060806274414,-10.0,40.0,10.0,-0.09466908993902126,-1.0390316418742,162.5397738675993,4.000540003103749,1.856188257055463,-0.0032068241235822274,0.5196425411917043,-0.026404505087964228,0.029830173044715014,0.582918025127368,-0.01666329125414766,0.04149852611590177,0.023084398708306253,1.150126289576292,-0.07299150358632223,10.639776289463043,3.608633577823639,19.93515193462372,0.0,0.0,0.0,0.0,0.0,0.0,0.0,0.0,0.0,0.0,0.0,0.0,0.0,0.0,0.0,0.0,False,0,4.534929990768433,0.034921142578125
STABILIZE,1.1095020771026611,29.970446165718695,0.03240087827046712,0.03250527381896973,-10.0,40.0,10.0,-0.09445628685769306,-1.0389126471722536,162.5461532642841,4.000593589282169,1.85903323270732,-0.0035440349621880525,0.5196695363899254,-0.02759085599716785,0.03101890926904202,0.5820032510723323,-0.0182882608045483,-0.11413254542276263,0.12022912269458175,1.0777341201901436,-0.08669757215663541,-7.570861279964447,-2.5465717539191246,12.322469055652618,0.0,0.0,0.0,0.0,0.0,0.0,0.0,0.0,0.0,0.0,0.0,0.0,0.0,0.0,0.0,0.0,False,0,4.5636749267578125,0.06485400390625
STABILIZE,1.1430320739746094,29.825101329730497,0.03246048291524251,0.03258705139160156,-10.0,40.0,10.0,-0.09405351914007387,-1.038501341718172,162.54873507579035,4.000735110581417,1.8651787813514356,-0.004415906802510597,0.5196660922514489,-0.02874434876393632,0.03400003530011505,0.5963151211616211,-0.022572070401190303,-0.05832925089634955,0.15372330090031028,1.0242126882076263,-0.14020334645370464,-3.28633114695549,5.423368513584137,16.095343232154846,0.0,0.0,0.0,0.0,0.0,0.0,0.0,0.0,0.0,0.0,0.0,0.0,0.0,0.0,0.0,0.0,False,0,4.592400550842285,0.034921875
STABILIZE,1.1765503883361816,29.83464807767543,0.032372506459554036,0.03250527381896973,-10.0,40.0,10.0,-0.09531795791017247,-1.0392852126471368,162.5516857175118,4.000666268759644,1.8704889664700426,-0.00399534387236805,0.5197037056916006,-0.02792370761816782,0.0331602846055612,0.590100240730428,-0.020401006828293766,-0.010999367805197835,0.016806651547085494,0.8939383551478386,0.09880098086090874,-1.702202670276165,-0.4254573956131935,17.90735572576523,0.0,0.0,0.0,0.0,0.0,0.0,0.0,0.0,0.0,0.0,0.0,0.0,0.0,0.0,0.0,0.0,False,0,4.620940685272217,0.0349208984375
STABILIZE,1.2099113464355469,29.97644368210406,0.03230312665303548,0.03244185447692871,-10.0,40.0,10.0,-0.09473771199583873,-1.0408274480173845,162.55607069895896,4.000561005529996,1.8765490631494093,-0.0033512841361939293,0.5197395754636536,-0.02551116232172524,0.03053511180659977,0.5847563538830197,-0.01712346016717656,0.030939665157347918,-0.033417780650779605,1.2282602488994598,0.03611404827222054,-0.8249247446656227,-0.7661636453121901,9.42150428891182,0.0,0.0,0.0,0.0,0.0,0.0,0.0,0.0,0.0,0.0,0.0,0.0,0.0,0.0,0.0,0.0,False,0,4.682645797729492,0.02993310546875
STABILIZE,1.243351697921753,29.901007321437483,0.032390864690144856,0.03252053260803223,-10.0,40.0,10.0,-0.09551667372633753,-1.0413095099623992,162.5574913783063,4.000600729636787,1.8798600728461623,-0.0035994915737803646,0.5197838601130462,-0.026841806966560623,0.031806194912301605,0.5752259525953047,-0.01830326528240653,-0.13117205817252398,0.13763754395768046,0.8152012713253498,-0.09361676055916328,-0.39167734794318676,3.1287968158721924,8.629780262708664,0.0,0.0,0.0,0.0,0.0,0.0,0.0,0.0,0.0,0.0,0.0,0.0,0.0,0.0,0.0,0.0,False,0,4.711440563201904,0.034909912109375
STABILIZE,1.276738166809082,29.95268190614935,0.03240350087483724,0.03253793716430664,-10.0,40.0,10.0,-0.09639104466180495,-1.0406052534259476,162.56458111466478,4.0005679778896965,1.8866057291476757,-0.003399140912459332,0.5198168891733268,-0.02514478338449997,0.030830457028628275,0.5713218263211441,-0.017243854908025373,0.04000240296591073,0.006828048935858533,0.9497980587184429,0.03583297331467195,2.326657250523567,-2.4086760357022285,17.876872420310974,0.0,0.0,0.0,0.0,0.0,0.0,0.0,0.0,0.0,0.0,0.0,0.0,0.0,0.0,0.0,0.0,False,0,4.742019414901733,0.034922119140625
STABILIZE,1.3102936744689941,29.802214043115576,0.03248098691304525,0.03262591361999512,-10.0,40.0,10.0,-0.09693255059694002,-1.0405471968180025,162.56520949206842,4.000571400916243,1.895666940368561,-0.0034149029151706164,0.5198359100022952,-0.019743033972511956,0.02766841760774617,0.5744310507601257,-0.017264876233891245,0.24270815774798393,-0.1126812188886106,1.3229865580797195,-0.024286068280249297,2.0546570420265198,1.5423482283949852,19.034384191036224,0.0,0.0,0.0,0.0,0.0,0.0,0.0,0.0,0.0,0.0,0.0,0.0,0.0,0.0,0.0,0.0,False,0,4.768860340118408,0.029931884765625
STABILIZE,1.343735933303833,29.901220485913083,0.032369168599446614,0.032514333724975586,-10.0,40.0,10.0,-0.09660865021989332,-1.041045053575473,162.56739515260284,4.000747710887726,1.8978335972277303,-0.004489850924944339,0.51986292892745,-0.022951894782750185,0.029094823661194463,0.5735410702109817,-0.022564098202780117,-0.23155868984758854,0.1448417897336185,1.243528164923191,-0.3261039134668209,-5.262086912989616,1.5560186468064785,17.940662801265717,0.0,0.0,0.0,0.0,0.0,0.0,0.0,0.0,0.0,0.0,0.0,0.0,0.0,0.0,0.0,0.0,False,0,4.797550678253174,0.034922119140625
STABILIZE,1.3771748542785645,29.905271188495078,0.03236893018086751,0.03250741958618164,-10.0,40.0,10.0,-0.09591944144395673,-1.0399011036112016,162.574553190853,4.0006414590833295,1.903375181988877,-0.003850444653569767,0.5198908957841948,-0.020698323375783007,0.029684379798690763,0.5721729314138889,-0.01930249561175756,0.07579004159197211,0.09113806299865246,1.0468492284417152,0.1581955188107595,3.672529384493828,-2.2848084568977356,17.3517644405365,0.0,0.0,0.0,0.0,0.0,0.0,0.0,0.0,0.0,0.0,0.0,0.0,0.0,0.0,0.0,0.0,False,0,4.826086759567261,0.0349208984375
STABILIZE,1.4106528759002686,29.87140700225052,0.032422574361165364,0.03255462646484375,-10.0,40.0,10.0,-0.09567366135554205,-1.040105368956067,162.5763973419289,4.00042235773432,1.910400641874819,-0.0025312590342731287,0.5199304230583555,-0.019281951564877425,0.028311583229086126,0.5650317100825678,-0.012664211003966214,-0.10999178048223257,-0.07312288507819176,1.178948488086462,0.15859315054628795,-2.4670837447047234,-0.3266583429649472,19.25010085105896,0.0,0.0,0.0,0.0,0.0,0.0,0.0,0.0,0.0,0.0,0.0,0.0,0.0,0.0,0.0,0.0,False,0,4.883477687835693,0.0349208984375
STABILIZE,1.4449827671051025,29.12812250425362,0.032389195760091145,0.03348040580749512,-10.0,40.0,10.0,-0.09633981824302985,-1.0397350446370055,162.58497605952644,4.000414780617604,1.9137244815589678,-0.0024900524830143863,0.519951385100081,-0.02090354161648559,0.028273626141516153,0.567528056286783,-0.012415474656057397,-0.1390861696563661,0.054914929205551744,1.237053982913494,-0.013847501510900051,-1.1212952435016632,1.4409985393285751,13.771262764930725,0.0,0.0,0.0,0.0,0.0,0.0,0.0,0.0,0.0,0.0,0.0,0.0,0.0,0.0,0.0,0.0,False,0,4.912328481674194,0.034922119140625
STABILIZE,1.4784455299377441,29.883112349223765,0.03248170216878255,0.03260087966918945,-10.0,40.0,10.0,-0.09662359125870272,-1.0388427444549668,162.58526292747158,4.000407012761785,1.915097659881732,-0.0024499577613686214,0.5199715041631022,-0.022549532120591357,0.02824270731948864,0.5700844505921572,-0.012174282273302209,-0.1390861696563661,0.054914929205551744,1.237053982913494,-0.013847501510900051,-1.1212952435016632,1.4409985393285751,13.771262764930725,0.0,0.0,0.0,0.0,0.0,0.0,0.0,0.0,0.0,0.0,0.0,0.0,0.0,0.0,0.0,0.0,False,0,4.941427946090698,0.034922119140625
STABILIZE,1.5120608806610107,29.752956281788453,0.032460721333821614,0.03258514404296875,-10.0,40.0,10.0,-0.09572360711384777,-1.0392249148833703,162.58505802179647,4.0004412930498034,1.9235994868061561,-0.0026521163364582366,0.5199905705055884,-0.019425230177953577,0.02916311506323509,0.5731714360201863,-0.013141093586244329,0.1339758513495326,0.10882518254220486,1.2647968716919422,-0.08233228086420391,1.8999788910150528,3.725651279091835,23.539887368679047,0.0,0.0,0.0,0.0,0.0,0.0,0.0,0.0,0.0,0.0,0.0,0.0,0.0,0.0,0.0,0.0,False,0,4.970324277877808,0.029932861328125
STABILIZE,1.5453767776489258,30.011834996958964,0.03225711186726888,0.03239321708679199,-10.0,40.0,10.0,-0.09636671211288678,-1.037648315123861,162.5944153809594,4.000361845986902,1.9288033632579893,-0.002180416613166862,0.5200301717864376,-0.017715016663565508,0.028093081335646627,0.565985008317486,-0.01074667155827917,0.050970882875844836,0.001903799784486182,0.832170806825161,0.10888992398706465,-1.3672195374965668,-4.6318162232637405,7.015050947666168,0.0,0.0,0.0,0.0,0.0,0.0,0.0,0.0,0.0,0.0,0.0,0.0,0.0,0.0,0.0,0.0,False,0,4.998940706253052,0.034921142578125
STABILIZE,1.5789947509765625,29.746414944468874,0.03241995175679525,0.032708168029785156,-10.0,40.0,10.0,-0.09637802461369961,-1.0379171471007245,162.5959863244685,4.000283831573727,1.9343811566857096,-0.0017178757878599982,0.520063764449109,-0.016073353748648146,0.02717406764849112,0.5618711266517836,-0.008405729514320961,0.050970882875844836,0.001903799784486182,0.832170806825161,0.10888992398706465,-1.3672195374965668,-4.6318162232637405,7.015050947666168,0.0,0.0,0.0,0.0,0.0,0.0,0.0,0.0,0.0,0.0,0.0,0.0,0.0,0.0,0.0,0.0,False,0,5.028494358062744,0.034921142578125
STABILIZE,1.612541675567627,29.80941551057539,0.03240660031636556,0.03256726264953613,-10.0,40.0,10.0,-0.09608752813056251,-1.038830471458802,162.60019372099723,4.000357865853118,1.941545878390713,-0.0021555541331506785,0.5201024848322922,-0.013690092175368507,0.024428126546679217,0.5551642961407434,-0.010558757003344915,-0.008858404180500656,-0.11284603970125318,0.9917340241372585,-0.027567457243178047,2.360145188868046,-2.482941746711731,14.70862329006195,0.0,0.0,0.0,0.0,0.0,0.0,0.0,0.0,0.0,0.0,0.0,0.0,0.0,0.0,0.0,0.0,False,0,5.085192441940308,0.034921875
STABILIZE,1.645899772644043,29.97751491977272,0.032343180974324544,0.03247404098510742,-10.0,40.0,10.0,-0.09570076866881054,-1.0389885263050642,162.603117041962,4.0003234489278325,1.9493919442157952,-0.0019511741439670726,0.520123008462975,-0.010645889853753506,0.02466186097463298,0.5575340266959253,-0.00950506882713837,0.13740368885919452,0.06830874481238425,1.1921375058591366,0.037738289268201386,1.5980977565050125,3.517024591565132,17.706185579299927,0.0,0.0,0.0,0.0,0.0,0.0,0.0,0.0,0.0,0.0,0.0,0.0,0.0,0.0,0.0,0.0,False,0,5.113836765289307,0.0349208984375
STABILIZE,1.6799018383026123,29.411215280942997,0.03243687947591146,0.033067941665649414,-10.0,40.0,10.0,-0.09595455288515882,-1.0394471094748072,162.6057808157383,4.000220789976594,1.9544796820430757,-0.0013489011325152403,0.5201551520950185,-0.008647219825015462,0.0222108666123471,0.5542887100328894,-0.006471733564600899,0.07666483288630843,-0.08988782647065818,0.8616769686341286,0.15357108053626417,2.458774857223034,-2.3672912269830704,18.023328483104706,0.0,0.0,0.0,0.0,0.0,0.0,0.0,0.0,0.0,0.0,0.0,0.0,0.0,0.0,0.0,0.0,False,0,5.142601251602173,0.02993310546875
STABILIZE,1.7133135795593262,29.927676456317606,0.032373936971028645,0.032523155212402344,-10.0,40.0,10.0,-0.09551998209921676,-1.0388216135572221,162.61236511809818,4.000119512795766,1.9601076080152209,-0.0007555432877742316,0.5201920852508567,-0.0067617548039105475,0.019736940400239492,0.5484746305127208,-0.003493253533588854,0.07666483288630843,-0.08988782647065818,0.8616769686341286,0.15357108053626417,2.458774857223034,-2.3672912269830704,18.023328483104706,0.0,0.0,0.0,0.0,0.0,0.0,0.0,0.0,0.0,0.0,0.0,0.0,0.0,0.0,0.0,0.0,False,0,5.171228647232056,0.02993310546875
STABILIZE,1.7467870712280273,29.874598460081057,0.032441171010335286,0.032614707946777344,-10.0,40.0,10.0,-0.09551998209921676,-1.0388216135572221,162.61236511809818,4.000052386067047,1.9659889517155629,-0.00036324922848321656,0.5202201047647438,-0.004437641732491936,0.018629667089076887,0.547125398473057,-0.0015266714424069256,0.10650770273059607,-0.01200669867102988,1.1086627840995789,0.09716260924407177,5.145080387592316,1.5544346533715725,16.98855757713318,0.0,0.0,0.0,0.0,0.0,0.0,0.0,0.0,0.0,0.0,0.0,0.0,0.0,0.0,0.0,0.0,False,0,5.199874401092529,0.034891845703125
STABILIZE,1.7804632186889648,29.693767167898507,0.03246668179829915,0.032742977142333984,-10.0,40.0,10.0,-0.09463771375752152,-1.0381135150393623,162.61740579770566,4.000052600947262,1.970140019052734,-0.00036488374324199994,0.5202398812380021,-0.004048574106110496,0.022580983229746613,0.5499391598380391,-0.001529703759852771,-0.013105652760714293,0.287680234760046,1.1888496577739716,-0.024022692450593904,-1.3008525595068932,1.496781688183546,15.158495306968689,0.0,0.0,0.0,0.0,0.0,0.0,0.0,0.0,0.0,0.0,0.0,0.0,0.0,0.0,0.0,0.0,False,0,5.2286787033081055,0.034921875
STABILIZE,1.8139166831970215,29.893761537200568,0.03238037427266439,0.032540321350097656,-10.0,40.0,10.0,-0.09410837409684553,-1.0378993245758588,162.62587523227648,3.999986783640459,1.9741566809184667,1.8029867005691348e-05,0.520280211958092,-0.0035569199288263634,0.018861059812855942,0.5424413197817606,0.00038357986751814195,-0.027964886976405978,-0.04359367594588548,0.9070171974599361,0.10386507921269057,-0.872866902500391,-0.639288267120719,10.98223626613617,0.0,0.0,0.0,0.0,0.0,0.0,0.0,0.0,0.0,0.0,0.0,0.0,0.0,0.0,0.0,0.0,False,0,5.286609411239624,0.0349208984375
STABILIZE,1.8474500179290771,29.820436254017007,0.03240683873494466,0.03255271911621094,-10.0,40.0,10.0,-0.09414487292022279,-1.0377183245628536,162.6273505531372,3.9999161263491274,1.9783800955648367,0.0004287733356932255,0.5203089183215682,-0.0035523959248062015,0.017340745832995545,0.540754579479419,0.002429165251684643,-0.027964886976405978,-0.04359367594588548,0.9070171974599361,0.10386507921269057,-0.872866902500391,-0.639288267120719,10.98223626613617,0.0,0.0,0.0,0.0,0.0,0.0,0.0,0.0,0.0,0.0,0.0,0.0,0.0,0.0,0.0,0.0,False,0,5.315564155578613,0.0349208984375
STABILIZE,1.8808281421661377,29.960170290579732,0.0323369820912679,0.03252124786376953,-10.0,40.0,10.0,-0.09606095442582292,-1.03655495124813,162.63525991219606,3.9998878735740884,1.9822663238290983,0.0005933313171477955,0.5203387132876268,-0.003996074705185326,0.01774669063255683,0.5385240883791722,0.003241107200580154,-0.05206348141655326,0.07105290424078703,0.8769867941737175,0.031076907156308446,0.6219983566552401,-0.4631378687918186,14.72606211900711,0.0,0.0,0.0,0.0,0.0,0.0,0.0,0.0,0.0,0.0,0.0,0.0,0.0,0.0,0.0,0.0,False,0,5.3440656661987305,0.024944091796875
STABILIZE,1.914344310760498,29.83698265682132,0.032468589146931966,0.0325932502746582,-10.0,40.0,10.0,-0.09693468503105565,-1.0356806870343682,162.63560142165457,3.999930241823478,1.9868629988306856,0.000348798244398922,0.5203765310333788,-0.002801267515252911,0.019442980747381173,0.5322897413349177,0.0020117090951812244,0.05614624242298305,0.1524357940070331,0.9329083375632763,-0.0771482673357634,0.30280519276857376,3.7117380648851395,22.553665935993195,0.0,0.0,0.0,0.0,0.0,0.0,0.0,0.0,0.0,0.0,0.0,0.0,0.0,0.0,0.0,0.0,False,0,5.380250930786133,0.034921875
STABILIZE,1.947805643081665,29.9054844137695,0.03238657315572103,0.0325474739074707,-10.0,40.0,10.0,-0.09118270525455288,-1.0377868398979653,162.63814225202583,3.999966304657948,1.9924662361457823,0.00014089834375123684,0.5204034867013353,-0.0015019300687856359,0.021254699872551398,0.5314869660796019,0.0009689668147418217,0.05614624242298305,0.1524357940070331,0.9329083375632763,-0.0771482673357634,0.30280519276857376,3.7117380648851395,22.553665935993195,0.0,0.0,0.0,0.0,0.0,0.0,0.0,0.0,0.0,0.0,0.0,0.0,0.0,0.0,0.0,0.0,False,0,5.4067769050598145,0.034921875
STABILIZE,1.9816961288452148,29.485441124780316,0.03240850766499837,0.033025264739990234,-10.0,40.0,10.0,-0.09497346024390996,-1.0403096343009328,162.64719908286526,3.9993897258400937,1.9925639040360872,0.0034697557243838543,0.5204267920640541,-0.010708718439034714,0.01631326350492561,0.5326799245568203,0.017553709773117637,-0.578706432133913,-0.2587277442216873,1.056202221661806,0.9928996904462877,-16.932086646556854,-11.91238984465599,23.209676146507263,0.0,0.0,0.0,0.0,0.0,0.0,0.0,0.0,0.0,0.0,0.0,0.0,0.0,0.0,0.0,0.0,False,0,5.435618162155151,0.044899169921875
STABILIZE,2.0171525478363037,28.204206788961212,0.032456429799397786,0.03455972671508789,-10.0,40.0,10.0,-0.09637855822222852,-1.0370652944451768,162.658919687481,3.998566487885481,2.0057868318193623,0.008183625106020057,0.5204250744255404,-0.0006124134119524661,0.012412334744435833,0.5469393904750824,0.04097783137757838,0.5873532500118017,-0.1877188915386796,1.5340868383646011,1.318980391942101,5.267108604311943,9.361155331134796,15.79100787639618,0.0,0.0,0.0,0.0,0.0,0.0,0.0,0.0,0.0,0.0,0.0,0.0,0.0,0.0,0.0,0.0,False,0,5.464215517044067,0.024944091796875
STABILIZE,2.0505733489990234,29.920844628334997,0.03242448170979818,0.03255867958068848,-10.0,40.0,10.0,-0.09175291932854317,-1.033832053646822,162.6712003676087,3.9988921909597583,2.004340062217568,0.006346281785592497,0.5204306691579567,-0.009898895083926912,0.016581357901175653,0.5567741364095594,0.03168515246843351,-0.568829383701086,0.29018200002610683,1.9169757142663002,-0.50277246596046,-2.7963586151599884,-5.4185353219509125,43.181994557380676,0.0,0.0,0.0,0.0,0.0,0.0,0.0,0.0,0.0,0.0,0.0,0.0,0.0,0.0,0.0,0.0,False,0,5.494610548019409,0.029931640625
STABILIZE,2.084181785583496,29.755700279515885,0.03246167500813802,0.032691001892089844,-10.0,40.0,10.0,-0.1005437996771727,-1.0295079035719692,162.68617214226936,3.999204768706059,2.003377422909846,0.004574979700986055,0.5204378329078614,-0.017305768789106352,0.024998554766484285,0.5658525365380733,0.0227523101599643,0.08174839313142002,0.30648140236735344,0.9129926562309265,-0.0078706190796761,0.03209433634765446,8.041426539421082,32.800284028053284,0.0,0.0,0.0,0.0,0.0,0.0,0.0,0.0,0.0,0.0,0.0,0.0,0.0,0.0,0.0,0.0,False,0,5.552180051803589,0.034922119140625
STABILIZE,2.11838436126709,29.24123314602825,0.03239944775899251,0.03315377235412598,-10.0,40.0,10.0,-0.09402993364309617,-1.0367916599915532,162.6414070824491,3.9999986484070114,1.9948359493251901,3.230822333001843e-05,0.5204608306448901,-0.035165240347742925,0.036968619840921896,0.5672049085744516,3.882054888927275e-05,-1.0967708192765713,0.7598130498081446,1.028530951589346,-1.3789144481353168,-14.491361379623413,-7.351019978523254,37.647101283073425,0.0,0.0,0.0,0.0,0.0,0.0,0.0,0.0,0.0,0.0,0.0,0.0,0.0,0.0,0.0,0.0,False,0,5.580650568008423,0.06485400390625
STABILIZE,2.15168833732605,30.021931457038967,0.03223279317220052,0.03238964080810547,-10.0,40.0,10.0,-0.10256756338390632,-1.0339879740589688,162.6947508598669,4.000885354182411,1.9880940564977971,-0.005093340618944682,0.5204485685468412,-0.057238397776352506,0.05212271426120972,0.5859487048889953,-0.02550399936194801,-1.0967708192765713,0.7598130498081446,1.028530951589346,-1.3789144481353168,-14.491361379623413,-7.351019978523254,37.647101283073425,0.0,0.0,0.0,0.0,0.0,0.0,0.0,0.0,0.0,0.0,0.0,0.0,0.0,0.0,0.0,0.0,False,0,5.610393524169922,0.06485400390625
STABILIZE,2.185187816619873,29.85206009836089,0.032445700963338216,0.032602548599243164,-10.0,40.0,10.0,-0.09400965651899769,-1.0267386887503522,162.688890557559,3.9995237837404427,1.9803052423212955,0.0027730064884144913,0.5204426376713104,-0.07414181371590249,0.017843227344748976,0.6014943205779439,0.013781618414842496,-0.6732239853590727,-1.8886364996433258,0.9907899424433708,2.1992707535423883,-8.441086113452911,-57.54120349884033,9.537465870380402,0.0,0.0,0.0,0.0,0.0,0.0,0.0,0.0,0.0,0.0,0.0,0.0,0.0,0.0,0.0,0.0,False,0,5.6452858448028564,0.034921142578125
STABILIZE,2.218658924102783,29.87630084978168,0.03241566022237142,0.03254055976867676,-10.0,40.0,10.0,-0.0883297138938974,-1.037128687138411,162.6390574973746,4.000600374333405,1.9931203325441358,-0.003445580649136464,0.5204621903944733,-0.06557465429536018,0.05382672759353145,0.6042878565614318,-0.017253611129616875,0.3806235268712044,1.932886615395546,1.3349417597055435,-1.6125775675189802,-9.010796248912811,33.08909237384796,29.16232943534851,0.0,0.0,0.0,0.0,0.0,0.0,0.0,0.0,0.0,0.0,0.0,0.0,0.0,0.0,0.0,0.0,False,0,5.6741249561309814,0.039910888671875
STABILIZE,2.2522175312042236,29.798191208962965,0.03238037427266439,0.03254580497741699,-10.0,40.0,10.0,-0.10058734213313153,-1.043175965874811,162.69245591630576,4.000007876697789,2.008273959390991,-3.995296852316721e-05,0.5204739660063775,-0.05718012168156838,0.04858160853059395,0.6109761327548181,-0.0002247202255300576,0.39144973270595074,-0.22459428291767836,1.3721693307161331,0.8793802388933832,-33.37840437889099,-61.42966151237488,19.345562160015106,0.0,0.0,0.0,0.0,0.0,0.0,0.0,0.0,0.0,0.0,0.0,0.0,0.0,0.0,0.0,0.0,False,0,5.7026591300964355,0.0299208984375
STABILIZE,2.2854857444763184,30.056999534200436,0.032305034001668294,0.032465457916259766,-10.0,40.0,10.0,-0.09032476946177581,-1.0310141737273686,162.61920896764656,3.9992482761833044,2.016842089964505,0.004291955054033555,0.5205181258987241,-0.06691574531863567,0.005208598358143003,0.6014706597686656,0.02136336374903097,-0.6142284721136093,-2.172040194272995,0.8567907847464085,1.1221215334576398,16.64223223924637,-15.138004720211029,-8.540651202201843,0.0,0.0,0.0,0.0,0.0,0.0,0.0,0.0,0.0,0.0,0.0,0.0,0.0,0.0,0.0,0.0,False,1,5.731114625930786,0.029932861328125
STABILIZE,2.319019079208374,29.822768609438214,0.03252700169881185,0.03266549110412598,-10.0,40.0,10.0,-0.10968056507423991,-1.0292382178214596,162.65040927177517,4.000476163539939,2.0160666279253077,-0.002695614461606095,0.5205416129766075,-0.08830326016773143,0.03178963308230669,0.6023088076131493,-0.01352920138404414,-2.5781175121665,-0.2479551127180457,2.1920833736658096,0.6534180510772034,-119.22831535339355,-35.06057560443878,49.68084096908569,0.0,0.0,0.0,0.0,0.0,0.0,0.0,0.0,0.0,0.0,0.0,0.0,0.0,0.0,0.0,0.0,False,0,5.788797855377197,0.029931640625
STABILIZE,2.3525660037994385,29.80899179850184,0.03244784673055013,0.03262019157409668,-10.0,40.0,10.0,-0.11182278987439094,-1.0346176321230793,162.6761590849461,4.001144403956006,2.013274563356648,-0.006521663306945854,0.5206162469893867,-0.11075790509845748,0.03329631996840646,0.5776391346044711,-0.032550217822108436,-1.3561297208070755,0.15695089241489768,-0.03496599674690515,-1.0548817361734493,36.33742332458496,17.862167954444885,-25.481465458869934,0.0,0.0,0.0,0.0,0.0,0.0,0.0,0.0,0.0,0.0,0.0,0.0,0.0,0.0,0.0,0.0,False,0,5.8174684047698975,0.03492236328125
STABILIZE,2.386014938354492,29.896957773786102,0.03238967259724935,0.03251910209655762,-10.0,40.0,10.0,-0.09997934857529461,-1.0364764040726748,162.68697810459142,4.00108349568661,2.0534796914101254,-0.006074986101107123,0.5206408302764518,-0.05044631869198839,0.020302361946556345,0.5779295586907486,-0.030215957144839527,3.2187707722187042,-0.6444588769227266,1.1435619555413723,0.12021325038292849,-24.40446764230728,-38.7327641248703,-2.5459105148911476,0.0,0.0,0.0,0.0,0.0,0.0,0.0,0.0,0.0,0.0,0.0,0.0,0.0,0.0,0.0,0.0,False,0,5.846036434173584,0.0349208984375
STABILIZE,2.419381618499756,29.968733030380978,0.03238490422566732,0.03250384330749512,-10.0,40.0,10.0,-0.10884023836291679,-1.028651995491602,162.6997642187177,4.001015539673056,2.0938761063641587,-0.005605533389865994,0.5206653120009339,0.010010407099531708,0.007340492815619399,0.5782850251907736,-0.02777585650416261,3.2187707722187042,-0.6444588769227266,1.1435619555413723,0.12021325038292849,-24.40446764230728,-38.7327641248703,-2.5459105148911476,0.0,0.0,0.0,0.0,0.0,0.0,0.0,0.0,0.0,0.0,0.0,0.0,0.0,0.0,0.0,0.0,False,0,5.874865770339966,0.0349208984375
STABILIZE,2.4625418186187744,23.170902019710965,0.0324590524037679,0.04214119911193848,-10.0,40.0,10.0,-0.11931294607295617,-1.0260707175938661,162.67826278321047,4.0021579578142426,2.0801404057902224,-0.011977438095327577,0.5206813020561021,-0.031713922159410025,0.04098327740817495,0.5864837527682379,-0.05938000646517187,-2.404743991792202,1.9190257415175438,1.5727745369076729,-1.76030079216631,-54.689157009124756,114.10222053527832,-5.0536807626485825,0.0,0.0,0.0,0.0,0.0,0.0,0.0,0.0,0.0,0.0,0.0,0.0,0.0,0.0,0.0,0.0,False,1,5.905755281448364,0.034922119140625
STABILIZE,2.496018886566162,29.870343334496535,0.03229215939839681,0.032442569732666016,-10.0,40.0,10.0,-0.12827970379271353,-1.0433506693071752,162.79104286678572,4.001777337191149,2.114311713322557,-0.00975891767199352,0.5207484050976607,-0.0036797655909007153,0.03737103808977579,0.5656004031927652,-0.04812585021260479,1.4905739575624466,-2.1415462717413902,0.6277136504650116,3.3564830241912036,60.36490797996521,-75.46273469924927,5.313939601182938,0.0,0.0,0.0,0.0,0.0,0.0,0.0,0.0,0.0,0.0,0.0,0.0,0.0,0.0,0.0,0.0,False,0,5.965130090713501,0.034922119140625
STABILIZE,2.5294408798217773,29.918496907790086,0.0322599728902181,0.0323941707611084,-10.0,40.0,10.0,-0.11694415109143114,-1.0617993304204971,162.73735757990943,4.006136325070418,2.138446396033327,-0.033038024802473004,0.520788837175,0.02177475521804092,0.1032486658106754,0.5580308237303214,-0.16397232948248514,1.3473930768668652,3.778240829706192,0.6743497680872679,-6.572624870845686,-6.620915234088898,183.45023393630981,24.915890395641327,0.0,0.0,0.0,0.0,0.0,0.0,0.0,0.0,0.0,0.0,0.0,0.0,0.0,0.0,0.0,0.0,False,0,5.993919610977173,0.0349208984375
STABILIZE,2.56315541267395,29.662477634528752,0.032323630650838216,0.03280138969421387,-10.0,40.0,10.0,-0.14521345029246766,-1.0543721400283428,162.71948980504067,4.006401104493466,2.1359316020782493,-0.03460446050671473,0.5208226988095822,0.05558554264953036,0.11648984414823751,0.5538170613852738,-0.17122821210834416,1.826615259051323,0.802916195243597,0.8612783625721931,-0.4397880366117461,31.680142879486084,-130.0098180770874,21.304763853549957,0.0,0.0,0.0,0.0,0.0,0.0,0.0,0.0,0.0,0.0,0.0,0.0,0.0,0.0,0.0,0.0,False,0,6.02252459526062,0.02993310546875
STABILIZE,2.6046271324157715,24.112124173613108,0.032395394643147786,0.04060006141662598,-10.0,40.0,10.0,-0.15080401348897599,-1.0446104123222195,162.77116701630098,4.004364118485854,2.134455333017243,-0.02384059934882383,0.5208634584368081,0.08689024803004913,0.03411265157150266,0.5491309525707669,-0.11692351099272646,1.7864381894469261,-4.580015316605568,0.9678826667368412,2.932036713033217,-21.095535159111023,-76.72070264816284,-3.920438513159752,0.0,0.0,0.0,0.0,0.0,0.0,0.0,0.0,0.0,0.0,0.0,0.0,0.0,0.0,0.0,0.0,False,1,6.051205635070801,0.034921875
STABILIZE,2.6381123065948486,29.866089420879113,0.032459529240926106,0.03259587287902832,-10.0,40.0,10.0,-0.13181229897578528,-1.0506231132259463,162.7302541831726,4.007900419703442,2.128910151354949,-0.042975348997100496,0.5209750655758592,0.056850385940988346,0.09713716603670176,0.506031266721491,-0.2118884392033105,-0.9177422150969505,1.8988387659192085,-0.15981695614755154,-2.813870171523765,-77.76139974594116,136.92541122436523,-46.417492628097534,0.0,0.0,0.0,0.0,0.0,0.0,0.0,0.0,0.0,0.0,0.0,0.0,0.0,0.0,0.0,0.0,False,0,6.10871696472168,0.0349208984375
STABILIZE,2.675248146057129,26.93006651770809,0.03241923650105794,0.03607439994812012,-10.0,40.0,10.0,-0.1278311524633141,-1.072955483934361,162.71917561633884,4.008148907707478,2.097219278288586,-0.045123377784723584,0.5209932309862664,0.01831597505413291,0.14405212053424687,0.5110041980854575,-0.2218071997587781,-2.2289082407951355,2.7751099318265915,1.3597152195870876,-0.6733053207844591,-47.09697961807251,27.278760075569153,-49.653494358062744,0.0,0.0,0.0,0.0,0.0,0.0,0.0,0.0,0.0,0.0,0.0,0.0,0.0,0.0,0.0,0.0,False,0,6.137982606887817,0.02993310546875
STABILIZE,2.7086329460144043,29.949473744341145,0.032241137822469075,0.0324864387512207,-10.0,40.0,10.0,-0.14906546354094327,-1.0738198230294849,162.7534221848373,4.0070748537956105,2.1370864224949244,-0.03870737309322448,0.5209719183288878,0.0872959444312998,0.07155439517191461,0.534344037796485,-0.1890937356580935,4.038077965378761,-4.0489379316568375,2.5354625657200813,1.6300147203049054,101.99285745620728,-152.92329788208008,-5.234760046005249,0.0,0.0,0.0,0.0,0.0,0.0,0.0,0.0,0.0,0.0,0.0,0.0,0.0,0.0,0.0,0.0,False,0,6.166499853134155,0.0349208984375
STABILIZE,2.7430660724639893,29.044616332777043,0.032442601521809895,0.03272080421447754,-10.0,40.0,10.0,-0.14113353284129573,-1.0663202753208108,162.68996972744787,4.0084395945613664,2.141180366700963,-0.04604147976905622,0.5210138749553498,0.11450307985451158,0.08440478670861795,0.5260974195701542,-0.22500831413778077,1.5704603865742683,0.861700251698494,0.5491476971656084,-2.2501825567288405,-54.41157817840576,93.08491349220276,-17.22123920917511,0.0,0.0,0.0,0.0,0.0,0.0,0.0,0.0,0.0,0.0,0.0,0.0,0.0,0.0,0.0,0.0,False,0,6.195244550704956,0.034922119140625
STABILIZE,2.775710105895996,30.630561154441622,0.03159693082173665,0.03174924850463867,-10.0,40.0,10.0,-0.14284737671444003,-1.0608416098328144,162.7442424105928,4.005541119078044,2.128756907430093,-0.03089478546105455,0.521047126105515,0.09789196636549755,0.07090651502773306,0.5221660693495653,-0.1487766790322168,-0.9669201448559761,-0.6727793253958225,0.8008736185729504,4.261275195335031,-57.03248977661133,-3.8381628692150116,29.815194010734558,0.0,0.0,0.0,0.0,0.0,0.0,0.0,0.0,0.0,0.0,0.0,0.0,0.0,0.0,0.0,0.0,False,0,6.223941802978516,0.02993310546875
STABILIZE,2.809159517288208,29.897383990305794,0.032398494084676106,0.032540082931518555,-10.0,40.0,10.0,-0.1521230404115818,-1.0584918113149184,162.76638588388198,4.005652195185332,2.1380088631966294,-0.031460172618265066,0.5211532094448464,0.08244795979144642,0.07540772313874063,0.48186008220020643,-0.15109817509909063,-1.0029873810708523,0.02958342374768108,0.33381206449121237,-2.524094059900685,5.063959211111069,-17.546260356903076,19.4568008184433,0.0,0.0,0.0,0.0,0.0,0.0,0.0,0.0,0.0,0.0,0.0,0.0,0.0,0.0,0.0,0.0,False,0,6.281921625137329,0.034921875
STABILIZE,2.8429858684539795,29.562126007005872,0.03243854840596517,0.03292202949523926,-10.0,40.0,10.0,-0.14952874246574055,-1.0626967532444134,162.75375003391747,4.00591182890569,2.1634980002599637,-0.03257986841353982,0.5211860580013552,0.08878787092606273,0.06089372060226547,0.4783115353582609,-0.15616870509108735,0.43498603627085686,-0.7294844835996628,0.8043909445405006,-0.5193411708655886,-0.9453311562538147,-21.11620157957077,21.387922763824463,0.0,0.0,0.0,0.0,0.0,0.0,0.0,0.0,0.0,0.0,0.0,0.0,0.0,0.0,0.0,0.0,False,0,6.309936761856079,0.02993212890625
STABILIZE,2.876533031463623,29.807085243222115,0.032421382268269856,0.0325620174407959,-10.0,40.0,10.0,-0.14583168913405958,-1.0698550049379982,162.79635675396,4.005990134110404,2.1387627623457677,-0.03346372773414671,0.5212217631327117,0.09405954726609263,0.04620181176552038,0.4732089534173021,-0.16005249433129146,0.43498603627085686,-0.7294844835996628,0.8043909445405006,-0.5193411708655886,-0.9453311562538147,-21.11620157957077,21.387922763824463,0.0,0.0,0.0,0.0,0.0,0.0,0.0,0.0,0.0,0.0,0.0,0.0,0.0,0.0,0.0,0.0,False,0,6.341708660125732,0.02993212890625
STABILIZE,2.9104654788970947,29.47425230492467,0.03233197530110677,0.03297090530395508,-10.0,40.0,10.0,-0.14781249735421617,-1.0792548393398167,162.81246234002288,4.005863895831437,2.129351090687181,-0.03303552049057831,0.5212539222736678,0.09128143681520696,0.06525757214608294,0.47007269460382267,-0.15737709391785681,-0.039483458385802805,1.2785064987838268,0.9001001715660095,-0.12969291262067148,3.680296242237091,76.10307335853577,-2.3916224017739296,0.0,0.0,0.0,0.0,0.0,0.0,0.0,0.0,0.0,0.0,0.0,0.0,0.0,0.0,0.0,0.0,False,0,6.370339870452881,0.034921875
STABILIZE,2.9440205097198486,29.80411997527162,0.03234747250874837,0.03248906135559082,-10.0,40.0,10.0,-0.1580785384810098,-1.067471589082781,162.79365199904868,4.007276114627723,2.139327803017059,-0.04054078070909968,0.521255213562666,0.09059342479392506,0.06782936683188713,0.48216450375153325,-0.19425348496488393,0.03938045701943338,0.272929179482162,1.6843931749463081,-2.4348369343835468,-20.043253898620605,-65.86159467697144,24.3206650018692,0.0,0.0,0.0,0.0,0.0,0.0,0.0,0.0,0.0,0.0,0.0,0.0,0.0,0.0,0.0,0.0,False,0,6.399129152297974,0.034921142578125
STABILIZE,2.9772918224334717,30.050108542238334,0.03223756154378255,0.03235888481140137,-10.0,40.0,10.0,-0.15176328154139254,-1.0541866577036947,162.75872241163322,4.006510174908716,2.158643966093049,-0.036268420113127205,0.5213086435745228,0.0988122788933518,0.0581470501597567,0.4681969172748237,-0.17231556360838668,0.582101009786129,-0.45910938642919064,0.11253769043833017,1.0899475004854717,56.682372093200684,31.262001395225525,-8.8649183511734,0.0,0.0,0.0,0.0,0.0,0.0,0.0,0.0,0.0,0.0,0.0,0.0,0.0,0.0,0.0,0.0,False,0,6.4277260303497314,0.034921875
STABILIZE,3.0107533931732178,29.884176926584587,0.03243068059285482,0.03263044357299805,-10.0,40.0,10.0,-0.14834439833583093,-1.0440889700677713,162.7793359225483,4.006299819824059,2.143173588929609,-0.035509857542883286,0.5213342046896774,0.07126529267074694,0.048305319734664745,0.4681921470784978,-0.16795994551979912,-2.2079069167375565,-0.32337468583136797,1.46283358335495,-1.9482252296078657,-38.08775246143341,47.22490310668945,15.156075358390808,0.0,0.0,0.0,0.0,0.0,0.0,0.0,0.0,0.0,0.0,0.0,0.0,0.0,0.0,0.0,0.0,False,0,6.4851133823394775,0.0349208984375
STABILIZE,3.0443503856658936,29.767526365842926,0.03248647054036458,0.03262472152709961,-10.0,40.0,10.0,-0.15059147721191224,-1.0406346018950374,162.77411765802245,4.002103358870113,2.167161675850051,-0.013066897830457799,0.5214746486257478,0.0922305943870415,0.06271610911701343,0.4108066040636876,-0.05555921325977041,1.3827969320118427,0.9861704893410206,-2.513880282640457,6.4706552691792725,72.93041348457336,61.06749176979065,-166.99318885803223,0.0,0.0,0.0,0.0,0.0,0.0,0.0,0.0,0.0,0.0,0.0,0.0,0.0,0.0,0.0,0.0,False,0,6.51373028755188,0.02993310546875
STABILIZE,3.0777554512023926,29.934084129091193,0.032334121068318684,0.03257155418395996,-10.0,40.0,10.0,-0.16428157754699785,-1.0684595119131999,162.82254369923783,4.0076212482252895,2.183839347497086,-0.04195221154567576,0.5214164522706365,0.12364148168690811,0.0791000356686129,0.4527138799197134,-0.19931724781787974,2.055772952735424,1.1209099553525448,3.5426735877990723,-8.962012445831498,-97.75587320327759,41.32942855358124,20.230896770954132,0.0,0.0,0.0,0.0,0.0,0.0,0.0,0.0,0.0,0.0,0.0,0.0,0.0,0.0,0.0,0.0,False,0,6.542446613311768,0.0349208984375
STABILIZE,3.1112887859344482,29.82064827125296,0.032503636678059895,0.03264355659484863,-10.0,40.0,10.0,-0.15550430421585545,-1.076452754232819,162.8170385667668,4.003656942127855,2.138156290048102,-0.021721864912522953,0.5214959625286576,0.033914599685788485,0.06996499618367939,0.42577732696916637,-0.09783803524746618,-5.2934374660253525,-0.44762841425836086,-0.7269022520631552,5.8849332506784755,-70.0950026512146,-1.987123303115368,68.18142533302307,0.0,0.0,0.0,0.0,0.0,0.0,0.0,0.0,0.0,0.0,0.0,0.0,0.0,0.0,0.0,0.0,False,0,6.571081638336182,0.034922119140625
STABILIZE,3.1447157859802246,29.91486933698505,0.032425912221272786,0.032544851303100586,-10.0,40.0,10.0,-0.1315595819764948,-1.0744697582176939,162.76552528004655,3.9998047173233795,2.087252449513206,-0.0010784617205365338,0.5215760763412083,-0.05731506726235864,0.060607322973295616,0.39856169979252243,0.005361055582696644,-5.2934374660253525,-0.44762841425836086,-0.7269022520631552,5.8849332506784755,-70.0950026512146,-1.987123303115368,68.18142533302307,0.0,0.0,0.0,0.0,0.0,0.0,0.0,0.0,0.0,0.0,0.0,0.0,0.0,0.0,0.0,0.0,False,0,6.599731922149658,0.034922119140625
STABILIZE,3.1781766414642334,29.886306308874037,0.032436402638753255,0.03256940841674805,-10.0,40.0,10.0,-0.12209720865508841,-1.1129002444695937,162.90682823359577,3.998089665002624,2.1577856002986904,0.008036664830739884,0.5216682089410726,0.018542313660444176,0.06882589540442305,0.3653850932881676,0.050766891809057496,4.727413132786751,0.6099965423345566,-1.0735913179814816,2.3711836267438477,63.14697265625,-8.575794845819473,-11.6039477288723,0.0,0.0,0.0,0.0,0.0,0.0,0.0,0.0,0.0,0.0,0.0,0.0,0.0,0.0,0.0,0.0,False,0,6.628615379333496,0.029932861328125
STABILIZE,3.211610794067383,29.90974955787552,0.03242066701253255,0.03254413604736328,-10.0,40.0,10.0,-0.11384516619894941,-1.1081933903578087,162.8544816637968,4.003208433904727,2.1025079530456776,-0.01963647374885506,0.5216918766842892,-0.0440632012460787,0.08802839445525752,0.3664336324546373,-0.08730692484433236,2.5238584727048874,2.2968998178839684,1.078861951828003,-9.645821957229202,209.42389965057373,-160.79026460647583,169.39423084259033,0.0,0.0,0.0,0.0,0.0,0.0,0.0,0.0,0.0,0.0,0.0,0.0,0.0,0.0,0.0,0.0,False,0,6.685928821563721,0.034921875
STABILIZE,3.245018243789673,29.934511404835995,0.03243830998738607,0.03256058692932129,-10.0,40.0,10.0,-0.14315468186623773,-1.0767016292507012,162.7878599986325,4.001588310408224,2.150724559354581,-0.010660149678967695,0.5217703417059949,0.04077774963446405,-0.005711578316048946,0.34012138980553497,-0.042283915675925036,5.1758237183094025,-5.49364797770977,-0.7214517798274755,2.531557108785982,55.13051748275757,-174.67020750045776,-50.08251667022705,0.0,0.0,0.0,0.0,0.0,0.0,0.0,0.0,0.0,0.0,0.0,0.0,0.0,0.0,0.0,0.0,False,0,6.714466094970703,0.0298974609375
STABILIZE,3.278517246246338,29.85036046999879,0.032444032033284505,0.03258156776428223,-10.0,40.0,10.0,-0.11073412175371439,-1.0658844238743994,162.81266724569798,3.999903078197215,2.2568043013408254,-0.0017095703963804435,0.5218494630329478,0.1256118986438102,-0.0987251520045685,0.3135271881759818,0.002460745756490877,5.1758237183094025,-5.49364797770977,-0.7214517798274755,2.531557108785982,55.13051748275757,-174.67020750045776,-50.08251667022705,0.0,0.0,0.0,0.0,0.0,0.0,0.0,0.0,0.0,0.0,0.0,0.0,0.0,0.0,0.0,0.0,False,0,6.743241310119629,0.0298974609375
STABILIZE,3.3120172023773193,29.851210259987045,0.03242519696553548,0.032570600509643555,-10.0,40.0,10.0,-0.12701174320632413,-1.0901381054519974,162.81494852888076,4.002141256638743,2.2918549908726553,-0.012934968070544738,0.5218244213256179,0.11053417700899337,-0.09378049389146681,0.3389785913535715,-0.05348727090536666,-0.8241498842835426,0.37146208342164755,2.400588057935238,-3.545962717051112,154.21922206878662,-31.427866220474243,144.81511116027832,0.0,0.0,0.0,0.0,0.0,0.0,0.0,0.0,0.0,0.0,0.0,0.0,0.0,0.0,0.0,0.0,False,0,6.772252082824707,0.02993212890625
STABILIZE,3.345592737197876,29.785706169753436,0.03238967259724935,0.03253459930419922,-10.0,40.0,10.0,-0.1082303238143758,-1.0915763938808138,162.72457146578316,4.004277505835044,2.2470087371262037,-0.02408769956347416,0.521799276586853,0.09548013217961215,-0.08857959439668799,0.36445118466293563,-0.10888648104712537,-0.8241498842835426,0.37146208342164755,2.400588057935238,-3.545962717051112,154.21922206878662,-31.427866220474243,144.81511116027832,0.0,0.0,0.0,0.0,0.0,0.0,0.0,0.0,0.0,0.0,0.0,0.0,0.0,0.0,0.0,0.0,False,0,6.80514931678772,0.02993212890625
STABILIZE,3.380636692047119,28.533456692699122,0.03225091298421224,0.03404593467712402,-10.0,40.0,10.0,-0.10012086155716082,-1.0511284405028216,162.77974573389852,4.006129684367401,2.3238145962517938,-0.032574491819885656,0.5219141010552252,0.16646296504146718,-0.1135397034483146,0.3206308091346917,-0.1507910867746291,4.491909593343735,-1.507847011089325,-1.880914531648159,-2.748623508816749,255.07290363311768,-113.88041973114014,-53.844285011291504,0.0,0.0,0.0,0.0,0.0,0.0,0.0,0.0,0.0,0.0,0.0,0.0,0.0,0.0,0.0,0.0,False,0,6.833694219589233,0.02993310546875
STABILIZE,3.414170026779175,29.823404769692402,0.032351287206014,0.03249549865722656,-10.0,40.0,10.0,-0.08638513769285361,-1.0271599193230716,162.7790900357382,4.001509712005093,2.2946693135995897,-0.009976399460317,0.5218605170631807,0.16406054050858546,-0.16076057534819102,0.3603290993827024,-0.03767452148629058,-0.023449398577213287,-2.9271574690937996,3.277282416820526,6.871030713041665,-200.30651092529297,-67.7921712398529,37.937840819358826,0.0,0.0,0.0,0.0,0.0,0.0,0.0,0.0,0.0,0.0,0.0,0.0,0.0,0.0,0.0,0.0,False,0,6.862522840499878,0.034921875
STABILIZE,3.447514295578003,29.988660331896213,0.03226593335469564,0.03241133689880371,-10.0,40.0,10.0,-0.08434504556513543,-1.0559355062963354,162.74616852393874,4.0009196807840315,2.190841206170873,-0.007266110742771795,0.5218565159470299,0.05722474861625619,-0.07183307246768411,0.3752071283437525,-0.024042658341247608,-6.578227877616882,5.6370560079813,1.626584306359291,0.6663122742914239,37.00491786003113,208.20868015289307,-52.80654430389404,0.0,0.0,0.0,0.0,0.0,0.0,0.0,0.0,0.0,0.0,0.0,0.0,0.0,0.0,0.0,0.0,False,0,6.89170241355896,0.0349208984375
STABILIZE,3.481663703918457,29.281653169505724,0.032385857899983723,0.03330802917480469,-10.0,40.0,10.0,-0.08698438007081645,-1.058626814272732,162.82798052981715,4.003370902516761,2.231150209637276,-0.01980625778526072,0.5218263101081112,0.10784082197330505,-0.08840833947722686,0.4034465347600985,-0.08644755370716548,3.2469168305397034,-0.9988709352910519,2.425452321767807,-4.003605882009476,162.61889934539795,-156.08892440795898,63.60265612602234,0.0,0.0,0.0,0.0,0.0,0.0,0.0,0.0,0.0,0.0,0.0,0.0,0.0,0.0,0.0,0.0,False,1,6.925321102142334,0.034922119140625
STABILIZE,3.515178918838501,29.83698265682132,0.032492669423421223,0.03262901306152344,-10.0,40.0,10.0,-0.07928387539015598,-1.0195398828085704,162.7668366763672,4.003340359120619,2.22391225718506,-0.019762949522078528,0.5217381728331504,0.07770597395339929,-0.08992512733694268,0.4602866352735736,-0.0859433668168339,-2.696538530290127,4.139043018221855,2.434355206787586,-2.3055741102371745,-143.743097782135,132.5194239616394,90.91284275054932,0.0,0.0,0.0,0.0,0.0,0.0,0.0,0.0,0.0,0.0,0.0,0.0,0.0,0.0,0.0,0.0,False,0,6.986421585083008,0.02993310546875
STABILIZE,3.548654317855835,29.873960113960113,0.032425912221272786,0.032582998275756836,-10.0,40.0,10.0,-0.07695766236923773,-1.0497942057371419,162.74705644853086,4.001477526959537,2.174060829705326,-0.010383290673663791,0.5216983835061344,0.03785490228939446,-0.11068374513167045,0.49290990282797736,-0.038914819436554726,-2.2660788148641586,-1.374002918601036,2.8315531089901924,2.724263639141898,32.81950652599335,-116.52088165283203,74.39877390861511,0.0,0.0,0.0,0.0,0.0,0.0,0.0,0.0,0.0,0.0,0.0,0.0,0.0,0.0,0.0,0.0,False,0,7.021306276321411,0.0349208984375
