E-kp,E-ki,E-kd,E-I-Tot,E-P,E-I,E-D,E-PID,N-kp,N-ki,N-kd,N-I-Tot,N-P,N-I,N-D,N-PID,D-kp,D-ki,D-kd,D-I-Tot,D-P,D-I,D-D,D-PID,Y-kp,Y-ki,Y-kd,Y-I-Tot,Y-P,Y-I,Y-D,Y-PID,errorN,desiredN,actualN,errorE,desiredE,actualE,errorD,desiredD,actualD,errorY,desiredY,actualY,roll,pitch,yaw-rate,thrust,dt,Time,Mode
0.16,0.015,0.11,1.3246883346895026,6.398325125598411,0.019870325020342538,13.75,20.168195450618754,0.17,0.015,0.08,-0.33038591080517,-1.6955205198628223,-0.00495578866207755,-10.0,-11.7004763085249,0.002,8e-05,0,0.30835360702985776,0.01861708316366432,2.4668288562388623e-05,0.0,0.01864175145222671,0.2,0.02,0.0,-4.615337929720675e-05,-0.00027865453202791346,-9.23067585944135e-07,-0.0,-0.00027957759961385757,-9.97365011684013,-10,-0.026349883159869816,39.98953203499006,40,0.01046796500993857,9.308541581832161,10,0.6914584181678394,-0.0013932726601395672,0,0.0013932726601395672,3.999902730036168,4.0000972675985285,0.00027957759961385757,0.5186417514522267,0.033125877380371094,0.033408164978027344,STABILIZE
0.16,0.015,0.11,2.662811076224103,6.398875355533655,0.039942166143361546,6.880652943406208,13.319470465083224,0.17,0.015,0.08,-0.6639408493292788,-1.6947436398679039,-0.009959112739939182,-4.994536729242583,-6.699239481850426,0.002,8e-05,0,0.6201250919182663,0.018636060143132478,4.9610007353461306e-05,0.0,0.018685670150485938,0.2,0.02,0.0,-9.818173975318108e-05,-0.0003109981834782487,-1.9636347950636217e-06,-0.0,-0.00031296181827331234,-9.969080234517081,-10,-0.03091976548291858,39.992970972085345,40,0.007029027914655207,9.31803007156624,10,0.6819699284337613,-0.0015549909173912433,0,0.0015549909173912433,3.9998914396814973,4.000108557372247,0.00031296181827331234,0.518685670150486,0.03345894813537598,0.06681346893310547,STABILIZE
0.16,0.015,0.11,3.9998908064372722,6.399405329779218,0.05999836209655908,4.590734988589522,11.050138680465299,0.17,0.015,0.08,-0.9970510053662756,-1.6939443015356448,-0.014955765080494133,-3.32594044891236,-5.034840515528499,0.002,8e-05,0,0.9318181277077832,0.01864744889005697,7.454545021662266e-05,0.0,0.018721994340273593,0.2,0.02,0.0,-0.00015855106477570376,-0.00036116748647695976,-3.1710212955140754e-06,-0.0,-0.00036433850777247383,-9.964378244327321,-10,-0.03562175567267941,39.99628331112011,40,0.00371668887989239,9.323724445028484,10,0.6762755549715167,-0.0018058374323847988,0,0.0018058374323847988,3.999873926777473,4.000126069249038,0.00036433850777247383,0.5187219943402736,0.03343009948730469,0.10025644302368164,STABILIZE
0.16,0.015,0.11,5.344219438703376,6.399277009629233,0.08016329158055063,3.4423950764612328,9.921835377671016,0.17,0.015,0.08,-1.3320411899446123,-1.6942850643954177,-0.019980617849169182,-2.4956480575240425,-4.20991373976863,0.002,8e-05,0,1.2453543972142977,0.018656203113034595,9.962835177714383e-05,0.0,0.01875583146481174,0.2,0.02,0.0,-0.00026816241009928777,-0.0006522153003441502,-5.363248201985755e-06,-0.0,-0.000657578548546136,-9.96638273173775,-10,-0.03361726826224891,39.995481310182704,40,0.004518689817294088,9.328101556517298,10,0.6718984434827023,-0.003261076501720751,0,0.003261076501720751,3.999772327432684,4.000227659609354,0.000657578548546136,0.5187558314648117,0.03361201286315918,0.1338648796081543,STABILIZE
0.16,0.015,0.11,6.682369733154999,6.398779133966595,0.10023554599732498,2.751870107292356,9.250884787256277,0.17,0.015,0.08,-1.6655861610383915,-1.6946326195618482,-0.024983792415575874,-1.9974960592110613,-3.7171124711884853,0.002,8e-05,0,1.5576676921473276,0.0186677815934045,0.0001246134153717862,0.0,0.018792395008776285,0.2,0.02,0.0,-0.00044839827279526123,-0.0010773168400752054,-8.967965455905225e-06,-0.0,-0.0010862848055311106,-9.968427173893224,-10,-0.03157282610677565,39.99236958729122,40,0.0076304127087767695,9.33389079670225,10,0.66610920329775,-0.005386584200376027,0,0.005386584200376027,3.9996505230878494,3.7174885092798955,0.0010862848055311106,0.5187923950087763,0.033460140228271484,0.16739821434020996,STABILIZE
0.16,0.015,0.11,8.020310634457426,6.399054548052363,0.12030465951686138,0.003002110729069244,6.522361318298294,0.17,0.015,0.08,-1.9991466858592715,-1.6950498267793221,-0.029987200287889072,0.0013301741186687649,-1.7237068529485424,0.002,8e-05,0,1.870080967054952,0.018677484051458144,0.00014960647736439618,0.0,0.01882709052882254,0.2,0.02,0.0,-0.0006315451261858853,-0.0010949350453464486,-1.2630902523717705e-05,-0.0,-0.0011075659478701663,-9.970881333996012,-10,-0.029118666003987582,39.99409092532727,40,0.005909074672732308,9.338742025729072,10,0.6612579742709275,-0.005474675226732243,0,0.005474675226732243,3.9998352796402386,1.724089049511962,0.0011075659478701663,0.5188270905288226,0.03345346450805664,0.20081162452697754,STABILIZE
0.16,0.015,0.11,9.357048873563382,6.398957464281415,0.14035573310345073,0.0003415479488432255,6.539654745333709,0.17,0.015,0.08,-2.3323920983606725,-1.6949464036533775,-0.03498588147541009,-0.0005639072152906734,-1.7304961923440783,0.002,8e-05,0,2.181712301239622,0.018647215229275944,0.00017453698409916976,0.0,0.018821752213375113,0.2,0.02,0.0,-0.0010462219686970247,-0.0024813192656421173,-2.0924439373940495e-05,-0.0,-0.0025022437050160576,-9.970272962666925,-10,-0.029727037333074822,39.99348415175884,40,0.006515848241156424,9.323607614637972,10,0.6763923853620285,-0.012406596328210586,0,0.012406596328210586,3.999625191581841,1.7313622955872856,0.0025022437050160576,0.5188217522133751,0.03342390060424805,0.23422694206237793,STABILIZE
0.16,0.015,0.11,10.69563303638472,6.39902997074632,0.1604344955457708,-0.0015403970582432871,6.557924069233848,0.17,0.015,0.08,-2.6661548863382674,-1.6952560971716337,-0.03999232329507401,-0.003685196208542606,-1.7389336166752505,0.002,8e-05,0,2.4940306678317983,0.018662765515109227,0.0001995224534265439,0.0,0.01886228796853577,0.2,0.02,0.0,-0.0014553991735060338,-0.002445062168710014,-2.9107983470120677e-05,-0.0,-0.0024741701521801347,-9.972094689244903,-10,-0.027905310755096887,39.9939373171645,40,0.00606268283550046,9.331382757554614,10,0.6686172424453857,-0.012225310843550068,0,0.012225310843550068,3.9996288693321604,1.7397870647892546,0.0024741701521801347,0.5188622879685357,0.03346967697143555,0.267803430557251,STABILIZE
0.16,0.015,0.11,12.041573168814281,6.399095535263929,0.18062359753221421,-0.0007475825157869727,6.5789715502803565,0.17,0.015,0.08,-3.0018035191132206,-1.6955346613383295,-0.04502705278669831,-0.003510076439006863,-1.7440717905640346,0.002,8e-05,0,2.8081993001710006,0.018670918602568087,0.00022465594401368006,0.0,0.018895574546581768,0.2,0.02,0.0,-0.001866809195957502,-0.002444993627873899,-3.733618391915004e-05,-0.0,-0.002482329811793049,-9.973733301990173,-10,-0.0262666980098282,39.994347095399554,40,0.005652904600443254,9.335459301284043,10,0.664540698715956,-0.012224968139369494,0,0.012224968139369494,3.999627783427058,1.7449252146380352,0.002482329811793049,0.5188955745465818,0.03365325927734375,0.3013491630554199,STABILIZE
0.16,0.015,0.11,13.380567996650601,6.399169773822548,0.20070851994975902,0.0016032710486662738,6.601481564820974,0.17,0.015,0.08,-3.3357627083456296,-1.6957704757788836,-0.05003644062518444,-0.003195391011153845,-1.749002307415222,0.002,8e-05,0,3.1208341286996584,0.018676354301136053,0.0002496667302959727,0.0,0.018926021031432025,0.2,0.02,0.0,-0.0023153948722642254,-0.0026797862108159623,-4.630789744528451e-05,-0.0,-0.002726094108261247,-9.975120445758138,-10,-0.02487955424186144,39.994811086390925,40,0.005188913609074983,9.338177150568026,10,0.6618228494319752,-0.013398931054079811,0,0.013398931054079811,3.9995908768823374,1.7499376814342125,0.002726094108261247,0.518926021031432,0.03347921371459961,0.33487915992736816,STABILIZE
0.16,0.015,0.11,14.817275891778603,6.398884675852253,0.22225913837667904,-0.0006199532136272878,6.620523861015305,0.17,0.015,0.08,-3.694139450681627,-1.6959168723669544,-0.0554120917602244,-0.0024051706771173746,-1.753734134804296,0.002,8e-05,0,3.4564327476235612,0.018683833254758583,0.0002765146198098849,0.0,0.01896034787456847,0.2,0.02,0.0,-0.0027928658232136516,-0.002658231330073777,-5.585731646427303e-05,-0.0,-0.00271408864653805,-9.975981602158555,-10,-0.024018397841445754,39.99302922407658,40,0.006970775923422106,9.341916627379291,10,0.6580833726207083,-0.013291156650368884,0,0.013291156650368884,3.9995930708768563,1.7546619853896672,0.00271408864653805,0.5189603478745685,0.03592395782470703,0.3707864284515381,STABILIZE
0.16,0.015,0.11,16.15536778596055,6.398773439898438,0.24233051678940823,-0.0006776967102690944,6.640426259977577,0.17,0.015,0.08,-4.027989381164211,-1.6962545376801423,-0.06041984071746317,-0.0036462329816656512,-1.760320611379271,0.002,8e-05,0,3.768299959250535,0.01864191502103327,0.0003014639967400428,-0.0,0.018943379017773314,0.2,0.02,0.0,-0.0033613240290665965,-0.0033979684851240307,-6.722648058133193e-05,-0.0,-0.0034651949657053625,-9.977967868706719,-10,-0.022032131293282225,39.992333999365236,40,0.007666000634760504,9.320957510516635,10,0.6790424894833648,-0.016989842425620152,0,0.016989842425620152,3.99947783858474,1.76150664872893,0.0034651949657053625,0.5189433790177733,0.033458709716796875,0.40422725677490234,STABILIZE
0.16,0.015,0.11,17.4931850022828,6.399010251245768,0.262397775034242,-2.145287773044964e-06,6.661405880992237,0.17,0.015,0.08,-4.361732103472878,-1.6961207536280472,-0.06542598155209317,-0.0023989474132488048,-1.7639456825933892,0.002,8e-05,0,4.080208804159343,0.018648921837698593,0.0003264167043327475,-0.0,0.01897533854203134,0.2,0.02,0.0,-0.003996737489228754,-0.003799115076922607,-7.993474978457508e-05,-0.0,-0.0038790498267071817,-9.977180903694395,-10,-0.022819096305605125,39.99381407028605,40,0.006185929713948485,9.324460918849297,10,0.6755390811507026,-0.018995575384613033,0,0.018995575384613033,3.9994149698587256,1.765271726961543,0.0038790498267071817,0.5189753385420314,0.03345060348510742,0.43767690658569336,STABILIZE
0.16,0.015,0.11,18.830104482646416,6.398912173644717,0.2824515672396962,-0.0006734441512573544,6.6806902967331565,0.17,0.015,0.08,-4.695174073216809,-1.695704214171775,-0.07042761109825213,-0.0004471332719679009,-1.766578958541995,0.002,8e-05,0,4.392216965933471,0.018667100505839435,0.0003513773572746777,-0.0,0.019018477863114114,0.2,0.02,0.0,-0.004533118658423359,-0.0032091087418552287,-9.066237316846719e-05,-0.0,-0.003299771115023696,-9.974730671598676,-10,-0.02526932840132287,39.99320108527948,40,0.006798914720519232,9.333550252919718,10,0.666449747080282,-0.016045543709276144,0,0.016045543709276144,3.999505117012168,1.7676990795259253,0.003299771115023696,0.5190184778631142,0.03342866897583008,0.47110533714294434,STABILIZE
0.16,0.015,0.11,20.167653383186938,6.398821430282965,0.30251480074780407,-0.0013514117557245184,6.699984819275045,0.17,0.015,0.08,-5.028702135257006,-1.6953198249452213,-0.07543053202885508,0.0012975088830047903,-1.7694528480910716,0.002,8e-05,0,4.704752854928736,0.018689609623125422,0.0003763802283942989,0.0,0.01906598985151972,0.2,0.02,0.0,-0.0049699867541402355,-0.0026124661049311756,-9.939973508280471e-05,0.0,-0.00271186584001398,-9.9724695585013,-10,-0.02753044149869961,39.99263393926853,40,0.00736606073146859,9.34480481156271,10,0.6551951884372899,-0.013062330524655877,0,0.013062330524655877,3.999596494997299,1.7703647248019059,0.00271186584001398,0.5190659898515197,0.033444881439208984,0.5045554637908936,STABILIZE
0.16,0.015,0.11,21.50682237290015,6.3985895355514835,0.3226023355935022,-0.0012123784055042346,6.719979492739482,0.17,0.015,0.08,-5.36267804425086,-1.6954810753021663,-0.0804401706637629,0.0012278440226023092,-1.774693401943327,0.002,8e-05,0,5.0179907395644845,0.018708249912486874,0.0004014392591651588,0.0,0.019109689171652032,0.2,0.02,0.0,-0.005350716967449001,-0.002273925450651548,-0.00010701433934898003,0.0,-0.0023809397900005284,-9.973418090012743,-10,-0.026581909987256423,39.99118459719677,40,0.008815402803230694,9.354124956243437,10,0.6458750437565624,-0.011369627253257741,0,0.011369627253257741,3.999647755649243,1.775487116717875,0.0023809397900005284,0.519109689171652,0.03348660469055176,0.5380287170410156,STABILIZE
0.16,0.015,0.11,22.848237416041236,6.398387958015639,0.34272356124061853,-0.0015815390110275281,6.73952998024523,0.17,0.015,0.08,-5.697488477603003,-1.6968182196314452,-0.08546232716404505,-0.0015740954465709772,-1.7838546422420614,0.002,8e-05,0,5.3313810242680475,0.018685423222097645,0.00042651048194144385,0.0,0.01911193370403909,0.2,0.02,0.0,-0.006137346321567159,-0.004690158922611939,-0.0001227469264313432,-0.0,-0.004812905849043282,-9.981283644890853,-10,-0.018716355109147736,39.98992473759774,40,0.010075262402260053,9.342711611048822,10,0.6572883889511784,-0.023450794613059694,0,0.023450794613059694,3.9992695447283992,1.7854916670924157,0.004812905849043282,0.5191119337040391,0.03354382514953613,0.5716509819030762,STABILIZE
0.16,0.015,0.11,24.25248783261812,6.398363042014157,0.3637873174892718,-0.0026525242702932143,6.759497835233136,0.17,0.015,0.08,-6.047943967187481,-1.6966260184652961,-0.09071915950781222,-0.0014353670880843038,-1.7887805450611927,0.002,8e-05,0,5.658892004853247,0.0186534941461724,0.0004527113603882598,0.0,0.01910620550656066,0.2,0.02,0.0,-0.006985059631086256,-0.004828178654801861,-0.00013970119262172513,-0.0,-0.004967879847423586,-9.98015304979586,-10,-0.019846950204141275,39.98976901258848,40,0.010230987411516597,9.3267470730862,10,0.6732529269138009,-0.0241408932740093,0,0.0241408932740093,3.9992459636246687,1.7904657385220228,0.004967879847423586,0.5191062055065606,0.03511524200439453,0.6067018508911133,STABILIZE
0.16,0.015,0.11,25.589623084533336,6.39839335517984,0.383844346268,-0.0021244529924171187,6.7801132484554225,0.17,0.015,0.08,-6.3817236543111635,-1.6970101470271344,-0.09572585481466744,-0.0036893672455138825,-1.7964253690873158,0.002,8e-05,0,5.971350954431729,0.01868953854785697,0.0004777080763545384,0.0,0.019167246624211508,0.2,0.02,0.0,-0.0078072927318036615,-0.004918136367005244,-0.00015614585463607323,-0.0,-0.0050742822216413176,-9.982412629571378,-10,-0.01758737042862201,39.989958469874,40,0.010041530126002268,9.344769273928485,10,0.6552307260715159,-0.024590681835026218,0,0.024590681835026218,3.9992286267543675,1.7981419570347816,0.0050742822216413176,0.5191672466242115,0.03343677520751953,0.6401424407958984,STABILIZE
0.16,0.015,0.11,26.927554099132493,6.398688043850654,0.4039133114869874,-0.0005402199099887946,6.802061135427652,0.17,0.015,0.08,-6.715912053390952,-1.6981557687899342,-0.10073868080086429,-0.007994001818060521,-1.806888451408859,0.002,8e-05,0,6.284327610306302,0.01871023210554859,0.0005027462088245042,0.0,0.019212978314373096,0.2,0.02,0.0,-0.008559505148885713,-0.004496843023947832,-0.00017119010297771427,-0.0,-0.004668033126925546,-9.989151581117259,-10,-0.010848418882741797,39.991800274066584,40,0.008199725933417059,9.355116052774296,10,0.6448839472257043,-0.022484215119739158,0,0.022484215119739158,3.9992906263844588,1.8084580065757974,0.004668033126925546,0.5192129783143731,0.03345513343811035,0.6736130714416504,STABILIZE
0.16,0.015,0.11,28.27121555857747,6.398915258196986,0.42406823337866206,0.0013418648150356684,6.824325356390684,0.17,0.015,0.08,-7.0513799286672025,-1.6974475946426255,-0.10577069893000804,-0.00555694604123786,-1.8087752396138714,0.002,8e-05,0,6.598900207659719,0.018726102647229622,0.0005279120166127776,0.0,0.0192540146638424,0.2,0.02,0.0,-0.009238214331146638,-0.004040268580786887,-0.00018476428662293277,-0.0,-0.004225032867409819,-9.984985850838973,-10,-0.015014149161027718,39.99322036373116,40,0.006779636268840862,9.36305132361481,10,0.6369486763851906,-0.020201342903934435,0,0.020201342903934435,3.999362013509863,1.810185446945851,0.004225032867409819,0.5192540146638424,0.03359723091125488,0.7071976661682129,STABILIZE
0.16,0.015,0.11,29.613987207255136,6.3989007522982835,0.44420980810882704,0.002108748299885902,6.845219308706996,0.17,0.015,0.08,-7.386721599716171,-1.6979295793476479,-0.11080082399574255,-0.0031562714007433734,-1.8118866747441338,0.002,8e-05,0,6.91335177493776,0.018731259819924927,0.0005530681419950209,0.0,0.019284327961919947,0.2,0.02,0.0,-0.00985065996837675,-0.003648217897541335,-0.000197013199367535,0.0,-0.00384523109690887,-9.987821054986163,-10,-0.01217894501383692,39.99312970186427,40,0.006870298135731911,9.365629909962463,10,0.634370090037537,-0.018241089487706676,0,0.018241089487706676,3.999422952241464,1.813160051181233,0.00384523109690887,0.5192843279619199,0.03357505798339844,0.7407786846160889,STABILIZE
0.16,0.015,0.11,30.95281810502231,6.398887596930093,0.46429227157533465,0.0021522776810384316,6.865332146186467,0.17,0.015,0.08,-7.721008291230465,-1.697566438897799,-0.11581512436845696,-0.0026504687139530855,-1.8160320319802088,0.002,8e-05,0,7.227045267269495,0.01874106543876144,0.0005781636213815596,0.0,0.019319229060143002,0.2,0.02,0.0,-0.010483340434642718,-0.003779838061663568,-0.00020966680869285436,0.0,-0.003989504870356423,-9.985684934692934,-10,-0.01431506530706643,39.99304748081308,40,0.0069525191869167745,9.370532719380721,10,0.6294672806192781,-0.01889919030831784,0,0.01889919030831784,3.999400758615022,1.8173513455487222,0.003989504870356423,0.519319229060143,0.03347659111022949,0.7742490768432617,STABILIZE
0.16,0.015,0.11,32.30217448702628,6.398339110377263,0.48453261730539415,-0.00020743780668526236,6.882664289875971,0.17,0.015,0.08,-8.05806377074213,-1.6981299314576601,-0.12087095656113195,-0.0031409627022912336,-1.8221418507210831,0.002,8e-05,0,7.543705173358675,0.018769109933079543,0.000603496413868694,0.0,0.019372606346948238,0.2,0.02,0.0,-0.011042911558419393,-0.003316697736461599,-0.00022085823116838786,0.0,-0.003537555967629987,-9.988999596809764,-10,-0.011000403190236378,39.98961943985789,40,0.010380560142113544,9.384554966539772,10,0.615445033460228,-0.016583488682307995,0,0.016583488682307995,3.999472438138951,1.823299520297235,0.003537555967629987,0.5193726063469483,0.033742666244506836,0.807999849319458,STABILIZE
0.16,0.015,0.11,33.64023326016061,6.398523865972083,0.5046034989024092,-0.0006593527663436176,6.902468012108149,0.17,0.015,0.08,-8.392289527444177,-1.698139868036683,-0.12588434291166264,5.4006786673936e-05,-1.8239702041616719,0.002,8e-05,0,7.857796565791208,0.018774598236334324,0.0006286237252632967,0.0,0.01940322196159762,0.2,0.02,0.0,-0.011461827056291578,-0.002504038747006935,-0.00022923654112583157,0.0,-0.0027332752881327666,-9.989058047274606,-10,-0.010941952725395204,39.99077416232552,40,0.009225837674476569,9.387299118167162,10,0.6127008818328377,-0.012520193735034674,0,0.012520193735034674,3.999601333080274,1.8248442350217362,0.0027332752881327666,0.5194032219615976,0.03345918655395508,0.8414604663848877,STABILIZE
0.16,0.015,0.11,34.99165165780992,6.398712629551293,0.5248747748671487,-0.0008211748944206751,6.92276622952402,0.17,0.015,0.08,-8.729842690491868,-1.6981415947875167,-0.13094764035737802,-0.0019346471119328996,-1.8310238822568274,0.002,8e-05,0,8.175189842270054,0.018784970389929517,0.0006540151873816044,0.0,0.01943898557731112,0.2,0.02,0.0,-0.01175140655616517,-0.00171388076994081,-0.0002350281311233034,0.0,-0.0019489089010641134,-9.989068204632451,-10,-0.010931795367548774,39.99195393469558,40,0.008046065304417118,9.392485194964758,10,0.6075148050352416,-0.00856940384970405,0,0.00856940384970405,3.9997260994346466,1.8316221190235094,0.0019489089010641134,0.5194389855773112,0.03379225730895996,0.8752689361572266,STABILIZE
0.16,0.015,0.11,36.329489086546076,6.398787679989482,0.5449423362981911,-0.00045328652001841733,6.943276729767654,0.17,0.015,0.08,-9.064055665690422,-1.6984258970103345,-0.13596083498535633,-0.0013834285202746748,-1.8357701605159655,0.002,8e-05,0,8.489702824540776,0.018803684148415597,0.0006791762259632622,0.0,0.01948286037437886,0.2,0.02,0.0,-0.012016733696552963,-0.0015863026409383254,-0.00024033467393105927,0.0,-0.0018266373148693846,-9.990740570649026,-10,-0.009259429350973665,39.99242299993426,40,0.0075770000657386745,9.401842074207797,10,0.5981579257922032,-0.007931513204691626,0,0.007931513204691626,3.999745834138551,1.8363238670049793,0.0018266373148693846,0.5194828603743789,0.03345227241516113,0.9087109565734863,STABILIZE
0.16,0.015,0.11,37.953158305422264,6.3989873673838025,0.5692973745813339,0.00027705910083617596,6.968561801065972,0.17,0.015,0.08,-9.469541102106083,-1.6979226216841137,-0.14204311653159124,-0.0012376483614879637,-1.8412033865771928,0.002,8e-05,0,8.871278994364262,0.018797710318771067,0.000709702319549141,0.0,0.019507412638320207,0.2,0.02,0.0,-0.012534639632940691,-0.002551376772058886,-0.0002506927926588138,0.0,-0.0028020695647177,-9.98778012755361,-10,-0.01221987244639046,39.99367104614876,40,0.006328953851235325,9.398855159385533,10,0.601144840614466,-0.01275688386029443,0,0.01275688386029443,3.999589957612897,1.8420939394356064,0.0028020695647177,0.5195074126383202,0.040598154067993164,0.9493038654327393,STABILIZE
0.16,0.015,0.11,39.29261337483121,6.399181895570272,0.5893892006224681,0.003310778925975382,6.991881875118715,0.17,0.015,0.08,-9.80409307709068,-1.6982000197236804,-0.1470613961563602,-0.000445473651844502,-1.845706889531885,0.002,8e-05,0,9.186155525432396,0.01880384272464148,0.0007348924420345917,0.0,0.01953873516667607,0.2,0.02,0.0,-0.012820629486342518,-0.0017078783883857059,-0.0002564125897268504,0.0,-0.0019642909781125563,-9.98941188072753,-10,-0.010588119272470206,39.9948868473142,40,0.005113152685801418,9.40192136232074,10,0.5980786376792591,-0.008539391941928529,0,0.008539391941928529,3.9997248704870443,1.8463030310522874,0.0019642909781125563,0.519538735166676,0.033490657806396484,0.9828052520751953,STABILIZE
0.16,0.015,0.11,40.630084836444965,6.399226472171078,0.6094512725466744,0.002734816123842396,7.0114125608415945,0.17,0.015,0.08,-10.138113920086811,-1.6980304064319214,-0.15207170880130216,5.984571641583466e-05,-1.8500422695168077,0.002,8e-05,0,9.500693510112937,0.01881161445159432,0.000760055480809035,0.0,0.019571669932403352,0.2,0.02,0.0,-0.013097646006399954,-0.001656756330188693,-0.0002619529201279991,0.0,-0.001918709250316692,-9.98841415548189,-10,-0.011585844518110979,39.995165451069234,40,0.004834548930767557,9.405807225797158,10,0.5941927742028422,-0.008283781650943465,0,0.008283781650943465,3.9997324804443073,1.8506205672362257,0.001918709250316692,0.5195716699324033,0.03344082832336426,1.016261339187622,STABILIZE
0.16,0.015,0.11,41.96806944066703,6.399172356597419,0.6295210416100054,0.0017443190370448798,7.03043771724447,0.17,0.015,0.08,-10.472274035348203,-1.6980725531929612,-0.15708411053022303,-5.39185568163595e-05,-1.8552105822800007,0.002,8e-05,0,9.815385558427751,0.018813451310114533,0.0007852308446742202,0.0,0.019598682154788754,0.2,0.02,0.0,-0.013319001010977596,-0.001323341858547883,-0.0002663800202195519,0.0,-0.0015897218787674348,-9.988662077605653,-10,-0.011337922394346963,39.99482722873387,40,0.005172771266134869,9.406725655057267,10,0.5932743449427329,-0.0066167092927394144,0,0.0066167092927394144,3.9997857273709077,1.8556725033592745,0.0015897218787674348,0.5195986821547888,0.033453941345214844,1.0497088432312012,STABILIZE
0.16,0.015,0.11,43.47719219827804,6.399312138242268,0.6521578829741705,0.001945216344585925,7.053415237561024,0.17,0.015,0.08,-10.849158767471613,-1.6980333230905114,-0.16273738151207418,0.0008438171652832391,-1.8599268874373025,0.002,8e-05,0,10.170348035857293,0.018814868430843335,0.0008136278428685834,0.0,0.01962849627371192,0.2,0.02,0.0,-0.013541786721750635,-0.0011808808262835856,-0.00027083573443501273,0.0,-0.0014517165607185983,-9.988431312297125,-10,-0.011568687702875469,39.995700864014175,40,0.004299135985823137,9.407434215421667,10,0.5925657845783335,-0.005904404131417928,0,0.005904404131417928,3.999808310891567,1.8603390827306086,0.0014517165607185983,0.5196284962737119,0.03773212432861328,1.0874457359313965,STABILIZE
0.16,0.015,0.11,44.832780570064585,6.3994481894682576,0.6724917085509687,0.0018208545604377674,7.073760752579664,0.17,0.015,0.08,-11.187686011769,-1.6979983238634795,-0.167815290176535,-0.00022572237232342318,-1.866039336412338,0.002,8e-05,0,10.489307101695363,0.018821735075281867,0.0008391445681356291,0.0,0.019660879643417496,0.2,0.02,0.0,-0.01372021132976168,-0.0010528814078605917,-0.0002744042265952336,0.0,-0.0013272856344558252,-9.988225434491055,-10,-0.011774565508945537,39.99655118417661,40,0.003448815823386705,9.410867537640932,10,0.589132462359068,-0.005264407039302958,0,0.005264407039302958,3.999828529115262,1.8664068534791223,0.0013272856344558252,0.5196608796434175,0.03389263153076172,1.1213345527648926,STABILIZE
0.16,0.015,0.11,46.17140706481287,6.399277921004913,0.692571105972193,0.0003226940126904962,7.092171720989796,0.17,0.015,0.08,-11.521957325762546,-1.6978511094281008,-0.1728293598864382,0.0009678137923977352,-1.8697126555221413,0.002,8e-05,0,10.804365992563614,0.01882666124624081,0.0008643492794050892,0.0,0.0196910105256459,0.2,0.02,0.0,-0.013732753880451764,-7.494927451667331e-05,-0.0002746550776090353,0.0,-0.00034960435212570863,-9.987359467224122,-10,-0.012640532775877041,39.995487006280705,40,0.004512993719294998,9.413330623120405,10,0.5866693768795953,-0.0003747463725833665,0,0.0003747463725833665,3.9999877709502605,1.869738817714395,0.00034960435212570863,0.5196910105256459,0.033469438552856445,1.154825210571289,STABILIZE
0.16,0.015,0.11,47.51789955395021,6.3995000977712095,0.7127684933092531,0.001046858210973746,7.113315449291437,0.17,0.015,0.08,-11.85824238584905,-1.6981600792655835,-0.17787363578773574,-0.0003733470828727026,-1.876407062136192,0.002,8e-05,0,11.12119077706039,0.018822238665646304,0.0008896952621648312,0.0,0.019711933927811134,0.2,0.02,0.0,-0.01377313108298409,-0.00023987685935672115,-0.00027546262165968177,0.0,-0.0005153394810164029,-9.989176936856373,-10,-0.010823063143626733,39.99687561107006,40,0.00312438892994113,9.411119332823151,10,0.5888806671768481,-0.0011993842967836057,0,0.0011993842967836057,3.9999607199099554,1.8764907945449683,0.0005153394810164029,0.5197119339278111,0.03366494178771973,1.1884713172912598,STABILIZE
0.16,0.015,0.11,48.85676744450162,6.39952017300315,0.7328515116675243,0.0013517420071107497,7.133723426677785,0.17,0.015,0.08,-12.192519828101057,-1.697640374605963,-0.18288779742151584,0.0012064524562499597,-1.8793217195712288,0.002,8e-05,0,11.43620763235399,0.01882146788449318,0.0009148966105883192,0.0,0.0197363644950815,0.2,0.02,0.0,-0.01369567131877552,0.00046280268496529564,-0.0002739134263755104,0.0,0.00018888925858978525,-9.98611985062331,-10,-0.013880149376689249,39.99700108126969,40,0.0029989187303130884,9.41073394224659,10,0.5892660577534099,0.002314013424826478,0,-0.002314013424826478,4.000075897191933,1.879160169425777,-0.00018888925858978525,0.5197363644950815,0.03347420692443848,1.2219483852386475,STABILIZE
0.16,0.015,0.11,50.19442165060109,6.399690182944129,0.7529163247590164,0.00154135422683603,7.154147861929981,0.17,0.015,0.08,-12.526468757121185,-1.6975558985771897,-0.18789703135681776,0.0013463368834150718,-1.8841065930505925,0.002,8e-05,0,11.750967346115504,0.01882366759062916,0.0009400773876892404,0.0,0.0197637449783184,0.2,0.02,0.0,-0.01355123525729595,0.0008637752198018205,-0.000271024705145919,0.0,0.0005927505146559015,-9.985622932806997,-10,-0.014377067193002404,39.998063643400805,40,0.0019363565991922095,9.41183379531458,10,0.5881662046854207,0.004318876099009102,0,-0.004318876099009102,4.000142009968141,1.8838050732665392,-0.0005927505146559015,0.5197637449783183,0.03344297409057617,1.2553977966308594,STABILIZE
0.16,0.015,0.11,51.53162861585906,6.399740438115964,0.772974429237886,0.0011960977465051272,7.173910965100355,0.17,0.015,0.08,-12.860303098542651,-1.6975543160519861,-0.19290454647813976,0.0012536014741124308,-1.8892052610560135,0.002,8e-05,0,12.06557410593131,0.018820960920860847,0.0009652459284745048,-0.0,0.019786206849335353,0.2,0.02,0.0,-0.013362057694963979,0.0011317314064829115,-0.0002672411538992796,0.0,0.000864490252583632,-9.985613623835212,-10,-0.014386376164787365,39.998377738224775,40,0.001622261775222345,9.410480460430424,10,0.5895195395695753,0.005658657032414557,0,-0.005658657032414557,4.000186562552893,1.8888102030572016,-0.000864490252583632,0.5197862068493353,0.0334315299987793,1.288825511932373,STABILIZE
0.16,0.015,0.11,52.88414208840995,6.399788662698342,0.7932621313261492,0.0020916979146019823,7.195142491939093,0.17,0.015,0.08,-13.197956095061654,-1.6975539278057543,-0.19796934142592482,0.0008407081498057809,-1.8946825610818732,0.002,8e-05,0,12.38373391746178,0.018818255751998882,0.0009906987133969426,-0.0,0.019808954465395826,0.2,0.02,0.0,-0.01312678072606888,0.0013915969310910414,-0.0002625356145213776,0.0,0.001129061316569664,-9.985611340033849,-10,-0.014388659966150765,39.998679141864635,40,0.0013208581353643168,9.409127875999442,10,0.5908721240005574,0.006957984655455207,0,-0.006957984655455207,4.000230060264733,1.8941967881458828,-0.001129061316569664,0.5198089544653959,0.0338139533996582,1.3226325511932373,STABILIZE
0.16,0.015,0.11,54.231570160454396,6.399595691105471,0.813473552406816,0.00039661487265583474,7.213465858384943,0.17,0.015,0.08,-13.534160070413792,-1.6965971348861877,-0.20301240105620688,0.004377605099359304,-1.8952319308430352,0.002,8e-05,0,12.70097261137154,0.018834023692229522,0.0010160778089097233,0.0,0.019850101501139247,0.2,0.02,0.0,-0.012932629923575306,0.0011526465353149816,-0.00025865259847150613,0.0,0.0008939939368434755,-9.979983146389339,-10,-0.020016853610660655,39.997473069409196,40,0.002526930590801462,9.417011846114761,10,0.5829881538852385,0.005763232676574907,0,-0.005763232676574907,4.000190616189376,1.8948295717128447,-0.0008939939368434755,0.5198501015011392,0.03368782997131348,1.3563408851623535,STABILIZE
0.16,0.015,0.11,55.57161161175276,6.3996142603680815,0.8335741741762913,0.0003903632131665887,7.23357879775754,0.17,0.015,0.08,-13.868613079933894,-1.6970694358120046,-0.2080291961990084,0.001589579220301051,-1.903509052790712,0.002,8e-05,0,13.016422804189057,0.01883112972396179,0.0010413138243351246,0.0,0.01987244354829691,0.2,0.02,0.0,-0.01273549933721474,0.0011767916865607754,-0.00025470998674429477,0.0,0.0009220816998164806,-9.982761387129438,-10,-0.017238612870561814,39.99758912730051,40,0.002410872699494406,9.415564861980894,10,0.5844351380191055,0.005883958432803877,0,-0.005883958432803877,4.000195458718231,1.9030982649632766,-0.0009220816998164806,0.5198724435482969,0.033503055572509766,1.3898277282714844,STABILIZE
0.16,0.015,0.11,56.91001977959911,6.399966632642179,0.8536502966939866,0.0011393880650691114,7.254756317401235,0.17,0.015,0.08,-14.202649166810277,-1.6971157250884827,-0.21303973750215413,0.001221637759997582,-1.9089338248306393,0.002,8e-05,0,13.331586875042689,0.01883804568860104,0.0010665269500034153,0.0,0.019904572638604453,0.2,0.02,0.0,-0.012606980364459348,0.000768186003582405,-0.00025213960728918695,-0.0,0.0005160463962932181,-9.983033676991074,-10,-0.016966323008926077,39.99979145401362,40,0.00020854598637970283,9.41902284430052,10,0.5809771556994813,0.003840930017912025,0,-0.003840930017912025,4.000127959970507,1.9086656730409157,-0.0005160463962932181,0.5199045726386045,0.033460378646850586,1.4233031272888184,STABILIZE
0.16,0.015,0.11,58.24673387102689,6.399572257944426,0.8737010080654033,-0.0006898783771844271,7.272583387632644,0.17,0.015,0.08,-14.536312065020512,-1.6972635215126433,-0.2180446809753077,0.0008009582833532971,-1.9145072442045976,0.002,8e-05,0,13.646523460666536,0.018847143990018782,0.001091721876853323,0.0,0.019938865866872105,0.2,0.02,0.0,-0.012551300943652607,0.0003332093218534112,-0.00025102601887305216,-0.0,8.218330298035906e-05,-9.98390306772143,-10,-0.01609693227857058,39.99732661215266,40,0.0026733878473399046,9.423571995009391,10,0.5764280049906089,0.001666046609267056,0,-0.001666046609267056,4.000055668348327,1.9143909313999337,-8.218330298035906e-05,0.5199388658668721,0.03342008590698242,1.4567458629608154,STABILIZE
0.16,0.015,0.11,59.584822900247055,6.3991701298986055,0.8937723435037058,-0.002538645715689046,7.290403827686622,0.17,0.015,0.08,-14.870369073845493,-1.6974155381234626,-0.2230555361076824,0.0003722352274804796,-1.9200988390036646,0.002,8e-05,0,13.9619594806485,0.01885645043868153,0.0011169567584518802,0.0,0.01997340719713341,0.2,0.02,0.0,-0.012569992428327367,-0.00011173582979367163,-0.00025139984856654735,-0.0,-0.00036313567836021896,-9.98479728307919,-10,-0.01520271692080861,39.99481331186628,40,0.0051866881337219225,9.428225219340764,10,0.5717747806592368,-0.0005586791489683581,0,0.0005586791489683581,3.9999812773281116,1.9201378420748316,0.00036313567836021896,0.5199734071971334,0.03345656394958496,1.4901988506317139,STABILIZE
0.16,0.015,0.11,60.96088901168517,6.399068236010128,0.9144133351752775,-0.002158214767330755,7.311323356418074,0.17,0.015,0.08,-15.213862235909513,-1.6971666002482177,-0.2282079335386427,-0.0016199128202421592,-1.9269944466071025,0.002,8e-05,0,14.286435677680338,0.01886124246237905,0.0011429148542144271,0.0,0.020004157316593475,0.2,0.02,0.0,-0.012812269310169464,-0.0014083137848797563,-0.0002562453862033893,-0.0,-0.0016645591710831456,-9.983332942636574,-10,-0.016667057363425775,39.9941764750633,40,0.005823524936703434,9.430621231189525,10,0.5693787688104756,-0.00704156892439878,0,0.00704156892439878,3.999763144945556,1.9274860263020959,0.0016645591710831456,0.5200041573165934,0.03440666198730469,1.5246036052703857,STABILIZE
0.16,0.015,0.11,62.298725545412935,6.398555382653781,0.934480883181194,-0.004342348214718505,7.328693917620256,0.17,0.015,0.08,-15.547885143107996,-1.6973995088032416,-0.2332182771466199,-0.0009483755199267116,-1.931566161469788,0.002,8e-05,0,14.60189974866904,0.018859874492982757,0.0011681519798935232,0.0,0.02002802647287628,0.2,0.02,0.0,-0.013095470342654897,-0.001693104356454497,-0.0002619094068530979,-0.0,-0.001955013763307595,-9.984702992960244,-10,-0.01529700703975622,39.99097114158613,40,0.009028858413873974,9.429937246491379,10,0.5700627535086216,-0.008465521782272485,0,0.008465521782272485,3.9997145650678676,1.932157145296182,0.001955013763307595,0.5200280264728763,0.03345346450805664,1.5580830574035645,STABILIZE
0.16,0.015,0.11,63.63629563635527,6.398785959860332,0.954544434545329,-0.004842426518800837,7.34848796788686,0.17,0.015,0.08,-15.881746765884298,-1.6969790190810812,-0.23822620148826446,0.0003651072920638786,-1.934840113277282,0.002,8e-05,0,14.917471141108226,0.018870728802806592,0.0011933976912886582,0.0,0.02006412649409525,0.2,0.02,0.0,-0.01345324951447656,-0.0021394695097529857,-0.0002690649902895312,-0.0,-0.002408534500042517,-9.982229524006359,-10,-0.01777047599364207,39.99241224912707,40,0.007587750872929474,9.435364401403296,10,0.5646355985967034,-0.010697347548764927,0,0.010697347548764927,3.9996386880207853,1.9355868952940913,0.002408534500042517,0.5200641264940953,0.03344559669494629,1.5915069580078125,STABILIZE
0.16,0.015,0.11,64.97543291482678,6.399075861995219,0.9746314937224017,-0.0020293622915177156,7.371677993426102,0.17,0.015,0.08,-16.21589763864269,-1.6965384129506904,-0.24323846457964035,0.002019825204555279,-1.9377570523257754,0.002,8e-05,0,15.23339696035364,0.018870668793772544,0.0012186717568282912,0.0,0.020089340550600836,0.2,0.02,0.0,-0.01387852100777696,-0.002540203113716044,-0.0002775704201555392,-0.0,-0.002817773533871583,-9.979637723239355,-10,-0.020362276760645153,39.99422413747012,40,0.0057758625298787915,9.435334396886272,10,0.5646656031137277,-0.012701015568580219,0,0.012701015568580219,3.9995703503210724,1.938643702868284,0.002817773533871583,0.5200893405506009,0.033483266830444336,1.6249711513519287,STABILIZE
0.16,0.015,0.11,66.37464790839586,6.399359974251718,0.9956197186259378,0.0007399759283122518,7.3957196688059685,0.17,0.015,0.08,-16.56492821181045,-1.6960728394919327,-0.24847392317715675,0.003700006980384027,-1.9408467556887052,0.002,8e-05,0,15.563378793333252,0.01886479690313317,0.0012450703034666603,0.0,0.020109867206599828,0.2,0.02,0.0,-0.014398084581175688,-0.002970303304860639,-0.00028796169162351377,-0.0,-0.003258264996484153,-9.976899055834897,-10,-0.02310094416510242,39.995999839073235,40,0.0040001609267651846,9.432398451566584,10,0.5676015484334156,-0.014851516524303193,0,0.014851516524303193,3.9994967828896795,1.9418835219246482,0.003258264996484153,0.5201098672065998,0.03498387336730957,1.6599929332733154,STABILIZE
0.16,0.015,0.11,67.72479786475427,6.399117880182127,1.015871967971314,0.00016111272216916741,7.41515096087561,0.17,0.015,0.08,-16.901734648841565,-1.696084267097319,-0.25352601973262345,0.00298719037747361,-1.946623096452469,0.002,8e-05,0,15.881776967328078,0.01886334401812512,0.0012705421573862463,0.0,0.020133886175511366,0.2,0.02,0.0,-0.014803917365003517,-0.002404336469373763,-0.00029607834730007034,-0.0,-0.002700414816673833,-9.976966277043053,-10,-0.023033722956947476,39.99448675113829,40,0.005513248861711545,9.43167200906256,10,0.5683279909374411,-0.012021682346868814,0,0.012021682346868814,3.9995914755105693,1.9474623253519916,0.002700414816673833,0.5201338861755114,0.03375840187072754,1.6937177181243896,STABILIZE
0.16,0.015,0.11,69.07200804977394,6.399059006971726,1.036080120746609,0.002028720825293031,7.437167848543628,0.17,0.015,0.08,-17.23798512227176,-1.6969638886423777,-0.2585697768340764,0.001184759659219371,-1.9543489058172347,0.002,8e-05,0,16.199491059836728,0.018863715995433353,0.0012959592847869383,0.0,0.020159675280220293,0.2,0.02,0.0,-0.01507652207085978,-0.001618542542349206,-0.0003015304414171956,0.0,-0.0019200729837664018,-9.98214052142575,-10,-0.01785947857425084,39.994118793573286,40,0.005881206426711104,9.431857997716676,10,0.568142002283324,-0.00809271271174603,0,0.00809271271174603,3.999723919101596,1.9549138642496742,0.0019200729837664018,0.5201596752802203,0.03368520736694336,1.7274065017700195,STABILIZE
0.16,0.015,0.11,70.411570648122,6.399558935313271,1.0561735597218298,0.003133255650312043,7.458865750685413,0.17,0.015,0.08,-17.572261568903244,-1.696765188513655,-0.26358392353354865,0.0005598679626568149,-1.9597892440845468,0.002,8e-05,0,16.515285762291573,0.01885827146405594,0.0013212228609833258,-0.0,0.020179494325039266,0.2,0.02,0.0,-0.015282465768166735,-0.0012298313176045978,-0.0003056493153633347,0.0,-0.0015354806329679325,-9.980971697139147,-10,-0.019028302860853916,39.99724334570794,40,0.002756654292055094,9.42913573202797,10,0.5708642679720304,-0.006149156588022989,0,0.006149156588022989,3.999789646446686,1.9602185249117954,0.0015354806329679325,0.5201794943250393,0.03349137306213379,1.7609503269195557,STABILIZE
0.16,0.015,0.11,71.74865741890753,6.399347748280958,1.076229861283613,0.0010741516664588807,7.47665176123103,0.17,0.015,0.08,-17.905886807513742,-1.6965394198807906,-0.2685883021127061,-4.3015538847168024e-05,-1.965170737532344,0.002,8e-05,0,16.83060839264262,0.01886432511905637,0.0013464486714114098,-0.0,0.02021077379046778,0.2,0.02,0.0,-0.015479794763109043,-0.0011805300215414537,-0.00030959589526218087,0.0,-0.0014901259168036344,-9.97964364635759,-10,-0.020356353642408627,39.995923426755986,40,0.004076573244014332,9.432162559528185,10,0.5678374404718146,-0.005902650107707268,0,0.005902650107707268,3.99979752555016,1.9655828098190715,0.0014901259168036344,0.5202107737904678,0.03343057632446289,1.7943649291992188,STABILIZE
0.16,0.015,0.11,73.08716765388017,6.399314752749028,1.0963075148082024,-0.00017808378356499663,7.495444183773666,0.17,0.015,0.08,-18.239860209217266,-1.6964950394105325,-0.273597903138259,-0.0011707433587030355,-1.9712636859074943,0.002,8e-05,0,17.14629075757428,0.018865664623879026,0.0013717032606059426,0.0,0.020237367884484967,0.2,0.02,0.0,-0.01577999088008631,-0.0017940182580391878,-0.0003155998176017262,0.0,-0.002109618075640914,-9.979382584767837,-10,-0.02061741523216246,39.995717204681426,40,0.00428279531857446,9.432832311939512,10,0.5671676880604878,-0.008970091290195938,0,0.008970091290195938,3.9996913346153917,1.9718898922556867,0.002109618075640914,0.5202373678844849,0.033466339111328125,1.827817440032959,STABILIZE
0.16,0.015,0.11,74.42274717555182,6.399573344832188,1.1163412076332773,0.0018728072938848106,7.51778735975935,0.17,0.015,0.08,-18.573042237943515,-1.6962574823354029,-0.27859563356915273,-0.00046930678134156226,-1.9753224226858972,0.002,8e-05,0,17.461439224571027,0.018875848426951166,0.0013969151379656824,0.0,0.02027276356491685,0.2,0.02,0.0,-0.016073184466980757,-0.0017560858723868846,-0.00032146368933961514,0.0,-0.0020775495617264997,-9.977985190208251,-10,-0.022014809791749208,39.997333405201175,40,0.002666594798821741,9.437924213475583,10,0.562075786524418,-0.008780429361934423,0,0.008780429361934423,3.999697240002057,1.9759353890969233,0.0020775495617264997,0.5202727635649168,0.033391714096069336,1.861234188079834,STABILIZE
0.16,0.015,0.11,75.9548517566759,6.399275411768894,1.1393227763501383,0.001043713532445658,7.5396419016514775,0.17,0.015,0.08,-18.95524729238705,-1.696163664098465,-0.28432870938580573,0.002218891773135227,-1.9782734817111356,0.002,8e-05,0,17.82335955974661,0.018895804588361157,0.001425868764779729,0.0,0.020321673353140886,0.2,0.02,0.0,-0.016588355787582068,-0.002689701477781751,-0.00033176711575164136,-0.0,-0.0030214685935333924,-9.977433318226264,-10,-0.022566681773735494,39.995471323555584,40,0.0045286764444154755,9.447902294180578,10,0.5520977058194227,-0.013448507388908754,0,0.013448507388908754,3.9995355480140957,1.9792123101408514,0.0030214685935333924,0.5203216733531408,0.03830695152282715,1.8994946479797363,STABILIZE
0.16,0.015,0.11,77.29329277200577,6.3986647244733375,1.1593993915800864,-0.003517708044626018,7.554546408008798,0.17,0.015,0.08,-19.289136507530564,-1.6959828175078275,-0.2893370476129585,0.0021690744597905424,-1.9831507906609953,0.002,8e-05,0,18.140246596487547,0.018936713314345946,0.0014512197277190039,0.0,0.02038793304206495,0.2,0.02,0.0,-0.017355199482076897,-0.004582547569288612,-0.00034710398964153796,-0.0,-0.00492965155893015,-9.976369514751926,-10,-0.023630485248073395,39.99165452795836,40,0.008345472041642528,9.468356657172972,10,0.5316433428270275,-0.02291273784644306,0,0.02291273784644306,3.9992066127892225,1.9847502429077277,0.00492965155893015,0.520387933042065,0.033468008041381836,1.9329853057861328,STABILIZE
0.16,0.015,0.11,78.63349972268732,6.407152748026163,1.1795024958403098,0.03222335792727095,7.618878601793743,0.17,0.015,0.08,-19.619975311412603,-1.680500293082769,-0.294299629671189,0.04507322769913203,-1.929726695054826,0.002,8e-05,0,18.457151424634198,0.018937911412580763,0.0014765721139707358,0.0,0.020414483526551497,0.2,0.02,0.0,-0.023744745748438226,-0.03818328103948648,-0.0004748949149687645,-0.0,-0.03865817595445525,-9.885295841663346,-10,-0.11470415833665334,40.044704675163516,40,-0.04470467516351906,9.468955706290382,10,0.531044293709618,-0.19091640519743241,0,0.19091640519743241,3.9935477252157927,1.9430444369676645,0.03865817595445525,0.5204144835265515,0.033467769622802734,1.9664552211761475,STABILIZE
0.16,0.015,0.11,79.97201921120954,6.396533669200841,1.199580288168143,-0.01125142435877204,7.584862533010212,0.17,0.015,0.08,-19.953033133988104,-1.6910971926807123,-0.29929549700982155,0.015159830092767118,-1.9752328595977668,0.002,8e-05,0,18.77218000527127,0.018818281505097244,0.0015017744004217016,-0.0,0.020320055905518945,0.2,0.02,0.0,-0.026243307451129717,-0.014925197384954398,-0.0005248661490225943,-0.0,-0.015450063533976991,-9.94763054518066,-10,-0.05236945481933998,39.978335432505254,40,0.021664567494742763,9.409140752548621,10,0.5908592474513786,-0.07462598692477199,0,0.07462598692477199,3.997423927954207,1.9804410594243722,0.015450063533976991,0.520320055905519,0.03348112106323242,1.99993896484375,STABILIZE
0.16,0.015,0.11,81.31066575226191,6.406355982225687,1.2196599862839286,0.02808005239655129,7.654096020906167,0.17,0.015,0.08,-20.28568260320019,-1.6914568408834358,-0.3042852390480028,0.01347780216759016,-1.9822642777638486,0.002,8e-05,0,19.086953514687806,0.018830130781866936,0.0015269562811750246,-0.0,0.02035708706304196,0.2,0.02,0.0,-0.030755771730890755,-0.026994105283479543,-0.0006151154346178151,-0.0,-0.027609220718097356,-9.94974612284374,-10,-0.05025387715625946,40.03972488891054,40,-0.039724888910544334,9.415065390933467,10,0.5849346090665335,-0.1349705264173977,0,0.1349705264173977,3.995319325395916,1.9916814893492774,0.027609220718097356,0.520357087063042,0.033432960510253906,2.0333662033081055,STABILIZE
0.16,0.015,0.11,82.64936809639327,6.399868463896425,1.239740521445899,0.0024963239655020394,7.642105309307826,0.17,0.015,0.08,-20.619169078358514,-1.6939250415984117,-0.3092875361753777,0.006306352385805118,-1.9969062253879841,0.002,8e-05,0,19.401591579693147,0.018802184057162948,0.0015521273263754518,-0.0,0.0203543113835384,0.2,0.02,0.0,-0.03247560091993529,-0.010277378536111931,-0.0006495120183987057,-0.0,-0.010926890554510637,-9.964264950578892,-10,-0.03573504942110881,39.99917789935265,40,0.0008221006473448714,9.401092028581473,10,0.598907971418526,-0.051386892680559654,0,0.051386892680559654,3.998207425262731,2.00049290365331,0.010926890554510637,0.5203543113835384,0.03346824645996094,2.0668418407440186,STABILIZE
0.16,0.015,0.11,83.99349846534062,6.394840497955244,1.2599024769801093,-0.01555189951591834,7.6391910754194345,0.17,0.015,0.08,-20.953660230769337,-1.6908375988871387,-0.31430490346154005,0.014438270226839287,-1.9907042321218396,0.002,8e-05,0,19.71679488774427,0.018745157891505052,0.0015773435910195418,-0.0,0.020322501482524593,0.2,0.02,0.0,-0.034023905251913705,-0.009207774292244784,-0.0006804781050382741,-0.0,-0.009888252397283057,-9.94610352286552,-10,-0.053896477134479245,39.96775311222027,40,0.032246887779729484,9.372578945752526,10,0.627421054247475,-0.046038871461223915,0,0.046038871461223915,3.998399118497178,1.9939177086802744,0.009888252397283057,0.5203225014825246,0.03363037109375,2.1004812717437744,STABILIZE
0.16,0.015,0.11,85.33168258992308,6.39629746606571,1.2799752388488461,-0.04443960948122938,7.631833095433326,0.17,0.015,0.08,-21.285499427547983,-1.6852696578983513,-0.31928249141321974,-0.01344629811551942,-2.0179984474270904,0.002,8e-05,0,20.030161793687167,0.01872302089834639,0.0016024129434949734,-0.0,0.020325433841841364,0.2,0.02,0.0,-0.03818034813834075,-0.024833881801014975,-0.0007636069627668151,0.0,-0.02559748876378179,-9.91335092881383,-10,-0.08664907118617018,39.976859162910685,40,0.02314083708931155,9.361510449173196,10,0.6384895508268041,-0.12416940900507487,0,0.12416940900507487,3.9956172745781355,2.026662361842974,0.02559748876378179,0.5203254338418414,0.033473968505859375,2.1339495182037354,STABILIZE
0.16,0.015,0.11,86.66801581475245,6.392185425368904,1.3000202372212868,-0.017732686829594686,7.6744729757605965,0.17,0.015,0.08,-21.617971828323164,-1.689737087859678,-0.32426957742484747,0.0037720520049537177,-2.0102346132795716,0.002,8e-05,0,20.34327653567204,0.01872182264307069,0.0016274621228537633,-0.0,0.02034928476592445,0.2,0.02,0.0,-0.04078259793857224,-0.015559426849104913,-0.0008156519587714448,-0.0,-0.016375078807876357,-9.93962992858634,-10,-0.06037007141366026,39.95115890855565,40,0.048841091444353495,9.360911321535344,10,0.6390886784646554,-0.07779713424552456,0,0.07779713424552456,3.997266784504432,2.015664023076482,0.016375078807876357,0.5203492847659245,0.03344917297363281,2.1674089431762695,STABILIZE
0.16,0.015,0.11,88.00564289737565,6.403943239864543,1.3200846434606348,-0.009753906063870468,7.714273977261308,0.17,0.015,0.08,-21.949203394490315,-1.6848959157418344,-0.3292380509173547,0.018418212335052583,-1.9957157543241368,0.002,8e-05,0,20.655629915865333,0.018692553996579233,0.0016524503932692268,-0.0,0.02034500438984846,0.2,0.02,0.0,-0.04627456348827221,-0.03286625632851856,-0.0009254912697654442,-0.0,-0.03379174759828401,-9.911152445540202,-10,-0.08884755445979847,40.024645249153394,40,-0.024645249153391127,9.346276998289616,10,0.6537230017103836,-0.1643312816425928,0,0.1643312816425928,3.994259599493741,2.007180017813464,0.03379174759828401,0.5203450043898484,0.03342008590698242,2.200809955596924,STABILIZE
0.16,0.015,0.11,89.34441838811766,6.403548201730471,1.340166275821765,0.015275423338962016,7.758989900891199,0.17,0.015,0.08,-22.281785929343922,-1.690212494140013,-0.33422678894015884,0.010400374987023757,-2.014038908093148,0.002,8e-05,0,20.96872079392821,0.018719461768068203,0.001677497663514257,-0.0,0.02039695943158246,0.2,0.02,0.0,-0.050603911757136764,-0.02588483890079566,-0.0010120782351427354,-0.0,-0.026896917135938395,-9.942426436117723,-10,-0.05757356388227755,40.02217626081544,40,-0.022176260815439254,9.359730884034102,10,0.6402691159658985,-0.1294241945039783,0,0.1294241945039783,3.9954403299738424,2.0230692753664057,0.026896917135938395,0.5203969594315825,0.03345084190368652,2.234285354614258,STABILIZE
0.16,0.015,0.11,90.73418395368822,6.403052927525965,1.3610127593053232,0.033871611522742436,7.7979372983540305,0.17,0.015,0.08,-22.628136317698612,-1.6954702060799698,-0.33942204476547916,-0.012489409888768269,-2.0473816607342172,0.002,8e-05,0,21.294328278635938,0.01875210116216845,0.0017035462622908752,0.0,0.020455647424459326,0.2,0.02,0.0,-0.05386239827163669,-0.018765990226026853,-0.001077247965432734,-0.0,-0.019843238191459587,-9.973354153411586,-10,-0.026645846588413055,40.01908079703728,40,-0.019080797037283468,9.376050581084224,10,0.6239494189157763,-0.09382995113013426,0,0.09382995113013426,3.9966417604135858,2.0539294787380102,0.019843238191459587,0.5204556474244594,0.03472757339477539,2.26900577545166,STABILIZE
0.16,0.015,0.11,92.07428360089666,6.409927511436747,1.38111425401345,0.05614511120806226,7.8471868766582595,0.17,0.015,0.08,-22.96352091459032,-1.7044649582173876,-0.3444528137188548,-0.05345251623546883,-2.102370288171711,0.002,8e-05,0,21.60724745826654,0.01870932940088299,0.0017285797966613233,-0.0,0.020437909197544315,0.2,0.02,0.0,-0.056642118332662035,-0.01661984999620655,-0.0011328423666532408,0.0,-0.01775269236285979,-10.02626446010228,-10,0.02626446010227879,40.06204694647967,40,-0.062046946479665785,9.354664700441495,10,0.645335299558505,-0.08309924998103274,0,0.08309924998103274,3.996946609658935,2.1081694970099414,0.01775269236285979,0.5204379091975443,0.03345060348510742,2.3024587631225586,STABILIZE
0.16,0.015,0.11,93.41491984519452,6.4064667667413735,1.4012237976779178,0.05883638268424676,7.866526947103537,0.17,0.015,0.08,-23.301477956011684,-1.71592404269982,-0.34952216934017527,-0.07309360761926507,-2.13853981965926,0.002,8e-05,0,21.92060459650881,0.018717904472679174,0.0017536483677207048,-0.0,0.02047155284039988,0.2,0.02,0.0,-0.05907089888375555,-0.014507945341688986,-0.0011814179776751112,0.0,-0.015689363319364096,-10.093670839410704,-10,0.09367083941070392,40.04041729213358,40,-0.0404172921335812,9.358952236339587,10,0.6410477636604133,-0.07253972670844493,0,0.07253972670844493,3.9972892814655205,2.1436023326515405,0.015689363319364096,0.5204715528403999,0.03348207473754883,2.335946559906006,STABILIZE
0.16,0.015,0.11,94.75413806969216,6.406716117346282,1.4213120710453824,0.011486423837815818,7.839514612229481,0.17,0.015,0.08,-23.639368914732056,-1.7174718987253879,-0.3545905337209808,-0.09108309503963606,-2.1631455274860047,0.002,8e-05,0,22.234100199098357,0.01874673310413092,0.0017787280159278687,0.0,0.02052546112005879,0.2,0.02,0.0,-0.062064357494863345,-0.017900592281727797,-0.001241287149897267,0.0,-0.019141879431625063,-10.102775874855222,-10,0.10277587485522248,40.04197573341426,40,-0.04197573341426482,9.37336655206546,10,0.6266334479345385,-0.08950296140863898,0,0.08950296140863898,3.996616025080827,2.169391371133811,0.019141879431625063,0.5205254611200588,0.03344535827636719,2.36944317817688,STABILIZE
0.16,0.015,0.11,96.0941026224048,6.409372696565497,1.441411539336072,0.02403035914350707,7.874814595045076,0.17,0.015,0.08,-23.979114768454377,-1.7266540046518852,-0.35968672152681563,-0.10195973711606836,-2.1883004632947696,0.002,8e-05,0,22.547222056565772,0.01872171431593742,0.001803777764525262,0.0,0.02052549208046268,0.2,0.02,0.0,-0.06486913055212114,-0.016769880047253907,-0.0012973826110424227,0.0,-0.018067262658296328,-10.156788262658148,-10,0.15678826265814771,40.058579353534356,40,-0.058579353534353895,9.36085715796871,10,0.6391428420312897,-0.08384940023626952,0,0.08384940023626952,3.996793253606131,2.194151910325404,0.018067262658296328,0.5205254920804627,0.03345012664794922,2.4028406143188477,STABILIZE
0.16,0.015,0.11,97.51629258299351,6.412876115200963,1.4627443887449028,0.03956728537362029,7.915187789319487,0.17,0.015,0.08,-24.342066896064985,-1.7388956735948011,-0.36513100344097477,-0.12018078956731316,-2.2242074666030893,0.002,8e-05,0,22.87822987204125,0.018657072654071242,0.0018302583897633002,-0.0,0.02048733104383454,0.2,0.02,0.0,-0.06771434685518755,-0.016036904508313892,-0.001354286937103751,0.0,-0.017391191445417644,-10.228798079969417,-10,0.2287980799694168,40.08047572000602,40,-0.08047572000602021,9.328536327035621,10,0.6714636729643784,-0.08018452254156945,0,0.08018452254156945,3.9968833413052782,2.229803222369474,0.017391191445417644,0.5204873310438345,0.035483360290527344,2.438328266143799,STABILIZE
0.16,0.015,0.11,98.8613335568411,6.4228047979084275,1.4829200033526164,0.05205303217168466,7.957777833432729,0.17,0.015,0.08,-24.685035935802752,-1.7400954239254207,-0.37027553903704125,-0.09824288804797501,-2.208613851010437,0.002,8e-05,0,23.191033746698057,0.018671161938685905,0.0018552826997358448,-0.0,0.02052644463842175,0.2,0.02,0.0,-0.06998040341023284,-0.01352601816326332,-0.0013996080682046569,0.0,-0.014925626231467978,-10.235855434855415,-10,0.23585543485541496,40.14252998692767,40,-0.14252998692766652,9.335580969342953,10,0.6644190306570475,-0.0676300908163166,0,0.0676300908163166,3.997390237489629,2.213333782351356,0.014925626231467978,0.5205264446384218,0.03350663185119629,2.4718480110168457,STABILIZE
0.16,0.015,0.11,100.20906593824283,6.414023664244971,1.5031359890736424,0.03035148202533606,7.947511135343949,0.17,0.015,0.08,-25.02847476569419,-1.7366217235160981,-0.37542712148541285,-0.056306992369437925,-2.168355837370949,0.002,8e-05,0,23.50397354461746,0.018616485893618702,0.001880317883569397,-0.0,0.0204968037771881,0.2,0.02,0.0,-0.07423533087623999,-0.02531215194613695,-0.0014847066175247997,-0.0,-0.026796858563661752,-10.215421903035871,-10,0.21542190303587172,40.08764790153107,40,-0.087647901531073,9.30824294680935,10,0.6917570531906493,-0.12656075973068476,0,0.12656075973068476,3.995200559941642,2.1771861480596137,0.026796858563661752,0.5204968037771881,0.03361964225769043,2.505450487136841,STABILIZE
0.16,0.015,0.11,101.5521789587822,6.42218961531652,1.523282684381733,0.06288157311470124,8.008353872812954,0.17,0.015,0.08,-25.370313865068457,-1.7366857428020164,-0.38055470797602686,-0.052131280342348874,-2.169371731120392,0.002,8e-05,0,23.811485448688064,0.01837987316319974,0.0019049188358950453,-0.0,0.020284791999094786,0.2,0.02,0.0,-0.07897467275956876,-0.028326871753433864,-0.0015794934551913754,-0.0,-0.02990636520862524,-10.215798487070684,-10,0.21579848707068308,40.13868509572825,40,-0.1386850957282471,9.18993658159987,10,0.8100634184001297,-0.14163435876716932,0,0.14163435876716932,3.9946251277201847,2.179253036425734,0.02990636520862524,0.5202847919990948,0.033461809158325195,2.5389199256896973,STABILIZE
0.16,0.015,0.11,102.89631529402548,6.432123911272886,1.5434447294103821,0.09281509828048311,8.068383738963751,0.17,0.015,0.08,-25.713212869106194,-1.7434369392205664,-0.3856981930365929,-0.0452997636325028,-2.174434895889662,0.002,8e-05,0,24.11938957773297,0.01841775141108492,0.0019295511662186379,-0.0,0.020347302577303557,0.2,0.02,0.0,-0.08398113367152289,-0.02994690354160087,-0.0016796226734304579,-0.0,-0.03162652621503133,-10.255511407179801,-10,0.2555114071798015,40.20077444545554,40,-0.2007744454555362,9.208875705542459,10,0.7911242944575415,-0.14973451770800433,0,0.14973451770800433,3.9943037652573605,2.184880900029463,0.03162652621503133,0.5203473025773035,0.03343558311462402,2.572359323501587,STABILIZE
0.16,0.015,0.11,104.24190478996529,6.433251819019743,1.5636285718494793,0.08387335019471748,8.08075374106394,0.17,0.015,0.08,-26.04889044273774,-1.70517607016532,-0.39073335664106607,0.09477345918352871,-2.0011359676228575,0.002,8e-05,0,24.429060908999272,0.018506699676781695,0.001954324872719942,-0.0,0.020461024549501636,0.2,0.02,0.0,-0.08837497502108747,-0.026258647176444622,-0.0017674995004217495,-0.0,-0.02802614667686637,-10.030447471560706,-10,0.03044747156070643,40.20782386887339,40,-0.20782386887338866,9.253349838390847,10,0.7466501616091532,-0.1312932358822231,0,0.1312932358822231,3.9954039005076525,2.0102967026591148,0.02802614667686637,0.5204610245495016,0.03346586227416992,2.605820655822754,STABILIZE
0.16,0.015,0.11,105.59018187704123,6.431439067916886,1.5838527281556185,0.03569831508812224,8.050990111160626,0.17,0.015,0.08,-26.386406957161856,-1.710617739558819,-0.39579610435742785,0.08287441127704458,-2.023539432639202,0.002,8e-05,0,24.738962626997036,0.018478342058270158,0.001979117010159763,-0.0,0.020457459068429922,0.2,0.02,0.0,-0.09185618900740815,-0.020757246275650395,-0.001837123780148163,-0.0,-0.02259437005579856,-10.062457291522463,-10,0.06245729152246339,40.196494174480534,40,-0.1964941744805325,9.239171029135079,10,0.7608289708649209,-0.10378623137825196,0,0.10378623137825196,3.996327977073876,2.030781754670453,0.02259437005579856,0.5204574590684299,0.03354215621948242,2.6393773555755615,STABILIZE
0.16,0.015,0.11,106.94463876061045,6.4329334309976005,1.6041695814091566,0.07771135726664023,8.114814369673397,0.17,0.015,0.08,-26.727799825874058,-1.7227698248940555,-0.4009169973881109,0.0391993751991575,-2.084487447083009,0.002,8e-05,0,25.050160030502994,0.018475229859087183,0.0020040128024402396,-0.0,0.02047924266152742,0.2,0.02,0.0,-0.09621638982720121,-0.025885727666720468,-0.0019243277965440243,-0.0,-0.027810055463264493,-10.13394014643562,-10,0.13394014643561933,40.205833943735,40,-0.20583394373500086,9.237614929543591,10,0.7623850704564095,-0.12942863833360232,0,0.12942863833360232,3.995281033059257,2.093517944495245,0.027810055463264493,0.5204792426615275,0.03368806838989258,2.67305850982666,STABILIZE
0.16,0.015,0.11,108.29072040974201,6.4320305833261795,1.62436080614613,0.04044870214062636,8.096840091612936,0.17,0.015,0.08,-27.063827603081997,-1.706007024217786,-0.4059574140462299,0.0864960863214414,-2.0254683519425747,0.002,8e-05,0,25.35920535750749,0.0184590306632719,0.0020287364286005996,0.0,0.0204877670918725,0.2,0.02,0.0,-0.09930264199331486,-0.018433937804874716,-0.001986052839866297,0.0,-0.020419990644741013,-10.035335436575211,-10,0.03533543657521132,40.20019114578862,40,-0.2001911457886234,9.22951533163595,10,0.7704846683640506,-0.09216968902437359,0,0.09216968902437359,3.996736526680397,2.0319003865887924,0.020419990644741013,0.5204877670918725,0.033484458923339844,2.706554889678955,STABILIZE
0.16,0.015,0.11,109.63314652057458,6.431461095978057,1.6444971978086187,-0.002749643718711911,8.073208650067965,0.17,0.015,0.08,-27.395750925292468,-1.6896080247504122,-0.41093626387938703,0.15171549686186817,-1.9488287917679312,0.002,8e-05,0,25.66701096427073,0.018433414780217372,0.0020533608771416585,0.0,0.02048677565735903,0.2,0.02,0.0,-0.101184923380633,-0.011272333181444272,-0.00202369846761266,0.0,-0.013296031649056931,-9.938870733825953,-10,-0.06112926617404678,40.196631849862854,40,-0.19663184986285656,9.216707390108686,10,0.7832926098913139,-0.05636166590722136,0,0.05636166590722136,3.99808100865289,1.9527626348004377,0.013296031649056931,0.520486775657359,0.03339648246765137,2.7399497032165527,STABILIZE
