E-kp,E-ki,E-kd,E-I-Tot,E-P,E-I,E-D,E-PID,N-kp,N-ki,N-kd,N-I-Tot,N-P,N-I,N-D,N-PID,Y-kp,Y-ki,Y-kd,Y-I-Tot,Y-P,Y-I,Y-D,Y-PID,D-kp,D-ki,D-kd,D-I-Tot,D-P,D-I,D-D,D-PID,errorN,desiredN,actualN,errorE,desiredE,actualE,errorD,desiredD,actualD,errorY,desiredY,actualY,roll,pitch,yaw-rate,thrust,dt,Time,Mode
0.02,0.005,0.01,-0.00305531815085141,-0.001854374500428856,-1.527659075425705e-05,-0.028137043493183533,-0.030006694584366646,0.02,0.005,0.01,-0.002987659112951621,-0.0018133099734597231,-1.4938295564758105e-05,-0.02751395771353639,-0.02934220598256087,0.2,0.02,0,-0.0029216432856161347,-0.01773242765793796,-5.8432865712322696e-05,-0.0,-0.01779086052365028,0.002,8e-05,0,-0.004080664265038846,-0.00024766912590725175,-3.2645314120310773e-07,-0.0,-0.00024799557904845484,-0.09066549867298615,0.0,0.09066549867298615,-0.0927187250214428,0.0,0.0927187250214428,-0.12383456295362588,0.0,0.12383456295362588,-0.0886621382896898,0,0.0886621382896898,-0.03005206412556413,0.02929573712326541,0.01779086052365028,0.4,0.03295254707336426,0.03317093849182129,STABILIZE
0.02,0.005,0.01,-0.006556047977867527,-0.0020942534557630353,-3.278023988933764e-05,-0.00358758998835416,-0.005714623684006533,0.02,0.005,0.01,-0.006413657606040021,-0.002049546676872503,-3.2068288030200106e-05,-0.0035331170709193087,-0.005614732035822012,0.2,0.02,0,-0.006240388306893855,-0.019853840693360186,-0.0001248077661378771,-0.0,-0.019978648459498063,0.002,8e-05,0,-0.009109265661564449,-0.0003008277237236819,-7.28741252925156e-07,-0.0,-0.00030155646497660705,-0.10247733384362515,0.0,0.10247733384362515,-0.10471267278815177,0.0,0.10471267278815177,-0.15041386186184094,0.0,0.15041386186184094,-0.09926920346680093,0,0.09926920346680093,-0.005724343043270715,0.005604822602621118,0.019978648459498063,0.4,0.0334317684173584,0.06659746170043945,STABILIZE
0.02,0.005,0.01,-0.010522238424766166,-0.002371506758120626,-5.261119212383083e-05,-0.004144456053329619,-0.006568574003574076,0.02,0.005,0.01,-0.010302754524461374,-0.0023254101759622443,-5.151377262230687e-05,-0.004123680904693352,-0.006500604853277903,0.2,0.02,0,-0.009965029078174162,-0.022270768080665,-0.00019930058156348324,-0.0,-0.022470068662228483,0.002,8e-05,0,-0.015188028647046855,-0.00036346785899697486,-1.2150422917637484e-06,-0.0,-0.0003646829012887386,-0.11627050879811221,0.0,0.11627050879811221,-0.1185753379060313,0.0,0.1185753379060313,-0.18173392949848743,0.0,0.18173392949848743,-0.11135384040332498,0,0.11135384040332498,-0.006581195458354753,0.006487826618970344,0.022470068662228483,0.4,0.03344869613647461,0.10000085830688477,STABILIZE
0.02,0.005,0.01,-0.015171482648756075,-0.0027810157867152177,-7.585741324378037e-05,-0.0061238505575139926,-0.00898072375747299,0.02,0.005,0.01,-0.01493875745401567,-0.002773095306076241,-7.469378727007835e-05,-0.0066947408779927725,-0.009542529971339092,0.2,0.02,0,-0.014280157661137447,-0.025811594600699147,-0.00028560315322274894,-0.0,-0.026097197753921896,0.002,8e-05,0,-0.02327710119222596,-0.000483860114982778,-1.8621680953780769e-06,-0.0,-0.0004857222830781561,-0.13865476530381204,0.0,0.13865476530381204,-0.13905078933576087,0.0,0.13905078933576087,-0.241930057491389,0.0,0.241930057491389,-0.12905797300349572,0,0.12905797300349572,-0.009002195377036738,0.00952227682099208,0.026097197753921896,0.4,0.03343558311462402,0.13344192504882812,STABILIZE
0.02,0.005,0.01,-0.020085160481309507,-0.0029356530379736467,-0.00010042580240654754,-0.0023096819323052643,-0.005345760772685459,0.02,0.005,0.01,-0.019809798001384278,-0.002910179598312111,-9.904899000692139e-05,-0.002047508672091614,-0.0050567372604106466,0.2,0.02,0,-0.018826511922822302,-0.027161973484704352,-0.000376530238456446,-0.0,-0.027538503723160798,0.002,8e-05,0,-0.03245622768373325,-0.0005484024693726138,-2.59649821469866e-06,-0.0,-0.0005509989675873125,-0.14550897991560555,0.0,0.14550897991560555,-0.14678265189868234,0.0,0.14678265189868234,-0.2742012346863069,0.0,0.2742012346863069,-0.13580986742352175,0,0.13580986742352175,-0.00535773187670322,0.005044051853120288,0.027538503723160798,0.4,0.03347587585449219,0.16692495346069336,STABILIZE
0.02,0.005,0.01,-0.02530659931505367,-0.0031229931531997364,-0.00012653299657526835,-0.002801248447983801,-0.006050774597758806,0.02,0.005,0.01,-0.02491413474643376,-0.003052953259434163,-0.0001245706737321688,-0.0021348577486911676,-0.005312381681857499,0.2,0.02,0,-0.023645303249941473,-0.028821657785274003,-0.0004729060649988295,-0.0,-0.02929456385027283,0.002,8e-05,0,-0.04283632766251646,-0.0006208438362577407,-3.426906213001317e-06,-0.0,-0.000624270742470742,-0.15264766297170815,0.0,0.15264766297170815,-0.1561496576599868,0.0,0.1561496576599868,-0.3104219181288704,0.0,0.3104219181288704,-0.14410828892637,0,0.14410828892637,-0.006064116956732519,0.005297146203540873,0.02929456385027283,0.4,0.033438682556152344,0.2003648281097412,STABILIZE
0.02,0.005,0.01,-0.030614228583571344,-0.003173797721988915,-0.00015307114291785673,-0.0007594889193097208,-0.004086357784216493,0.02,0.005,0.01,-0.03007547853990289,-0.0030863235439744442,-0.00015037739269951444,-0.0004988598849785768,-0.0037355608216525357,0.2,0.02,0,-0.028550243569417686,-0.029330022171636817,-0.0005710048713883537,-0.0,-0.02990102704302517,0.002,8e-05,0,-0.05396624343452801,-0.0006655344511845334,-4.317299474762241e-06,-0.0,-0.0006698517506592956,-0.1543161771987222,0.0,0.1543161771987222,-0.15868988609944576,0.0,0.15868988609944576,-0.3327672255922667,0.0,0.3327672255922667,-0.14665011085818408,0,0.14665011085818408,-0.004095905658391604,0.003725089452677309,0.02990102704302517,0.4,0.033446550369262695,0.23383283615112305,STABILIZE
0.02,0.005,0.01,-0.03598300067998971,-0.0032104050068926322,-0.00017991500339994856,-0.0005472583331579714,-0.003937578343450552,0.02,0.005,0.01,-0.035267337605453516,-0.0031046149919912247,-0.0001763366880272676,-0.0002734468666287969,-0.0035543985466472893,0.2,0.02,0,-0.03351957526356841,-0.02971548627004438,-0.0006703915052713683,-0.0,-0.030385877775315748,0.002,8e-05,0,-0.06583159019583897,-0.0007095210593208527,-5.266527215667118e-06,-0.0,-0.0007147875865365198,-0.15523074959956124,0.0,0.15523074959956124,-0.1605202503446316,0.0,0.1605202503446316,-0.3547605296604263,0.0,0.3547605296604263,-0.1485774313502219,0,0.1485774313502219,-0.003946782237218657,0.0035441758155027293,0.030385877775315748,0.4,0.03344607353210449,0.2672607898712158,STABILIZE
0.02,0.005,0.01,-0.04139525610549509,-0.0032373763136627543,-0.00020697628052747545,-0.0004033266301265338,-0.0038476792243167636,0.02,0.005,0.01,-0.04037966863525709,-0.003057974556317947,-0.00020189834317628545,0.000697457112777898,-0.0025624157867163346,0.2,0.02,0,-0.03853728391954232,-0.03001375558729044,-0.0007707456783908465,-0.0,-0.03078450126568129,0.002,8e-05,0,-0.07851349967550234,-0.0007585767879320597,-6.281079974040187e-06,-0.0,-0.0007648578679060999,-0.15289872781589736,0.0,0.15289872781589736,-0.1618688156831377,0.0,0.1618688156831377,-0.37928839396602987,0.0,0.37928839396602987,-0.1500687779364522,0,0.1500687779364522,-0.0038543774835372935,0.0025523291895154635,0.03078450126568129,0.4,0.03343605995178223,0.3006913661956787,STABILIZE
0.02,0.005,0.01,-0.046895615192174514,-0.0032876614773265497,-0.0002344780759608726,-0.0007514081937799652,-0.004273547747067388,0.02,0.005,0.01,-0.04552165662399991,-0.003073456761833202,-0.00022760828311999955,-0.0002313496712415754,-0.003532414716194777,0.2,0.02,0,-0.043544221723867814,-0.029927348886213345,-0.0008708844344773563,0.0,-0.0307982333206907,0.002,8e-05,0,-0.09233070928561206,-0.000825878947963884,-7.386456742848965e-06,-0.0,-0.000833265404706733,-0.1536728380916601,0.0,0.1536728380916601,-0.16438307386632747,0.0,0.16438307386632747,-0.412939473981942,0.0,0.412939473981942,-0.14963674443106673,0,0.14963674443106673,-0.00428275860678999,0.003521241654533303,0.0307982333206907,0.4,0.03346061706542969,0.33418703079223633,STABILIZE
0.02,0.005,0.01,-0.05240249130203981,-0.0032970540996520525,-0.00026201245651019905,-0.0001405878002653162,-0.0036996543564275673,0.02,0.005,0.01,-0.05054379122006005,-0.003006831664377053,-0.00025271895610030025,0.0009972375731950433,-0.00226231304728231,0.2,0.02,0,-0.04839199896973087,-0.02902441152441998,-0.0009678399793946175,0.0,-0.0299922515038146,0.002,8e-05,0,-0.10773415821053677,-0.0009222289264093552,-8.618732656842943e-06,-0.0,-0.0009308476590661982,-0.15034158321885266,0.0,0.15034158321885266,-0.16485270498260263,0.0,0.16485270498260263,-0.46111446320467764,0.0,0.46111446320467764,-0.1451220576220999,0,0.1451220576220999,-0.0037053726000577185,0.0022529351024116848,0.0299922515038146,0.4,0.03340482711791992,0.3675689697265625,STABILIZE
0.02,0.005,0.01,-0.05791454443239875,-0.0032930556494996173,-0.00028957272216199376,5.9719665940804e-05,-0.0035229087057208073,0.02,0.005,0.01,-0.05548258087019997,-0.002950571914756638,-0.00027741290435099984,0.0008402789393780681,-0.0023877058797295695,0.2,0.02,0,-0.05328354286722034,-0.02922345972625657,-0.0010656708573444067,-0.0,-0.030289130583600977,0.002,8e-05,0,-0.1240416066138676,-0.0009742528568481912,-9.923328529109409e-06,-0.0,-0.0009841761853773006,-0.1475285957378319,0.0,0.1475285957378319,-0.16465278247498086,0.0,0.16465278247498086,-0.4871264284240956,0.0,0.4871264284240956,-0.14611729863128284,0,0.14611729863128284,-0.003528986437505203,0.0023787139047903487,0.030289130583600977,0.4,0.033476829528808594,0.4010500907897949,STABILIZE
0.02,0.005,0.01,-0.06349234529765051,-0.003336636332954758,-0.00031746172648825253,-0.0006517483114954248,-0.004305846370938436,0.02,0.005,0.01,-0.06034981486966464,-0.0029115757618344952,-0.0003017490743483232,0.0005831867425389359,-0.0026301380936438823,0.2,0.02,0,-0.05810239382848549,-0.028826330643350287,-0.0011620478765697099,0.0,-0.029988378519919996,0.002,8e-05,0,-0.14134286068641277,-0.001034959733033245,-1.1307428854913023e-05,-0.0,-0.001046267161888158,-0.14557878809172475,0.0,0.14557878809172475,-0.16683181664773788,0.0,0.16683181664773788,-0.5174798665166225,0.0,0.5174798665166225,-0.14413165321675142,0,0.14413165321675142,-0.004312449041544557,0.0026192981170233,0.029988378519919996,0.4,0.03343367576599121,0.43448495864868164,STABILIZE
0.02,0.005,0.01,-0.0690793951549151,-0.0033418592687778905,-0.0003453969757745755,-7.810166785997392e-05,-0.00376535791241244,0.02,0.005,0.01,-0.06509618320063279,-0.002839010820577426,-0.00032548091600316395,0.001085106754564506,-0.002079384982016084,0.2,0.02,0,-0.0627970206383427,-0.028080619501855742,-0.001255940412766854,0.0,-0.029336559914622595,0.002,8e-05,0,-0.1594244036799938,-0.001081536295373048,-1.2753952294399505e-05,-0.0,-0.0010942902476674475,-0.1419505410288713,0.0,0.1419505410288713,-0.16709296343889452,0.0,0.16709296343889452,-0.5407681476865239,0.0,0.5407681476865239,-0.1404030975092787,0,0.1404030975092787,-0.0037704421272290456,0.0020701517522195103,0.029336559914622595,0.4,0.03343677520751953,0.46828126907348633,STABILIZE
0.02,0.005,0.01,-0.07454130736615044,-0.003264518277067252,-0.0003727065368307522,0.0011556441738779803,-0.0024815806400200237,0.02,0.005,0.01,-0.06968432748889049,-0.0027422778520732162,-0.00034842163744445244,0.001445402871119844,-0.0016452966183978248,0.2,0.02,0,-0.0673914438301564,-0.02746030676107332,-0.001347828876603128,0.0,-0.02880813563767645,0.002,8e-05,0,-0.1782551144174223,-0.001125488601703434,-1.4260409153393787e-05,-0.0,-0.0011397490108568278,-0.1371138926036608,0.0,0.1371138926036608,-0.1632259138533626,0.0,0.1632259138533626,-0.562744300851717,0.0,0.562744300851717,-0.13730153380536658,0,0.13730153380536658,-0.0024855162402482767,0.001639345129890463,0.02880813563767645,0.4,0.0334622859954834,0.5013818740844727,STABILIZE
0.02,0.005,0.01,-0.08001505243777907,-0.003272499978464024,-0.00040007526218889533,-0.00011929728781318217,-0.0037918725284661016,0.02,0.005,0.01,-0.07426288429919928,-0.0027373081623389855,-0.0003713144214959964,7.427871290781245e-05,-0.0030343438709271695,0.2,0.02,0,-0.07195379756075859,-0.02727621087530607,-0.001439075951215172,0.0,-0.02871528682652124,0.002,8e-05,0,-0.19828223254175253,-0.0011973291187831509,-1.5862578603340206e-05,-0.0,-0.001213191697386491,-0.13686540811694928,0.0,0.13686540811694928,-0.1636249989232012,0.0,0.1636249989232012,-0.5986645593915754,0.0,0.5986645593915754,-0.13638105437653034,0,0.13638105437653034,-0.0037990844235868764,0.0030253094951804113,0.02871528682652124,0.4,0.03345298767089844,0.5348668098449707,STABILIZE
0.02,0.005,0.01,-0.08520212086095635,-0.0030920959679942846,-0.0004260106043047818,0.002688544221293449,-0.0008295623510056172,0.02,0.005,0.01,-0.07850964687299561,-0.0025315643365701247,-0.00039254823436497805,0.0030661811364246865,0.00014206856548958395,0.2,0.02,0,-0.0762203656960392,-0.025433707543408554,-0.0015244073139207839,0.0,-0.026958114857329338,0.002,8e-05,0,-0.21912859926145564,-0.0012426858722993392,-1.7530287940916454e-05,-0.0,-0.0012602161602402557,-0.12657821682850623,0.0,0.12657821682850623,-0.15460479839971422,0.0,0.15460479839971422,-0.6213429361496696,0.0,0.6213429361496696,-0.12716853771704276,0,0.12716853771704276,-0.0008292449854031948,-0.0001439094357222283,0.026958114857329338,0.4,0.03355050086975098,0.5684022903442383,STABILIZE
0.02,0.005,0.01,-0.09031035954909253,-0.0030518055383591605,-0.00045155179774546264,0.0006017659109631653,-0.002901591425141458,0.02,0.005,0.01,-0.08264404811163248,-0.0024700076421986118,-0.0004132202405581624,0.0009193925356423028,-0.0019638353471144714,0.2,0.02,0,-0.08033611165857621,-0.02458862455296252,-0.0016067222331715243,0.0,-0.026195346786134045,0.002,8e-05,0,-0.2408039842096389,-0.0012949484914352735,-1.926431873677111e-05,-0.0,-0.0013142128101720446,-0.12350038210993058,0.0,0.12350038210993058,-0.152590276917958,0.0,0.152590276917958,-0.6474742457176368,0.0,0.6474742457176368,-0.12294312276481259,0,0.12294312276481259,-0.0029057986658393977,0.001957604705408278,0.026195346786134045,0.4,0.033476829528808594,0.601874589920044,STABILIZE
0.02,0.005,0.01,-0.09528859186482835,-0.0029749835743339195,-0.00047644295932414176,0.0011477170340200482,-0.0023037094996380134,0.02,0.005,0.01,-0.08661985595174551,-0.002375936330182296,-0.00043309927975872757,0.0014054215950306387,-0.0014036140149103849,0.2,0.02,0,-0.08438416461084944,-0.024191098922764356,-0.0016876832922169888,0.0,-0.025878782214981345,0.002,8e-05,0,-0.263482549647418,-0.0013552673999079412,-2.1078603971793443e-05,-0.0,-0.0013763460038797347,-0.11879681650911479,0.0,0.11879681650911479,-0.14874917871669596,0.0,0.14874917871669596,-0.6776336999539706,0.0,0.6776336999539706,-0.12095549461382177,0,0.12095549461382177,-0.0023066674937816255,0.0013987475950672688,0.025878782214981345,0.4,0.03346729278564453,0.6353456974029541,STABILIZE
0.02,0.005,0.01,-0.10014622446908907,-0.0029015697946525665,-0.0005007311223454453,0.0010962912543439997,-0.002306009662654012,0.02,0.005,0.01,-0.09054756566284326,-0.0023461065890180146,-0.0004527378283142163,0.00044544885850704994,-0.002353395558825181,0.2,0.02,0,-0.08823305514096087,-0.022990261748696575,-0.0017646611028192174,0.0,-0.024754922851515794,0.002,8e-05,0,-0.2865744971133409,-0.001379332335838991,-2.2925959769067273e-05,-0.0,-0.0014022582956080582,-0.11730532945090073,0.0,0.11730532945090073,-0.14507848973262832,0.0,0.14507848973262832,-0.6896661679194955,0.0,0.6896661679194955,-0.11495130874348286,0,0.11495130874348286,-0.0023107265861230675,0.002348764327201814,0.024754922851515794,0.4,0.03348278999328613,0.668837308883667,STABILIZE
0.02,0.005,0.01,-0.104912387715171,-0.0028526613488915054,-0.000524561938575855,0.0007318215179244469,-0.0026454017695429132,0.02,0.005,0.01,-0.09429474379251,-0.002242774673464913,-0.00047147371896255,0.001546164841539852,-0.0011680835508876112,0.2,0.02,0,-0.09190730804293334,-0.021991272011351367,-0.001838146160858667,0.0,-0.023829418172210032,0.002,8e-05,0,-0.3099137336507364,-0.0013969084679924958,-2.479309869205891e-05,-0.0,-0.0014217015666845546,-0.11213873367324566,0.0,0.11213873367324566,-0.14263306744457527,0.0,0.14263306744457527,-0.6984542339962478,0.0,0.6984542339962478,-0.10995636005675682,0,0.10995636005675682,-0.0026476385664772582,0.0011630046111074698,0.023829418172210032,0.4,0.03341555595397949,0.7022457122802734,STABILIZE
0.02,0.005,0.01,-0.10962739597317903,-0.002818765660370888,-0.0005481369798658952,0.000506595098079998,-0.0028603075421567855,0.02,0.005,0.01,-0.0978884219252985,-0.002148402709141711,-0.0004894421096264924,0.0014104559195850328,-0.0012273888991831705,0.2,0.02,0,-0.09543323423099077,-0.021078986750486806,-0.0019086646846198155,0.0,-0.022987651435106622,0.002,8e-05,0,-0.33376012601825955,-0.001425604967184139,-2.6700810081460765e-05,-0.0,-0.0014523057772655998,-0.10742013545708554,0.0,0.10742013545708554,-0.1409382830185444,0.0,0.1409382830185444,-0.7128024835920694,0.0,0.7128024835920694,-0.10539493375243403,0,0.10539493375243403,-0.002862560469546067,0.0012221253224400789,0.022987651435106622,0.4,0.03345441818237305,0.7357296943664551,STABILIZE
0.02,0.005,0.01,-0.1141636753783592,-0.002708981968287153,-0.000570818376891796,0.0016390196442001112,-0.0016407807009788378,0.02,0.005,0.01,-0.10126410642282209,-0.0020158962042715494,-0.0005063205321141105,0.001978260708346753,-0.0005439560280389067,0.2,0.02,0,-0.09884627648793538,-0.02038205565668372,-0.001976925529758708,0.0,-0.022358981186442427,0.002,8e-05,0,-0.3586067417825395,-0.0014837938333677285,-2.868853934260316e-05,-0.0,-0.0015124823727103317,-0.10079481021357747,0.0,0.10079481021357747,-0.13544909841435765,0.0,0.13544909841435765,-0.7418969166838643,0.0,0.7418969166838643,-0.1019102782834186,0,0.1019102782834186,-0.001641745623240545,0.0005410367618886764,0.022358981186442427,0.4,0.033490657806396484,0.7692174911499023,STABILIZE
0.02,0.005,0.01,-0.11854187122133719,-0.0026207528720750034,-0.000592709356106686,0.001320330711504306,-0.0018931315166773835,0.02,0.005,0.01,-0.10447864048682877,-0.0019241942760829561,-0.0005223932024341439,0.0013723009448088322,-0.001074286533708268,0.2,0.02,0,-0.102166179028335,-0.019872669998798716,-0.0020433235805667,0.0,-0.021915993579365415,0.002,8e-05,0,-0.3838863467684109,-0.0015132168534192538,-3.071090774147287e-05,-0.0,-0.0015439277611607267,-0.0962097138041478,0.0,0.0962097138041478,-0.13103764360375017,0.0,0.13103764360375017,-0.7566084267096269,0.0,0.7566084267096269,-0.09936334999399357,0,0.09936334999399357,-0.0018949917155659545,0.001071001817869856,0.021915993579365415,0.4,0.03341174125671387,0.8026101589202881,STABILIZE
0.02,0.005,0.01,-0.12282623999367398,-0.0025588552867204357,-0.00061413119996837,0.0009242141137711731,-0.0022487723729176325,0.02,0.005,0.01,-0.10749240135671033,-0.0017999799607822814,-0.0005374620067835516,0.001854686619448788,-0.00048275534811704503,0.2,0.02,0,-0.10529415193964266,-0.01868193530047686,-0.0021058830387928533,0.0,-0.020787818339269713,0.002,8e-05,0,-0.40957368393241567,-0.0015341858275200106,-3.2765894714593255e-05,-0.0,-0.001566951722234604,-0.08999899803911407,0.0,0.08999899803911407,-0.12794276433602178,0.0,0.12794276433602178,-0.7670929137600053,0.0,0.7670929137600053,-0.09340967650238428,0,0.09340967650238428,-0.002249556423202369,0.00047908852017364484,0.020787818339269713,0.4,0.03348660469055176,0.8361263275146484,STABILIZE
0.02,0.005,0.01,-0.1274224068528661,-0.0025629814191364835,-0.0006371120342643305,-5.7521849397600575e-05,-0.0032576153027984145,0.02,0.005,0.01,-0.11052739348303679,-0.001692416455996011,-0.000552636967415184,0.0014995281535147857,-0.0007455252698964096,0.2,0.02,0,-0.10847653162240294,-0.017746048490906437,-0.0021695306324480586,0.0,-0.019915579123354496,0.002,8e-05,0,-0.4388965323839935,-0.0016351433279069168,-3.511172259071948e-05,-0.0,-0.0016702550504976363,-0.08462082279980056,0.0,0.08462082279980056,-0.12814907095682418,0.0,0.12814907095682418,-0.8175716639534584,0.0,0.8175716639534584,-0.08873024245453218,0,0.08873024245453218,-0.003258765942451803,0.0007404795212541218,0.019915579123354496,0.4,0.03586578369140625,0.8720154762268066,STABILIZE
0.02,0.005,0.01,-0.13162090111422114,-0.0025130594200874034,-0.0006581045055711058,0.0007470353784608657,-0.0024241285471976438,0.02,0.005,0.01,-0.11322510960996646,-0.0016147505518595711,-0.0005661255480498323,0.001162196610617095,-0.0010186794892923087,0.2,0.02,0,-0.11136895388920506,-0.01731294262174769,-0.0022273790777841015,0.0,-0.01954032169953179,0.002,8e-05,0,-0.4677211379014139,-0.0017253315573778558,-3.7417691032113114e-05,-0.0,-0.001762749248409969,-0.08073752759297856,0.0,0.08073752759297856,-0.12565297100437017,0.0,0.12565297100437017,-0.8626657786889279,0.0,0.8626657786889279,-0.08656471310873844,0,0.08656471310873844,-0.002425664840877559,0.001015015859469123,0.01954032169953179,0.4,0.03341341018676758,0.9053771495819092,STABILIZE
0.02,0.005,0.01,-0.13565023062246676,-0.0024091908471614073,-0.0006782511531123338,0.0015526107674300358,-0.0015348312328437054,0.02,0.005,0.01,-0.11580845191399199,-0.001544615455550829,-0.0005790422595699599,0.0010483681698532496,-0.0010752895452675396,0.2,0.02,0,-0.11405884727029689,-0.01608323791912499,-0.0022811769454059378,0.0,-0.01836441486453093,0.002,8e-05,0,-0.49652959099180016,-0.0017224965435119453,-3.972236727934401e-05,0.0,-0.0017622189107912893,-0.07723077277754145,0.0,0.07723077277754145,-0.12045954235807035,0.0,0.12045954235807035,-0.8612482717559726,0.0,0.8612482717559726,-0.08041618959562495,0,0.08041618959562495,-0.0015363389188360731,0.0010731343093684995,0.01836441486453093,0.4,0.033449649810791016,0.9388556480407715,STABILIZE
0.02,0.005,0.01,-0.13933503621464052,-0.002197368996157923,-0.0006966751810732027,0.0031579058681713147,0.00026386169094018896,0.02,0.005,0.01,-0.11820335880084756,-0.0014281605936114139,-0.0005910167940042379,0.001736145209539833,-0.00028303217807581875,0.2,0.02,0,-0.11638999585952525,-0.013901394543818746,-0.002327799917190505,0.0,-0.01622919446100925,0.002,8e-05,0,-0.5253699405755284,-0.001719843514899121,-4.2029595246042276e-05,0.0,-0.0017618731101451631,-0.0714080296805707,0.0,0.0714080296805707,-0.10986844980789615,0.0,0.10986844980789615,-0.8599217574495605,0.0,0.8599217574495605,-0.06950697271909373,0,0.06950697271909373,0.0002635181433050971,0.00028335206708473486,0.01622919446100925,0.4,0.0335383415222168,0.9723701477050781,STABILIZE
0.02,0.005,0.01,-0.14292380340331312,-0.0021433741161963945,-0.0007146190170165657,0.0008062046242645624,-0.002051788508948398,0.02,0.005,0.01,-0.12039089670540987,-0.0013064965979505594,-0.0006019544835270494,0.001816581053206738,-9.187002827087086e-05,0.2,0.02,0,-0.11856441596597546,-0.012986620554860287,-0.0023712883193195092,0.0,-0.015357908874179796,0.002,8e-05,0,-0.5538787975337403,-0.0017026779078744888,-4.4310303802699226e-05,0.0,-0.001746988211677188,-0.06532482989752797,0.0,0.06532482989752797,-0.10716870580981973,0.0,0.10716870580981973,-0.8513389539372443,0.0,0.8513389539372443,-0.06493310277430143,0,0.06493310277430143,-0.002051891307283574,8.954468516493485e-05,0.015357908874179796,0.4,0.03348708152770996,1.0058598518371582,STABILIZE
0.02,0.005,0.01,-0.1463635748596217,-0.002056510181495394,-0.0007318178742981086,0.0012983171148604714,-0.0014900109409330309,0.02,0.005,0.01,-0.12234766684262087,-0.0011698793833061995,-0.0006117383342131044,0.0020419575577353645,0.00026033984021606063,0.2,0.02,0,-0.12061873211852046,-0.012281984827715975,-0.002412374642370409,0.0,-0.014694359470086384,0.002,8e-05,0,-0.5824295888224942,-0.0017069445956180717,-4.659436710579954e-05,-0.0,-0.0017535389627238713,-0.05849396916530997,0.0,0.05849396916530997,-0.1028255090747697,0.0,0.1028255090747697,-0.8534722978090359,0.0,0.8534722978090359,-0.06140992413857987,0,0.06140992413857987,-0.0014897310515103544,-0.00026193669210271693,0.014694359470086384,0.4,0.033452510833740234,1.0393424034118652,STABILIZE
0.02,0.005,0.01,-0.14987952297441187,-0.0021031325663025463,-0.0007493976148720594,-0.0006972020960302378,-0.003549732277204843,0.02,0.005,0.01,-0.12376743850804772,-0.0008492639620340463,-0.0006188371925402386,0.004794558336198023,0.0033264571816237383,0.2,0.02,0,-0.12185548734295887,-0.007397891277518104,-0.0024371097468591776,0.0,-0.009835001024377281,0.002,8e-05,0,-0.6112710429397761,-0.001725207523922648,-4.890168343518209e-05,-0.0,-0.00177410920735783,-0.042463198101702314,0.0,0.042463198101702314,-0.1051566283151273,0.0,0.1051566283151273,-0.8626037619613239,0.0,0.8626037619613239,-0.03698945638759052,0,0.03698945638759052,-0.003547584017436977,-0.003328748152118412,0.009835001024377281,0.4,0.03343534469604492,1.0727558135986328,STABILIZE
0.02,0.005,0.01,-0.15354009255952603,-0.0021889851230571184,-0.0007677004627976301,-0.001283474915190796,-0.004240160501045544,0.02,0.005,0.01,-0.12455888155386381,-0.00047327526844006146,-0.000622794407769319,0.0056209398399487635,0.0045248701637393834,0.2,0.02,0,-0.12214088984772545,-0.0017066793090283715,-0.002442817796954509,0.0,-0.004149497105982881,0.002,8e-05,0,-0.6414385255524822,-0.0018039862131794039,-5.1315082044198576e-05,-0.0,-0.0018553012952236025,-0.023663763422003072,0.0,0.023663763422003072,-0.10944925615285592,0.0,0.10944925615285592,-0.9019931065897019,0.0,0.9019931065897019,-0.008533396545141857,0,0.008533396545141857,-0.004239486538563858,-0.004525501625528547,0.004149497105982881,0.4,0.03344535827636719,1.106217384338379,STABILIZE
0.02,0.005,0.01,-0.1571673901122103,-0.002150919115599458,-0.0007858369505610515,0.0005643106328197666,-0.0023724454333407426,0.02,0.005,0.01,-0.1252896441501806,-0.00043332845308477073,-0.000626448220750903,0.0005921927241082859,-0.0004675839497273877,0.2,0.02,0,-0.12246119097683922,-0.00189932535545388,-0.0024492238195367843,-0.0,-0.0043485491749906645,0.002,8e-05,0,-0.6724845539796693,-0.001840970999417027,-5.379876431837355e-05,-0.0,-0.0018947697637354006,-0.021666422654238536,0.0,0.021666422654238536,-0.10754595577997288,0.0,0.10754595577997288,-0.9204854997085135,0.0,0.9204854997085135,-0.0094966267772694,0,0.0094966267772694,-0.0023725229015785694,0.0004671907166320987,0.0043485491749906645,0.4,0.03372788429260254,1.1399633884429932,STABILIZE
0.02,0.005,0.01,-0.15971968964568523,-0.0015263156597020155,-0.0007985984482284261,0.009338069683207382,0.007013155575276941,0.02,0.005,0.01,-0.12586896955627494,-0.0003464457943857264,-0.0006293448477813747,0.0012989302469168787,0.00032313960474977756,0.2,0.02,0,-0.12251978634449835,-0.0003504096054210807,-0.0024503957268899672,0.0,-0.002800805332311048,0.002,8e-05,0,-0.7028877482606519,-0.0018181593080043722,-5.623101986085216e-05,0.0,-0.0018743903278652244,-0.01732228971928632,0.0,0.01732228971928632,-0.07631578298510078,0.0,0.07631578298510078,-0.909079654002186,0.0,0.909079654002186,-0.0017520480271054034,0,0.0017520480271054034,0.007013165453286171,-0.0003229251492672237,0.002800805332311048,0.4,0.03344392776489258,1.1733777523040771,STABILIZE
0.02,0.005,0.01,-0.16203747031195614,-0.0013845397631063116,-0.0008101873515597807,0.0021172664129024176,-7.746070176367463e-05,0.02,0.005,0.01,-0.12666363068856304,-0.00047469544977184235,-0.0006333181534428152,-0.0019152669412464932,-0.003023280544461151,0.2,0.02,0,-0.1222609090040497,0.0015464188515949145,-0.0024452181800809943,0.0,-0.0008987993284860797,0.002,8e-05,0,-0.7335650068448164,-0.0018325238859294777,-5.868520054758532e-05,-0.0,-0.001891209086477063,-0.023734772488592116,0.0,0.023734772488592116,-0.06922698815531558,0.0,0.06922698815531558,-0.9162619429647388,0.0,0.9162619429647388,0.007732094257974572,0,-0.007732094257974572,-7.705270782975899e-05,0.0030232909702923296,0.0008987993284860797,0.4,0.03348088264465332,1.2068462371826172,STABILIZE
0.02,0.005,0.01,-0.16434494370179062,-0.0013794533735570517,-0.0008217247185089531,7.601861470930598e-05,-0.002125159477356699,0.02,0.005,0.01,-0.1271357197111775,-0.0002822241841373856,-0.0006356785985558875,0.002876578532410435,0.001958675749717162,0.2,0.02,0,-0.12192518250404553,0.0020070396263875043,-0.002438503650080911,0.0,-0.0004314640236934065,0.002,8e-05,0,-0.7636213654526424,-0.0017968287504880121,-6.10897092362114e-05,0.0,-0.0018579184597242236,-0.014111209206869278,0.0,0.014111209206869278,-0.06897266867785258,0.0,0.06897266867785258,-0.898414375244006,0.0,0.898414375244006,0.01003519813193752,0,-0.01003519813193752,-0.002125502501426907,-0.001958303503841283,0.0004314640236934065,0.4,0.03345489501953125,1.2403461933135986,STABILIZE
0.02,0.005,0.01,-0.16631730789855498,-0.0011790092194915672,-0.0008315865394927749,0.002995459789121153,0.0009848640301368112,0.02,0.005,0.01,-0.1275938919979685,-0.0002738791097142768,-0.0006379694599898425,0.0001247097227065005,-0.0007871388469976188,0.2,0.02,0,-0.12189869887091914,0.00015830974661205956,-0.0024379739774183827,-0.0,-0.002279664230806323,0.002,8e-05,0,-0.7934832958468916,-0.0017850400704085454,-6.347866366775133e-05,0.0,-0.0018485187340762967,-0.013693955485713841,0.0,0.013693955485713841,-0.05895046097457836,0.0,0.05895046097457836,-0.8925200352042727,0.0,0.8925200352042727,0.0007915487330602978,0,-0.0007915487330602978,0.0009848749044695708,0.0007871252408963368,0.002279664230806323,0.4,0.03345799446105957,1.2737860679626465,STABILIZE
0.02,0.005,0.01,-0.16855222377619833,-0.0013364770819747987,-0.0008427611188809917,-0.002354139941704572,-0.004533378142560362,0.02,0.005,0.01,-0.12772163163745032,-7.63881550688144e-05,-0.0006386081581872516,0.002952483999747935,0.0022374876864918692,0.2,0.02,0,-0.12172926593138597,0.0010132069975559049,-0.0024345853186277197,0.0,-0.0014213783210718148,0.002,8e-05,0,-0.8227603346275711,-0.0017507634962853666,-6.58208267702057e-05,0.0,-0.0018165843230555723,-0.00381940775344072,0.0,0.00381940775344072,-0.06682385409873993,0.0,0.06682385409873993,-0.8753817481426832,0.0,0.8753817481426832,0.005066034987779524,0,-0.005066034987779524,-0.004533575961241941,-0.002237086841026961,0.0014213783210718148,0.4,0.033444881439208984,1.3072247505187988,STABILIZE
0.02,0.005,0.01,-0.1711937795760466,-0.0014898994214306285,-0.000855968897880233,-0.002163344938642841,-0.004509213257953703,0.02,0.005,0.01,-0.12750541717529695,0.00012195002736104095,-0.0006375270858764848,0.002796684658968963,0.002281107600453519,0.2,0.02,0,-0.12138937393899582,0.001917070549257699,-0.0024277874787799166,0.0,-0.0005107169295222175,0.002,8e-05,0,-0.8533841960381894,-0.001727257603275801,-6.827073568305516e-05,0.0,-0.001795528338958856,0.006097501368052047,0.0,-0.006097501368052047,-0.07449497107153143,0.0,0.07449497107153143,-0.8636288016379005,0.0,0.8636288016379005,0.009585352746288495,0,-0.009585352746288495,-0.0045095948149483,-0.0022803531953501576,0.0005107169295222175,0.4,0.03545951843261719,1.342749834060669,STABILIZE
0.02,0.005,0.01,-0.1735201522131899,-0.0013876465232391384,-0.0008676007610659495,0.00152480815413115,-0.0007304391301739379,0.02,0.005,0.01,-0.1274736925246555,1.892328015756773e-05,-0.0006373684626232776,-0.0015363478884996393,-0.0021547930709653494,0.2,0.02,0,-0.12068681366285562,0.0041906670882658715,-0.0024137362732571123,0.0,0.0017769308150087592,0.002,8e-05,0,-0.8822513488217729,-0.0017218825374915828,-7.058010790574184e-05,0.0,-0.0017924626453973247,0.0009461640078783865,0.0,-0.0009461640078783865,-0.06938232616195691,0.0,0.06938232616195691,-0.8609412687457914,0.0,0.8609412687457914,0.020953335441329355,0,-0.020953335441329355,-0.0007296510634091616,0.0021550600518861233,-0.0017769308150087592,0.4,0.03352975845336914,1.3762106895446777,STABILIZE
0.02,0.005,0.01,-0.17552602620203606,-0.0011998438800780722,-0.0008776301310101803,0.0028084248226992203,0.0007309508116109678,0.02,0.005,0.01,-0.12742171408350675,3.109169113071634e-05,-0.0006371085704175338,0.00018196797901554176,-0.00042404890027127566,0.2,0.02,0,-0.12039819307912134,0.0017264276967734707,-0.002407963861582427,-0.0,-0.0006815361648089561,0.002,8e-05,0,-0.910540570343257,-0.0016921625936358185,-7.284324562746056e-05,0.0,-0.0017650058392632791,0.0015545845565358171,0.0,-0.0015545845565358171,-0.05999219400390361,0.0,0.05999219400390361,-0.8460812968179092,0.0,0.8460812968179092,0.008632138483867353,0,-0.008632138483867353,0.0007310146901992932,0.00042393877096680174,0.0006815361648089561,0.4,0.03343558311462402,1.4096605777740479,STABILIZE
0.02,0.005,0.01,-0.17739108524587266,-0.0011149534082752549,-0.0008869554262293634,0.0012687121244154323,-0.000733196710089186,0.02,0.005,0.01,-0.12684470245626014,0.00034494408235442566,-0.0006342235122813008,0.004690612804546574,0.0044013333746196984,0.2,0.02,0,-0.12022134489150076,0.0010572184842430395,-0.002404426897830015,-0.0,-0.0013472084135869756,0.002,8e-05,0,-0.939300847405451,-0.0017193219184884522,-7.514406779243608e-05,-0.0,-0.0017944659862808882,0.017247204117721283,0.0,-0.017247204117721283,-0.05574767041376274,0.0,0.05574767041376274,-0.859660959244226,0.0,0.859660959244226,0.005286092421215197,0,-0.005286092421215197,-0.0007336027727411289,-0.004401265711366829,0.0013472084135869756,0.4,0.03345537185668945,1.4431145191192627,STABILIZE
0.02,0.005,0.01,-0.17968212631332636,-0.001371173743723019,-0.0008984106315666319,-0.0038336566895802687,-0.006103241064869919,0.02,0.005,0.01,-0.12480593400029143,0.0012201901642304482,-0.0006240296700014571,0.013095732588707812,0.013691893082936803,0.2,0.02,0,-0.12019360212233808,0.00016603873756098586,-0.002403872042446762,-0.0,-0.002237833304885776,0.002,8e-05,0,-0.9680775703221274,-0.001722268860836855,-7.74462056257702e-05,-0.0,-0.0017997150664626252,0.06100950821152241,0.0,-0.06100950821152241,-0.06855868718615095,0.0,0.06855868718615095,-0.8611344304184275,0.0,0.8611344304184275,0.0008301936878049292,0,-0.0008301936878049292,-0.00610343945446509,-0.013691804647896714,0.002237833304885776,0.4,0.0334172248840332,1.4765241146087646,STABILIZE
0.02,0.005,0.01,-0.18239403627920814,-0.0016205291054398792,-0.0009119701813960407,-0.003725120176770621,-0.006257619463606541,0.02,0.005,0.01,-0.1213693117245433,0.002053588243089809,-0.0006068465586227165,0.012450135330821595,0.013896877015288687,0.2,0.02,0,-0.12031789862263462,-0.000742746252526677,-0.002406357972452692,-0.0,-0.003149104224979369,0.002,8e-05,0,-0.9968076220954436,-0.001716793171056304,-7.97446097676355e-05,0.0,-0.0017965377808239395,0.10267941215449045,0.0,-0.10267941215449045,-0.08102645527199395,0.0,0.08102645527199395,-0.858396585528152,0.0,0.858396585528152,-0.003713731262633385,0,0.003713731262633385,-0.006256718698835206,-0.013897282585203927,0.003149104224979369,0.4,0.033469438552856445,1.5100057125091553,STABILIZE
0.02,0.005,0.01,-0.18457543701305115,-0.0012907011565594345,-0.0009228771850652558,0.004878852707815355,0.002665274366190665,0.02,0.005,0.01,-0.1188475462840935,0.0014920897018431112,-0.0005942377314204676,-0.008305750582067322,-0.007407898611644678,0.2,0.02,0,-0.12049115574641506,-0.0010251356689131173,-0.002409823114928301,-0.0,-0.003434958783841418,0.002,8e-05,0,-1.0256308664261795,-0.0017054268945777928,-8.205046931409437e-05,0.0,-0.001787477363891887,0.07460448509215556,0.0,-0.07460448509215556,-0.06453505782797173,0.0,0.06453505782797173,-0.8527134472888964,0.0,0.8527134472888964,-0.005125678344565587,0,0.005125678344565587,0.0026646116451868504,0.007408137017348884,0.003434958783841418,0.4,0.03380179405212402,1.5438408851623535,STABILIZE
0.02,0.005,0.01,-0.18511930665518397,-0.0003251314284967829,-0.0009255965332759198,0.01443071283438125,0.013179984872608547,0.02,0.005,0.01,-0.11801103321762352,0.0005000769801951663,-0.0005900551660881176,-0.014825910856668456,-0.014915889042561407,0.2,0.02,0,-0.11952769941208004,0.005759651026819326,-0.0023905539882416007,0.0,0.003369097038577725,0.002,8e-05,0,-1.0534167741584517,-0.001661073016990921,-8.427334193267614e-05,0.0,-0.001745346358923597,0.025003849009758314,0.0,-0.025003849009758314,-0.016256571424839144,0.0,0.016256571424839144,-0.8305365084954605,0.0,0.8305365084954605,0.028798255134096624,0,-0.028798255134096624,0.013187480296801554,0.014909262577125146,-0.003369097038577725,0.4,0.03345537185668945,1.5772650241851807,STABILIZE
0.02,0.005,0.01,-0.18574004317548634,-0.00037051561795829773,-0.0009287002158774317,-0.0006772418914420744,-0.001976457725277804,0.02,0.005,0.01,-0.11750491424164804,0.00030210077707789983,-0.0005875245712082402,-0.002954283856349442,-0.0032397076504797825,0.2,0.02,0,-0.11675945786447121,0.01652354411450635,-0.002335189157289424,0.0,0.014188354957216926,0.002,8e-05,0,-1.0828634457322721,-0.0017576622863553486,-8.662907565858178e-05,-0.0,-0.0018442913620139304,0.015105038853894992,0.0,-0.015105038853894992,-0.018525780897914887,0.0,0.018525780897914887,-0.8788311431776743,0.0,0.8788311431776743,0.08261772057253175,0,-0.08261772057253175,-0.00197178417167007,0.0032425542371314195,-0.014188354957216926,0.4,0.03350663185119629,1.6107659339904785,STABILIZE
0.02,0.005,0.01,-0.18693610001176234,-0.0007140088204696453,-0.0009346805000588116,-0.005126369603138895,-0.006775058923667352,0.02,0.005,0.01,-0.11665645464180363,0.0005065040554320778,-0.0005832822732090182,0.003050560375797189,0.0029737821580202483,0.2,0.02,0,-0.11357637402285402,0.0190020228995593,-0.0022715274804570806,0.0,0.01673049541910222,0.002,8e-05,0,-1.1137534500679367,-0.0018440374145330973,-8.910027600543495e-05,-0.0,-0.0019331376905385323,0.02532520277160389,0.0,-0.02532520277160389,-0.035700441023482264,0.0,0.035700441023482264,-0.9220187072665487,0.0,0.9220187072665487,0.09501011449779649,0,-0.09501011449779649,-0.006779980849030075,-0.002962543405472671,-0.01673049541910222,0.4,0.03350257873535156,1.6442866325378418,STABILIZE
0.02,0.005,0.01,-0.18793819781757964,-0.0005987496560202276,-0.0009396909890878983,0.0017216728912748606,0.00018323224616673475,0.02,0.005,0.01,-0.1175868394839707,-0.0005559014309582433,-0.0005879341974198535,-0.015869581687472826,-0.01701341731585092,0.2,0.02,0,-0.11254814844757506,0.006143608996402786,-0.002250962968951501,-0.0,0.0038926460274512848,0.002,8e-05,0,-1.1444765399341956,-0.0018356930214309477,-9.155812319473566e-05,0.0,-0.0019272511446256834,-0.027795071547912165,0.0,0.027795071547912165,-0.029937482801011377,0.0,0.029937482801011377,-0.9178465107154739,0.0,0.9178465107154739,0.03071804498201393,0,-0.03071804498201393,0.0001923536402553461,0.017013316634225433,-0.0038926460274512848,0.4,0.03347301483154297,1.6777558326721191,STABILIZE
0.02,0.005,0.01,-0.1887541049597033,-0.0004873382923802295,-0.0009437705247985165,0.0016636397975004036,0.0002325309803216575,0.02,0.005,0.01,-0.12025604515850223,-0.0015943065923556615,-0.0006012802257925111,-0.015505888232485197,-0.01770147505063337,0.2,0.02,0,-0.11362723807151276,-0.006445362070078779,-0.0022725447614302553,-0.0,-0.008717906831509034,0.002,8e-05,0,-1.1750831694336927,-0.0018281225626946014,-9.400665355469542e-05,0.0,-0.0019221292162492967,-0.07971532961778308,0.0,0.07971532961778308,-0.024366914619011474,0.0,0.024366914619011474,-0.9140612813473007,0.0,0.9140612813473007,-0.032226810350393896,0,0.032226810350393896,0.00022257450252128892,0.01770160304085007,0.008717906831509034,0.4,0.03348422050476074,1.7112243175506592,STABILIZE
0.02,0.005,0.01,-0.19007602294924666,-0.0007903927228062794,-0.0009503801147462334,-0.004530009015644209,-0.006270781853196721,0.02,0.005,0.01,-0.12276134495800203,-0.0014979527819699832,-0.0006138067247900102,0.0014402813023560298,-0.0006714782044039635,0.2,0.02,0,-0.11393524311745785,-0.0018416040089347969,-0.0022787048623491572,0.0,-0.004120308871283954,0.002,8e-05,0,-1.205466024334684,-0.0018166321664264179,-9.643728194677472e-05,0.0,-0.0019130694483731926,-0.07489763909849916,0.0,0.07489763909849916,-0.039519636140313966,0.0,0.039519636140313966,-0.9083160832132089,0.0,0.9083160832132089,-0.009208020044673984,0,0.009208020044673984,-0.0062708896856578005,0.0006704704167086614,0.004120308871283954,0.4,0.033449649810791016,1.744718313217163,STABILIZE
0.02,0.005,0.01,-0.1916177054354772,-0.0009226478252848971,-0.0009580885271773861,-0.0019787615766311737,-0.003859497929093457,0.02,0.005,0.01,-0.12442393724408497,-0.0009950084863716154,-0.0006221196862204249,0.007524903226147967,0.005907775053555927,0.2,0.02,0,-0.11386049671806305,0.00044733337418988893,-0.0022772099343612608,0.0,-0.0018298765601713718,0.002,8e-05,0,-1.2356164810875927,-0.0018044087289617067,-9.884931848700743e-05,0.0,-0.0019032580474487141,-0.04975042431858077,0.0,0.04975042431858077,-0.04613239126424486,0.0,0.04613239126424486,-0.9022043644808534,0.0,0.9022043644808534,0.0022366668709494445,0,-0.0022366668709494445,-0.0038597285491558716,-0.00590762438505746,0.0018298765601713718,0.4,0.03341865539550781,1.778106451034546,STABILIZE
0.02,0.005,0.01,-0.1933316358128704,-0.0009660214251803081,-0.0009666581790643521,-0.0006111658229941209,-0.002543845427238781,0.02,0.005,0.01,-0.1257606384791599,-0.0007534040175606918,-0.0006288031923957994,0.003404384104062069,0.002022176894105578,0.2,0.02,0,-0.11404121221991535,-0.0010185655669225965,-0.002280824244398307,-0.0,-0.0032993898113209035,0.002,8e-05,0,-1.2673305587578654,-0.0017874984254560205,-0.00010138644470062923,0.0,-0.0018888848701566496,-0.03767020087803459,0.0,0.03767020087803459,-0.04830107125901541,0.0,0.04830107125901541,-0.8937492127280102,0.0,0.8937492127280102,-0.005092827834612982,0,0.005092827834612982,-0.002543665672732845,-0.0020224029999232848,0.0032993898113209035,0.4,0.03548431396484375,1.8136024475097656,STABILIZE
0.02,0.005,0.01,-0.19431058549799143,-0.000584885413535491,-0.0009715529274899572,0.005692858815225718,0.004136420474200269,0.02,0.005,0.01,-0.12749890455781404,-0.0010385482417542872,-0.0006374945227890702,-0.004259072249053067,-0.005935115013596425,0.2,0.02,0,-0.11473359741565581,-0.004136739688377806,-0.0022946719483131163,-0.0,-0.006431411636690922,0.002,8e-05,0,-1.297237946938777,-0.0017868533357561103,-0.00010377903575510216,0.0,-0.0018906323715112126,-0.051927412087714356,0.0,0.051927412087714356,-0.02924427067677455,0.0,0.02924427067677455,-0.8934266678780551,0.0,0.8934266678780551,-0.020683698441889026,0,0.020683698441889026,0.004134277636273614,0.005936607868994611,0.006431411636690922,0.4,0.03347492218017578,1.8470816612243652,STABILIZE
0.02,0.005,0.01,-0.19565092246281449,-0.0008020173467491002,-0.0009782546123140725,-0.0032481305362169243,-0.005028402495280097,0.02,0.005,0.01,-0.12929844952633054,-0.0010767936115198,-0.0006464922476316527,-0.0005721219885333927,-0.0022954078476848457,0.2,0.02,0,-0.11408833581979563,0.0038610514120916914,-0.002281766716395913,0.0,0.0015792846956957786,0.002,8e-05,0,-1.327188054122693,-0.0017921243783399555,-0.00010617504432981545,-0.0,-0.001898299422669771,-0.05383968057599,0.0,0.05383968057599,-0.04010086733745501,0.0,0.04010086733745501,-0.8960621891699777,0.0,0.8960621891699777,0.019305257060458457,0,-0.019305257060458457,-0.005027628794454851,0.002297101988793867,-0.0015792846956957786,0.4,0.03342413902282715,1.8805012702941895,STABILIZE
0.02,0.005,0.01,-0.19736576073794157,-0.0010249452136399898,-0.0009868288036897078,-0.0033310553751760806,-0.005342829392505778,0.02,0.005,0.01,-0.13115807786825698,-0.0011114850862921782,-0.0006557903893412849,-0.0005183704716910765,-0.0022856459473245398,0.2,0.02,0,-0.11207614409333277,0.012026710092012949,-0.0022415228818666554,0.0,0.009785187210146293,0.002,8e-05,0,-1.3572505624221962,-0.0017968122381280978,-0.00010858004499377571,-0.0,-0.0019053922831218735,-0.05557425431460891,0.0,0.05557425431460891,-0.05124726068199949,0.0,0.05124726068199949,-0.8984061190640489,0.0,0.8984061190640489,0.060133550460064744,0,-0.060133550460064744,-0.005340427599916334,0.002291252138896246,-0.009785187210146293,0.4,0.0334620475769043,1.9139716625213623,STABILIZE
0.02,0.005,0.01,-0.19895824708003215,-0.0009522710285032285,-0.0009947912354001608,0.0010864382192277695,-0.0008606240446756199,0.02,0.005,0.01,-0.1321560714319929,-0.0005967777131016349,-0.0006607803571599645,0.007694585923463958,0.006437027853202359,0.2,0.02,0,-0.11033409888046808,0.010417038706756004,-0.002206681977609362,-0.0,0.008210356729146643,0.002,8e-05,0,-1.3875055091148456,-0.0018091777896504335,-0.00011100044072918766,-0.0,-0.0019201782303796212,-0.029838885655081745,0.0,0.029838885655081745,-0.047613551425161424,0.0,0.047613551425161424,-0.9045888948252168,0.0,0.9045888948252168,0.05208519353378002,0,-0.05208519353378002,-0.0008664753206958468,-0.00643624283629835,-0.008210356729146643,0.4,0.03344607353210449,1.9474201202392578,STABILIZE
0.02,0.005,0.01,-0.20051064771602137,-0.0009276658470472309,-0.0010025532385801068,0.00036758208493299107,-0.0015626370006943465,0.02,0.005,0.01,-0.13352107950935585,-0.0008156859414749645,-0.0006676053975467793,-0.003270316991498622,-0.004753608330520366,0.2,0.02,0,-0.10941278417025213,0.0055054872513945995,-0.0021882556834050427,-0.0,0.0033172315679895568,0.002,8e-05,0,-1.4174834155872722,-0.0017913855067912567,-0.00011339867324698178,0.0,-0.0019047841800382385,-0.04078429707374823,0.0,0.04078429707374823,-0.04638329235236154,0.0,0.04638329235236154,-0.8956927533956284,0.0,0.8956927533956284,0.027527436256972997,0,-0.027527436256972997,-0.00156035297594351,0.004754358542053373,-0.0033172315679895568,0.4,0.03346896171569824,1.9808752536773682,STABILIZE
0.02,0.005,0.01,-0.20282719396044405,-0.0013790297951484303,-0.0010141359698022203,-0.0067173743497024934,-0.009110540114653145,0.02,0.005,0.01,-0.1353848990911526,-0.001109523603194604,-0.000676924495455763,-0.004373006705820283,-0.00615945480447065,0.2,0.02,0,-0.10670750721842964,0.016104394762994537,-0.002134150144368593,0.0,0.013970244618625944,0.002,8e-05,0,-1.4482222406313003,-0.0018298687412620046,-0.00011585777925050403,-0.0,-0.0019457265205125086,-0.055476180159730194,0.0,0.055476180159730194,-0.06895148975742152,0.0,0.06895148975742152,-0.9149343706310022,0.0,0.9149343706310022,0.08052197381497268,0,-0.08052197381497268,-0.009101874785558378,0.00617225242978909,-0.013970244618625944,0.4,0.03359675407409668,2.0144875049591064,STABILIZE
0.02,0.005,0.01,-0.20508652992517415,-0.00135016589717558,-0.0010254326496258708,0.0004312223957709745,-0.0019443761510304764,0.02,0.005,0.01,-0.13644736614175051,-0.0006349240666212268,-0.0006822368307087526,0.007090447360417822,0.005773286463087843,0.2,0.02,0,-0.10349112271868995,0.01922092478296565,-0.002069822454373799,0.0,0.017151102328591853,0.002,8e-05,0,-1.4790753629164006,-0.0018437644591607347,-0.00011832602903331206,-0.0,-0.001962090488194047,-0.03174620333106134,0.0,0.03174620333106134,-0.067508294858779,0.0,0.067508294858779,-0.9218822295803674,0.0,0.9218822295803674,0.09610462391482824,0,-0.09610462391482824,-0.0019540571877809214,-0.005770016959112958,-0.017151102328591853,0.4,0.03346753120422363,2.048076868057251,STABILIZE
0.02,0.005,0.01,-0.208117251243422,-0.0018132209151873217,-0.00104058625621711,-0.006925917590030524,-0.009779724761434955,0.02,0.005,0.01,-0.13420076793006533,0.001344095493347788,-0.0006710038396503267,0.02960021131021695,0.030273302963914412,0.2,0.02,0,-0.10118138818112418,0.013818687144966488,-0.002023627763622484,-0.0,0.011795059381344005,0.002,8e-05,0,-1.5098331666297742,-0.0018401788598153915,-0.00012078665333038195,0.0,-0.0019609655131457735,0.0672047746673894,0.0,-0.0672047746673894,-0.09066104575936608,0.0,0.09066104575936608,-0.9200894299076957,0.0,0.9200894299076957,0.06909343572483244,0,-0.06909343572483244,-0.009816224458244458,-0.030261487507056494,-0.011795059381344005,0.4,0.03342914581298828,2.0813822746276855,STABILIZE
0.02,0.005,0.01,-0.21192382229512163,-0.002211483567317631,-0.0010596191114756082,-0.005784413969294363,-0.009055516648087602,0.02,0.005,0.01,-0.12841811185695423,0.003359519291101826,-0.0006420905592847712,0.029272254145393244,0.031989682877210296,0.2,0.02,0,-0.10002851838274324,0.006697767044799749,-0.0020005703676548646,-0.0,0.004697196677144884,0.002,8e-05,0,-1.5403288502783035,-0.0017716916969861103,-0.00012322630802226429,0.0,-0.0018949180050083746,0.16797596455509128,0.0,-0.16797596455509128,-0.11057417836588154,0.0,0.11057417836588154,-0.8858458484930551,0.0,0.8858458484930551,0.033488835223998745,0,-0.033488835223998745,-0.009074212763943686,-0.03198438455032322,-0.004697196677144884,0.4,0.03442549705505371,2.1158435344696045,STABILIZE
0.02,0.005,0.01,-0.2169236794969413,-0.002669601494633799,-0.0010846183974847065,-0.006115136163472213,-0.009869356055590719,0.02,0.005,0.01,-0.12094649902280885,0.0039893596925328675,-0.0006047324951140442,0.008407354496189982,0.011791981693608806,0.2,0.02,0,-0.09376447615836979,0.03344594817338086,-0.0018752895231673957,0.0,0.03157065865021347,0.002,8e-05,0,-1.5760653748608295,-0.001908100083414544,-0.00012608522998886637,-0.0,-0.0020341853134034104,0.19946798462664336,0.0,-0.19946798462664336,-0.13348007473168993,0.0,0.13348007473168993,-0.9540500417072719,0.0,0.9540500417072719,0.1672297408669043,0,-0.1672297408669043,-0.009903731338895123,-0.011763125723268328,-0.03157065865021347,0.4,0.03745770454406738,2.1532719135284424,STABILIZE
0.02,0.005,0.01,-0.22327690127701072,-0.003800086066630393,-0.0011163845063850537,-0.01690456755366856,-0.021821038126684008,0.02,0.005,0.01,-0.11817587945306332,0.0016572053026627407,-0.0005908793972653167,-0.034873595275622234,-0.03380726937022481,0.2,0.02,0,-0.10020810078068536,-0.038541591956814,-0.0020041620156137072,-0.0,-0.04054575397242771,0.002,8e-05,0,-1.6075503988601472,-0.0018832303538130724,-0.0001286040319088118,0.0,-0.0020118343857218842,0.08286026513313703,0.0,-0.08286026513313703,-0.19000430333151963,0.0,0.19000430333151963,-0.9416151769065362,0.0,0.9416151769065362,-0.19270795978407002,0,0.19270795978407002,-0.021934621465863828,0.033733685662056014,0.04054575397242771,0.4,0.033437252044677734,2.1867241859436035,STABILIZE
0.02,0.005,0.01,-0.2282589835436636,-0.0029798954116394844,-0.0011412949177183182,0.01226436176012302,0.008143171430765216,0.02,0.005,0.01,-0.11415429973008763,0.0024053972460974203,-0.0005707714986504382,0.01118776055842056,0.013022386305867542,0.2,0.02,0,-0.10435733037740692,-0.024817475054292965,-0.0020871466075481383,0.0,-0.026904621661841103,0.002,8e-05,0,-1.6386561243035507,-0.0018605033711494464,-0.00013109248994428406,0.0,-0.0019915958610937303,0.12026986230487101,0.0,-0.12026986230487101,-0.14899477058197422,0.0,0.14899477058197422,-0.9302516855747232,0.0,0.9302516855747232,-0.12408737527146481,0,0.12408737527146481,0.008171355326487115,-0.013004719842363692,0.026904621661841103,0.4,0.03343796730041504,2.2201364040374756,STABILIZE
0.02,0.005,0.01,-0.23492660634508403,-0.0038944217052504595,-0.0011746330317254203,-0.013353901210121383,-0.018422955947097263,0.02,0.005,0.01,-0.11088821539809768,0.001907652861072238,-0.0005544410769904884,-0.007268057126355694,-0.005914845342273944,0.2,0.02,0,-0.11009126826128983,-0.03349075497611297,-0.002201825365225797,-0.0,-0.03569258034133877,0.002,8e-05,0,-1.6703072810114823,-0.001848679137239039,-0.0001336245824809186,0.0,-0.0019823037197199576,0.0953826430536119,0.0,-0.0953826430536119,-0.19472108526252296,0.0,0.19472108526252296,-0.9243395686195195,0.0,0.9243395686195195,-0.16745377488056487,0,0.16745377488056487,-0.018440164084424407,0.005860976863220872,0.03569258034133877,0.4,0.03424191474914551,2.254399299621582,STABILIZE
0.02,0.005,0.01,-0.24189686176621727,-0.003871670378339698,-0.0012094843088310864,0.00031593404095798876,-0.004765220646212796,0.02,0.005,0.01,-0.10535557570856204,0.003073138056757042,-0.0005267778785428102,0.01618439438691567,0.018730754565129903,0.2,0.02,0,-0.11481279181393567,-0.026225987105132572,-0.0022962558362787135,0.0,-0.028522242941411285,0.002,8e-05,0,-1.7037682308174469,-0.0018586086214585533,-0.00013630145846539577,-0.0,-0.0019949100799239493,0.1536569028378521,0.0,-0.1536569028378521,-0.1935835189169849,0.0,0.1935835189169849,-0.9293043107292767,0.0,0.9293043107292767,-0.13112993552566285,0,0.13112993552566285,-0.004722340078725789,-0.018741611418634403,0.028522242941411285,0.4,0.03600645065307617,2.2904064655303955,STABILIZE
0.02,0.005,0.01,-0.2477810340164642,-0.003522394200596528,-0.001238905170082321,0.005227108973727941,0.00046580960304909175,0.02,0.005,0.01,-0.09824399478666333,0.004257147875866098,-0.0004912199739333167,0.01771935432423854,0.02148528222617132,0.2,0.02,0,-0.12086881445648162,-0.036252676039335845,-0.0024173762891296323,-0.0,-0.03867005232846547,0.002,8e-05,0,-1.7351029409215843,-0.0018757642783750169,-0.00013880823527372675,-0.0,-0.0020145725136487434,0.2128573937933049,0.0,-0.2128573937933049,-0.1761197100298264,0.0,0.1761197100298264,-0.9378821391875084,0.0,0.9378821391875084,-0.1812633801966792,0,0.1812633801966792,0.0005337789169796189,-0.021483701054341497,0.03867005232846547,0.4,0.033410072326660156,2.323880195617676,STABILIZE
0.02,0.005,0.01,-0.2549187001445657,-0.004267433783312399,-0.0012745935007228285,-0.011136017810741828,-0.016678045094777057,0.02,0.005,0.01,-0.0919217324848846,0.0037799240325001285,-0.000459608662424423,-0.007133007886724328,-0.0038126925166486222,0.2,0.02,0,-0.12680947474185542,-0.03551773638889639,-0.0025361894948371082,0.0,-0.0380539258837335,0.002,8e-05,0,-1.7651262343906546,-0.0017950183510515533,-0.00014121009875125239,0.0,-0.0019362284498028056,0.1889962016250064,0.0,-0.1889962016250064,-0.21337168916561994,0.0,0.21337168916561994,-0.8975091755257766,0.0,0.8975091755257766,-0.17758868194448194,0,0.17758868194448194,-0.01668978243134976,0.0037609805641792824,0.0380539258837335,0.4,0.03345179557800293,2.3572750091552734,STABILIZE
0.02,0.005,0.01,-0.2604733618690741,-0.003319929874850733,-0.0013023668093453706,0.014157687219549409,0.009535390535353305,0.02,0.005,0.01,-0.08521649764076147,0.004007608488321505,-0.0004260824882038074,0.0034020812805995726,0.00698360728071727,0.2,0.02,0,-0.13350789235385352,-0.04003533940902029,-0.0026701578470770706,-0.0,-0.04270549725609736,0.002,8e-05,0,-1.794571143609254,-0.0017598737533516915,-0.00014356569148874033,0.0,-0.001903439444840432,0.20038042441607523,0.0,-0.20038042441607523,-0.16599649374253667,0.0,0.16599649374253667,-0.8799368766758457,0.0,0.8799368766758457,-0.20017669704510144,0,0.20017669704510144,0.009559731215366185,-0.0069502505280706235,0.04270549725609736,0.4,0.0334625244140625,2.390738010406494,STABILIZE
0.02,0.005,0.01,-0.2644343902120384,-0.0023707352501849267,-0.001322171951060192,0.01420268274511545,0.010509775543870331,0.02,0.005,0.01,-0.078153604948347,0.004227247882212777,-0.000390768024741735,0.0032864373108576045,0.007122917168328646,0.2,0.02,0,-0.14093485303408462,-0.044451480680859363,-0.0028186970606816925,-0.0,-0.047270177741541054,0.002,8e-05,0,-1.8233987926835065,-0.0017253783089354563,-0.00014587190341468052,0.0,-0.0018712502123501367,0.21136239411063884,0.0,-0.21136239411063884,-0.11853676250924633,0.0,0.11853676250924633,-0.8626891544677281,0.0,0.8626891544677281,-0.2222574034042968,0,0.2222574034042968,0.010537327076437638,-0.0070820949621972825,0.047270177741541054,0.4,0.033416032791137695,2.424154281616211,STABILIZE
0.02,0.005,0.01,-0.2680569686395978,-0.0021661741284270818,-0.0013402848431979893,0.003058008394399352,-0.000448450577225719,0.02,0.005,0.01,-0.0711839493125333,0.004167608244859212,-0.0003559197465626665,-0.0008915599899869197,0.0029201285083096254,0.2,0.02,0,-0.14710978367501767,-0.03692390728510055,-0.0029421956735003535,0.0,-0.03986610295860091,0.002,8e-05,0,-1.851441740852077,-0.0016768693907478645,-0.00014811533926816617,0.0,-0.0018249847300160307,0.20838041224296056,0.0,-0.20838041224296056,-0.1083087064213541,0.0,0.1083087064213541,-0.8384346953739322,0.0,0.8384346953739322,-0.18461953642550274,0,0.18461953642550274,-0.00043903897254515654,-0.0029215583522913197,0.03986610295860091,0.4,0.0334467887878418,2.4576263427734375,STABILIZE
0.02,0.005,0.01,-0.2722473527801006,-0.0025062200049975813,-0.001361236763900503,-0.005084437070103995,-0.008951893839002079,0.02,0.005,0.01,-0.06516374709793192,0.003600612907663992,-0.0003258187354896596,-0.008477832873864607,-0.005203038701690274,0.2,0.02,0,-0.15339009377390472,-0.03756180407252732,-0.0030678018754780947,-0.0,-0.040629605948005416,0.002,8e-05,0,-1.8789402553043775,-0.001644654158599453,-0.0001503152204243502,0.0,-0.0017949693790238032,0.1800306453831996,0.0,-0.1800306453831996,-0.12531100024987907,0.0,0.12531100024987907,-0.8223270792997265,0.0,0.8223270792997265,-0.1878090203626366,0,0.1878090203626366,-0.008968900683057439,0.005173667516714035,0.040629605948005416,0.4,0.03343987464904785,2.491041421890259,STABILIZE
0.02,0.005,0.01,-0.27590655534745523,-0.0021870763042487903,-0.0013795327767372762,0.004768741363111714,0.0012021322821256478,0.02,0.005,0.01,-0.05878454595897146,0.0038127978416738774,-0.0002939227297948573,0.0031705312342621937,0.006689406346141214,0.2,0.02,0,-0.16059956466014733,-0.04309043473608959,-0.0032119912932029467,-0.0,-0.046302426029292534,0.002,8e-05,0,-1.9067691609365667,-0.0016633115811715497,-0.00015254153287492535,-0.0,-0.001815853114046475,0.19063989208369386,0.0,-0.19063989208369386,-0.1093538152124395,0.0,0.1093538152124395,-0.8316557905857749,0.0,0.8316557905857749,-0.21545217368044792,0,0.21545217368044792,0.0012272782315314824,-0.006684838624075522,0.046302426029292534,0.4,0.0334620475769043,2.5245201587677,STABILIZE
0.02,0.005,0.01,-0.2804187535801112,-0.002488646056217735,-0.001402093767900556,-0.004158174880707302,-0.008048914704825593,0.02,0.005,0.01,-0.0514176990533174,0.004063091547226724,-0.000257088495266587,0.003451158454831277,0.007257161506791413,0.2,0.02,0,-0.16727925561870774,-0.036840993466259596,-0.003345585112374155,0.0,-0.04018657857863375,0.002,8e-05,0,-1.937591933294094,-0.0016999911553998055,-0.00015500735466352752,-0.0,-0.001854998510063333,0.20315457736133619,0.0,-0.20315457736133619,-0.12443230281088676,0.0,0.12443230281088676,-0.8499955776999027,0.0,0.8499955776999027,-0.18420496733129796,0,0.18420496733129796,-0.008025541495625413,-0.007283001082191825,0.04018657857863375,0.4,0.03626227378845215,2.560762643814087,STABILIZE
0.02,0.005,0.01,-0.2852767459454584,-0.0028948380823085396,-0.0014263837297272919,-0.0060511629981415795,-0.01037238481017741,0.02,0.005,0.01,-0.04496323302165098,0.003846163736838138,-0.0002248161651082549,-0.003231637883501523,0.00038970968822835995,0.2,0.02,0,-0.1735529457129581,-0.03738440828146477,-0.003471058914259162,-0.0,-0.04085546719572393,0.002,8e-05,0,-1.965943679769515,-0.0016894574800580169,-0.0001572754943815612,0.0,-0.001846732974439578,0.1923081868419069,0.0,-0.1923081868419069,-0.14474190411542698,0.0,0.14474190411542698,-0.8447287400290084,0.0,0.8447287400290084,-0.18692204140732382,0,0.18692204140732382,-0.010371058223486804,-0.00042354647507071976,0.04085546719572393,0.4,0.03356313705444336,2.5943307876586914,STABILIZE
0.02,0.005,0.01,-0.2898915669907199,-0.0027523782422092516,-0.0014494578349535994,0.0021241525967756795,-0.0020776834803871718,0.02,0.005,0.01,-0.03832736717837861,0.003957772703666669,-0.00019163683589189305,0.0016641495353851663,0.005430285403159942,0.2,0.02,0,-0.1788322785702149,-0.03148707338199851,-0.003576645571404298,0.0,-0.0350637189534028,0.002,8e-05,0,-1.9942410721360722,-0.0016877171681650212,-0.0001595392857708858,0.0,-0.001847256453935907,0.19788863518333347,0.0,-0.19788863518333347,-0.13761891211046257,0.0,0.13761891211046257,-0.8438585840825106,0.0,0.8438585840825106,-0.15743536690999252,0,0.15743536690999252,-0.002062754504740309,-0.005435973883088406,0.0350637189534028,0.4,0.033533334732055664,2.627908945083618,STABILIZE
