Mode,Time,Freq,time2delay,actualDelay,North-Desired,East-Desired,Down-Desired,Roll-UAV,Pitch-UAV,Yaw-UAV,Roll-Control,Pitch-Control,Yaw-Control,Thrust-Control,North-Pos,East-Pos,Down-Pos,Yaw-Ang,North-Vel,East-Vel,Down-Vel,Yaw-Vel,North-Acc,East-Acc,Down-Acc,North-Avg,East-Avg,Down-Avg,Yaw-Avg,North-Dif,East-Dif,Down-Dif,Yaw-Dif,North-One,East-One,Down-One,Yaw-One,North-Two,East-Two,Down-Two,Yaw-Two,Landing-State,Q-Size,Kalman-Time,Kalman-Dt
STABILIZE,0.03443622589111328,29.048035902266054,0.03276995023091634,0.03296232223510742,0.0,0.0,0.0,-0.554874749774904,-1.7862851796465657,51.656898277724856,-0.045563576109719624,0.0450363447699906,0.0029277962654275327,0.4,0.029155170474668188,0.029466550534036528,0.0336689065461625,0.02908538751841988,0.18748536240309477,0.14167737681418657,1.6752660274505615,-0.06989032422876537,12.295406311750412,-0.28971079736948013,25.547555088996887,0.0,0.0,0.0,0.0,0.0,0.0,0.0,0.0,0.0,0.0,0.0,0.0,0.0,0.0,0.0,0.0,False,0,0.05856490135192871,0.029934814453125
STABILIZE,0.06796813011169434,29.822556562051165,0.03230431874593099,0.0325314998626709,0.0,0.0,0.0,-0.5539470179865459,-1.7869543247418156,51.6589609948542,-0.03945641323686299,0.039021084445985704,0.005007894745562159,0.4,0.04967327609707253,0.050140142561473894,0.060829045742880054,0.0495538046169571,-0.09399754926562309,-0.12230165302753448,1.4443126507103443,-0.0791244398318251,-8.581385761499405,-1.3544552959501743,12.26777508854866,0.0,0.0,0.0,0.0,0.0,0.0,0.0,0.0,0.0,0.0,0.0,0.0,0.0,0.0,0.0,0.0,False,0,0.08748984336853027,0.034924072265625
STABILIZE,0.10151910781860352,29.806026151222284,0.03234389623006185,0.032506704330444336,0.0,0.0,0.0,-0.5536152202032714,-1.7866262622182434,51.66378310840823,-0.03835871151121201,0.037850748456495255,0.007223568951646725,0.4,0.07081746400970002,0.07158955147024076,0.09303033850835667,0.071233567720287,-0.08607928175479174,-0.05090564372949302,1.7541764304041862,0.10303825946725541,1.0023614391684532,-0.8046316914260387,23.627229034900665,0.0,0.0,0.0,0.0,0.0,0.0,0.0,0.0,0.0,0.0,0.0,0.0,0.0,0.0,0.0,0.0,False,0,0.11597871780395508,0.034924072265625
STABILIZE,0.13503146171569824,29.837619423636454,0.03227427800496419,0.03266167640686035,0.0,0.0,0.0,-0.5534399831623782,-1.7868992563416324,51.66610878782062,-0.041784258161156454,0.041130075489002264,0.010262974193334886,0.4,0.1006864414130377,0.10192896333739031,0.14995207808558367,0.10094800099821558,0.01787269866326824,0.05073947831988335,1.7997151240706444,-0.07731268546373295,-0.6846461445093155,-0.46189911663532257,24.036014080047607,0.0,0.0,0.0,0.0,0.0,0.0,0.0,0.0,0.0,0.0,0.0,0.0,0.0,0.0,0.0,0.0,False,0,0.17322635650634766,0.034923828125
STABILIZE,0.16954612731933594,28.975592906537344,0.0324886163075765,0.03306412696838379,0.0,0.0,0.0,-0.5529924990500366,-1.787674802977546,51.66785731624814,-0.03864115086596111,0.03774529275952143,0.011484071853129703,0.4,0.11319392380316402,0.11543796091308982,0.18206976985489082,0.11239660652869286,-0.13525168178603053,0.002918615427915938,1.8438970670104027,-0.31687032480218347,1.1701453477144241,-0.5765705369412899,22.67138957977295,0.0,0.0,0.0,0.0,0.0,0.0,0.0,0.0,0.0,0.0,0.0,0.0,0.0,0.0,0.0,0.0,False,0,0.2021162509918213,0.034923828125
STABILIZE,0.20238733291625977,30.447120654485797,0.03185847600301107,0.03195762634277344,0.0,0.0,0.0,-0.5533793652334943,-1.7870029898396518,51.66167599504928,-0.03374168265378035,0.03235961021506329,0.012587512749963883,0.4,0.12335756969725213,0.12736087825153952,0.2137402199556611,0.12261148988514858,-0.12259118957445025,0.09210650459863245,1.7753330990672112,-0.09329587507030491,-3.2841160893440247,1.5183914452791214,24.86705631017685,0.0,0.0,0.0,0.0,0.0,0.0,0.0,0.0,0.0,0.0,0.0,0.0,0.0,0.0,0.0,0.0,False,0,0.23084115982055664,0.02993408203125
STABILIZE,0.23601984977722168,29.73355167549251,0.032442839940389,0.03266763687133789,0.0,0.0,0.0,-0.5537938723387494,-1.7877254957877922,51.66519354247183,-0.029111660856102985,0.028411320605284323,0.013489148374230032,0.4,0.12978856830548882,0.13191080443523742,0.23743520644922883,0.1307490294425075,0.04447479150258005,-0.24582890328019857,1.503575686365366,0.2803625901624951,-2.1534953266382217,-14.17507529258728,21.418137848377228,0.0,0.0,0.0,0.0,0.0,0.0,0.0,0.0,0.0,0.0,0.0,0.0,0.0,0.0,0.0,0.0,False,0,0.25962400436401367,0.034925048828125
STABILIZE,0.2694244384765625,29.935365992919948,0.03235343297322591,0.03249168395996094,0.0,0.0,0.0,-0.553468371136116,-1.787855055938611,51.672833109058494,-0.02586799247093912,0.024205687238205126,0.01402705292792913,0.4,0.13601430502429696,0.14132253020829086,0.26686887506250884,0.13522470786202345,-0.1727328752167523,0.1935951760970056,1.548301801085472,-0.39578283533664643,-1.0091944597661495,15.09949266910553,23.451657593250275,0.0,0.0,0.0,0.0,0.0,0.0,0.0,0.0,0.0,0.0,0.0,0.0,0.0,0.0,0.0,0.0,False,0,0.2882046699523926,0.034924072265625
STABILIZE,0.30289244651794434,29.88077054599339,0.032388957341512044,0.03250885009765625,0.0,0.0,0.0,-0.5538091335426762,-1.7880448071314903,51.66887842952906,-0.01959003719996727,0.016840730051443913,0.014345904370193348,0.4,0.1404175005245748,0.14948587399987104,0.2956744188737191,0.13749361597834153,-0.1727328752167523,0.1935951760970056,1.548301801085472,-0.39578283533664643,-1.0091944597661495,15.09949266910553,23.451657593250275,0.0,0.0,0.0,0.0,0.0,0.0,0.0,0.0,0.0,0.0,0.0,0.0,0.0,0.0,0.0,0.0,False,0,0.3166053295135498,0.034924072265625
STABILIZE,0.33634448051452637,29.893335423957122,0.03238085110982259,0.03250479698181152,0.0,0.0,0.0,-0.555822545243949,-1.7891517246638555,51.68904114795894,-0.017259120638172712,0.01515874615456184,0.01586990574123523,0.4,0.14634530442935423,0.1543558123098271,0.35403872825312416,0.15171896598596582,-0.0963354657869786,-0.5473886616528034,1.6855105757713318,0.4860481074474491,-9.364794939756393,-14.456227421760559,20.47600895166397,0.0,0.0,0.0,0.0,0.0,0.0,0.0,0.0,0.0,0.0,0.0,0.0,0.0,0.0,0.0,0.0,False,0,0.37405991554260254,0.029933837890625
STABILIZE,0.3697695732116699,29.917003095621904,0.03237655957539876,0.03250479698181152,0.0,0.0,0.0,-0.5537015580632485,-1.7908691970749964,51.67872756231222,-0.015949286123953094,0.011701000852515487,0.015109819726452312,0.4,0.14500770534501536,0.1610698726284553,0.3786498370368375,0.14316016953828956,-0.1373568084090948,0.5833080969750881,1.881461776793003,-0.814467615125463,9.47757437825203,9.248358756303787,20.294518768787384,0.0,0.0,0.0,0.0,0.0,0.0,0.0,0.0,0.0,0.0,0.0,0.0,0.0,0.0,0.0,0.0,False,0,0.4027099609375,0.034925048828125
STABILIZE,0.40323424339294434,29.882686539516527,0.03238061269124349,0.03249478340148926,0.0,0.0,0.0,-0.5525036069158518,-1.7916495461876705,51.67700293954679,-0.017575331347507283,0.009737756913724955,0.014375994222129769,0.4,0.14479130133689538,0.1699216614800136,0.40924033666856885,0.13491988890116088,-0.1373568084090948,0.5833080969750881,1.881461776793003,-0.814467615125463,9.47757437825203,9.248358756303787,20.294518768787384,0.0,0.0,0.0,0.0,0.0,0.0,0.0,0.0,0.0,0.0,0.0,0.0,0.0,0.0,0.0,0.0,False,0,0.43150925636291504,0.034925048828125
STABILIZE,0.43664097785949707,29.933229614193344,0.0323667844136556,0.032489776611328125,0.0,0.0,0.0,-0.5554382403814301,-1.7921498575443737,51.69882539394498,-0.012501184527725764,0.009675898828296295,0.015333678934672171,0.4,0.15008118605305812,0.16308025082685124,0.4428568175348389,0.1435366297580564,0.39146305061876774,-0.6769263651221991,2.1678855642676353,0.7061018081055976,7.776285707950592,-28.0897855758667,22.11371511220932,0.0,0.0,0.0,0.0,0.0,0.0,0.0,0.0,0.0,0.0,0.0,0.0,0.0,0.0,0.0,0.0,False,0,0.46012067794799805,0.0399130859375
STABILIZE,0.4700939655303955,29.892909322861357,0.03240779240926107,0.032525062561035156,0.0,0.0,0.0,-0.5535642072279078,-1.7910595885981104,51.680527317158514,-0.012990300596342855,0.007784992435176637,0.015037947568081756,0.4,0.1482889232161937,0.1717821344971301,0.47664644453965865,0.1396453382766501,-0.262219924479723,0.5249497946351767,1.7067400738596916,-0.3968126197561581,-0.41879676282405853,5.496828630566597,22.750668227672577,0.0,0.0,0.0,0.0,0.0,0.0,0.0,0.0,0.0,0.0,0.0,0.0,0.0,0.0,0.0,0.0,False,0,0.48877596855163574,0.059868896484375
STABILIZE,0.5036261081695557,29.823828891606702,0.032395394643147786,0.03252601623535156,0.0,0.0,0.0,-0.5550472120514468,-1.7906122112074747,51.69667729945101,-0.016855571877189873,0.006718638089380774,0.015043821943266734,0.4,0.15035626069992172,0.18763153726501003,0.5343181657220377,0.13877566928584678,-0.262219924479723,0.5249497946351767,1.7067400738596916,-0.3968126197561581,-0.41879676282405853,5.496828630566597,22.750668227672577,0.0,0.0,0.0,0.0,0.0,0.0,0.0,0.0,0.0,0.0,0.0,0.0,0.0,0.0,0.0,0.0,False,0,0.5185847282409668,0.059868896484375
STABILIZE,0.5369277000427246,30.027089716789323,0.032305034001668294,0.03241562843322754,0.0,0.0,0.0,-0.5559664061033425,-1.7895449941496602,51.70215511116536,-0.012670351191559168,0.005757653820942324,0.016980772087560714,0.4,0.14619377502532957,0.18102506059098045,0.6078600034369795,0.15709523338037026,-0.07227287860587239,-0.015788654854986817,1.3900968246161938,-0.13690419166181658,2.0589062944054604,17.096835374832153,18.87185126543045,0.0,0.0,0.0,0.0,0.0,0.0,0.0,0.0,0.0,0.0,0.0,0.0,0.0,0.0,0.0,0.0,False,0,0.5748145580291748,0.02993505859375
STABILIZE,0.5704071521759033,29.869067033178325,0.03245118459065755,0.032573699951171875,0.0,0.0,0.0,-0.5538903487607759,-1.7892283508486067,51.68780829881375,-0.010350282967229167,0.0042553694550120594,0.016050805534992222,0.4,0.141404872661188,0.18193077156320533,0.6182996104199886,0.14681312530564655,0.023366714594885707,0.41352412663400173,1.5711037442088127,-0.3157785884324657,-6.177874654531479,3.486238420009613,19.82763707637787,0.0,0.0,0.0,0.0,0.0,0.0,0.0,0.0,0.0,0.0,0.0,0.0,0.0,0.0,0.0,0.0,False,0,0.6036472320556641,0.034924072265625
STABILIZE,0.6039218902587891,29.837619423636454,0.03241089185078939,0.0325319766998291,0.0,0.0,0.0,-0.5558871118759469,-1.7896487276476798,51.70313524331126,-0.013191425897362817,0.0013930298337296856,0.015207424691126795,0.4,0.13751749948364644,0.18424282085074342,0.6345771622578222,0.13745995535869335,0.023366714594885707,0.41352412663400173,1.5711037442088127,-0.3157785884324657,-6.177874654531479,3.486238420009613,19.82763707637787,0.0,0.0,0.0,0.0,0.0,0.0,0.0,0.0,0.0,0.0,0.0,0.0,0.0,0.0,0.0,0.0,False,0,0.6321816444396973,0.034924072265625
STABILIZE,0.6373257637023926,29.936861639484672,0.0323362668355306,0.03245973587036133,0.0,0.0,0.0,-0.5561534892535773,-1.789455241195098,51.71327465913414,-0.007207415411866494,-0.0005783019548414764,0.015942313149541625,0.4,0.12990560348093613,0.17404546878851473,0.6550117911471142,0.14384672804050658,-0.18919508438557386,-0.3143104026094079,1.8655413761734962,0.6217007870057798,2.6040855795145035,-14.225596189498901,19.6717768907547,0.0,0.0,0.0,0.0,0.0,0.0,0.0,0.0,0.0,0.0,0.0,0.0,0.0,0.0,0.0,0.0,False,0,0.6624681949615479,0.034925048828125
STABILIZE,0.6733248233795166,27.777951441779145,0.032355340321858723,0.03512120246887207,0.0,0.0,0.0,-0.5567882699595654,-1.7914561664567943,51.68788001580003,-0.0028662814446325704,-0.0021949344993984258,0.015407168407495361,0.4,0.1265986977509228,0.17522816143076234,0.6687327540560196,0.13750343278130236,0.06809479091316462,0.3650052472949028,1.5199551358819008,-0.12490520347654378,6.54086098074913,-0.20332057029008865,24.706220626831055,0.0,0.0,0.0,0.0,0.0,0.0,0.0,0.0,0.0,0.0,0.0,0.0,0.0,0.0,0.0,0.0,False,0,0.691321611404419,0.064857666015625
STABILIZE,0.7069101333618164,29.775767944740636,0.032468589146931966,0.032601118087768555,0.0,0.0,0.0,-0.5555880776563472,-1.7891013520187267,51.68177382668204,-0.0029185493702267077,-0.002528867748422805,0.016430348591152617,0.4,0.12180688240006272,0.1693801851949694,0.7200070791419174,0.14675283165977346,-0.17437313217669725,-0.34677768126130104,1.6926486045122147,0.499321566243164,-3.0434731394052505,-10.311265289783478,19.39573734998703,0.0,0.0,0.0,0.0,0.0,0.0,0.0,0.0,0.0,0.0,0.0,0.0,0.0,0.0,0.0,0.0,False,0,0.7199084758758545,0.034924072265625
STABILIZE,0.7409627437591553,29.36694113034224,0.0323369820912679,0.03313398361206055,0.0,0.0,0.0,-0.5599374140537644,-1.7904696310085506,51.69857950713486,0.007253456061460917,-0.013598185709771992,0.018658012628441377,0.4,0.08358692508822262,0.13924046509442556,0.7499207011631157,0.16788425935346238,-1.3104746118187904,-0.5678372457623482,2.0739126950502396,1.173236428050194,-33.05394649505615,-17.946724593639374,34.22598838806152,0.0,0.0,0.0,0.0,0.0,0.0,0.0,0.0,0.0,0.0,0.0,0.0,0.0,0.0,0.0,0.0,False,0,0.7772371768951416,0.02993505859375
STABILIZE,0.774554967880249,29.769216574162137,0.03240230878194173,0.03252387046813965,0.0,0.0,0.0,-0.5620398316576589,-1.7894904593580059,51.68949535553874,0.011279912084052933,-0.010282573211634807,0.017050522784428403,0.4,0.08996738872516424,0.12914548003765758,0.7568336130438116,0.15079990887515796,0.6032527424395084,-0.1899226801469922,1.8146207556128502,-0.5878578399986013,27.71075665950775,13.431249558925629,30.387979745864868,0.0,0.0,0.0,0.0,0.0,0.0,0.0,0.0,0.0,0.0,0.0,0.0,0.0,0.0,0.0,0.0,False,0,0.8071973323822021,0.034924072265625
STABILIZE,0.8078968524932861,29.991233527110996,0.03224972089131673,0.03236246109008789,0.0,0.0,0.0,-0.5612522254689918,-1.7922525238253355,51.690130563131554,0.008943138295430857,-0.006542170028250757,0.0164209161856536,0.4,0.09432207757710595,0.12691889093939393,0.7666314337867882,0.1435446480934596,0.48940940760076046,0.20685505587607622,1.6530415043234825,-0.12091574601123488,-23.491501808166504,-2.2587861865758896,30.856043100357056,0.0,0.0,0.0,0.0,0.0,0.0,0.0,0.0,0.0,0.0,0.0,0.0,0.0,0.0,0.0,0.0,False,0,0.835942268371582,0.034923828125
STABILIZE,0.8412702083587646,29.96573551475316,0.032328160603841145,0.03244948387145996,0.0,0.0,0.0,-0.5552098559310578,-1.7902987695575945,51.718667093483866,0.009922816557916372,-0.0040896435530035705,0.0157850111646515,0.4,0.09886550074938272,0.12488559463214124,0.775806637471433,0.1362743285518344,0.48940940760076046,0.20685505587607622,1.6530415043234825,-0.12091574601123488,-23.491501808166504,-2.2587861865758896,30.856043100357056,0.0,0.0,0.0,0.0,0.0,0.0,0.0,0.0,0.0,0.0,0.0,0.0,0.0,0.0,0.0,0.0,False,0,0.8645362854003906,0.034923828125
STABILIZE,0.874739408493042,29.87502403931764,0.0323977788289388,0.032521963119506836,0.0,0.0,0.0,-0.5521702083069905,-1.7911018503936,51.71602381027507,0.011608963505023526,-0.005648584670623132,0.015361238973286765,0.4,0.08985656286010742,0.1145570016833286,0.7813017065917574,0.13115914861176692,-0.25673501659184694,-0.254771183244884,1.4850462786853313,-0.004609630637818137,0.8393436670303345,-4.391121119260788,18.190431594848633,0.0,0.0,0.0,0.0,0.0,0.0,0.0,0.0,0.0,0.0,0.0,0.0,0.0,0.0,0.0,0.0,False,0,0.8932292461395264,0.034924072265625
STABILIZE,0.9086472988128662,29.49373461781872,0.032401116689046223,0.032944440841674805,0.0,0.0,0.0,-0.5516067177004644,-1.7903163786390486,51.722386131486935,0.0028090657106688006,0.004822294207284013,0.013498224735492408,0.4,0.08765115140757651,0.11431920469947093,0.7889224028063864,0.11177230871857707,0.1088462071493268,0.28752502985298634,1.632256619632244,-0.7874614740340558,-4.793430119752884,4.271221905946732,25.680887699127197,0.0,0.0,0.0,0.0,0.0,0.0,0.0,0.0,0.0,0.0,0.0,0.0,0.0,0.0,0.0,0.0,False,0,0.921973705291748,0.064859130859375
STABILIZE,0.9421162605285645,29.87693929594119,0.032358678181966145,0.032483816146850586,0.0,0.0,0.0,-0.5536787196182112,-1.792841200754426,51.73258701901235,0.0002557370996828496,-0.0014940131620465916,0.010385094430295328,0.4,0.07441495634527634,0.11291022938602113,0.8657666380486018,0.08010470211301655,-0.38865648675709963,0.09505500202067196,1.7450660467147827,-0.3083286129561272,-10.589603334665298,5.811825767159462,5.78688345849514,0.0,0.0,0.0,0.0,0.0,0.0,0.0,0.0,0.0,0.0,0.0,0.0,0.0,0.0,0.0,0.0,False,0,0.9794707298278809,0.039912841796875
STABILIZE,0.975628137588501,29.841440595362602,0.032337220509847005,0.03247427940368652,0.0,0.0,0.0,-0.5544732627177542,-1.7940569744266883,51.7357869626385,0.00032207587131797465,-0.004476743617808383,0.008070252073590729,0.4,0.06934968068956782,0.11066670922163716,0.8758420036880569,0.05657761370517481,-0.03058189759030938,0.1633677980862558,1.9100455567240715,-0.8588911654872259,21.467936038970947,-9.403816610574722,9.407524019479752,0.0,0.0,0.0,0.0,0.0,0.0,0.0,0.0,0.0,0.0,0.0,0.0,0.0,0.0,0.0,0.0,False,0,1.008622169494629,0.024946044921875
STABILIZE,1.0090196132659912,29.946480079965728,0.0322759469350179,0.03240776062011719,0.0,0.0,0.0,-0.5626104726184723,-1.7962545877921399,51.747712472929344,0.00238102520094239,0.0005866367293347622,0.009002627213165849,0.4,0.08852309334574632,0.10261625520342033,0.8646531674049307,0.06546356824848754,1.1433184146881104,-0.09954366832971573,1.6810925677418709,0.61535650176219,6.9191522896289825,0.3994726575911045,17.422135174274445,0.0,0.0,0.0,0.0,0.0,0.0,0.0,0.0,0.0,0.0,0.0,0.0,0.0,0.0,0.0,0.0,False,0,1.0373587608337402,0.034924072265625
STABILIZE,1.042471170425415,29.89567919713752,0.032320292790730794,0.03244447708129883,0.0,0.0,0.0,-0.5673349358117113,-1.8043889162068019,51.76706239884799,0.001688564667248573,0.009581507863258953,0.009836513234314169,0.4,0.10733782488213078,0.09536238487268878,0.8654857212906075,0.07331205634086754,1.1433184146881104,-0.09954366832971573,1.6810925677418709,0.61535650176219,6.9191522896289825,0.3994726575911045,17.422135174274445,0.0,0.0,0.0,0.0,0.0,0.0,0.0,0.0,0.0,0.0,0.0,0.0,0.0,0.0,0.0,0.0,False,0,1.066054344177246,0.034924072265625
STABILIZE,1.0759844779968262,29.836345917184175,0.03232458432515462,0.03245663642883301,0.0,0.0,0.0,-0.5748040678342377,-1.8113465310935177,51.77909377707097,0.0022540566137893266,0.006525256307204281,0.008217377053933758,0.4,0.09618117104334384,0.09342827583166091,0.8613926988781644,0.05674088553752564,-0.36089508794248104,0.15631977003067732,1.4300456270575523,-0.623934258864374,-25.234904885292053,3.8937650620937347,11.245721578598022,0.0,0.0,0.0,0.0,0.0,0.0,0.0,0.0,0.0,0.0,0.0,0.0,0.0,0.0,0.0,0.0,False,0,1.0947270393371582,0.034924072265625
STABILIZE,1.109515905380249,29.826161777777777,0.03226617177327474,0.032416343688964844,0.0,0.0,0.0,-0.5738753755505275,-1.8212908596382331,51.79798949540981,0.0011066446943192201,0.008920982754112764,0.006894498371758765,0.4,0.0914748971279538,0.09555440407721558,0.8574332710916341,0.043223044686873664,-0.04065826069563627,0.3553528571501374,1.4318592846393585,-0.4896591430842702,27.39957571029663,10.13520136475563,21.287444233894348,0.0,0.0,0.0,0.0,0.0,0.0,0.0,0.0,0.0,0.0,0.0,0.0,0.0,0.0,0.0,0.0,False,0,1.123403787612915,0.02993505859375
STABILIZE,1.1436767578125,29.272456991311024,0.03218677838643392,0.033158063888549805,0.0,0.0,0.0,-0.5787707001947225,-1.826447652461593,51.81455270414709,0.003975612635159646,0.020729010163221668,0.0046513410772304675,0.4,0.12290218837334799,0.0846797268631051,0.8464280888729966,0.02064997208214207,1.8675874918699265,-0.32014299649745226,1.3131089508533478,-1.0162125134657163,17.72669404745102,-15.716579556465149,12.784983217716217,0.0,0.0,0.0,0.0,0.0,0.0,0.0,0.0,0.0,0.0,0.0,0.0,0.0,0.0,0.0,0.0,False,1,1.1533541679382324,0.034923828125
STABILIZE,1.1770715713500977,29.9439145582272,0.03233340581258138,0.03245854377746582,0.0,0.0,0.0,-0.6045863606581378,-1.8159579760003342,51.83639906420738,0.008289914651733846,0.026653358834591804,0.0018595870405098693,0.4,0.157740980113774,0.06455149551125772,0.8359002922450527,-0.00721927083606779,0.38562018889933825,-0.2954038558527827,1.3244807720184326,-0.12346143222009268,-0.48101022839546204,-0.3041413379833102,20.48823982477188,0.0,0.0,0.0,0.0,0.0,0.0,0.0,0.0,0.0,0.0,0.0,0.0,0.0,0.0,0.0,0.0,False,0,1.2106468677520752,0.064859130859375
STABILIZE,1.2106037139892578,29.824677171625236,0.03238824208577474,0.03251171112060547,0.0,0.0,0.0,-0.6021953675618101,-1.8167908321922526,51.819125515796415,0.006210372994808677,0.03904812892811299,-0.000535035008825771,0.4,0.211587699233041,0.06430477077407802,0.8510808309416174,-0.030958444977973,2.5131255388259888,0.24422782007604837,1.0109411552548409,-0.773522338598529,31.422987580299377,12.866829335689545,-14.99006450176239,0.0,0.0,0.0,0.0,0.0,0.0,0.0,0.0,0.0,0.0,0.0,0.0,0.0,0.0,0.0,0.0,False,0,1.23984956741333,0.034923828125
STABILIZE,1.244117021560669,29.836558160710222,0.032279284795125325,0.03240394592285156,0.0,0.0,0.0,-0.6021833080090568,-1.8168388569598544,51.81870887425704,0.010502243530869476,0.038541317798585474,0.0009148298110514517,0.4,0.1999688897639155,0.049644746909417774,0.8777533707981895,-0.016350223914685394,-0.2942098304629326,-0.5465685855597258,3.101486898958683,0.8177167040971264,-81.77767992019653,-25.693076848983765,33.418166637420654,0.0,0.0,0.0,0.0,0.0,0.0,0.0,0.0,0.0,0.0,0.0,0.0,0.0,0.0,0.0,0.0,False,0,1.2685058116912842,0.034924072265625
STABILIZE,1.2774310111999512,30.018063925110575,0.032230408986409505,0.03235816955566406,0.0,0.0,0.0,-0.603832265085086,-1.8194014585590785,51.82988306373918,0.015895552634325114,0.0360981099747034,0.002375459601924645,0.4,0.18835914086504899,0.03537922121142768,0.9042952129206601,-0.001732361575188305,-0.2942098304629326,-0.5465685855597258,3.101486898958683,0.8177167040971264,-81.77767992019653,-25.693076848983765,33.418166637420654,0.0,0.0,0.0,0.0,0.0,0.0,0.0,0.0,0.0,0.0,0.0,0.0,0.0,0.0,0.0,0.0,False,0,1.2971394062042236,0.034924072265625
STABILIZE,1.3108837604522705,29.89163109245494,0.03236440022786458,0.03249692916870117,0.0,0.0,0.0,-0.6115639325038347,-1.8192537557182769,51.83619757362686,0.022878751642031386,0.0007111539930403812,0.003819102202218974,0.4,0.10977537157915063,0.004951812597558811,0.8924091813591085,0.012619620194740487,-3.7537530064582825,-1.401441264897585,1.1296133510768414,0.8063611410760099,-89.62121605873108,-26.12220048904419,13.773193955421448,0.0,0.0,0.0,0.0,0.0,0.0,0.0,0.0,0.0,0.0,0.0,0.0,0.0,0.0,0.0,0.0,False,0,1.32582426071167,0.029934814453125
STABILIZE,1.3443794250488281,29.857797773285117,0.032335789998372395,0.03245067596435547,0.0,0.0,0.0,-0.6003507895990836,-1.814192798986709,51.846207215855515,0.01626776373492531,-0.0017588360019597812,0.0012846004178703272,0.4,0.13350847216650172,0.006724119933534829,0.8831552029994519,-0.01264089723572481,1.5510891564190388,0.20226715132594109,1.5078362077474594,-1.28134455551145,53.49789261817932,-22.91518896818161,44.224750995635986,0.0,0.0,0.0,0.0,0.0,0.0,0.0,0.0,0.0,0.0,0.0,0.0,0.0,0.0,0.0,0.0,False,1,1.3544602394104004,0.034924072265625
STABILIZE,1.3778913021087646,29.839954467842915,0.032284053166707356,0.03248476982116699,0.0,0.0,0.0,-0.5662444534220364,-1.8102353446929214,51.799369193622155,0.020046728960348224,-0.01842380530102118,0.0032150366824160352,0.4,0.131737866027377,-0.004824649437868513,0.8460943411857815,0.006619089477877515,0.23339120671153069,-0.172279158141464,0.7033441215753555,0.5679167825516318,-52.25422978401184,22.835342586040497,2.3774875327944756,0.0,0.0,0.0,0.0,0.0,0.0,0.0,0.0,0.0,0.0,0.0,0.0,0.0,0.0,0.0,0.0,False,0,1.411996603012085,0.034924072265625
STABILIZE,1.4113826751708984,29.857160144932696,0.032299073537190755,0.03243732452392578,0.0,0.0,0.0,-0.5999466344992892,-1.7994415113701856,51.76423128543702,0.018682851181572323,-0.0155479089846478,0.0030708754088109645,0.4,0.12990249680504767,-0.013840541770971769,0.8469087649922881,0.005143053398486314,0.17664054175838828,-0.37195656914263964,1.7268100753426552,-0.035156157596819226,25.960883498191833,-10.853570699691772,51.07943415641785,0.0,0.0,0.0,0.0,0.0,0.0,0.0,0.0,0.0,0.0,0.0,0.0,0.0,0.0,0.0,0.0,False,0,1.4405231475830078,0.06485888671875
STABILIZE,1.4449594020843506,29.782322199500115,0.03216532071431478,0.03231334686279297,0.0,0.0,0.0,-0.5646656125067057,-1.8117290216870385,51.7882428154642,0.009791789620336541,-0.04455529855741548,0.005772805883646414,0.4,0.03224114744347896,0.00010624589345645599,0.8957608780569098,0.03194774942283363,-4.834210500121117,1.0371201671659946,2.862660400569439,1.4386423179929626,-129.38731908798218,51.70255899429321,51.495325565338135,0.0,0.0,0.0,0.0,0.0,0.0,0.0,0.0,0.0,0.0,0.0,0.0,0.0,0.0,0.0,0.0,False,0,1.4692091941833496,0.034924072265625
STABILIZE,1.48484468460083,25.072504139592436,0.03215649922688802,0.03817152976989746,0.0,0.0,0.0,-0.5574503714222335,-1.794294963830581,51.781668758388065,-0.004559304566822458,-0.03420842031299692,0.007575314106090214,0.4,-0.013034019570190226,0.018238455268473334,0.9094253099186609,0.04958390402256915,-2.0512735471129417,0.9853067807853222,2.5211218744516373,0.9395603953401309,144.81616020202637,-88.53151798248291,23.689985275268555,0.0,0.0,0.0,0.0,0.0,0.0,0.0,0.0,0.0,0.0,0.0,0.0,0.0,0.0,0.0,0.0,False,0,1.4979238510131836,0.02993603515625
STABILIZE,1.5182702541351318,29.915722803914296,0.031620057423909505,0.03242897987365723,0.0,0.0,0.0,-0.561275597522558,-1.817275135293089,51.80771568478791,0.0042978866234261405,-0.0070569993802799295,-0.005358432998925227,0.4,0.09130803678551389,-0.007254032389429701,0.9848072592074436,-0.07921311738564749,5.607109144330025,-1.2780733406543732,6.013873219490051,-6.665821521410041,17.2494038939476,-46.22512459754944,10.777509212493896,0.0,0.0,0.0,0.0,0.0,0.0,0.0,0.0,0.0,0.0,0.0,0.0,0.0,0.0,0.0,0.0,False,1,1.5276341438293457,0.034924072265625
STABILIZE,1.551971435546875,29.671500728646414,0.032319100697835286,0.032439470291137695,0.0,0.0,0.0,-0.5621220073711106,-1.8015187426515156,51.7873104946425,-0.002309274050383072,-0.04967667535875456,0.014428536260485854,0.4,-0.03787001620139581,0.002547389156238828,1.1044041031534952,0.11786810206476833,-3.195810690522194,0.30837124213576317,4.959338158369064,5.243239112589893,-143.96677017211914,4.234316945075989,156.52583837509155,0.0,0.0,0.0,0.0,0.0,0.0,0.0,0.0,0.0,0.0,0.0,0.0,0.0,0.0,0.0,0.0,True,0,1.5851953029632568,0.034924072265625
STABILIZE,1.5850999355316162,30.185489848939554,0.03206899960835775,0.0321958065032959,0.0,0.0,0.0,-0.5593901451465171,-1.81369035319589,51.80769860931498,-0.013138275345549722,-0.053211753787689484,0.01646661358359514,0.4,-0.04998949091807122,0.026963042906393647,1.1126598820530158,0.1373303934222817,-0.45757428742945194,1.3493483886122704,2.265198901295662,1.0787975368305431,-6.903044879436493,27.190130949020386,90.47384262084961,0.0,0.0,0.0,0.0,0.0,0.0,0.0,0.0,0.0,0.0,0.0,0.0,0.0,0.0,0.0,0.0,True,0,1.613879919052124,0.029933837890625
STABILIZE,1.618619680404663,29.835072519436917,0.03238704999287923,0.03253364562988281,0.0,0.0,0.0,-0.5638883583234994,-1.8129712623423346,51.83572287547955,0.00020428915632640142,-0.024630895954263637,0.014441662424762318,0.4,-0.051545216068260284,-0.0008031253528439294,1.1438305641547213,0.11630234481437807,-0.013651099288836122,-1.4676361344754696,3.970719501376152,-0.9911827516436758,90.75053930282593,-67.42078065872192,94.22928094863892,0.0,0.0,0.0,0.0,0.0,0.0,0.0,0.0,0.0,0.0,0.0,0.0,0.0,0.0,0.0,0.0,True,0,1.642538070678711,0.034924072265625
STABILIZE,1.652238130569458,29.74493826635179,0.032335789998372395,0.03248167037963867,0.0,0.0,0.0,-0.5614576647526212,-1.7973920277323585,51.81106930767039,0.01394916380881505,-0.014063742904150797,0.012588390314233203,0.4,-0.054514866848786814,-0.02819747741665453,1.182830717397404,0.09711946136797697,-0.013651099288836122,-1.4676361344754696,3.970719501376152,-0.9911827516436758,90.75053930282593,-67.42078065872192,94.22928094863892,0.0,0.0,0.0,0.0,0.0,0.0,0.0,0.0,0.0,0.0,0.0,0.0,0.0,0.0,0.0,0.0,True,0,1.6711888313293457,0.034924072265625
STABILIZE,1.685579538345337,29.99316371333362,0.032125266393025716,0.0322721004486084,0.0,0.0,0.0,-0.557709385002165,-1.8090140214919583,51.81058436423931,0.002718355866882296,-0.03688255046022559,0.010859550917467672,0.4,-0.031172787401381546,-0.016851273574824143,1.1738073556462738,0.0793003757179763,1.413455605506897,0.6619442254304886,1.3614092022180557,-0.9043951663983203,-13.447725772857666,35.57375967502594,78.70684862136841,0.0,0.0,0.0,0.0,0.0,0.0,0.0,0.0,0.0,0.0,0.0,0.0,0.0,0.0,0.0,0.0,True,0,1.6999015808105469,0.034923828125
STABILIZE,1.7190675735473633,29.859923397832926,0.032305034001668294,0.03258490562438965,0.0,0.0,0.0,-0.5598543845666664,-1.8094562762407167,51.85019946142539,0.0036555453215024384,-0.0089421099420494,0.012976141679741423,0.4,-0.06323448965447112,-0.010964646942202949,1.1283003008808012,0.09979625974829798,0.7638175971806049,-0.23115519434213638,0.6092465482652187,2.104600916551427,72.19295501708984,6.678283214569092,-9.586410224437714,0.0,0.0,0.0,0.0,0.0,0.0,0.0,0.0,0.0,0.0,0.0,0.0,0.0,0.0,0.0,0.0,True,0,1.7572076320648193,0.039912841796875
STABILIZE,1.7546520233154297,28.102539363484087,0.03240660031636556,0.03462052345275879,0.0,0.0,0.0,-0.5600725237332836,-1.8013274973547553,51.82967132787491,0.007780099834619891,0.0017499565608088798,0.01088650906369717,0.4,-0.040870256927994265,-0.0009735984006075983,1.1322869255932577,0.0783426688174348,1.3896035961806774,0.5894068162888288,1.752135530114174,-1.1607223475519668,-27.340325713157654,18.48777085542679,11.789348721504211,0.0,0.0,0.0,0.0,0.0,0.0,0.0,0.0,0.0,0.0,0.0,0.0,0.0,0.0,0.0,0.0,True,0,1.7858703136444092,0.029934814453125
STABILIZE,1.7881243228912354,29.876088040458722,0.03235915501912435,0.03247523307800293,0.0,0.0,0.0,-0.5609023917174403,-1.8072586628752652,51.80929345848618,0.00013370381585247994,-0.012567745849354064,0.012737575114364066,0.4,-0.08505833685956035,-0.002846113931062278,1.1212136732417963,0.09620973878632416,-2.5215940549969673,-0.10007957462221384,1.7341738566756248,1.1628549673985975,-75.77734589576721,-28.18661332130432,30.408939719200134,0.0,0.0,0.0,0.0,0.0,0.0,0.0,0.0,0.0,0.0,0.0,0.0,0.0,0.0,0.0,0.0,True,0,1.8146378993988037,0.034924072265625
STABILIZE,1.821925163269043,29.58360253353835,0.03232839902242025,0.032901763916015625,0.0,0.0,0.0,-0.5591875873489439,-1.8047361886374147,51.82204883676118,-0.0062350859049575096,-0.010800080246560342,0.017864890109421702,0.4,-0.08230203880862393,-0.008317329139209542,1.103256518447087,0.1464909576820849,0.19475393928587437,-0.30215184669941664,0.9328726679086685,2.9754280510566615,49.450576305389404,16.499392688274384,11.705294996500015,0.0,0.0,0.0,0.0,0.0,0.0,0.0,0.0,0.0,0.0,0.0,0.0,0.0,0.0,0.0,0.0,True,0,1.8433616161346436,0.029935302734375
STABILIZE,1.8554301261901855,29.846749402254353,0.0324433167775472,0.03257441520690918,0.0,0.0,0.0,-0.5603822301234614,-1.8027456153811792,51.808265515016096,-0.0072869650335514215,-0.008285303486447095,0.01396908975480842,0.4,-0.05385048849377035,0.004953126070421839,1.0885817367362707,0.10681799270255704,1.5900429338216782,0.7677275687456131,1.4821468852460384,-2.0978765953135494,46.77411615848541,-2.4425463750958443,26.468724012374878,0.0,0.0,0.0,0.0,0.0,0.0,0.0,0.0,0.0,0.0,0.0,0.0,0.0,0.0,0.0,0.0,True,0,1.8719964027404785,0.034923828125
STABILIZE,1.888946294784546,29.839529887167227,0.03239634831746419,0.03252267837524414,0.0,0.0,0.0,-0.5597538527198203,-1.8043827263478667,51.81715842131545,-0.0013305920226863767,-0.0005201928032397268,0.015323453169848726,0.4,-0.05920088645503501,-0.00767211300305419,1.0797522210029833,0.11956168205666415,-0.31177669297903776,-0.7269172463566065,1.4393627643585205,0.8636757130008199,-42.769813537597656,-22.775061428546906,15.69107323884964,0.0,0.0,0.0,0.0,0.0,0.0,0.0,0.0,0.0,0.0,0.0,0.0,0.0,0.0,0.0,0.0,True,0,1.9006729125976562,0.034923828125
STABILIZE,1.92232346534729,29.956960524530217,0.03229645093282064,0.03242921829223633,0.0,0.0,0.0,-0.5585438420196702,-1.8049231650659439,51.82749932771885,-0.004773544696320361,-0.0206075552069022,0.017213584367192093,0.4,-0.10044248962495066,0.011187399893680618,1.073896584455996,0.13754290068473415,-1.2468308210372925,0.555587001144886,1.961640641093254,0.692086473372143,-10.975402593612671,30.51431179046631,27.1918386220932,0.0,0.0,0.0,0.0,0.0,0.0,0.0,0.0,0.0,0.0,0.0,0.0,0.0,0.0,0.0,0.0,True,0,1.9579269886016846,0.02993505859375
STABILIZE,1.9558765888214111,29.80454354885701,0.03239897092183431,0.03255176544189453,0.0,0.0,0.0,-0.5582533455365332,-1.8067871663791226,51.83194919596311,-0.0065897488564646105,-0.0020015681223062476,0.0157277296840951,0.4,-0.08422653476671813,0.014809389296359731,1.0547422619350133,0.12186837145882418,0.8711866103112698,0.22387010976672173,1.1362657882273197,-0.7203100956831051,46.520036458969116,-14.277888834476471,30.22281527519226,0.0,0.0,0.0,0.0,0.0,0.0,0.0,0.0,0.0,0.0,0.0,0.0,0.0,0.0,0.0,0.0,True,0,1.9866962432861328,0.034924072265625
STABILIZE,1.9893925189971924,29.83570920472329,0.032315762837727864,0.03262972831726074,0.0,0.0,0.0,-0.5567434468431371,-1.802286712046319,51.823462685919374,-0.004566168721249944,-0.0006864235447182407,0.016501030208989857,0.4,-0.0777939115150785,0.0038517712216948052,1.049502416789458,0.12873580320944886,0.3472468350082636,-0.6508789490908384,1.6092605888843536,0.5582704743703111,-9.507700055837631,-12.61475533246994,27.274754643440247,0.0,0.0,0.0,0.0,0.0,0.0,0.0,0.0,0.0,0.0,0.0,0.0,0.0,0.0,0.0,0.0,True,0,2.0154876708984375,0.034924072265625
STABILIZE,2.023275136947632,29.514904157401414,0.03243616422017415,0.03258919715881348,0.0,0.0,0.0,-0.5564320329056669,-1.804532990509607,51.82782034660984,0.003124588386069673,-0.006932337098009708,0.017269218902558073,0.4,-0.07105012730378298,-0.007266566393892763,1.0440999024331838,0.13551012886016334,0.3472468350082636,-0.6508789490908384,1.6092605888843536,0.5582704743703111,-9.507700055837631,-12.61475533246994,27.274754643440247,0.0,0.0,0.0,0.0,0.0,0.0,0.0,0.0,0.0,0.0,0.0,0.0,0.0,0.0,0.0,0.0,True,0,2.0440638065338135,0.034924072265625
STABILIZE,2.0565176010131836,30.08179014559277,0.03201893170674642,0.03213810920715332,0.0,0.0,0.0,-0.5572910359155018,-1.8070847064948414,51.84587595168077,-0.004302010249138772,-0.013406238266236124,0.01805055238342334,0.4,-0.09511506071192066,0.003715934406851978,1.027493004659173,0.14237135550045849,-1.4874805696308613,0.6606490351259708,0.9549499489367008,0.5697521824476611,-17.285652458667755,8.459191769361496,16.255731880664825,0.0,0.0,0.0,0.0,0.0,0.0,0.0,0.0,0.0,0.0,0.0,0.0,0.0,0.0,0.0,0.0,True,0,2.0727736949920654,0.06485888671875
STABILIZE,2.09015154838562,29.73017954479405,0.032221110661824544,0.0326838493347168,0.0,0.0,0.0,-0.5597678332632776,-1.8012092497047494,51.826389421978725,0.003829397218191992,0.004549920875489209,0.01741281116541906,0.4,-0.07814416442979956,-0.003943667266280204,1.0528563020998307,0.13508158711896354,1.1803291738033295,-0.4244886804372072,1.7594726756215096,-0.5870480356951318,30.23754060268402,-2.9534442350268364,28.940841555595398,0.0,0.0,0.0,0.0,0.0,0.0,0.0,0.0,0.0,0.0,0.0,0.0,0.0,0.0,0.0,0.0,True,0,2.1014552116394043,0.034924072265625
STABILIZE,2.123680591583252,29.826373876436456,0.03237965901692708,0.03252220153808594,0.0,0.0,0.0,-0.5591567447759731,-1.8025212863556266,51.828759497620716,0.0015157727887887974,-0.003423113204096711,0.01835702100686413,0.4,-0.0874592975595669,0.00628335524557087,1.0314097386331367,0.14356275418791012,-0.15173607971519232,-0.2272148383781314,1.4255315996706486,1.2574685620506125,17.345403134822845,-13.195143640041351,16.881290078163147,0.0,0.0,0.0,0.0,0.0,0.0,0.0,0.0,0.0,0.0,0.0,0.0,0.0,0.0,0.0,0.0,True,0,2.1600229740142822,0.034924072265625
STABILIZE,2.157193422317505,29.840379060601318,0.03231361707051595,0.0324406623840332,0.0,0.0,0.0,-0.5589346569062419,-1.8056078915302376,51.850954197328676,-0.00214220556474415,0.001844523301336382,0.016325892136100785,0.4,-0.0658957878378255,0.0074356641732535745,1.0137112728450213,0.12243229690439678,1.0738915763795376,0.06902794120833278,1.073321420699358,-0.9472809637014783,25.53468346595764,14.097538590431213,15.986452996730804,0.0,0.0,0.0,0.0,0.0,0.0,0.0,0.0,0.0,0.0,0.0,0.0,0.0,0.0,0.0,0.0,True,0,2.1886239051818848,0.0349248046875
STABILIZE,2.1904408931732178,30.074672135261682,0.032235177357991536,0.032347917556762695,0.0,0.0,0.0,-0.5594244028140729,-1.8033108135349978,51.84338976282288,-0.0077076592058846465,-0.002140401944240178,0.015457277124301975,0.4,-0.07172582506066606,0.014171062999303194,0.9979131332869444,0.11299088146639567,-0.4598967730998993,0.38056750781834126,1.16612259298563,-0.2879014381393231,-30.24328649044037,-1.6436818987131119,15.026706457138062,0.0,0.0,0.0,0.0,0.0,0.0,0.0,0.0,0.0,0.0,0.0,0.0,0.0,0.0,0.0,0.0,True,0,2.2173566818237305,0.02993408203125
STABILIZE,2.2240641117095947,29.7415635525616,0.032442363103230794,0.03257942199707031,0.0,0.0,0.0,-0.5591342264960532,-1.8044996933374031,51.84207836650224,-0.006590027934870133,0.0032428788100447364,0.014551161583985964,0.4,-0.0771368051966723,0.020629428642300288,0.9783270392359852,0.10323782677358678,-0.4598967730998993,0.38056750781834126,1.16612259298563,-0.2879014381393231,-30.24328649044037,-1.6436818987131119,15.026706457138062,0.0,0.0,0.0,0.0,0.0,0.0,0.0,0.0,0.0,0.0,0.0,0.0,0.0,0.0,0.0,0.0,True,0,2.247174024581909,0.02993408203125
STABILIZE,2.257336139678955,30.054845759736306,0.032274754842122395,0.03238320350646973,0.0,0.0,0.0,-0.5574311615151928,-1.8075013480342121,51.85754191478315,-0.007102322482117656,-0.00509200796382854,0.015542949396836342,0.4,-0.08697844141375838,0.015421374817149884,0.9618439003200487,0.11240531844548808,-0.7202768698334694,-0.2789233345538378,1.2833807617425919,0.7796904263058737,-8.03152248263359,-1.7220867797732353,14.7134929895401,0.0,0.0,0.0,0.0,0.0,0.0,0.0,0.0,0.0,0.0,0.0,0.0,0.0,0.0,0.0,0.0,True,0,2.2758548259735107,0.034924072265625
STABILIZE,2.2907888889312744,29.893761537200568,0.032439263661702473,0.03255343437194824,0.0,0.0,0.0,-0.5584960306954802,-1.8053654198147022,51.85327304655189,-0.006253997630036559,0.0015681548384373007,0.0146532966992124,0.4,-0.07534484357608687,0.02197954577907084,0.9552199586670265,0.1028212335011077,0.542593514546752,0.38414066657423973,1.574959047138691,-0.3232597533273188,25.40111541748047,8.289171755313873,16.178354620933533,0.0,0.0,0.0,0.0,0.0,0.0,0.0,0.0,0.0,0.0,0.0,0.0,0.0,0.0,0.0,0.0,True,0,2.3056046962738037,0.034923828125
STABILIZE,2.3243632316589355,29.786340749788728,0.03241875966389974,0.03252243995666504,0.0,0.0,0.0,-0.5584627335232764,-1.8053325495293215,51.8537272541317,-0.005370393879024554,-0.006540553135969668,0.013978458564288795,0.4,-0.08028662986195576,0.0203973697663025,0.9308691970901222,0.09543504006621642,-0.5037382710725069,-0.08895181817933917,1.398701500147581,0.3862770796418399,-19.48225200176239,4.011176154017448,14.707629382610321,0.0,0.0,0.0,0.0,0.0,0.0,0.0,0.0,0.0,0.0,0.0,0.0,0.0,0.0,0.0,0.0,True,0,2.3622069358825684,0.034925048828125
STABILIZE,2.357717752456665,29.979871912168345,0.03225854237874349,0.03240609169006348,0.0,0.0,0.0,-0.5590538650515998,-1.8068629387902275,51.86320755669968,-0.004913805175708405,-0.0031262906769988327,0.013709502970222403,0.4,-0.07524724154126909,0.025038821352338987,0.925348702943771,0.09212852692259299,0.16236589290201664,0.2838836517184973,1.5686875209212303,0.026810313431404942,18.85669380426407,2.3663021624088287,19.019925594329834,0.0,0.0,0.0,0.0,0.0,0.0,0.0,0.0,0.0,0.0,0.0,0.0,0.0,0.0,0.0,0.0,True,0,2.391429901123047,0.034923828125
STABILIZE,2.391223907470703,29.84632462819327,0.032383235295613606,0.0325016975402832,0.0,0.0,0.0,-0.5593518320541415,-1.806134669869975,51.862217179270026,-0.0029144081328635663,0.0020130455881114135,0.0132344083603169,0.4,-0.06467551889121415,0.024786443030417306,0.9148753298807101,0.08679717455002876,0.4783941898494959,0.001116772909881547,1.2674962170422077,-0.09383485303503429,10.628822445869446,-5.567995086312294,16.9553205370903,0.0,0.0,0.0,0.0,0.0,0.0,0.0,0.0,0.0,0.0,0.0,0.0,0.0,0.0,0.0,0.0,True,0,2.4206814765930176,0.029935302734375
STABILIZE,2.4246342182159424,29.92874421126992,0.03230884869893392,0.032437801361083984,0.0,0.0,0.0,-0.5595312312415602,-1.8051442924403232,51.86674900978433,-0.0041336109080526515,0.0018999547655630046,0.013073347658148635,0.4,-0.07380148904738633,0.023753852892071763,0.9015366387296098,0.08462043450303618,-0.6881136912852526,-0.02674640272744,1.2971606105566025,0.09531601690914858,-24.175408482551575,4.151086136698723,19.729207456111908,0.0,0.0,0.0,0.0,0.0,0.0,0.0,0.0,0.0,0.0,0.0,0.0,0.0,0.0,0.0,0.0,True,0,2.4487733840942383,0.034923828125
STABILIZE,2.4581856727600098,29.80666159739051,0.03234866460164388,0.03249382972717285,0.0,0.0,0.0,-0.5593991097698028,-1.8048134551524007,51.86739787775548,-0.001892607577363895,-0.004758699210293321,0.012938994237101778,0.4,-0.08329497325321128,0.02293389452290699,0.8924703582237433,0.0827231293969478,-0.6881136912852526,-0.02674640272744,1.2971606105566025,0.09531601690914858,-24.175408482551575,4.151086136698723,19.729207456111908,0.0,0.0,0.0,0.0,0.0,0.0,0.0,0.0,0.0,0.0,0.0,0.0,0.0,0.0,0.0,0.0,True,0,2.4773707389831543,0.034923828125
STABILIZE,2.4916024208068848,29.92596820685522,0.03226164182027181,0.032381296157836914,0.0,0.0,0.0,-0.5603269482798666,-1.8059984929733979,51.869351311858104,-0.0042239958387440026,-0.0026926101757420886,0.012388832316231325,0.4,-0.08148812979316147,0.02846993484330323,0.8876857649840113,0.07670867106474134,-0.023272773250937462,0.34817878622561693,1.5362849459052086,-0.15016807218443756,1.5081265941262245,4.131945222616196,15.380993485450745,0.0,0.0,0.0,0.0,0.0,0.0,0.0,0.0,0.0,0.0,0.0,0.0,0.0,0.0,0.0,0.0,True,0,2.5060389041900635,0.034923828125
STABILIZE,2.5253164768218994,29.65933133450246,0.03228905995686849,0.03271889686584473,0.0,0.0,0.0,-0.5603566169140739,-1.8045101520645697,51.87516380284178,-0.0011981383156951136,-0.0011551446057905593,0.011733862735387174,0.4,-0.07228379352228485,0.023503934007876686,0.8801196066896918,0.06968877131058317,0.4042769782245159,-0.26535214856266975,1.359889656305313,-0.21137023570638802,10.922695696353912,-1.6069186851382256,27.22870707511902,0.0,0.0,0.0,0.0,0.0,0.0,0.0,0.0,0.0,0.0,0.0,0.0,0.0,0.0,0.0,0.0,True,1,2.535465717315674,0.034924072265625
STABILIZE,2.55865216255188,29.997668447515036,0.03233078320821126,0.03244519233703613,0.0,0.0,0.0,-0.5593166138912337,-1.8049701226164878,51.87321036873916,-0.0029200459417889095,-0.0023034942836566295,0.010908464351179481,0.4,-0.06621756777607256,0.028421854476531314,0.8641196893363843,0.061026619686186064,0.03012428933288902,0.18053284147754312,1.4159099198877811,-0.062109738248129154,-4.53246682882309,8.109429478645325,21.883000433444977,0.0,0.0,0.0,0.0,0.0,0.0,0.0,0.0,0.0,0.0,0.0,0.0,0.0,0.0,0.0,0.0,True,0,2.592830181121826,0.02993505859375
STABILIZE,2.5920848846435547,29.91166926966332,0.03243211110432943,0.032538652420043945,0.0,0.0,0.0,-0.5613325869134452,-1.8062343479431748,51.88304242604939,-0.004048546942466933,-0.0011792219373630958,0.011000936932676446,0.4,-0.070978628604081,0.030856530417264424,0.8522282611326115,0.06153987109185008,-0.4369894042611122,0.18960408633574843,1.240906585007906,0.21257521714615316,7.7183738350868225,-5.605814605951309,16.757920384407043,0.0,0.0,0.0,0.0,0.0,0.0,0.0,0.0,0.0,0.0,0.0,0.0,0.0,0.0,0.0,0.0,True,0,2.621274709701538,0.034924072265625
STABILIZE,2.6255717277526855,29.861624115393926,0.03243091901143392,0.03257584571838379,0.0,0.0,0.0,-0.5617176388279047,-1.8064275142306392,51.88567546397443,-0.003149510582437124,0.004164793264282774,0.011216878770808628,0.4,-0.06343689996338753,0.027398028567344128,0.84718293690318,0.06327576181821781,0.3156509017571807,-0.17559985863044858,1.4123610220849514,0.2790508203158824,24.053576588630676,-1.691729761660099,17.603039741516113,0.0,0.0,0.0,0.0,0.0,0.0,0.0,0.0,0.0,0.0,0.0,0.0,0.0,0.0,0.0,0.0,True,0,2.650775194168091,0.034924072265625
STABILIZE,2.659069776535034,29.85439740341087,0.03241136868794759,0.03254246711730957,0.0,0.0,0.0,-0.5619711028791357,-1.8063876003126769,51.88278629395552,-0.00031251693794209534,0.0061654956937885535,0.011448420549869751,0.4,-0.055808619080756704,0.02384275869601439,0.842307291869495,0.06515527981596617,0.3156509017571807,-0.17559985863044858,1.4123610220849514,0.2790508203158824,24.053576588630676,-1.691729761660099,17.603039741516113,0.0,0.0,0.0,0.0,0.0,0.0,0.0,0.0,0.0,0.0,0.0,0.0,0.0,0.0,0.0,0.0,True,0,2.6801204681396484,0.034924072265625
STABILIZE,2.692474842071533,29.934297765438885,0.03196671803792318,0.03209877014160156,0.0,0.0,0.0,-0.5620785716368576,-1.806164978834417,51.890777615284435,-0.0007489573256526972,0.0019105134880486423,0.011465830184709126,0.4,-0.060347790049293436,0.02074628498648968,0.8392299083021573,0.06489528386604237,-0.406245281919837,-0.14416477642953396,1.5085413120687008,0.1454374458126897,-13.750407099723816,-3.66554819047451,25.386711955070496,0.0,0.0,0.0,0.0,0.0,0.0,0.0,0.0,0.0,0.0,0.0,0.0,0.0,0.0,0.0,0.0,True,0,2.7087388038635254,0.06477734375
STABILIZE,2.726058006286621,29.77682488747533,0.032407315572102864,0.03255057334899902,0.0,0.0,0.0,-0.563064786919984,-1.8059161038165346,51.89371459662754,0.000990443025823275,0.0019056770093538824,0.011659368416129415,0.4,-0.054902315000133074,0.019930242451912352,0.8553170244611898,0.06638594110235535,0.2287836978211999,-0.031615528860129416,1.4590628445148468,0.1914723738698335,14.064446091651917,2.157670632004738,17.918601632118225,0.0,0.0,0.0,0.0,0.0,0.0,0.0,0.0,0.0,0.0,0.0,0.0,0.0,0.0,0.0,0.0,True,0,2.7374677658081055,0.034924072265625
STABILIZE,2.759361505508423,30.027089716789323,0.03228619893391927,0.03239107131958008,0.0,0.0,0.0,-0.5624510303900349,-1.805946199337565,51.89346529472283,-7.181877366624398e-05,0.007575570646198193,0.010320837890510786,0.4,-0.0421878897065477,0.02525493997834038,0.8348880101124128,0.05264915228344003,0.213974853977561,0.19335132092237473,1.305384375154972,-0.2222619328333254,-1.3227079063653946,0.2200546208769083,19.515548646450043,0.0,0.0,0.0,0.0,0.0,0.0,0.0,0.0,0.0,0.0,0.0,0.0,0.0,0.0,0.0,0.0,True,0,2.7959132194519043,0.029935302734375
STABILIZE,2.7927939891815186,29.91060273269247,0.0324125607808431,0.03254270553588867,0.0,0.0,0.0,-0.5624503900598001,-1.8061786392127568,51.89684623836199,-0.0006616284976247048,0.004158513434106304,0.010039144532667443,0.4,-0.04564860122302368,0.023924360989793763,0.8219295441156476,0.04950096160245568,-0.3235657000914216,-0.02496064407750964,1.1850206181406975,-0.027548127274218383,-9.937435388565063,-1.9027858972549438,17.997749149799347,0.0,0.0,0.0,0.0,0.0,0.0,0.0,0.0,0.0,0.0,0.0,0.0,0.0,0.0,0.0,0.0,True,0,2.828507900238037,0.034924560546875
STABILIZE,2.8263323307037354,29.817256357212425,0.03243830998738607,0.03256702423095703,0.0,0.0,0.0,-0.5622445238893478,-1.8059969988695168,51.90118340848495,-0.00177956072325814,0.002586534590735135,0.009992157111941964,0.4,-0.043501858017468496,0.02408150615276022,0.8177178778330513,0.04870513500866281,-0.00395734459743835,0.050118507351726294,1.4532411471009254,0.10015170413013165,3.689131885766983,2.1642280742526054,24.01352822780609,0.0,0.0,0.0,0.0,0.0,0.0,0.0,0.0,0.0,0.0,0.0,0.0,0.0,0.0,0.0,0.0,True,0,2.8569982051849365,0.034924072265625
STABILIZE,2.8599226474761963,29.770273051835133,0.03234389623006185,0.03248453140258789,0.0,0.0,0.0,-0.5625199726119696,-1.8062625224735012,51.90452337098908,-0.002701000784645481,0.005067978578881349,0.009713276945138887,0.4,-0.04011330291639125,0.024050835588876118,0.81731387847926,0.045611191141670435,0.07013882277533412,0.03992352867498994,1.6509953886270523,-0.03541508446536486,6.953276693820953,-1.8226711079478264,24.46664571762085,0.0,0.0,0.0,0.0,0.0,0.0,0.0,0.0,0.0,0.0,0.0,0.0,0.0,0.0,0.0,0.0,True,0,2.8855679035186768,0.029935302734375
STABILIZE,2.8932883739471436,29.971731145760387,0.03218987782796224,0.03231954574584961,0.0,0.0,0.0,-0.5630584903393429,-1.8061491840219612,51.90498099366347,-0.003491983691072463,0.003408363480606678,0.009654270778306344,0.4,-0.04019290923207809,0.02568152000754003,0.8089150638500278,0.044721853838214365,-0.12111724354326725,0.14288057573139668,1.3711699284613132,0.08242909079156091,-9.443077445030212,0.14193663373589516,23.62816482782364,0.0,0.0,0.0,0.0,0.0,0.0,0.0,0.0,0.0,0.0,0.0,0.0,0.0,0.0,0.0,0.0,True,0,2.914287805557251,0.034923828125
STABILIZE,2.926687240600586,29.939853381016626,0.03229335149129232,0.03250575065612793,0.0,0.0,0.0,-0.5626312833510997,-1.8062885625697118,51.90988165439296,-0.0017487353852394221,-0.0005001106274568671,0.009288882601844562,0.4,-0.04047528517133896,0.02523383540855982,0.8057047773510553,0.04079458065781116,-0.12881581205874681,0.015488694771192968,1.44259762018919,-0.09497691535913463,-2.960916981101036,1.7982564866542816,15.209756791591644,0.0,0.0,0.0,0.0,0.0,0.0,0.0,0.0,0.0,0.0,0.0,0.0,0.0,0.0,0.0,0.0,True,0,2.9429633617401123,0.0399130859375
STABILIZE,2.9601926803588867,29.84632462819327,0.03244450887044271,0.03256511688232422,0.0,0.0,0.0,-0.562918791626475,-1.8064061698894829,51.91292791876278,-0.00207148516186808,0.0021883675749596477,0.008708676267659195,0.4,-0.03550042626263776,0.02499175438241321,0.8052450000219139,0.03475978123190355,0.17429196741431952,0.020207454508636147,1.3991394080221653,-0.21267637598302075,4.694166779518127,-1.8739456310868263,26.84682011604309,0.0,0.0,0.0,0.0,0.0,0.0,0.0,0.0,0.0,0.0,0.0,0.0,0.0,0.0,0.0,0.0,True,0,2.9717085361480713,0.02494580078125
STABILIZE,2.9935927391052246,29.938784833257195,0.03237751324971517,0.03249335289001465,0.0,0.0,0.0,-0.5639817398160581,-1.8066520566996034,51.91282888101982,-0.0012421481883617355,0.0006085525373855896,0.008862493779936769,0.4,-0.03828978944117811,0.022642569014414745,0.7925223132381569,0.03605697327708218,-0.09919095318764448,0.0400263030314818,1.3678445480763912,0.2193431742214821,-0.19249822944402695,1.9074862822890282,21.552550792694092,0.0,0.0,0.0,0.0,0.0,0.0,0.0,0.0,0.0,0.0,0.0,0.0,0.0,0.0,0.0,0.0,True,0,3.0302414894104004,0.034924072265625
STABILIZE,3.0285134315490723,28.63670749525487,0.03242019017537435,0.03402829170227051,0.0,0.0,0.0,-0.5633992527459031,-1.8069094694539483,51.917032862453965,-0.0012546288996209247,-0.00041115090415336334,0.008887676297489022,0.4,-0.03828978944117811,0.022642569014414745,0.7925223132381569,0.03605697327708218,-0.09919095318764448,0.0400263030314818,1.3678445480763912,0.2193431742214821,-0.19249822944402695,1.9074862822890282,21.552550792694092,0.0,0.0,0.0,0.0,0.0,0.0,0.0,0.0,0.0,0.0,0.0,0.0,0.0,0.0,0.0,0.0,True,1,3.0302414894104004,0.034924072265625
STABILIZE,3.062281847000122,29.613889418426496,0.0324278195699056,0.032881975173950195,0.0,0.0,0.0,-0.5625158104654442,-1.8068330567126087,51.92255507039792,-0.0019479724168065021,0.0011386540861119837,0.008331570198540403,0.4,-0.033661675133380704,0.026193598929186594,0.7849271278698731,0.030291246698634876,0.10790970409289002,0.06568930693902075,1.6600556671619415,-0.15834702361232947,-0.49570072442293167,1.812785491347313,18.758822977542877,0.0,0.0,0.0,0.0,0.0,0.0,0.0,0.0,0.0,0.0,0.0,0.0,0.0,0.0,0.0,0.0,True,0,3.0874602794647217,0.034923828125
STABILIZE,3.096061944961548,29.604901324148056,0.03243974049886068,0.032735347747802734,0.0,0.0,0.0,-0.5633765210225716,-1.8049837829948279,51.923186862896145,-0.0022237143408015236,0.002361773482467009,0.007902016542328479,0.4,-0.030217645584984066,0.026606670696519678,0.7871493882041505,0.02582190816853574,0.10790970409289002,0.06568930693902075,1.6600556671619415,-0.15834702361232947,-0.49570072442293167,1.812785491347313,18.758822977542877,0.0,0.0,0.0,0.0,0.0,0.0,0.0,0.0,0.0,0.0,0.0,0.0,0.0,0.0,0.0,0.0,True,0,3.1160593032836914,0.034923828125
STABILIZE,3.12945556640625,29.944769683296684,0.03226593335469564,0.03241777420043945,0.0,0.0,0.0,-0.5628080144958738,-1.8050512311128817,51.927093731101394,-0.0020915190378062954,0.0004016804337592779,0.007809581744003077,0.4,-0.03162124281893593,0.02598415161359128,0.7797721563856016,0.02473216154348977,-0.17302552005276084,0.0060088994359830394,1.0927836410701275,0.0355667393443336,-6.49460032582283,-0.23808255791664124,18.939238786697388,0.0,0.0,0.0,0.0,0.0,0.0,0.0,0.0,0.0,0.0,0.0,0.0,0.0,0.0,0.0,0.0,True,0,3.147901773452759,0.034924072265625
STABILIZE,3.1628305912017822,29.961454389599258,0.032352479298909505,0.03246426582336426,0.0,0.0,0.0,-0.5616040869329533,-1.8060070307098604,51.93304282586847,-0.0028537701286518924,0.0015228190806481044,0.007838973882159476,0.4,-0.03074779639583165,0.02614694063114894,0.7717446038181472,0.024859902315076694,-0.03562630445230752,0.052986497757956386,1.0538174770772457,0.10092770433329502,4.739483445882797,-0.1970841083675623,19.892561435699463,0.0,0.0,0.0,0.0,0.0,0.0,0.0,0.0,0.0,0.0,0.0,0.0,0.0,0.0,0.0,0.0,True,0,3.1764235496520996,0.02993505859375
STABILIZE,3.1963024139404297,29.876088040458722,0.03241542180379232,0.032523393630981445,0.0,0.0,0.0,-0.5620971412136636,-1.8054917783143474,51.934357637283696,-0.002809868306915425,0.002246686147892175,0.007267680024229645,0.4,-0.02856809043505699,0.02600229391932583,0.7670342601040958,0.019019802400094696,-0.14461493119597435,0.13850718969479203,1.518658921122551,-0.08229884361976125,-4.9544766545295715,-0.26843619998544455,14.25248384475708,0.0,0.0,0.0,0.0,0.0,0.0,0.0,0.0,0.0,0.0,0.0,0.0,0.0,0.0,0.0,0.0,True,0,3.233802080154419,0.034925048828125
STABILIZE,3.229752540588379,29.895892285651154,0.03237775166829427,0.032507896423339844,0.0,0.0,0.0,-0.5618990657277332,-1.8063361604504904,51.935406071321296,-0.001154336390909287,0.0019152410717097322,0.007637368901053494,0.4,-0.025446603961705477,0.02418007055976678,0.7629304899878493,0.02256570344436199,0.10513445595279336,-0.06291677127592266,1.2453071773052216,0.2890591018427874,-1.436670869588852,-0.2089506248012185,21.019667387008667,0.0,0.0,0.0,0.0,0.0,0.0,0.0,0.0,0.0,0.0,0.0,0.0,0.0,0.0,0.0,0.0,True,0,3.2627451419830322,0.029934814453125
STABILIZE,3.2631278038024902,29.96188244706689,0.032375367482503255,0.032486677169799805,0.0,0.0,0.0,-0.562176542162765,-1.8068849234616184,51.94295684544875,-0.00029556918987381874,0.002183346407985778,0.007918004707782873,0.4,-0.02157187836797636,0.021965803994859184,0.7600843884181286,0.02520356201254788,0.15425514429807663,-0.07938669295981526,1.5103044919669628,0.22832311207190348,7.457276433706284,-0.12667349074035883,24.50108379125595,0.0,0.0,0.0,0.0,0.0,0.0,0.0,0.0,0.0,0.0,0.0,0.0,0.0,0.0,0.0,0.0,True,0,3.291428327560425,0.034924072265625
STABILIZE,3.296621322631836,29.855884969925615,0.03240707715352376,0.03255486488342285,0.0,0.0,0.0,-0.5622865722414256,-1.8068697689793976,51.94405650590512,0.00021972617543188598,0.003895079344901472,0.008204798018724101,0.4,-0.017693982661120985,0.019852007364845832,0.7609781989602383,0.027884889985780502,0.15425514429807663,-0.07938669295981526,1.5103044919669628,0.22832311207190348,7.457276433706284,-0.12667349074035883,24.50108379125595,0.0,0.0,0.0,0.0,0.0,0.0,0.0,0.0,0.0,0.0,0.0,0.0,0.0,0.0,0.0,0.0,True,0,3.320157527923584,0.034924072265625
STABILIZE,3.3301501274108887,29.827222301237377,0.03241399129231771,0.03254556655883789,0.0,0.0,0.0,-0.5621356677494507,-1.8069297465780467,51.94495809087556,-2.8139003891575026e-05,0.003958559492469503,0.008077170195063972,0.4,-0.01671210610059495,0.02073035856602331,0.7655160617286773,0.02643167728832732,-0.01481914077885449,0.09792584460228682,1.7215197905898094,-0.01996951212177355,4.251649975776672,-0.17840591026470065,20.520073175430298,0.0,0.0,0.0,0.0,0.0,0.0,0.0,0.0,0.0,0.0,0.0,0.0,0.0,0.0,0.0,0.0,True,0,3.3487906455993652,0.034924072265625
STABILIZE,3.3635878562927246,29.90484474706784,0.032329591115315755,0.03245425224304199,0.0,0.0,0.0,-0.5613471010654315,-1.8071779812656943,51.951648261167584,-0.0006661215013824759,0.003665766619065797,0.007745680913456666,0.4,-0.015628054496085078,0.022500504946712747,0.760658165857316,0.02296320711873613,-0.004609609459294006,0.14878057409077883,1.1635247617959976,-0.1392324457353579,-0.8543341420590878,-0.15269804280251265,20.100286602973938,0.0,0.0,0.0,0.0,0.0,0.0,0.0,0.0,0.0,0.0,0.0,0.0,0.0,0.0,0.0,0.0,True,0,3.3774585723876953,0.034923828125
STABILIZE,3.39715838432312,29.790571974458956,0.032341750462849934,0.03249764442443848,0.0,0.0,0.0,-0.5616830609952316,-1.8083630190866915,51.9544452236327,-0.00021872268881731316,0.0036572888387576756,0.007569452185890212,0.4,-0.012853092028583799,0.01951980312330804,0.7551770907041127,0.02105999680025085,-0.11038013035431504,0.05480358377099037,1.444082148373127,-0.2563033822132574,5.505567789077759,-2.098165638744831,23.1320783495903,0.0,0.0,0.0,0.0,0.0,0.0,0.0,0.0,0.0,0.0,0.0,0.0,0.0,0.0,0.0,0.0,True,0,3.4348859786987305,0.034923828125
STABILIZE,3.430549383163452,29.947121529091728,0.0322301705678304,0.03235268592834473,0.0,0.0,0.0,-0.5617601140668057,-1.808425344562868,51.95643280868118,-0.00029931564755966206,0.0031506183027700187,0.007459622282133673,0.4,-0.010893299215652373,0.017769017092359844,0.749664736925932,0.019829003406810843,0.058138708118349314,-0.06041004089638591,1.100309006869793,-0.01145231958762054,6.012023240327835,1.5520494431257248,15.350547432899475,0.0,0.0,0.0,0.0,0.0,0.0,0.0,0.0,0.0,0.0,0.0,0.0,0.0,0.0,0.0,0.0,True,0,3.4636054039001465,0.034924072265625
STABILIZE,3.463953971862793,29.934084129091193,0.03229811986287435,0.0324244499206543,0.0,0.0,0.0,-0.5611414483383907,-1.8089606606390678,51.95911024283583,-0.001171632013541621,0.003534572154649397,0.007349279110258602,0.4,-0.0062658717920888105,0.018480476842590257,0.7528678635076369,0.0186010318604957,0.2182991011068225,0.0851531745865941,1.6173535957932472,-0.013130411689328048,0.8645350113511086,-0.31523583456873894,16.900281608104706,0.0,0.0,0.0,0.0,0.0,0.0,0.0,0.0,0.0,0.0,0.0,0.0,0.0,0.0,0.0,0.0,True,0,3.4928817749023438,0.02993505859375
STABILIZE,3.497370958328247,29.926181727373265,0.032343419392903645,0.03247356414794922,0.0,0.0,0.0,-0.5612900049528384,-1.8085184058903094,51.96220090343525,-0.0011385886314762325,0.004707845340272171,0.00724448840813636,0.4,-0.0018775285501276481,0.01915626593304704,0.7527003024103098,0.017436599097367264,0.2182991011068225,0.0851531745865941,1.6173535957932472,-0.013130411689328048,0.8645350113511086,-0.31523583456873894,16.900281608104706,0.0,0.0,0.0,0.0,0.0,0.0,0.0,0.0,0.0,0.0,0.0,0.0,0.0,0.0,0.0,0.0,True,0,3.5209929943084717,0.02993505859375
STABILIZE,3.5308804512023926,29.84207755247243,0.03236225446065267,0.03252363204956055,0.0,0.0,0.0,-0.562345482623017,-1.808754901190321,51.966121432018845,-0.0001396632096882945,0.0036518509078589004,0.007234185127150657,0.4,-0.004069675185041114,0.017741041106458827,0.7485263845805541,0.017218264004995387,-0.1712421653792262,-0.040929310489445925,1.3583038002252579,0.041021715948699904,2.1812260150909424,-0.23356773890554905,21.645867824554443,0.0,0.0,0.0,0.0,0.0,0.0,0.0,0.0,0.0,0.0,0.0,0.0,0.0,0.0,0.0,0.0,True,0,3.549668550491333,0.034924072265625
STABILIZE,3.5643062591552734,29.916149555641148,0.032349379857381184,0.03247213363647461,0.0,0.0,0.0,-0.5623850763758619,-1.8094172160964008,51.96781873402759,-0.0018011470692257813,0.0035277509945284592,0.007127098743107536,0.4,-0.001955864314435681,0.02003825588749787,0.7477077481099423,0.016040121176851968,0.08062217384576797,0.17787589458748698,1.3333899900317192,-0.017484450511906224,3.286593407392502,1.7305132001638412,22.18342125415802,0.0,0.0,0.0,0.0,0.0,0.0,0.0,0.0,0.0,0.0,0.0,0.0,0.0,0.0,0.0,0.0,True,0,3.57836651802063,0.0349248046875
STABILIZE,3.5977892875671387,29.86715278568987,0.032366069157918294,0.03256106376647949,0.0,0.0,0.0,-0.5616234035616997,-1.809635355263018,51.971073319167104,-0.00249237997665031,0.00017878603243601338,0.00730578805262281,0.4,-0.010236013234665461,0.020534455119964126,0.7402252131202234,0.01770835745522069,-0.5370858125388622,0.06765176076442003,0.9390933439135551,0.15087734464106106,-2.2563524544239044,-0.46830768696963787,10.692775249481201,0.0,0.0,0.0,0.0,0.0,0.0,0.0,0.0,0.0,0.0,0.0,0.0,0.0,0.0,0.0,0.0,True,1,3.6076104640960693,0.02993505859375
STABILIZE,3.6324055194854736,28.887186974847793,0.032404216130574544,0.03307938575744629,0.0,0.0,0.0,-0.5614991794961701,-1.8088767773783234,51.97455671564381,-0.0018229078764210602,0.00037984418724025163,0.007253896669797781,0.4,-0.005419925021000785,0.019135086719301315,0.7400475623189867,0.017073261865819596,0.09302099933847785,0.10973295429721475,1.4313255436718464,0.03345821192278306,2.358953282237053,1.7006246373057365,18.396975100040436,0.0,0.0,0.0,0.0,0.0,0.0,0.0,0.0,0.0,0.0,0.0,0.0,0.0,0.0,0.0,0.0,True,0,3.6649086475372314,0.034924072265625
