Mode,Time,Freq,North-Vision,East-Vision,Down-Vision,Yaw-Vision,North-Desired,East-Desired,Down-Desired,Roll-UAV,Pitch-UAV,Yaw-UAV,Roll-Control,Pitch-Control,Yaw-Control,Thrust-Control,northVraw,eastVraw,downVraw,yawVraw,zGyro
GUIDED_NOGPS,0.008252859115600586,121.52119368390555,19.755315085820587,-18.22167562231605,69.73164627743168,-0.3629640248644978,21.60402385460197,-17.594943622157537,69.10142281802696,0.32612963339791423,0.6486765124110394,-27.883063956303353,-0.02822960123875806,-0.0925228209117461,10.0,0.49905466481089295,23.190589555487733,-18.02427740846495,70.22129444387969,-0.8969416036130518,4.068000345428845
GUIDED_NOGPS,0.03933596611022949,32.18020838128558,23.148501716479817,-18.191920298083097,71.8291868491632,1.8258138750373543,21.603989127590065,-17.594831112904615,69.10144362485605,0.3243766226587481,0.5931003303517035,-27.84780822735504,-0.02697895098662622,0.07754160697567769,-10.0,0.4959083851635393,23.069394412385964,-18.239009238139538,70.37322826278482,-0.7306975299808717,3.552338329811104
GUIDED_NOGPS,0.08550810813903809,21.660765560123117,23.486951955261528,-18.43150400469898,71.27785221159013,1.8265721590240076,21.603748840924965,-17.594052627463636,69.10158843676656,0.3687128746651818,0.39600775133158084,-27.61212742740187,-0.03780833174453355,0.09446753172070559,-1.3049668597026756,0.49673560433776465,23.798929115114852,-18.74220187645141,70.33948003983765,-0.4567257251103314,4.469070802020421
GUIDED_NOGPS,0.10701179504394531,46.524802555683735,23.785203012907928,-18.545843068728942,71.18537383833913,1.864020259083874,21.603105090409255,-17.591966991942023,69.10197896771243,0.38420454411556415,0.29841053795103395,-27.499458334400632,-0.04305856624088879,0.1094458589963541,-2.2043092270310396,0.49687490769405995,24.045029387460215,-18.782462301524184,70.4377137048096,-0.3591683234335202,3.8388172273765155
GUIDED_NOGPS,0.15565943717956543,20.561926425602007,23.957138654515187,-18.68778404979291,71.12352590260947,1.8787136230196724,21.60186821982884,-17.587959754424997,69.10273444754617,0.2897079164530857,0.2699152021771523,-27.30133503714607,-0.04964211309038126,0.11812048501197564,-1.4978036075573011,0.49696881281740507,24.083898860902924,-19.057723791919447,70.48648206878526,-0.20255633886757962,3.9534087864026803
GUIDED_NOGPS,0.19701623916625977,24.18455967571744,24.32932336518426,-18.90855209249098,71.21375048673076,2.002336528562554,21.599856707187655,-17.581442816396585,69.10397163886017,0.2405412799604249,0.0849970084657543,-27.11375413687543,-0.05990891115211511,0.13690522572640587,-2.9403826672268174,0.4968353317281941,24.44983999489157,-19.34883289963281,70.56945259583196,0.00781454819254846,3.8388172273765155
GUIDED_NOGPS,0.24641203880310059,20.24668854991311,24.587155422393746,-19.122124404816173,71.22118406191605,2.0871961697592423,21.59689705094237,-17.57185406416059,69.10580485382813,0.10206067530208411,0.04213074123475428,-26.915755490573222,-0.06998352548057508,0.14998733335150222,-2.3706349475085235,0.49682693118786814,24.525558845128963,-19.43837481991178,70.69892524647885,0.10626097162275286,2.979380534680281
GUIDED_NOGPS,0.2997550964355469,18.75043698673617,24.828945325266822,-19.460704222770424,71.23585476370782,2.1875418213090128,21.592823656237126,-17.558657000261604,69.10834597104639,-0.09351123280246526,0.11096773556766998,-26.74486928018138,-0.08586527201071817,0.16232244924935854,-2.5401073390439257,0.49680873681100785,24.619451657972373,-19.86719751424486,70.81022364901114,0.3383193398102589,2.4064227395494577
GUIDED_NOGPS,0.3413703441619873,24.055977425497257,25.004826614829856,-19.826678352709663,71.22088592424159,2.258756994174479,21.58747872113822,-17.54134037490601,69.11170445237526,-0.08274462018481037,0.051978379914031723,-26.6556926228304,-0.1031655719962466,0.17140798019910408,-2.5195988657471657,0.4968362277922005,24.716094782173812,-20.15129395380401,70.84656250228194,0.4450896563569362,1.3750987083139758
GUIDED_NOGPS,0.3803400993347168,25.65464765644592,25.037208397808723,-20.21370122502815,71.18559919671605,2.288878928963361,21.58071212286883,-17.51941781738296,69.1159873597805,-0.07874919964419091,0.03886655114172287,-26.604573779534732,-0.12161914150022882,0.173361334167365,-2.066422175041668,0.4968955822445967,24.633532599004976,-20.63244654760874,70.88729283411246,0.5782618957438864,1.5469860468532228
GUIDED_NOGPS,0.43569469451904297,18.068304786849087,25.259347692799103,-20.49189374272279,71.13401284883702,2.301390059460403,21.57238130404374,-17.492427467485378,69.12129937217453,0.001235443816659113,-0.030845561178600708,-26.57030672046878,-0.13538348435384373,0.18490487995816685,-1.8177805218779546,0.4969809297850063,25.343002446011564,-20.67302955394469,70.82773455812656,0.6346069147468916,0.9740282517223995
GUIDED_NOGPS,0.476853609085083,24.300859217029068,25.450317903346583,-20.914737702126953,71.10027176612411,2.32745853249872,21.562351158904036,-17.45993160693096,69.12774280225796,-0.04087934919318745,-0.025101158643208422,-26.525664604053574,-0.15592626687721342,0.19497352174817448,-2.0524571952778166,0.49704120655420075,25.36498411702015,-21.189442166488682,70.81418869513796,0.7736787477766608,1.4896902673401404
GUIDED_NOGPS,0.5069379806518555,33.25091762392878,25.64378277630254,-21.154537956559306,71.03390131071787,2.3174766378690035,21.550493919551823,-17.421516290783178,69.1354176133608,-0.10181965766978993,-0.00898191220197833,-26.48898136556873,-0.16846435291219486,0.20524727099976947,-1.566977007164857,0.4971522744539644,25.875537468625073,-21.424494069939218,70.73965066833215,0.8211009191656538,0.8594366926962349
GUIDED_NOGPS,0.5355157852172852,34.99657068477835,25.837079651887137,-21.411310464257067,70.99031005747948,2.304247637786602,21.536689042184936,-17.376790978872243,69.14442143628393,-0.06692975738868219,-0.0987822512015441,-26.499332517255883,-0.18205606781099637,0.21561488364209605,-1.4987166373471377,0.4972311670682067,26.043411721150825,-21.696192364009388,70.78003343274875,0.8742334800822703,0.4583662361046586
GUIDED_NOGPS,0.5767402648925781,24.264307904129957,26.05948106743907,-21.655008808472076,70.96884420676359,2.2884900391632343,21.520823093331657,-17.325388167216147,69.15484958614046,-0.11122220680499922,-0.13683771737932796,-26.50457639499116,-0.19536306768381578,0.2275503812916116,-1.5350918752428737,0.4972790080690653,26.323450088816454,-21.875427921938243,70.82302087562846,0.8898894067129968,0.057295779513082325
GUIDED_NOGPS,0.6346111297607422,17.282273150551724,26.444158686663897,-21.981867444245513,70.97147339995549,2.274963833429614,21.502789636085435,-17.26696301944162,69.16679507919703,-0.09275516287785658,-0.12019745557047283,-26.538578784226775,-0.21274504890766793,0.24773727114895655,-1.614088800301242,0.49729298251886234,27.041394382599698,-22.200983374596237,70.8888954153129,0.9130212461606176,-0.17188733853924698
GUIDED_NOGPS,0.6777803897857666,23.17179808738792,26.842653324633176,-22.377744395914576,70.99207588473337,2.2350638668785714,21.482489116339586,-17.20119299820514,69.18034864971524,-0.09088158996169052,-0.08640466776501161,-26.60463354368997,-0.23357786158959695,0.2687365470757046,-1.248921468637,0.4972824091474728,27.27590221185372,-22.452331152628776,70.9491067870885,0.8961493433955118,-1.4896902673401404
GUIDED_NOGPS,0.7172977924346924,25.309735154086134,27.269558238059858,-22.51427618456074,71.00093292854255,2.173983960632944,21.459828749022005,-17.12777749661394,69.19559876679297,0.027084568204943434,-0.18108496348313993,-26.7061660132495,-0.24304883998892188,0.2912731121856739,-0.9054384889616436,0.4972919987573756,28.191833984327666,-22.22673396957854,70.96784745040885,0.801514330934639,-1.8907607239317168
GUIDED_NOGPS,0.7493972778320312,31.1642580635574,27.807655769027416,-22.790564525092364,71.01303362755041,2.112509371868049,21.43472240432989,-17.04643746964699,69.21263165120581,-0.014014761104286027,-0.04880106128950642,-26.764784404253845,-0.2591837847899943,0.3195072063717449,-0.682568753417869,0.4972993970354831,29.360453450086567,-22.94510206054396,70.98067735727656,0.7233742951516305,-1.948056503444799
GUIDED_NOGPS,0.7972304821014404,20.9093147885042,28.368635610017982,-23.021734428866782,71.02712108975525,2.0283501667047794,21.40709049396445,-16.95691506557599,69.23153129224833,0.06900733551555611,-0.1780544939257699,-26.929883736871393,-0.2736519414727258,0.34901476175657187,-0.7110193486585676,0.4973066153037396,29.859404155386784,-23.129395619779803,71.01946344053908,0.653722762384937,-2.9220847551671985
GUIDED_NOGPS,0.8383586406707764,24.320022265645385,29.250368024706187,-23.45884276689376,71.02581122050067,1.8999324022851798,21.376859857365616,-16.85897325738638,69.25237946457557,0.00039079487625183306,-0.1064820088302641,-27.04801015101947,-0.2977841761545178,0.3947226430731159,0.05832082140629091,0.49733985236611233,31.346319274588012,-23.938312399991805,70.92069132739957,0.5137865229721552,-3.2658594322456924
GUIDED_NOGPS,0.8800826072692871,23.97361607270441,30.44654884387726,-23.43362734892509,71.03297525143233,1.7589713898312376,21.343963647946754,-16.752395474198327,69.27525574504425,-0.04948968309606122,0.03509692705011052,-27.155131422867363,-0.3014481362452257,0.45632924416333376,0.31542662801112487,0.4973634207404179,34.132175178611845,-22.085432639568218,70.98638084477572,0.07519597497170434,-4.068000345428845
GUIDED_NOGPS,0.9176137447357178,26.65114564932837,31.73299775136741,-23.373460794270223,71.05798551464318,1.594641830311812,21.30834121932938,-16.636985232687717,69.30023752955428,-0.02831172107908465,0.004286797477829253,-27.2486691560034,-0.3039406695494984,0.522607120527984,0.8596432688301436,0.49736337802236663,35.61373998520714,-21.96678358111512,71.09380035306353,-0.3193712342500356,-4.469070802020421
GUIDED_NOGPS,0.9722678661346436,18.29911695926844,32.737753289065644,-23.286706750261217,71.0776037537848,1.46829413583682,21.269938011577874,-16.512565768507166,69.32740004989004,-0.11413467550630803,0.004529055749953143,-27.51089036352394,-0.3056366327269279,0.5748960898324564,-0.08324880319809558,0.4973746944441579,35.61373998520714,-21.96678358111512,71.09380035306353,-0.3193712342500356,-3.7815214478634336
GUIDED_NOGPS,1.0080151557922363,27.981613796324094,33.57642700905278,-23.358985132965277,71.17238959100789,1.3080744200524246,21.228705437434186,-16.378979667706993,69.35681639056182,-0.1232064207041279,-0.07306509487256516,-27.69023405565555,-0.31495565391978686,0.6190674430088297,1.1295816319980014,0.4972766401993309,35.01273926738634,-22.4178125247806,71.47973921453068,-0.32854268332791475,-4.698253920072751
GUIDED_NOGPS,1.058670997619629,19.74552062442919,34.095844537455065,-23.195059257376002,71.43924696255874,1.182449306639339,21.184600768552553,-16.236088498156242,69.38855750564707,-0.2274832389278299,0.05190580915410034,-28.03138834431935,-0.3141169556026542,0.6475479598055635,0.20514676133600385,0.4969239658146325,34.99948902880001,-21.69552398374454,72.58717951606162,-0.6374417269596669,-5.443099053742821
GUIDED_NOGPS,1.0809226036071777,44.95599048211108,34.94973425168976,-23.230990854861282,71.66824973194453,0.9722245719689633,21.137587021734216,-16.083772440963653,69.42269223563189,-0.3226209438769375,0.2348707822062863,-28.166019910596763,-0.3227081691927734,0.6929335593042073,3.828880406362428,0.496631663755531,35.804121494668685,-22.549003635319814,72.45283199828944,-0.8298684336808462,-4.8128454790989155
GUIDED_NOGPS,1.1175315380096436,27.32499006495241,35.42517017866598,-23.488225209295415,71.76864211868285,0.8715252042294943,21.087632845162133,-15.921929921898682,69.4592873242523,-0.320958246381289,0.14936556497760073,-28.36147431143314,-0.34166273300296984,0.7193601512188015,0.5583334342531725,0.4965359678083542,36.43600411137489,-24.46600957840294,72.1164101601923,-1.0073666269028967,-4.755549699585833
GUIDED_NOGPS,1.1541879177093506,27.284462514229958,36.0006945828656,-23.748074384808017,71.86990473301834,0.7213517798776794,21.03471240463568,-15.750477242812474,69.49840743533566,-0.3028640347332938,0.22753515903769259,-28.514356143172826,-0.3611720952904878,0.750960992883459,1.3211845607077763,0.496442754053476,36.43600411137489,-24.46600957840294,72.1164101601923,-1.0073666269028967,-4.5263665815335035
GUIDED_NOGPS,1.1997966766357422,21.945918794474675,36.30808667290039,-24.013706120819354,72.09190326183074,0.5562640009711534,20.978805269805374,-15.569348213058873,69.54011516964206,-0.3369536156025333,0.38420369034191787,-28.764416198876162,-0.3814506101561978,0.7693978509857177,1.2119694561906886,0.496172317861717,34.65216855208553,-24.60981701778705,72.93007933788064,-0.9883750967069896,-4.5263665815335035
GUIDED_NOGPS,1.2483267784118652,20.59807686641195,36.847940833752936,-24.344462056850105,72.33865917557489,0.36413460459252583,20.919896300407586,-15.378493780915418,69.58447108170557,-0.345017774495644,0.4831530677347157,-28.942718287159348,-0.4051354149246632,0.7996923889631945,1.5115910028637969,0.495868717859196,35.890016098507004,-25.03489709105937,73.12951730892961,-1.3383264436270779,-3.896113006889598
GUIDED_NOGPS,1.2946174144744873,21.605645701334158,37.282674453693176,-24.695770165690945,72.58007039034665,0.20657695339296334,20.857975532499257,-15.177881665004332,69.63153369667577,-0.3253445885301859,0.543320204133358,-29.12340069636828,-0.4301992919665093,0.8248671081185688,1.3379565273696192,0.4955771949594937,36.08293963883514,-25.514226425055107,73.20871436156935,-1.4460159722975996,-3.323155211758775
GUIDED_NOGPS,1.3308212757110596,27.629915087317116,37.73899802963933,-24.96309112235859,72.79866056584486,0.08268642938153012,20.793038064692592,-14.967495985713516,69.68135952715895,-0.25931202718179514,0.44417104370733734,-29.29395735013267,-0.45190503248839636,0.8512599226423565,1.4422720289926945,0.49532404844197114,37.374892902896576,-25.120547093311867,73.25697882537644,-1.7786466689706049,-3.323155211758775
GUIDED_NOGPS,1.3799152374267578,20.39386380764836,38.13757281745317,-25.301527885237412,73.0080132830778,-0.041387559995202786,20.725083944389795,-14.747336896617558,69.7340030900596,-0.3532979381212564,0.5306113565220799,-29.437999209539065,-0.47727102518701014,0.8749000936073857,1.10864984552303,0.4950889847104727,37.48570636161334,-26.151598982112674,73.54648059183205,-1.9130437355354522,-3.2658594322456924
GUIDED_NOGPS,1.4181642532348633,26.125247592590284,38.69013599834417,-25.45189460936258,73.34714199135466,-0.20193289958962543,20.654118054017776,-14.51742021589872,69.78951692342174,-0.36947630838748946,0.561797573385535,-29.574466389155923,-0.4946771490198366,0.9066133014336515,1.9578482518368854,0.4946635623981006,37.97814987261247,-24.903671569135625,74.29993382778858,-2.10337358622211,-3.2658594322456924
GUIDED_NOGPS,1.4613735675811768,23.14737306843267,39.77790211646748,-25.62603155018554,73.40309595801642,-0.3249014715506196,20.580149997262854,-14.277777057767931,69.84795160327025,-0.3974866473694473,0.6660409877153275,-29.679733264644156,-0.513394718254201,0.9650064144655119,1.4362703548225375,0.49466728346788075,42.919337576086996,-25.465983118216812,72.98700271155272,-2.688671670794821,-2.291831180523293
GUIDED_NOGPS,1.5087387561798096,21.117122560051556,41.30996198486725,-25.647087840801063,73.35109193949054,-0.44845821263637387,20.50319398530548,-14.028453463885787,69.90935576045224,-0.4830419704389972,0.6385264244175773,-29.784354687255828,-0.5255377554754957,1.0457092554425598,1.410388240214492,0.49483739573144253,46.16889229157028,-24.564242165435175,72.3658433204256,-3.2888695149458136,-1.604281826366305
GUIDED_NOGPS,1.5513863563537598,23.45322276710077,42.728634209312375,-25.69570787339671,73.35064988408175,-0.5666622711079451,20.423268723054953,-13.769510034783549,69.97377609747852,-0.5575040524402416,0.7481838308816627,-29.892514147857565,-0.5393973481153086,1.120917454613707,1.5751555826027255,0.49493468932009516,46.117717729420015,-24.79907943211531,72.67861507681411,-3.384074288409253,-1.776169164905552
GUIDED_NOGPS,1.6033856868743896,19.23419164010731,44.526948279016985,-25.625017521094872,73.17750008942156,-0.6770895265896145,20.340397295384115,-13.501021561284137,70.04125740536479,-0.5938818000422882,0.6965849533533898,-29.953384793740717,-0.5481464242615411,1.2150166661997672,1.331364509314207,0.49529563597391485,50.1529331706025,-24.310528891435748,71.79282904383858,-4.043535153611406,-1.776169164905552
GUIDED_NOGPS,1.6371362209320068,29.635022468417038,45.92620933537625,-25.713975871444184,73.17127950088432,-0.7681291173363078,20.254607053364083,-13.22307665592312,70.11184258047317,-0.6818026097204839,0.859354978020552,-30.003002702966278,-0.5646699851789122,1.289470662687686,1.6816257439253541,0.4954108446193833,48.21372328962445,-25.22814299199796,72.65565855150577,-3.7529139708318406,-0.6302535746439055
GUIDED_NOGPS,1.674570083618164,26.78782692000639,47.32868645209851,-25.649545390041233,72.97501654946464,-0.8322177329111232,20.165929500498954,-12.93577738436972,70.18557264135345,-0.6406316701466751,0.7558274528931417,-30.046606630627636,-0.5745134033883159,1.3638205215979389,1.2418349621715055,0.4958158341378332,51.2659259733687,-24.690357005457958,71.72209177938437,-4.254314659358084,-0.6302535746439055
GUIDED_NOGPS,1.7204577922821045,21.752206698405782,48.95936555515282,-25.543189013851723,72.66766106923424,-0.9079679951182522,20.074400178960516,-12.639238896847813,70.26248674558451,-0.6440071709788365,0.8591150676259554,-30.066625915084945,-0.5827727021060936,1.44945877208929,1.2609666028620556,0.4963922385145254,53.557459820912555,-24.35103797556503,70.89744131876684,-4.645122107334172,-1.0313240312354819
GUIDED_NOGPS,1.752488136291504,31.229693607832917,50.18465423139974,-25.552344879919545,72.53677541829734,-0.9793539578733172,19.98005855582297,-12.333589059556902,70.34262220661572,-0.6133857787432297,0.8989698617632145,-30.094428200101483,-0.5968017802651127,1.515200297074522,1.6103836178785755,0.49670877018247755,51.911659449523135,-25.032115805679844,71.78177534717933,-4.37767996081515,-0.9167324722093172
GUIDED_NOGPS,1.7951149940490723,23.46463776223776,51.46941233348586,-25.53189035052962,72.27545100122381,-1.0333914459989186,19.882947909297627,-12.018968086093137,70.4260145106082,-0.6559366833336456,1.1405282529405896,-30.1002782571256,-0.609768414077964,1.5837045082030838,1.1670276231248717,0.4972258452640766,54.625115047225464,-24.97827542197285,70.86409989722873,-4.743186100241085,-0.11459155902616465
GUIDED_NOGPS,1.8504395484924316,18.07710442499235,52.868519316823786,-25.532113291894586,72.03317501701757,-1.0850095268759454,19.78311521496763,-11.695528168870304,70.51269733327628,-0.6795676437580088,1.2689840475478424,-30.07043033045264,-0.6240664103117581,1.6580431264873905,1.2167545194802765,0.49771928347438804,54.625115047225464,-24.97827542197285,70.86409989722873,-4.743186100241085,0.17188733853924698
GUIDED_NOGPS,1.88938307762146,25.68449672690308,53.54784351594386,-25.725400591673168,72.08736587672442,-1.1186398750281366,19.680611032022675,-11.363433110540813,70.60270255672884,-0.7214737358020932,1.3978987454899556,-30.06868863221429,-0.647727817977705,1.6971327320324572,0.9104465567300045,0.49777300502000665,51.35663803821621,-26.316214168746235,72.5681932629374,-4.128151336578564,0.2864788975654116
GUIDED_NOGPS,1.912024974822998,44.19755740313386,54.21150900652512,-26.00835731484229,72.24793664949028,-1.149356910321034,19.57548938949371,-11.022857955416697,70.69606028631065,-0.7642474219533277,1.474595793453675,-30.083469161578197,-0.6759172270257794,1.7358322923634428,1.3071288331604216,0.49767218545523056,50.064323766983435,-26.797639963827756,73.2346338694521,-3.9009166331844356,0.0
GUIDED_NOGPS,1.9503984451293945,26.062261548212312,54.055012295653206,-25.954501113041427,72.61666440198302,-1.1791593349117382,19.46780767248766,-10.673988620890622,70.79279886744378,-0.8672119900827411,1.7355111541822779,-30.059522518348132,-0.689504260152492,1.734091411941896,1.0385302511416046,0.49726420169819113,50.2867698008454,-25.33528204229231,74.634567555867,-4.305823716599223,0.34377467707849396
GUIDED_NOGPS,2.010406732559204,16.66734486266531,54.289255706449396,-25.943284613374622,72.94979670456877,-1.1979630336506222,19.35762650842212,-10.31702152885686,70.89294490246893,-0.9766983750133116,1.913292013654424,-30.038932913095127,-0.7053513500518191,1.7519701487363326,0.8322960363950531,0.49691472229685024,50.2867698008454,-25.33528204229231,74.634567555867,-4.305823716599223,0.8594366926962349
GUIDED_NOGPS,2.0331807136535645,43.933214622394466,54.53854512548222,-25.935608769614426,73.2663121042132,-1.2107395081123087,19.24500965326009,-9.9521632371323,70.99652326748678,-1.0457539353996677,1.9756328577564228,-30.03069228986151,-0.7217038845830342,1.770684939072866,0.9475721453162407,0.49659531674491036,50.2867698008454,-25.33528204229231,74.634567555867,-4.305823716599223,0.6302535746439055
GUIDED_NOGPS,2.069939374923706,27.209767300044764,54.30669984566073,-25.886402279939112,73.50821049696177,-1.2344059056576355,19.130023877744684,-9.57963007087744,71.10355712919944,-1.0287417484461643,1.9763811903573625,-30.020894383497126,-0.7364515685006903,1.7651778768207722,1.0268904398924494,0.4963930199483565,50.2867698008454,-25.33528204229231,74.634567555867,-4.305823716599223,0.5729577951308232
GUIDED_NOGPS,2.1094589233398438,25.311568008593483,54.330431288983014,-25.862621222206826,73.74695975393928,-1.2436327426196951,19.012738853633827,-9.199647754017382,71.21406796175171,-1.0539298852795846,2.0967786424044697,-29.963513964279848,-0.7526826779078687,1.772593813764097,0.8332309378481557,0.49620066231171867,50.2867698008454,-25.33528204229231,74.634567555867,-4.305823716599223,0.9740282517223995
GUIDED_NOGPS,2.1609020233154297,19.441746200234544,54.323998610554995,-25.83796355978434,73.9658676107447,-1.2364447801595058,18.893227039934988,-8.812451040662836,71.32807556357253,-1.0203402956019312,2.062214043222797,-29.878522505342794,-0.7691794722632006,1.7785480040915622,0.6472239935612566,0.4960433119292417,50.2867698008454,-25.33528204229231,74.634567555867,-4.305823716599223,1.776169164905552
GUIDED_NOGPS,2.1946544647216797,29.63648825295884,54.29382301346408,-25.811851718779156,74.16296105120117,-1.2183852152647288,18.77156356913988,-8.418283346531098,71.44559807421626,-0.9447528332132216,1.911049150285721,-29.810551877817414,-0.7859009398655997,1.7833524876666742,0.43979574327233273,0.4959239555345226,50.2867698008454,-25.33528204229231,74.634567555867,-4.305823716599223,1.8334649444186344
GUIDED_NOGPS,2.257746934890747,15.851548947652864,54.154644143245335,-25.778525012269256,74.31997705998573,-1.1966240285670273,18.647826133459173,-8.01739638036706,71.56665199120417,-0.8632940228200925,1.797133547760956,-29.68068949112796,-0.8025516842836636,1.7826730363997338,0.5282972633233595,0.49587001239682765,50.2867698008454,-25.33528204229231,74.634567555867,-4.305823716599223,2.2345354010102105
GUIDED_NOGPS,2.2840943336486816,37.97124751041101,54.292593508160664,-25.766204541379164,74.5374633109613,-1.1197168760867533,18.522094871057217,-7.610049775364201,71.69125218686567,-0.8883277333452471,1.7663106115839808,-29.583290993563576,-0.8205151113231172,1.796160711190325,-0.8228627500710601,0.49573068331385656,50.2867698008454,-25.33528204229231,74.634567555867,-4.305823716599223,3.4377467707849396
GUIDED_NOGPS,2.3344037532806396,19.880102379372453,53.96604688003052,-25.720868162932,74.62163500133367,-1.084478998098047,18.394452252286744,-7.196510720585598,71.81941192517976,-0.9120289700128673,1.7070941521404397,-29.449723229249393,-0.8370999681835591,1.7860556971362982,0.27955713789888476,0.49579666538576916,50.2867698008454,-25.33528204229231,74.634567555867,-4.305823716599223,3.2658594322456924
GUIDED_NOGPS,2.393362045288086,16.964847210144196,53.862039657711875,-25.692896343754867,74.7580535701448,-0.9853094162303949,18.264982965923586,-6.7770535923848865,71.95114287861638,-0.8477871988874892,1.5466073316467657,-29.26242919692389,-0.8547968417965701,1.7873466665155486,-0.28299278858549803,0.49578963396270737,50.2867698008454,-25.33528204229231,74.634567555867,-4.305823716599223,3.0939720937064457
GUIDED_NOGPS,2.421621322631836,35.400945307224845,53.742845332847295,-25.66341648986341,74.88745407183842,-0.8672485309718606,18.133773805401386,-6.351959585827293,72.08645514497776,-0.8770277723328428,1.550748133831086,-29.10953882744774,-0.8726667281609668,1.7879341492074112,-1.5830867279466223,0.495798501609709,50.2867698008454,-25.33528204229231,74.634567555867,-4.305823716599223,4.239887683968092
GUIDED_NOGPS,2.474661350250244,18.86649123990734,53.389634592062784,-25.622317598938107,74.91661546089003,-0.8114079745592793,18.00091355504632,-5.921516346110613,72.22535726423979,-0.8126556406438527,1.4277061179147144,-28.907013473273103,-0.8901149025197643,1.7765790657678115,-0.09907642683146334,0.49596311270502463,50.2867698008454,-25.33528204229231,74.634567555867,-4.305823716599223,4.1252961249419275
GUIDED_NOGPS,2.522177219390869,21.041271816070275,53.14343837127963,-25.589446598624832,74.97476811362058,-0.7021981487224339,17.86649287631179,-5.486017599986203,72.36785623539342,-0.7811224181540491,1.5762298620771111,-28.742539102964614,-0.9081918360185894,1.7707445663662722,-0.728678144938717,0.4960896321826592,50.2867698008454,-25.33528204229231,74.634567555867,-4.305823716599223,4.411775022507339
GUIDED_NOGPS,2.5472769737243652,39.85314127171145,52.92600134206038,-25.558454179349038,75.02880740490086,-0.6608699451016424,17.73060419401315,-5.0457627871799975,72.51395753328596,-0.7811224181540491,1.5762298620771111,-28.742539102964614,-0.9265531905513066,1.7664081929023019,-0.4700705987277447,0.49622772519257763,50.2867698008454,-25.33528204229231,74.634567555867,-4.305823716599223,4.411775022507339
GUIDED_NOGPS,2.5619382858276367,68.23890018709835,52.58557421826189,-25.52724224572767,75.01862892391209,-0.6746343461484031,17.593341582562427,-4.601056691813472,72.6636651254625,-0.6987302197221557,1.403190861436246,-28.681200589123314,-0.9450047775619287,1.7557920398662734,0.8320489091153056,0.49646755430232564,50.2867698008454,-25.33528204229231,74.634567555867,-4.305823716599223,4.068000345428845
GUIDED_NOGPS,2.595088005065918,30.172461172137456,52.32812723032383,-25.50112097044664,74.99122941408902,-0.6665656463668175,17.45480065220302,-4.152209073824679,72.81698148900726,-0.7339380839854259,1.4938142382307984,-28.558281089725178,-0.9638342386970822,1.7493530732525289,0.2353123365643527,0.49673862811237735,50.2867698008454,-25.33528204229231,74.634567555867,-4.305823716599223,4.068000345428845
GUIDED_NOGPS,2.634068489074707,25.664223214832038,52.15398857442443,-25.478884720151186,75.00333574762728,-0.5811492519315689,17.31507843524441,-3.6995343003892014,72.97390762738495,-0.6567603614588668,1.5026576256586723,-28.406555267502515,-0.9830542436566065,1.7472482367526299,-0.8140739207983994,0.4969558578196365,50.2867698008454,-25.33528204229231,74.634567555867,-4.305823716599223,4.18259190445501
GUIDED_NOGPS,2.6697723865509033,28.014881409592764,51.992802389787684,-25.457947000745705,75.01866179975777,-0.46767679533280354,17.174273272296887,-3.2433509773411835,73.13444308728214,-0.687880677669002,1.4923585541639395,-28.306300043317776,-1.002482179185627,1.745846885182344,-1.3517320910033355,0.49717367193128653,50.2867698008454,-25.33528204229231,74.634567555867,-4.305823716599223,4.870141258611998
GUIDED_NOGPS,2.7265658378601074,17.610768914249245,51.82528708220651,-25.438671358687174,75.0218077679263,-0.3774519572845113,17.032484698506256,-2.7839815805943076,73.29858597544863,-0.6866617023455662,1.3399275149094725,-27.984925982490335,-1.0220961762352807,1.7441367978316846,-0.6415009913033871,0.4974151673112835,50.2867698008454,-25.33528204229231,74.634567555867,-4.305823716599223,3.896113006889598
GUIDED_NOGPS,2.7650246620178223,26.005381744230746,51.67059432507885,-25.419252142015004,75.04648683196434,-0.240005269042164,16.88981332978855,-2.321752087562796,73.4663329755388,-0.7962712974854614,1.448713645367558,-27.87064667239227,-1.0418510907058256,1.743160973655955,-1.7049142261537316,0.4976297692153617,50.2867698008454,-25.33528204229231,74.634567555867,-4.305823716599223,4.010704565915763
GUIDED_NOGPS,2.79329514503479,35.383325319093295,51.50255125729901,-25.405098311529517,75.03396304204405,-0.2218319386738159,16.746360749064742,-1.8569916085824119,73.63767936495302,-0.8950788417312757,1.4651504956051937,-27.6345560610889,-1.0618841906311811,1.7414492380230522,-0.2702681460275171,0.49790557448436346,50.2867698008454,-25.33528204229231,74.634567555867,-4.305823716599223,4.698253920072751
GUIDED_NOGPS,2.852543354034424,16.88025306470697,51.36046604980264,-25.39198380953548,75.00670015476433,-0.1558793505921384,16.602229392495452,-1.3900320183314356,73.81261903167893,-0.9474144725554109,1.492811907970099,-27.335289615057498,-1.08202239933888,1.7410246444351762,-0.549701974110033,0.4982088783153719,50.2867698008454,-25.33528204229231,74.634567555867,-4.305823716599223,4.5263665815335035
GUIDED_NOGPS,2.888145923614502,28.123832449358645,51.22632660524239,-25.3766716711086,75.00163133676193,-0.014985778921486163,16.457522435715674,-0.9212075872516827,73.9911444911329,-0.9273327559002214,1.4673519509520534,-27.294216272483627,-1.1021639386948947,1.741075214920203,-2.1134872960341373,0.49848426973155646,50.2867698008454,-25.33528204229231,74.634567555867,-4.305823716599223,4.8128454790989155
GUIDED_NOGPS,2.909435749053955,46.93715308863026,50.656517035196345,-26.15242844669396,75.1822820308519,0.05558415117990319,16.312343680069482,-0.45085461296948637,74.17324690300134,-0.9275791763188708,1.5321456867397332,-27.211866389208076,-1.1583213533992522,1.7198077535577665,-1.746701921427629,0.49848644730822417,46.870976710161294,-30.786897355399297,75.93138359234612,-0.15346116674563723,4.1252961249419275
GUIDED_NOGPS,2.9603078365325928,19.66534761163519,50.84043772902823,-26.287768449993056,74.78199180457496,0.12134567481402243,16.16679743884474,0.020688948283279274,74.35891608808208,-0.8594940897640382,1.4973945380163545,-27.020510101873707,-1.184631889611228,1.7347822326498636,-0.835867637471987,0.4993653864252607,52.301809871196824,-26.948391838422076,72.2935730214088,-0.9455191223771775,4.469070802020421
GUIDED_NOGPS,2.988755941390991,35.16263004786935,51.06049720088781,-26.161273591286356,74.41343556928004,0.27325218560950804,16.020988423507813,0.4930838502482686,74.54814054512573,-0.7728423078892896,1.4459132678078528,-26.941155256549205,-1.1994460848690582,1.7519754388689996,-2.9582180766519626,0.5002020574637686,52.74246733894048,-24.92657014863247,72.24728617854961,-1.0330186848767664,3.724225668350351
GUIDED_NOGPS,3.034395456314087,21.91495898427295,51.780938357219014,-25.83711681184575,73.79381669549628,0.3505318657392489,15.875021629938288,0.9659899252195885,74.74090746767709,-0.739790542247922,1.459749523519006,-26.772931112386377,-1.2061398031679404,1.7952958363640363,-1.2051558345917537,0.5014206361582713,56.70050300993578,-23.595706661664938,70.28319837727142,-1.5718290213263617,4.239887683968092
GUIDED_NOGPS,3.0593228340148926,40.13188789911303,52.34774921828481,-25.540542456694357,73.24635880918966,0.4608289703144877,15.729002224663686,1.4390664526228463,74.93720276091642,-0.8138610623106541,1.5631287054753804,-26.672563190080332,-1.2140824009192743,1.8309373496810561,-2.6115489545175645,0.5025362659275902,55.61425287113042,-23.64210841263816,70.6525538942744,-1.2181086683367885,4.297183463481175
GUIDED_NOGPS,3.1095824241638184,19.8993433787528,53.13449391246541,-24.821153703153414,72.85645213654692,0.4950965273861141,15.583035431094164,1.9119725275941555,75.1370110585009,-0.7688592403861144,1.5361609841980544,-26.504791545950017,-1.2029906803836408,1.8775729240685621,-0.7947442846701167,0.503420838382931,58.07627419038527,-20.341812403726284,70.97147559392675,-2.4036041896702103,2.807493196141034
GUIDED_NOGPS,3.1479368209838867,26.078790290489454,53.859876279117216,-24.01097675942168,72.45572094801916,0.5740811395052283,15.437226415757234,2.3843674295591555,75.34031573940597,-0.7067650301461764,1.422472058576369,-26.39621032116703,-1.1877904885041377,1.921132493167999,-1.5431522789595278,0.5043268921870802,57.200509675638344,-19.795635818323184,71.2285349309712,-2.25715319605707,2.3491269600363753
GUIDED_NOGPS,3.1753313541412354,36.509988596895916,54.718362232001624,-23.63487558331087,71.69083415310999,0.6149422800494497,15.291680174532495,2.8559109908119282,75.54709894476663,-0.7053151090514297,1.310918847730782,-26.27718061450122,-1.192085395835526,1.9713341028734566,-1.2862252292316572,0.5057843971874849,59.498908313717,-21.855824729987955,68.07094126857841,-1.6451538279967597,2.864788975654116
GUIDED_NOGPS,3.242114543914795,14.975699279476139,55.429426370232754,-23.202187383664064,71.03790559623715,0.6523989552428835,15.146501418886302,3.326263965094114,75.75734159471892,-0.7395447621595073,1.3244750656859647,-26.129995160529322,-1.1937803106941183,2.014146247567323,-0.853805819274404,0.5070791539977226,59.01110042116262,-21.13928148368583,68.06735105196266,-1.496908453586047,2.0626480624709638
GUIDED_NOGPS,3.271329879760742,34.237818864536145,55.89798078807716,-22.69890950081991,70.38785540358026,0.7297995654482136,15.001794462106524,3.795088396173881,75.9710234052412,-0.7039920267040042,1.2422684029395723,-26.09574176184171,-1.1922299053647207,2.044809316298532,-1.9555393457742238,0.5083747520024914,56.60402610493551,-21.354897482425404,69.28237611755928,-1.0041203384654138,1.6615776058793874
GUIDED_NOGPS,3.2935593128204346,44.9993991932023,56.4151468781496,-22.33775104969404,69.71482247524689,0.723995553301976,14.857663105537238,4.262047986424847,76.18812290499555,-0.6872979237945823,1.226859282728612,-26.073436071559737,-1.19699095662535,2.077874188630618,-0.4967880048302662,0.509709950644623,59.17810290617632,-21.036999964190414,67.17179779695797,-1.2501478530724845,1.0313240312354819
GUIDED_NOGPS,3.335232973098755,24.002014329205483,56.299007185158615,-22.0441082753216,69.65191285917379,0.7323433157752679,14.714210524813426,4.726808465405242,76.40861745216911,-0.7558535997110581,1.3573227260650256,-25.998732585060015,-1.204691253332708,2.0792398330172595,-0.7365560413245666,0.510135056889493,54.10569757146193,-20.955601552534983,70.31139706125286,-0.6306982898200428,0.8594366926962349
GUIDED_NOGPS,3.3749895095825195,25.15958442306308,56.50826906980795,-21.62422141741064,69.33562546009709,0.7597006990777802,14.571539156095717,5.1890379584367565,76.6324832513155,-0.7202249851227444,1.3631761981837265,-25.96772694132274,-1.2065966719131331,2.096836495685612,-1.003279734250889,0.5109452866868276,55.600896827571,-20.57176035515093,69.37224889833954,-0.7206785526816722,0.40107045659157625
GUIDED_NOGPS,3.426650285720825,19.359279226054205,56.04819837661751,-21.34829788382191,69.38942138875265,0.7693188334474975,14.429750582305093,5.648407355183622,76.8596953701961,-0.7091245937001515,1.3184837091233943,-25.95554871403261,-1.214851735755249,2.080922389715621,-0.7616287799916474,0.5112054109721652,50.911256122216805,-21.173817165603896,71.39083167405786,0.07705049469164388,-0.057295779513082325
GUIDED_NOGPS,3.4606542587280273,29.41761000995946,54.08817468202041,-21.571818454418565,69.94012812619481,0.7816449731960983,14.288945419357571,6.104590678231645,77.09022775662153,-0.637985078565001,1.2475641474238592,-25.988366065447227,-1.2454384109692596,1.9899614631331417,-0.8617363649946372,0.5107251494456401,39.666823358351465,-24.406733215468282,74.68760583282139,1.5084634482464818,-0.11459155902616465
GUIDED_NOGPS,3.486783742904663,38.27932573399896,52.197120172791514,-21.695938225343326,70.61973390504502,0.7923770619777578,14.149223202398957,6.557265451667128,77.32405325529288,-0.7114795148599249,1.288182428644279,-25.966794620501037,-1.2713941654654706,1.902394848519628,-0.8948317620735001,0.5100564790253718,38.90472414826222,-23.188607827437348,75.04518448063335,1.4623735474187576,0.34377467707849396
GUIDED_NOGPS,3.5321080684661865,22.068199157112716,50.48411216193104,-21.84995844474919,71.17530394573978,0.7857717291060451,14.01068227203955,7.0061130696559175,77.56114362464321,-0.7515957771763485,1.3497719519375764,-25.995998801844717,-1.29852321814823,1.8236714944945747,-0.6156953662337687,0.5095787595183552,38.65816432034582,-23.637111491234,74.92373690939606,1.5707950173798175,-0.9740282517223995
GUIDED_NOGPS,3.5755276679992676,23.040309379154262,48.774895576158805,-21.707127191252425,71.68727061519375,0.7830623643387838,13.873419660588826,7.450819165022438,77.8014695536788,-0.7841358122384942,1.2632415660031542,-26.030547606213936,-1.312107586032369,1.7450737957784987,-0.6590270148991862,0.5091712984077276,38.97287585487098,-21.988444755890576,75.00895596442336,1.362011472180055,-0.2291831180523293
GUIDED_NOGPS,3.6291799545288086,18.641848227063832,47.388277935811914,-21.43798046767348,72.09503091303924,0.7640457673274972,13.737530978290192,7.89107397782864,78.0450006788206,-0.7779223678061924,1.22146727526571,-26.083925534577585,-1.3198074500475956,1.682537347876086,-0.502950568177208,0.508924954648672,40.71167071367918,-20.88197256194416,74.42298676833482,1.1041042756036292,-1.1459155902616465
GUIDED_NOGPS,3.6495964527130127,48.99029375693512,46.26217481257441,-20.964535644601934,72.52313016030166,0.7339432530983508,13.60311029955566,8.326572723953042,78.29170560074559,-0.9023034209650038,1.4186531290566855,-26.09866849790106,-1.318099876584974,1.6329532256509376,0.06311395961404109,0.5086528631606659,41.7323285124627,-19.564213232476455,74.56963058864724,0.8938011463192397,-1.260507149287811
GUIDED_NOGPS,3.6937952041625977,22.631787965121298,47.224386293395646,-20.43622611065042,71.92315052057748,0.697000704270619,13.470250049200583,8.757015963669737,78.54155190122803,-0.8784908735582535,1.2697639697736933,-26.206021996180734,-1.3136958933444072,1.6877068122097534,-0.21922463888306531,0.5099276020709759,55.48431866341467,-17.83628745312752,68.41194706710101,-0.32625820572996095,-1.8334649444186344
GUIDED_NOGPS,3.742924928665161,20.372962365695855,46.20963723761468,-20.28310133490579,72.17488170893486,0.6358608264691819,13.33904088867839,9.182109970227337,78.79450615998103,-0.8586397291484048,1.1253210501969677,-26.310185796118013,-1.3259345087309908,1.6435298174468145,0.03117149453810175,0.5099294366765692,42.394451474955055,-20.856828826030384,73.53251648071534,1.1545419965973325,-2.4064227395494577
GUIDED_NOGPS,3.7606678009033203,56.31752510875987,44.41941764223492,-19.483525991685948,72.91704964435483,0.567448607737069,13.209571602315233,9.601567098428056,79.0505339714977,-0.9239467963408933,1.2261088156935567,-26.345619109984746,-1.3088291890551302,1.5604923019959844,1.2978669160772451,0.5092002264907143,35.75251601071815,-16.133692910599603,76.77884701210752,0.9123922381715973,-2.4064227395494577
GUIDED_NOGPS,3.816211223602295,18.007023689927273,44.110543491037554,-19.635892050533077,72.99024787302203,0.5361768940961791,13.08192898354476,10.015106153206652,79.3095999618927,-0.9043316669833803,1.0099057942625616,-26.53396499144243,-1.334294919168288,1.5514307253746398,-0.25143602622917477,0.509479028133306,43.64743424894591,-21.353467248178962,73.18779459049895,1.0429312320653847,-2.46371851906254
GUIDED_NOGPS,3.855233669281006,25.631444826722237,42.41344590381621,-19.47513315460251,73.5533885075392,0.45353492510948834,12.956197721142804,10.42245275820951,79.57166780574346,-0.99038372623249,1.0589399357574947,-26.590927061573048,-1.345391366076541,1.4728624091336704,0.5812164674472782,0.5090274189473064,35.40386151495285,-20.177476984453023,76.1569639285005,1.3925086507948092,-2.4064227395494577
GUIDED_NOGPS,3.8851377964019775,33.45353613501679,41.80553304396577,-19.124401793544195,73.80712258098904,0.39487593840622937,12.832460285462094,10.823339724373533,79.83670024293167,-0.9830921791283841,0.9517085271092333,-26.633890658999718,-1.3476483683062979,1.4486536379251838,0.5471207945802348,0.509044366492914,40.720811698658316,-18.088353203410325,74.66855416649165,0.8412857254987925,-2.979380534680281
GUIDED_NOGPS,3.9250221252441406,25.079100470572758,40.08883398886364,-18.599445509640756,74.39205304831243,0.3374863987627411,12.710796814666985,11.217507418505285,80.10465909548452,-0.9800210486011113,0.9621858238526213,-26.764466800457438,-1.3417628817665719,1.368901858709833,0.32098543110368094,0.5085689090707581,31.55160489420957,-16.441539198873564,77.23353538918569,1.1199209974210818,-2.807493196141034
GUIDED_NOGPS,3.9778130054473877,18.944034687563516,38.25473352692581,-18.240435331052243,74.93773587294494,0.25882819609140983,12.59128500096815,11.604704131859812,80.37550528441616,-1.060447273129952,1.024302125485656,-26.888241781049118,-1.3430312758310425,1.2831724262978832,0.39785337487463857,0.5081566541172068,30.72105164050842,-17.738211358257843,77.03597736686814,1.2385714162590993,-2.7501974166279517
GUIDED_NOGPS,4.010256052017212,30.836842724385367,36.47680563202513,-17.570843343238423,75.51798458742545,0.18193022302644046,12.473999976857293,11.984686448719863,80.64919884656906,-0.9881234672257447,0.957719307022256,-27.046989037738552,-1.329998840638123,1.200140282758392,0.9209185973995997,0.5076968213887154,30.31553107191184,-15.26629379123796,77.56437643361372,1.0244923212839443,-2.2345354010102105
GUIDED_NOGPS,4.063594102859497,18.7499340625936,35.0505825439532,-17.233793916959755,75.96246915622126,0.12491771289423703,12.359014201341882,12.357219614974746,80.92569895145533,-1.043804450000158,0.9285082954894041,-27.180951245477306,-1.3315956089370526,1.1345784171305657,0.27588293660348767,0.5074448446928511,29.83940311076981,-16.609257081858857,77.41747367300262,1.0904243351005873,-2.9220847551671985
GUIDED_NOGPS,4.0912017822265625,36.235261593752156,33.23087391514751,-16.739436285359073,76.55331934921308,0.03289746055194401,12.246397346179851,12.722077906699319,81.20496391809809,-1.1755583722028808,1.1127863724095248,-27.275166874888463,-1.3257681386426279,1.049223828448383,1.4857084716999565,0.5069774668533275,28.51265058039331,-15.936769108099417,77.7412376459295,0.958907429173731,-2.521014298575622
GUIDED_NOGPS,4.134717226028442,22.98475466073366,32.73629140833156,-17.33101744132864,76.54336322906335,-0.020710408588870743,12.13621618211431,13.079044998733075,81.48695123187288,-1.1782215056489511,1.0920268662009174,-27.4377407450604,-1.3684528098027773,1.0300037613108626,0.46527797296892726,0.5074153820042143,33.962545078891004,-22.41183379658483,75.37951915210176,1.1671539868574459,-2.979380534680281
GUIDED_NOGPS,4.1854307651519775,19.78016090848212,30.847564823073977,-16.550301819032867,77.16794337865443,-0.10545534626003579,12.028534465108265,13.427914333259132,81.77161756134899,-1.1784107232333016,0.9402504578897137,-27.571576594299504,-1.34901972685314,0.9409515178982857,0.7555832906918303,0.5069055112740418,25.822216244135596,-13.59641913890449,78.99945045657584,0.9057329637410139,-2.177239621497128
GUIDED_NOGPS,4.217272520065308,31.269739735933737,29.140994685141525,-16.098720366309355,77.66389206775096,-0.19477617828088356,11.923412822579294,13.76848948838326,82.05891877513085,-1.3045363561165224,1.0968573040479974,-27.659349647776047,-1.344024443461168,0.8608790931281116,1.3460021349133395,0.5065925400610698,25.88989276115631,-15.506087848998645,78.4554650850905,0.7904072940699616,-2.807493196141034
GUIDED_NOGPS,4.252049446105957,28.76199358147955,27.900181796613456,-15.620155447013918,78.0448633605739,-0.25097881154734725,11.820908639634343,14.100584546712774,82.34880995869935,-1.2800335860776306,1.0353934989241105,-27.76119118339552,-1.3374332997177012,0.8039636578489557,0.8201811883384843,0.5064559198971882,25.741865266908636,-14.295785853192053,78.73851924475214,0.7176093892373477,-2.177239621497128
GUIDED_NOGPS,4.294081211090088,23.802466333357923,26.263543295532173,-14.683503804952906,78.59212884517122,-0.3055007351549524,11.72107594530435,14.424024463935574,82.64124543125327,-1.3211142924492012,1.0296587013422385,-27.85160239743898,-1.3098387720999818,0.7271233675113913,0.7025508795336016,0.506073674879123,22.08571901970989,-10.771894497241814,80.07610544946135,0.5846487369716874,-1.8907607239317168
GUIDED_NOGPS,4.32905387878418,28.599607244163213,24.80529013341284,-13.150086229986695,79.0621417418042,-0.36919599053112806,11.623965298779005,14.73864543739932,82.9361787625506,-1.284494126492472,0.9058241700387338,-27.935536884601973,-1.2549929250323708,0.6590662417316917,1.0088504904089064,0.5058110555311196,23.670484760207444,-6.571411985355382,79.62166223172974,0.3864670442309607,-1.604281826366305
GUIDED_NOGPS,4.36948561668396,24.739609998938292,23.602270074315904,-11.021726409110421,79.33797970973455,-0.40893328382133076,11.529623675641453,15.044295274690235,83.2335627897499,-1.242660178321496,0.8967797189171676,-27.994233822781773,-1.1729709757710296,0.6036323199337226,0.6198561146520698,0.505843374620023,22.670431512349325,-0.8742222578759704,79.13279388939863,0.23178671895557862,-1.260507149287811
GUIDED_NOGPS,4.409273147583008,25.158226215682863,22.575733117847683,-10.394341750205342,79.6029307178289,-0.4590648743200835,11.438094354103022,15.340833762212178,83.53334963425172,-1.1918951174804935,0.840257982544608,-28.067818865804902,-1.1580828980587885,0.5568819381872331,0.7961643520477747,0.5058956283746342,23.90868691573107,-10.482046152599239,79.07517491416817,0.49506499403034626,-1.8334649444186344
GUIDED_NOGPS,4.460293769836426,19.5971704372366,20.390953724907376,-8.4745899849383,80.08107100883404,-0.5094876103694428,11.349416801237886,15.628133033765572,83.8354907185399,-1.134430494837355,0.8572839365981573,-28.149352541474638,-1.0846225358416743,0.45207684618347455,0.8007651301521688,0.5056316295645588,14.369754436240092,-0.9529653794178968,80.80791239137801,-0.15893567124439487,-1.432394487827058
GUIDED_NOGPS,4.4932286739349365,30.370399333840194,17.297703454290264,-6.097509175058706,80.40334569319621,-0.550274206319699,11.263626559217862,15.906077939126583,84.13993678302297,-1.116206482914703,0.7939554898308568,-28.196957252442335,-0.990161420138338,0.30170384475362017,0.7179043149922579,0.5056048866347401,6.926385537883053,2.998513502723925,80.1017110928426,0.47625301407562637,-1.0313240312354819
GUIDED_NOGPS,4.525632619857788,30.864981014334912,16.87043835939814,-1.6526313386662044,80.04590401721602,-0.5964000612594174,11.180755131547023,16.174566412626,84.44663790287555,-1.1589196044979067,0.8239534672221414,-28.205940658748194,-0.8022238988081493,0.28448416139255583,0.9769916327901462,0.5066011008284893,23.142544285473498,18.316842477394385,76.17859600651524,-2.7043108077229863,-0.5729577951308232
GUIDED_NOGPS,4.583112478256226,17.4007907368456,15.887196751016875,-1.3045773802807377,80.39824341133308,-0.6148379888687234,11.100829869296497,16.43350984172826,84.7555435048796,-1.0460304513393475,0.7300018673110887,-28.272217399359413,-0.7982139249904049,0.2393183440860189,0.4461161095377084,0.5065359501403198,16.71895653583462,-4.825865304107127,81.02675150961744,0.39052403015027626,-0.8594366926962349
GUIDED_NOGPS,4.6108763217926025,36.03044411992097,10.487117326767375,1.2033744723760107,79.8897615426713,-0.6456987051148444,11.023873857339119,16.682833435610398,85.06660238426595,-1.1052360251688989,0.7758147208387146,-28.276455531739405,-0.6965756533455475,-0.026837826528587173,0.8508484632112515,0.507765261262392,-11.577657212034197,6.657486913124831,75.19756920006259,0.8376422361692051,-1.1459155902616465
GUIDED_NOGPS,4.649839401245117,25.67082037848557,9.703221535481587,-5.768259788147297,79.49139587305672,-0.658455870156399,10.949905800584204,16.922476593741173,85.37976272155552,-1.0533803752165158,0.7635991409515583,-28.301795533560153,-1.0210831371849813,-0.06233421325513087,0.48189250032094233,0.5088325502727482,11.95706803182505,-50.367066962216235,76.49446468756292,0.645635583047073,-0.8594366926962349
GUIDED_NOGPS,4.700655937194824,19.680942214297446,6.6880182746419905,-4.630805004742327,79.67378495047889,-0.6730528855156853,10.878939910212175,17.15239327445999,85.69497209940076,-1.0800414850331317,0.7657651646920987,-28.293884466953987,-0.9802439225641044,-0.20954608177850922,0.4756193424639432,0.5090317807233828,-1.9541564690933408,-1.2256122946982477,79.73831839126278,-0.3573078067066031,0.0
GUIDED_NOGPS,4.723585367202759,43.631128356097406,5.9538741810045845,-2.8144688467681345,80.1698969024053,-0.6763195373984444,10.810985789909395,17.37255236355596,86.01217751942701,-1.0027600290085532,0.6041142238317606,-28.2916031837712,-0.9084159544645845,-0.24285558044524055,0.40745033850071627,0.5087634209255326,11.606849545517614,2.7948623798005867,81.55778606034649,0.027001990439978515,0.0
GUIDED_NOGPS,4.759492635726929,27.85839344305849,5.493253765528987,-1.7253486860080538,80.4653603854627,-0.6729424627188413,10.746048322102709,17.582938042846784,86.33132541907386,-0.9509984008789635,0.43394112787795075,-28.29156903282535,-0.8688729027984678,-0.2626397278286861,0.2889743176942596,0.5087989475504168,8.033781300881182,2.4824523691763667,81.49989895947395,-0.3662363967224208,0.11459155902616465
GUIDED_NOGPS,4.799755573272705,24.84070880318393,4.284174971982951,-3.2088705838333405,68.47481410871676,-0.8557379826287106,10.68412755419439,17.783550158757855,86.65236168843649,-0.9853279988645054,0.22140292982349052,-28.279525701771327,-0.944658933416604,-0.31999762911057195,2.7379242006572553,0.5272663213695796,5.668933404467216,-15.823806168028574,0.06013488969524226,-29.106137054083437,-0.17188733853924698
GUIDED_NOGPS,4.839375734329224,25.24787960872837,4.687544404553664,0.3276418135727379,68.97927284296814,-0.8515203441263022,10.625218584796606,17.974404590901337,86.97523168710705,-1.1035880285882218,0.26416076780141656,-28.25231764321258,-0.794104324979787,-0.2968837090121471,0.41386016653382734,0.5269939382662083,17.656596533617577,17.56234008808768,76.51668396726592,-0.015933532099036408,0.11459155902616465
GUIDED_NOGPS,4.883333921432495,22.75222271043196,5.131719043831901,3.422794082214282,69.62225431515259,-0.8301173234763347,10.569311449966293,18.155533620654914,87.2998802610161,-1.1256713108353424,0.20652101483909055,-28.22432240535199,-0.6629732792298285,-0.2718796203067196,0.21601203226715834,0.5265164389187953,16.16652056454544,17.01336957509658,77.00336778235288,-0.012423750326616561,1.0313240312354819
GUIDED_NOGPS,4.920961380004883,26.580715485281537,7.097511688728657,6.704518083382512,69.93192985442889,-0.8111565562265212,10.516391009439843,18.326986299741172,87.62625175927383,-1.0960206058746709,0.006651963921357731,-28.221508367413946,-0.5230110697361398,-0.1709439660355593,0.19490934976756163,0.5265414828572674,27.10682285310556,18.938125871491838,75.27339327689593,-1.3374106311354332,1.0313240312354819
GUIDED_NOGPS,4.938865661621094,55.881583330002535,7.420031691658755,10.040795651378932,70.09588413159912,-0.7919405053890455,10.466436832867743,18.48882881880612,87.95429005101153,-1.131120200967426,-0.09593512953470659,-28.190340506683885,-0.3801614925342235,-0.15232025706044938,-0.106177483953938,0.5267876088791186,13.11990080392439,26.733886259385052,73.67259692105016,0.31010743846701094,0.8021409131831525
GUIDED_NOGPS,4.972774028778076,29.499335363580737,5.819009494442234,1.9987293986844623,70.73045711169438,-0.7988049225796584,10.41942308604942,18.64114487599874,88.28393854222298,-1.1286382809777724,-0.13180664272537887,-28.161397580075956,-0.7489086964791427,-0.23002067958035932,0.5428129947211819,0.526330222145793,-3.1285787179838502,-55.227637325234134,75.69359366710276,-3.64485455501029,0.9167324722093172
GUIDED_NOGPS,5.015587091445923,23.363602435342546,3.9838058358189756,-5.420847060077764,71.0509699553917,-0.7887724531919328,10.375318417167776,18.78403604554949,88.61514019260568,-1.1480686750625777,-0.16242275223654948,-28.103289745712072,-1.0892197397532266,-0.3195756290674401,0.32078654133292156,0.526346255355821,-2.6630756655694787,-58.320053084545556,74.95195138005688,-3.700508839225975,1.1459155902616465
GUIDED_NOGPS,5.054395437240601,25.77747185210679,0.832845780877234,-11.993199100761398,71.55933352873893,-0.801486894473089,10.334085843024106,18.917622146349622,88.94783753240239,-0.9414903506674827,-0.2549003119473487,-28.042157845093165,-1.3909869561199961,-0.4750620031073436,0.6140987137235157,0.5260827560054951,-12.598687010669341,-53.786258464265316,76.58121592127144,-10.030825917587395,1.6615776058793874
GUIDED_NOGPS,5.097895860671997,22.991936412224202,3.3842395952570827,-7.468415268892613,72.05381004681034,-0.7512741016210993,10.295682635272584,19.042041610530127,89.28197267924233,-0.8948385578107089,-0.24492076523972536,-27.98183190679632,-1.1929705595740234,-0.34557215200077507,-0.15772115949142101,0.525842243948648,29.077870340237492,24.064270337150802,76.33378760571625,0.045998023082233976,1.7188733853924698
GUIDED_NOGPS,5.117506980895996,51.01876877790077,5.896662210707539,-3.1967827030596414,72.52562648413391,-0.6968197289090329,10.260060206655218,19.157451852040786,89.61748735498269,-0.7663545353122767,-0.2878905525253334,-27.954917546371885,-1.0059405549795193,-0.218169899797384,-1.0099579631864932,0.5256377913062732,29.077870340237492,24.064270337150802,76.33378760571625,0.045998023082233976,2.0053522829578814
GUIDED_NOGPS,5.153435230255127,27.838793606966494,8.406744627865436,0.4434881972681466,73.01203515016077,-0.6755007027393848,10.227163997236353,19.264029635228802,89.95432290254988,-0.7900311192658614,-0.28244112878472105,-27.906074863617125,-0.8469243647082296,-0.09102096846854586,0.07242506626069845,0.5254134316285837,29.077870340237492,24.064270337150802,76.33378760571625,0.045998023082233976,1.260507149287811
GUIDED_NOGPS,5.18032169342041,37.20861573400518,10.540510125696885,3.9679693978398975,73.41873554193208,-0.6257191678702811,10.196933360637509,19.36197144341846,90.29242030278098,-0.8647962375506721,-0.2559054169723984,-27.87819915406701,-0.6927300920510354,0.01717883825296882,-0.5908546301189391,0.5253105271412734,29.077870340237492,24.064270337150802,76.33378760571625,0.045998023082233976,1.6615776058793874
GUIDED_NOGPS,5.213268756866455,30.362704502678444,12.574458965042254,6.965246783730998,73.7960436291362,-0.5960015915227759,10.16930145027208,19.451493847489438,90.63172019126506,-0.8774009247771076,-0.20871926853477685,-27.84822486889441,-0.5618811178691299,0.12025787573850871,-0.14222739878341295,0.5252535148431933,29.077870340237492,24.064270337150802,76.33378760571625,0.045998023082233976,1.2032113697747289
GUIDED_NOGPS,5.248689651489258,28.234014338123927,12.538989517686433,11.21542376236416,74.40423341594045,-0.5701836055508411,10.14419510557996,19.532833874456394,90.97216287518455,-1.0036199925137401,-0.27599833940669494,-27.795381402833314,-0.3742834550441505,0.11973972060532363,-0.05630641984071749,0.5248518941888661,12.951984608568905,34.7715055418327,78.27077242145776,-1.0328816909220828,0.7448451336700702
GUIDED_NOGPS,5.314810276031494,15.126546716147157,10.922081931227472,15.776295543405649,70.06114635419215,-0.45340168317458673,10.121534738262376,19.60624937604768,91.31368835015661,-1.1115026170106799,-0.22660326510280898,-27.669647865497133,-0.17234792246889136,0.040027359648254816,-0.6623773408481095,0.5318788129939467,-0.047607618492676654,38.235371498142165,42.89422711095299,11.486745526832648,1.8334649444186344
GUIDED_NOGPS,5.33103609085083,61.663711609991324,8.839220236390036,18.35192100459967,71.44488320578515,-0.3969396683236149,10.101234218516517,19.67201939728411,91.6562363170745,-1.0164898831790423,-0.3276025530202569,-27.650577977334457,-0.05940442767079978,-0.06310069910632406,-1.5605024956198936,0.5303170296669341,-3.5142332812065322,22.874889107911358,81.9073129863329,0.1305430793962456,1.1459155902616465
GUIDED_NOGPS,5.374083995819092,23.234051982007934,6.697299680801901,19.736121648360538,72.64970019972748,-0.375201777982218,10.083200761270312,19.73044454505858,91.999746198949,-0.8270740632600438,-0.20213091075006484,-27.587074293526264,0.0002554696485880115,-0.16929505402342057,-0.08257623625513177,0.5290250689988323,-8.286771770155662,25.23957120197659,80.25395371583367,0.032318612369829684,1.776169164905552
GUIDED_NOGPS,5.417317867279053,23.13537127538694,4.3201053777828315,22.07951977468646,73.71301333032802,-0.31436519735671276,10.067334812417037,19.781847356714728,92.34415715774963,-0.6872011805682914,-0.2299720424675062,-27.56563774481618,0.10339525880872796,-0.2873614717317103,-0.578490391801998,0.5279467157411324,-8.286771770155662,25.23957120197659,80.25395371583367,0.032318612369829684,1.776169164905552
GUIDED_NOGPS,5.431947469711304,68.40918580375782,2.3334641828971376,24.052101956660955,74.72498527854458,-0.2713071825825007,10.053529935050143,19.826572668625595,92.68940811124617,-0.55921298711492,-0.14924518289347924,-27.522993458733204,0.19014881796159125,-0.3860032876076503,-1.3672647569147476,0.5269466342490524,-8.286771770155662,25.23957120197659,80.25395371583367,0.032318612369829684,1.776169164905552
GUIDED_NOGPS,5.476996421813965,22.20348009295776,0.8860987001430032,24.726995059562494,75.5222038572677,-0.24651776989149807,10.041672695697919,19.864987984773443,93.0354377498499,-0.23495498563214784,-0.2545171810235933,-27.45326747259113,0.21879031836550736,-0.45777869977774577,-0.19561837175198138,0.5262698508388733,-8.286771770155662,25.23957120197659,80.25395371583367,0.032318612369829684,2.177239621497128
GUIDED_NOGPS,5.51436972618103,26.76082254534782,-0.8851292584323049,26.16741168592035,76.32369586808011,-0.19068783314328397,10.031642550558225,19.89748384532782,93.38218455345513,-0.01782355206192017,-0.26709945669181456,-27.41055146952187,0.28214675282666385,-0.5458385904495264,-0.6901855621083829,0.5255877330280625,-8.286771770155662,25.23957120197659,80.25395371583367,0.032318612369829684,1.8334649444186344
GUIDED_NOGPS,5.554790258407593,24.748806608644344,-2.323096419800729,27.11205633022023,77.07685027606507,-0.15674428852053574,10.023311731733152,19.92447419522545,93.72958680828035,0.12783247314442317,-0.2010190840192337,-27.33457244519465,0.3234411960747652,-0.617320407576694,-0.4010280522942567,0.5249791047983229,-8.286771770155662,25.23957120197659,80.25395371583367,0.032318612369829684,1.260507149287811
GUIDED_NOGPS,5.5768210887908936,45.402236390599796,-3.5824648616332615,27.884012583903278,77.68126687725548,-0.1237386725201676,10.016545133463744,19.94639675274845,94.0775826237098,0.18390002861760332,-0.1669979117634002,-27.32721462391125,0.35719271240196737,-0.6799504997548503,-0.7445707018144306,0.5245944736196815,-8.286771770155662,25.23957120197659,80.25395371583367,0.032318612369829684,1.4896902673401404
GUIDED_NOGPS,5.597226619720459,49.02350479797094,-4.336336847235328,28.0212136938409,78.09787616663088,-0.12095597347859213,10.011200198364854,19.963713378104096,94.42610994913467,0.35308022584146226,-0.2824221323210919,-27.32564538794944,0.36258751420815616,-0.7173768522800091,-0.07169518813958398,0.5244923506737557,-8.286771770155662,25.23957120197659,80.25395371583367,0.032318612369829684,0.7448451336700702
GUIDED_NOGPS,5.629091501235962,31.392846183208963,-5.202422240152491,28.431050816491553,78.51654925561999,-0.10502567595093878,10.007126803659595,19.97691044200308,94.77510659079462,0.4871726340612682,-0.3120741179422329,-27.317573811897777,0.38043631685198126,-0.7604774521906044,-0.2643776750272562,0.524387836002762,-8.286771770155662,25.23957120197659,80.25395371583367,0.032318612369829684,0.9740282517223995
GUIDED_NOGPS,5.679651498794556,19.782399939628906,-6.332109466661991,29.233244970979264,78.99421185163988,-0.07571166272968892,10.004167147414314,19.986499194238938,95.12451022861896,0.6178072590137552,-0.46148151782849994,-27.272748987922277,0.4161035599533147,-0.8168138307038153,-0.33123101086656104,0.5241954475654687,-8.286771770155662,25.23957120197659,80.25395371583367,0.032318612369829684,0.9740282517223995
