Mode,Time,Freq,time2delay,actualDelay,North-Desired,East-Desired,Down-Desired,Roll-UAV,Pitch-UAV,Yaw-UAV,Roll-Control,Pitch-Control,Yaw-Control,Thrust-Control,North-Pos,East-Pos,Down-Pos,Yaw-Ang,North-Vel,East-Vel,Down-Vel,Yaw-Vel,North-Acc,East-Acc,Down-Acc,North-Avg,East-Avg,Down-Avg,Yaw-Avg,North-Dif,East-Dif,Down-Dif,Yaw-Dif,North-One,East-One,Down-One,Yaw-One,North-Two,East-Two,Down-Two,Yaw-Two,Landing-State,Q-Size,Kalman-Time,Kalman-Dt
STABILIZE,0.03439044952392578,29.08772148826242,0.03283432324727376,0.032984018325805664,0.0,0.0,0.0,-0.46674887433904916,-1.6909061769206863,170.52803527176604,-0.031408480822312665,0.03080631842501711,0.0025400216957196875,0.4,0.024888418818548187,0.025352561268090913,0.028845540298407538,0.025233133262240047,-0.12513181427493691,0.10198228992521763,1.7720937728881836,-0.04063226176387695,-5.800981819629669,0.7219613995403051,23.84030818939209,0.0,0.0,0.0,0.0,0.0,0.0,0.0,0.0,0.0,0.0,0.0,0.0,0.0,0.0,0.0,0.0,False,0,0.058559417724609375,0.034922119140625
STABILIZE,0.0677037239074707,30.016345341863826,0.0322754700978597,0.03240036964416504,0.0,0.0,0.0,-0.46672635605912927,-1.691485462339668,170.5445643295575,-0.03235502471104691,0.031392262926002286,0.005114893724480267,0.4,0.049762369636154685,0.05120031702890036,0.06193498669799845,0.05064324456444176,-0.12513181427493691,0.10198228992521763,1.7720937728881836,-0.04063226176387695,-5.800981819629669,0.7219613995403051,23.84030818939209,0.0,0.0,0.0,0.0,0.0,0.0,0.0,0.0,0.0,0.0,0.0,0.0,0.0,0.0,0.0,0.0,False,1,0.08720946311950684,0.034922119140625
STABILIZE,0.10121560096740723,29.840166762711743,0.03247025807698568,0.03261208534240723,0.0,0.0,0.0,-0.4665353242057805,-1.6905231527186368,170.57659791676485,-0.03976609977153695,0.03818762804135309,0.009303482477132788,0.4,0.08895594089834367,0.09234122455951572,0.12707520937310238,0.09191379259404868,-0.0990148400887847,0.1538716722279787,1.7884066328406334,0.20203931684607793,3.8826830685138702,2.92856153100729,31.066423654556274,0.0,0.0,0.0,0.0,0.0,0.0,0.0,0.0,0.0,0.0,0.0,0.0,0.0,0.0,0.0,0.0,False,0,0.1446092128753662,0.02993310546875
STABILIZE,0.13470053672790527,29.86502613178394,0.03241875966389974,0.032595157623291016,0.0,0.0,0.0,-0.4668216585423921,-1.6907038325665247,170.59646010687123,-0.03484976640430772,0.033089502797061805,0.010574046035170847,0.4,0.10043947562677327,0.10540890996571257,0.15338143907039084,0.10392332123019399,-0.06309375166893005,0.1486827270127833,1.7037853598594666,-0.05353192778509228,-0.9984564036130905,2.762962691485882,27.73733139038086,0.0,0.0,0.0,0.0,0.0,0.0,0.0,0.0,0.0,0.0,0.0,0.0,0.0,0.0,0.0,0.0,False,0,0.17321491241455078,0.03474267578125
STABILIZE,0.16873645782470703,29.380106472401234,0.032411845525105794,0.0327610969543457,0.0,0.0,0.0,-0.46564152991986085,-1.6907820595768626,170.6247097692784,-0.032466475244438464,0.030728198523553123,0.011956075246678783,0.4,0.114041579216843,0.12001385158371913,0.18555292345249336,0.1169564425558469,0.08770828135311604,0.12491295346990228,1.809912733733654,-0.09702713270868883,2.1225716918706894,0.6687983870506287,25.972601771354675,0.0,0.0,0.0,0.0,0.0,0.0,0.0,0.0,0.0,0.0,0.0,0.0,0.0,0.0,0.0,0.0,False,0,0.20284557342529297,0.034922119140625
STABILIZE,0.20188045501708984,30.172027076604348,0.03206613858540853,0.032187700271606445,0.0,0.0,0.0,-0.4656563642369645,-1.689579092509294,170.64111588366478,-0.02939731123134873,0.027485651047158638,0.013202059985627831,0.4,0.12425950771720642,0.13129333906220303,0.2186581582343672,0.12855622713938258,-0.13249749317765236,-0.07966029806993902,1.931038498878479,0.02767608659945034,11.571332812309265,0.25187060236930847,24.38705563545227,0.0,0.0,0.0,0.0,0.0,0.0,0.0,0.0,0.0,0.0,0.0,0.0,0.0,0.0,0.0,0.0,False,0,0.2308816909790039,0.039910888671875
STABILIZE,0.23528480529785156,29.935579647565145,0.03234866460164388,0.03246641159057617,0.0,0.0,0.0,-0.46719112908780747,-1.6895470759975597,170.65667505459407,-0.0265062586539453,0.024495579840585945,0.01456461323557574,0.4,0.13517302685409302,0.14344180043971128,0.2577626847792713,0.14123743659281,-0.13249749317765236,-0.07966029806993902,1.931038498878479,0.02767608659945034,11.571332812309265,0.25187060236930847,24.38705563545227,0.0,0.0,0.0,0.0,0.0,0.0,0.0,0.0,0.0,0.0,0.0,0.0,0.0,0.0,0.0,0.0,False,0,0.2594738006591797,0.039910888671875
STABILIZE,0.26906824111938477,29.60030487374557,0.03238395055135091,0.032926082611083984,0.0,0.0,0.0,-0.4669356373241667,-1.6898068366294317,170.68999271736539,-0.019327027868975076,0.01751580257013262,0.015578437305587072,0.4,0.1439911670945572,0.15336171309134025,0.29440916980469634,0.1503575857320097,-0.08156247204169631,-0.039908147300593555,1.6731707379221916,-0.11209002102566769,3.202289342880249,0.11692327680066228,18.623903393745422,0.0,0.0,0.0,0.0,0.0,0.0,0.0,0.0,0.0,0.0,0.0,0.0,0.0,0.0,0.0,0.0,False,1,0.2908623218536377,0.024944091796875
STABILIZE,0.3026735782623291,29.758022519102926,0.032451661427815755,0.0325930118560791,0.0,0.0,0.0,-0.4664219857542406,-1.6899219893499697,170.7062349072117,-0.016192531174024447,0.014381126784295865,0.01555742288855657,0.4,0.14241432117250447,0.15324952665403438,0.32736577635381503,0.14914858827034547,-0.04483620577957481,0.053746235789731145,1.4441020786762238,0.015248560739665445,-1.1052217334508896,0.241790059953928,17.47269034385681,0.0,0.0,0.0,0.0,0.0,0.0,0.0,0.0,0.0,0.0,0.0,0.0,0.0,0.0,0.0,0.0,False,0,0.3462800979614258,0.069843994140625
STABILIZE,0.33606743812561035,29.944769683296684,0.032311232884724934,0.03244447708129883,0.0,0.0,0.0,-0.46668964379234046,-1.6887346036514455,170.73779038117715,-0.018211298037760247,0.016274444108303063,0.01796438806780557,0.4,0.16139768534987092,0.17348738207530484,0.3993102807349009,0.1720678158369356,0.02927458845078945,-0.01790861424524337,1.6219338402152061,0.26841133326013306,3.0137870460748672,1.953922025859356,16.783493757247925,0.0,0.0,0.0,0.0,0.0,0.0,0.0,0.0,0.0,0.0,0.0,0.0,0.0,0.0,0.0,0.0,False,0,0.3749399185180664,0.02993310546875
STABILIZE,0.3694446086883545,29.987373899863442,0.03237346013387044,0.032497406005859375,0.0,0.0,0.0,-0.46655858953764084,-1.689041962164096,170.75539860885743,-0.015524748256259439,0.013051257787234725,0.017816491322116136,0.4,0.15837202649770452,0.17345882039838326,0.4160639756834862,0.1694557186285423,-0.13164128176867962,0.11472487822175026,1.3828854076564312,-0.10575159213568264,-2.3903662338852882,0.21925498731434345,19.802367687225342,0.0,0.0,0.0,0.0,0.0,0.0,0.0,0.0,0.0,0.0,0.0,0.0,0.0,0.0,0.0,0.0,False,0,0.4037597179412842,0.034921875
STABILIZE,0.40294623374938965,29.822980659840727,0.03243687947591146,0.03257036209106445,0.0,0.0,0.0,-0.46548166080460024,-1.688450083583832,170.77105340243511,-0.013056041275489517,0.009966200420146338,0.017796337376978118,0.4,0.15648701992316336,0.1750143910818706,0.43834870467002063,0.1681289274074736,-0.13164128176867962,0.11472487822175026,1.3828854076564312,-0.10575159213568264,-2.3903662338852882,0.21925498731434345,19.802367687225342,0.0,0.0,0.0,0.0,0.0,0.0,0.0,0.0,0.0,0.0,0.0,0.0,0.0,0.0,0.0,0.0,False,0,0.43235206604003906,0.034921875
STABILIZE,0.436460018157959,29.838256217631326,0.03238967259724935,0.03253340721130371,0.0,0.0,0.0,-0.4651085617211883,-1.6880676997120172,170.80461695201654,-0.010695404094634162,0.007774762319780643,0.01775214458999494,0.4,0.15596286314854724,0.17486872787934848,0.46202176828471414,0.16657222996085358,0.03651882580015808,0.04313802637625486,1.5595832839608192,-0.050735659011059635,-4.314198344945908,0.10776252020150423,21.09917402267456,0.0,0.0,0.0,0.0,0.0,0.0,0.0,0.0,0.0,0.0,0.0,0.0,0.0,0.0,0.0,0.0,False,0,0.46097731590270996,0.034922119140625
STABILIZE,0.4759504795074463,25.32425252378882,0.032332690556844075,0.03848576545715332,0.0,0.0,0.0,-0.4652730198697975,-1.6886048300572152,170.81894668889524,-0.010176100397594255,0.008070202174273617,0.0175896288495578,0.4,0.1554729764983961,0.17237379249347864,0.48822264275132854,0.16365525738749734,0.08020248496904969,-0.07366689387708902,1.7966901883482933,-0.0938172706340068,4.753413051366806,0.0654062838293612,24.416615068912506,0.0,0.0,0.0,0.0,0.0,0.0,0.0,0.0,0.0,0.0,0.0,0.0,0.0,0.0,0.0,0.0,False,1,0.4896566867828369,0.029932861328125
STABILIZE,0.5095477104187012,29.766258835552275,0.03230145772298177,0.03243613243103027,0.0,0.0,0.0,-0.4643395251093272,-1.689111758159677,170.85099393648093,-0.004578448951057154,0.0012923846903212263,0.01703567870978328,0.4,0.14701534835704283,0.1695371530606194,0.5258263647557117,0.15706473429828602,-0.08100420236587524,0.1401299610733986,1.6558565199375153,0.019488040481193847,-4.0838077664375305,2.291513979434967,28.386548161506653,0.0,0.0,0.0,0.0,0.0,0.0,0.0,0.0,0.0,0.0,0.0,0.0,0.0,0.0,0.0,0.0,False,0,0.552645206451416,0.034921875
STABILIZE,0.5428683757781982,30.010117126850453,0.03214124043782552,0.03229045867919922,0.0,0.0,0.0,-0.46381936351534836,-1.6897179374485156,170.86801476789262,-0.0035045551331471265,0.0005763430977754283,0.017428537349981007,0.4,0.14156613051138567,0.1654256269392331,0.5473042124426787,0.15992320923344922,-0.17541350098326802,-0.08734868606552482,1.6074687242507935,0.38333484225472464,-3.055860474705696,-0.1610129838809371,19.568753242492676,0.0,0.0,0.0,0.0,0.0,0.0,0.0,0.0,0.0,0.0,0.0,0.0,0.0,0.0,0.0,0.0,False,0,0.581456184387207,0.034922119140625
STABILIZE,0.5787086486816406,27.90045965236711,0.03228596051534017,0.03484344482421875,0.0,0.0,0.0,-0.46395916894992206,-1.6889859332685608,170.90019861926172,-0.0025717794911006794,0.0005406752897817416,0.017261804841752947,0.4,0.1395355411063807,0.16309499096827573,0.5650774764850051,0.15712925836569033,0.07543375249952078,0.059571920428425074,1.4250138774514198,0.01940538285253946,2.7180634438991547,-0.14949304750189185,12.486639618873596,0.0,0.0,0.0,0.0,0.0,0.0,0.0,0.0,0.0,0.0,0.0,0.0,0.0,0.0,0.0,0.0,False,0,0.6101255416870117,0.02993408203125
STABILIZE,0.612074613571167,29.96744830739772,0.03234246571858724,0.03246593475341797,0.0,0.0,0.0,-0.46316889471861045,-1.6895130317734153,170.91605831851447,-0.0016306428654055901,-0.00013363074279888724,0.016948559886894577,0.4,0.13647030827117496,0.15937731802249205,0.5759920782268686,0.15297354323634374,0.07543375249952078,0.059571920428425074,1.4250138774514198,0.01940538285253946,2.7180634438991547,-0.14949304750189185,12.486639618873596,0.0,0.0,0.0,0.0,0.0,0.0,0.0,0.0,0.0,0.0,0.0,0.0,0.0,0.0,0.0,0.0,False,0,0.6388750076293945,0.02993408203125
STABILIZE,0.6460182666778564,29.46120940948394,0.03242996533711751,0.03305864334106445,0.0,0.0,0.0,-0.46386450679689395,-1.6902832423240401,170.94791432080342,-0.0010886210881250098,-0.0012673913248983143,0.016176124577629174,0.4,0.13174005613611037,0.15534609138298391,0.5900195789060898,0.14427001378062781,-0.03526898508425802,0.0385590479709208,1.6545303165912628,-0.2761775518311284,0.1987239345908165,-0.05306799430400133,20.555204153060913,0.0,0.0,0.0,0.0,0.0,0.0,0.0,0.0,0.0,0.0,0.0,0.0,0.0,0.0,0.0,0.0,False,0,0.6675176620483398,0.034921875
STABILIZE,0.6794760227203369,29.889287953936492,0.03242019017537435,0.03254222869873047,0.0,0.0,0.0,-0.4639751772057893,-1.6903435400878066,170.9651810390252,0.00016364410240264502,-0.0027199278185415384,0.015473148063962978,0.4,0.1187462369017005,0.1480946459986204,0.631786046813874,0.13632830633107415,-0.21901470609009266,0.06000687135383487,1.6328917816281319,-0.03764617509589878,-1.8760263919830322,0.03142610948998481,23.8051638007164,0.0,0.0,0.0,0.0,0.0,0.0,0.0,0.0,0.0,0.0,0.0,0.0,0.0,0.0,0.0,0.0,False,0,0.7253031730651855,0.029932861328125
STABILIZE,0.7129778861999512,29.849298300549403,0.0324132760365804,0.03255772590637207,0.0,0.0,0.0,-0.46376835053998483,-1.6903233696854139,170.9795517570389,0.0004200633132810497,-0.0023239812062502145,0.015124360291163963,0.4,0.11530073460251335,0.14339366545771146,0.6429600456535028,0.13195710369174415,0.051935657393187284,0.007886788807809353,1.6082469373941422,0.015112123708930473,3.111661970615387,0.009816137026064098,23.484724760055542,0.0,0.0,0.0,0.0,0.0,0.0,0.0,0.0,0.0,0.0,0.0,0.0,0.0,0.0,0.0,0.0,False,0,0.7539153099060059,0.034922119140625
STABILIZE,0.7464113235473633,29.911242645747905,0.032375605901082356,0.03248906135559082,0.0,0.0,0.0,-0.46454549800148537,-1.6909105525106234,171.01236398581165,0.0005155454219349846,-0.003151414347545531,0.014625189319890694,0.4,0.11047538310873395,0.1410257088322246,0.659452308066947,0.12612192378445156,-0.06696930504404008,0.10684855515137315,1.6057364642620087,-0.11670749570886077,-1.486583985388279,-0.053133018082007766,19.28841471672058,0.0,0.0,0.0,0.0,0.0,0.0,0.0,0.0,0.0,0.0,0.0,0.0,0.0,0.0,0.0,0.0,False,0,0.7825667858123779,0.029932861328125
STABILIZE,0.7798318862915039,29.9212715262024,0.03237036069234212,0.03249979019165039,0.0,0.0,0.0,-0.4641529755676212,-1.690555169230371,171.02958972289844,0.0008084874663195104,-0.004073137224766167,0.014185266374788345,0.4,0.10426326833341724,0.13655722048659322,0.665647975246046,0.12091423055385975,-0.12870948994532228,0.020651939848903567,1.3751707971096039,-0.041453705403383376,-1.126510463654995,-0.13827851507812738,17.18601882457733,0.0,0.0,0.0,0.0,0.0,0.0,0.0,0.0,0.0,0.0,0.0,0.0,0.0,0.0,0.0,0.0,False,0,0.8114993572235107,0.034921875
STABILIZE,0.8141374588012695,29.148365127349805,0.03240207036336263,0.03342914581298828,0.0,0.0,0.0,-0.4628732755935958,-1.690446313090474,171.06189651767258,0.0009844013781141697,-0.003514842518465231,0.014067463361251276,0.4,0.10207665602373521,0.13218073062888153,0.6817335173345049,0.11891897383737009,0.09809950133785605,-0.014403498789761215,1.6660094261169434,0.12618889217432272,0.060981977730989456,-0.11323905782774091,18.107667565345764,0.0,0.0,0.0,0.0,0.0,0.0,0.0,0.0,0.0,0.0,0.0,0.0,0.0,0.0,0.0,0.0,False,0,0.8399038314819336,0.03492236328125
STABILIZE,0.8477308750152588,29.77090697443323,0.03245237668355306,0.0325922966003418,0.0,0.0,0.0,-0.46235065940038406,-1.6906676539082648,171.07932716043447,0.000636636227215332,-0.0011962773449039526,0.013871034637536977,0.4,0.09908267255391599,0.1269276945000412,0.6927055642641299,0.11617677411092009,0.045711983693763614,-0.06269009900279343,1.4042788185179234,0.07918942001043279,0.6293212994933128,-0.17557477112859488,16.728439927101135,0.0,0.0,0.0,0.0,0.0,0.0,0.0,0.0,0.0,0.0,0.0,0.0,0.0,0.0,0.0,0.0,False,0,0.868649959564209,0.0299326171875
STABILIZE,0.8810782432556152,29.98523009172213,0.032308371861775716,0.032430171966552734,0.0,0.0,0.0,-0.4612045750019971,-1.6902622181480011,171.09470874644532,0.001643766150232446,-0.0032449826710189834,0.01318320659344766,0.4,0.0883649094495541,0.11896254622713821,0.7159901564016022,0.10857326954837973,-0.09580347687005997,0.02981671132147312,1.6766905784606934,0.02297466195444693,-5.1284827291965485,0.1019903807900846,27.71061658859253,0.0,0.0,0.0,0.0,0.0,0.0,0.0,0.0,0.0,0.0,0.0,0.0,0.0,0.0,0.0,0.0,False,0,0.9269554615020752,0.034922119140625
STABILIZE,0.9145057201385498,29.915296064362437,0.03240183194478353,0.03251934051513672,0.0,0.0,0.0,-0.46189879969810543,-1.690661784214447,171.128723088512,0.001707117315714228,-0.0029545474578474467,0.013190462090411048,0.4,0.08510252965822204,0.1165484737051224,0.7285547053034368,0.10792401596625262,0.02240897301817313,0.11004423722624779,1.6236573457717896,0.20045663394933902,3.486013785004616,1.805916242301464,17.699483036994934,0.0,0.0,0.0,0.0,0.0,0.0,0.0,0.0,0.0,0.0,0.0,0.0,0.0,0.0,0.0,0.0,False,0,0.955899715423584,0.0349228515625
STABILIZE,0.9481186866760254,29.75190103279991,0.03241422971089681,0.032544851303100586,0.0,0.0,0.0,-0.46263859456258244,-1.690764770660526,171.14436422171133,0.0012562935734009987,-0.0028396389849000185,0.012676171109311643,0.4,0.07995889728438185,0.1141771051978006,0.7393258059043127,0.10209782569507714,-0.09463673341087997,0.11048655724152923,1.5625186264514923,-0.11559277415176031,2.8821099549531937,2.014649659395218,25.098097324371338,0.0,0.0,0.0,0.0,0.0,0.0,0.0,0.0,0.0,0.0,0.0,0.0,0.0,0.0,0.0,0.0,False,0,0.9846408367156982,0.034921142578125
STABILIZE,0.9814832210540771,29.97130280683702,0.03223303159077962,0.03249549865722656,0.0,0.0,0.0,-0.46184405146303953,-1.690313017679953,171.17673931837717,0.0008460859869261611,-0.0036915263254237384,0.012155415704313728,0.4,0.07485004737021744,0.11184600373770225,0.7493262835594666,0.09624512268277886,-0.09463673341087997,0.11048655724152923,1.5625186264514923,-0.11559277415176031,2.8821099549531937,2.014649659395218,25.098097324371338,0.0,0.0,0.0,0.0,0.0,0.0,0.0,0.0,0.0,0.0,0.0,0.0,0.0,0.0,0.0,0.0,False,0,1.0131378173828125,0.034921142578125
STABILIZE,1.0150213241577148,29.816196542311193,0.03246024449666341,0.03258395195007324,0.0,0.0,0.0,-0.4611931557794785,-1.6904446055431817,171.19330935730363,0.00043593398328385793,-0.0035438035131371763,0.01167015311336432,0.4,0.0726974311697188,0.10863514524011314,0.7637191649213537,0.0907848193604069,0.07794543635100126,0.055537011940032244,1.8671909347176552,-0.09237155837653178,-2.2682182490825653,-0.02984536695294082,21.942780911922455,0.0,0.0,0.0,0.0,0.0,0.0,0.0,0.0,0.0,0.0,0.0,0.0,0.0,0.0,0.0,0.0,False,0,1.041795253753662,0.0349228515625
STABILIZE,1.0484402179718018,29.922765764673148,0.03234532674153646,0.032477378845214844,0.0,0.0,0.0,-0.4607448178934906,-1.6897562505408912,171.21026188682362,-0.00034326203895572346,-0.0022580488948440117,0.011460986919844292,0.4,0.06790021608898172,0.1043702659038506,0.7744524877779846,0.08810396651828507,-0.08509872714057565,-0.008829460421111435,1.6873560845851898,0.07005869772995545,4.610572010278702,-0.10640211403369904,23.924480378627777,0.0,0.0,0.0,0.0,0.0,0.0,0.0,0.0,0.0,0.0,0.0,0.0,0.0,0.0,0.0,0.0,False,0,1.0708603858947754,0.064855224609375
STABILIZE,1.0818934440612793,29.891844123264633,0.03240326245625814,0.0325319766998291,0.0,0.0,0.0,-0.459497454596317,-1.6896013973458024,171.24172173814068,0.0006646208707221312,-0.004445322106079535,0.010820083385082925,0.4,0.056836015543253696,0.09843075331011523,0.8222726418913746,0.08115215278064862,-0.11476221261546016,0.03672866732813418,1.6968902200460434,0.008568002071264897,-2.3534253239631653,-0.05727210082113743,23.672187328338623,0.0,0.0,0.0,0.0,0.0,0.0,0.0,0.0,0.0,0.0,0.0,0.0,0.0,0.0,0.0,0.0,False,0,1.1278629302978516,0.034921875
STABILIZE,1.1158466339111328,29.45314101933907,0.03240016301472982,0.033030033111572266,0.0,0.0,0.0,-0.45950834021030673,-1.689432563607256,171.25737653171836,0.0011599030015549084,-0.005090306663241395,0.011150915074309847,0.4,0.049745166930739736,0.09437671856102854,0.8214423094966913,0.08389094862069911,-0.21063731983304024,0.016321368457283825,1.3174942694604397,0.3607538366522658,-5.082536488771439,-0.20782002247869968,17.160843312740326,0.0,0.0,0.0,0.0,0.0,0.0,0.0,0.0,0.0,0.0,0.0,0.0,0.0,0.0,0.0,0.0,False,0,1.1565284729003906,0.02993310546875
STABILIZE,1.149336338043213,29.860348559061396,0.03238704999287923,0.03252387046813965,0.0,0.0,0.0,-0.45904410079015745,-1.6891082363433862,171.27472521221017,0.001847975384305982,-0.004561709949833017,0.010739724430752134,0.4,0.04714458873849767,0.0896905881393742,0.8197454588618438,0.07924854244643424,0.016676260565873235,-0.017665242194198072,1.562235038727522,-0.04378269985875855,-1.5078903175890446,-0.1624449505470693,19.64581161737442,0.0,0.0,0.0,0.0,0.0,0.0,0.0,0.0,0.0,0.0,0.0,0.0,0.0,0.0,0.0,0.0,False,0,1.185213565826416,0.034921875
STABILIZE,1.182767629623413,29.911882586184763,0.03232243855794271,0.03245711326599121,0.0,0.0,0.0,-0.4575521313433328,-1.6898319162302904,171.30686808244425,0.0019759000523585962,-0.004319458994289696,0.010535061217197201,0.4,0.04610418949305302,0.08630900586382413,0.8248739077883878,0.0766889834011641,0.10483909863978624,0.0386044557671994,1.6549522057175636,0.056981706924477626,5.278276652097702,1.7860064283013344,19.78486031293869,0.0,0.0,0.0,0.0,0.0,0.0,0.0,0.0,0.0,0.0,0.0,0.0,0.0,0.0,0.0,0.0,False,0,1.2148091793060303,0.034922119140625
STABILIZE,1.2161548137664795,29.951826329132004,0.032381804784139,0.03248953819274902,0.0,0.0,0.0,-0.4569018759900064,-1.6896546514769872,171.32342446099238,0.002386143435484763,-0.0034558748423952883,0.010480033683377722,0.4,0.04501967672402709,0.08094436878600395,0.8283734847082862,0.07563327851766889,0.09377289097756147,-0.07755910628475249,1.5842320397496223,0.1348876316702232,1.5733346343040466,-0.18157499143853784,22.44091033935547,0.0,0.0,0.0,0.0,0.0,0.0,0.0,0.0,0.0,0.0,0.0,0.0,0.0,0.0,0.0,0.0,False,0,1.2437889575958252,0.02993310546875
STABILIZE,1.2496857643127441,29.82361682914169,0.03241566022237142,0.032535552978515625,0.0,0.0,0.0,-0.457363554089217,-1.689353055936449,171.35672846338537,0.001497831697577457,-0.0018151571796386236,0.009859896410323728,0.4,0.04126157299961432,0.078908156583806,0.8294746311905038,0.06897053065530392,-0.07056840695440769,0.10409008245915174,1.7402108758687973,-0.17954486254700783,0.6270390935242176,-0.17194256652146578,19.120199978351593,0.0,0.0,0.0,0.0,0.0,0.0,0.0,0.0,0.0,0.0,0.0,0.0,0.0,0.0,0.0,0.0,False,0,1.272261619567871,0.034921875
STABILIZE,1.283113718032837,29.91316254920979,0.032325061162312825,0.032440900802612305,0.0,0.0,0.0,-0.4555043552527983,-1.6881890422914907,171.3739815212288,0.0017626750766630954,-0.0004094629291279461,0.00862788768804967,0.4,0.04025103153100531,0.07432410140082975,0.8402988902059021,0.056274193058063575,0.1119677210226655,0.0742060481570661,1.5759153291583061,-0.17342450612257396,4.451664537191391,-0.2682559657841921,15.745450556278229,0.0,0.0,0.0,0.0,0.0,0.0,0.0,0.0,0.0,0.0,0.0,0.0,0.0,0.0,0.0,0.0,False,0,1.3297851085662842,0.039910888671875
STABILIZE,1.3166124820709229,29.852697508896796,0.0323367436726888,0.03248143196105957,0.0,0.0,0.0,-0.4553968864950764,-1.6876958812890746,171.38928114496963,0.0017390466612917524,-0.001259881597427859,0.008257103968585002,0.4,0.03475725367181594,0.0702068025046122,0.8484190560183138,0.052216745644916095,-0.17208621138706803,-0.035334439598955214,1.6533592715859413,-0.046686123895502384,0.8001553826034069,-0.25345440953969955,21.464286744594574,0.0,0.0,0.0,0.0,0.0,0.0,0.0,0.0,0.0,0.0,0.0,0.0,0.0,0.0,0.0,0.0,False,0,1.3584306240081787,0.024945068359375
STABILIZE,1.3500475883483887,29.909536271776258,0.03229811986287435,0.0324244499206543,0.0,0.0,0.0,-0.45552719369783556,-1.6867448841688562,171.42094590196183,0.0014613201355433503,-0.0020563688607824174,0.00803426122804036,0.4,0.030858022264747476,0.06819453723138202,0.8400865751396352,0.04965635981788705,-0.11322306236252189,0.08134398376569152,1.5640351921319962,0.0100125904157759,-6.629385054111481,1.706867665052414,18.000788986682892,0.0,0.0,0.0,0.0,0.0,0.0,0.0,0.0,0.0,0.0,0.0,0.0,0.0,0.0,0.0,0.0,False,0,1.3871448040008545,0.034922119140625
STABILIZE,1.3835127353668213,29.882260741943988,0.03229835828145345,0.03243613243103027,0.0,0.0,0.0,-0.45624681815991985,-1.687347968528227,171.44015239390788,0.0010008668264344705,-0.0019084610544046975,0.008005617342124965,0.4,0.03042538297786518,0.06509178874062352,0.8441463813583431,0.04904177644673137,0.09348813910037279,0.00843900052132085,1.6902344301342964,0.12561898492523657,3.598751127719879,-0.18656518077477813,22.104568779468536,0.0,0.0,0.0,0.0,0.0,0.0,0.0,0.0,0.0,0.0,0.0,0.0,0.0,0.0,0.0,0.0,False,0,1.4164092540740967,0.02993310546875
STABILIZE,1.4168996810913086,29.94968760041415,0.032285245259602864,0.03242945671081543,0.0,0.0,0.0,-0.454325720734148,-1.6887577622616,171.470328169661,0.0013100400500800867,-0.0010561535591178276,0.007996550556079314,0.4,0.03023260598847472,0.06209180281542661,0.8433023435516274,0.048625729346954694,0.09348813910037279,0.00843900052132085,1.6902344301342964,0.12561898492523657,3.598751127719879,-0.18656518077477813,22.104568779468536,0.0,0.0,0.0,0.0,0.0,0.0,0.0,0.0,0.0,0.0,0.0,0.0,0.0,0.0,0.0,0.0,False,0,1.4450056552886963,0.02993310546875
STABILIZE,1.4502990245819092,29.940708274143926,0.032372506459554036,0.03248238563537598,0.0,0.0,0.0,-0.45369777021732993,-1.6888827333790701,171.4874582840994,0.0009579182866813016,-0.0019426086842872737,0.008106226919133814,0.4,0.02602892504136883,0.05929269236417514,0.8393050891052646,0.04939234427886825,-0.14392860466614366,0.01195165459648706,1.4924160204827785,0.1899829524037344,-1.3306262902915478,-0.25980998761951923,18.257007002830505,0.0,0.0,0.0,0.0,0.0,0.0,0.0,0.0,0.0,0.0,0.0,0.0,0.0,0.0,0.0,0.0,False,0,1.4736888408660889,0.034921875
STABILIZE,1.4837253093719482,29.916789706060673,0.03240683873494466,0.03252053260803223,0.0,0.0,0.0,-0.4538996876846685,-1.6881736743658582,171.50338628524386,0.0015800752606736188,-0.003355049863538438,0.00771527700369308,0.4,0.015899570064428138,0.05330052305780197,0.849082607937238,0.04518082554876823,-0.19364404724910855,-0.008586805051891133,1.7361462116241455,0.016276274091074273,-5.360572412610054,-0.10373423574492335,25.657466053962708,0.0,0.0,0.0,0.0,0.0,0.0,0.0,0.0,0.0,0.0,0.0,0.0,0.0,0.0,0.0,0.0,False,0,1.531080961227417,0.034922119140625
STABILIZE,1.5172367095947266,29.84207755247243,0.03241709073384603,0.032564401626586914,0.0,0.0,0.0,-0.45226471115209665,-1.6892247764460997,171.53838417455103,0.0020409156899461197,-0.0029682524952682966,0.007435740923804228,0.4,0.013858605866597491,0.049764232732317094,0.8494668906383438,0.04210359389001972,-0.02499797847121954,-0.04809113743249327,1.4960630796849728,-0.04720618543788199,4.339143633842468,-0.30990459490567446,18.104679882526398,0.0,0.0,0.0,0.0,0.0,0.0,0.0,0.0,0.0,0.0,0.0,0.0,0.0,0.0,0.0,0.0,False,0,1.5600395202636719,0.06485498046875
STABILIZE,1.5506577491760254,29.920631183969295,0.0323674996693929,0.03248929977416992,0.0,0.0,0.0,-0.4519112488625485,-1.6887199827777535,171.55297345861817,0.001760663055836461,-0.0040600547988526615,0.006767958101785425,0.4,0.009415428783294747,0.048020993602344075,0.877114596623276,0.035190446406719665,-0.08258230518549681,0.07068446138873696,1.5475574880838394,-0.23642379646881792,-2.24260576069355,-0.26435405015945435,18.83563995361328,0.0,0.0,0.0,0.0,0.0,0.0,0.0,0.0,0.0,0.0,0.0,0.0,0.0,0.0,0.0,0.0,True,0,1.588871717453003,0.034921875
STABILIZE,1.584214687347412,29.80263756252842,0.03238061269124349,0.03250598907470703,0.0,0.0,0.0,-0.4509214050414255,-1.688709417328881,171.58541685717572,0.0013835809164367834,-0.004767600646440491,0.006128633110581934,0.4,0.006612836620595144,0.046727465994107056,0.874801694147942,0.028605824170442686,-0.08258230518549681,0.07068446138873696,1.5475574880838394,-0.23642379646881792,-2.24260576069355,-0.26435405015945435,18.83563995361328,0.0,0.0,0.0,0.0,0.0,0.0,0.0,0.0,0.0,0.0,0.0,0.0,0.0,0.0,0.0,0.0,True,0,1.61753249168396,0.034921875
STABILIZE,1.6175720691680908,29.97665792351289,0.03224376042683919,0.03237485885620117,0.0,0.0,0.0,-0.45087786258546675,-1.6889257422265,171.60256063199245,0.0018634303879299767,-0.0048022575767837404,0.006057943705018561,0.4,0.002744389883029914,0.042430183015203946,0.8746939304536508,0.02771359024694416,-0.1463346998207271,-0.09786072187125683,1.662713848054409,0.06513685941198029,-0.7758232764899731,-0.1733141951262951,24.123209714889526,0.0,0.0,0.0,0.0,0.0,0.0,0.0,0.0,0.0,0.0,0.0,0.0,0.0,0.0,0.0,0.0,True,0,1.6464283466339111,0.064856201171875
STABILIZE,1.6510183811187744,29.89802333787165,0.03236082394917806,0.03249859809875488,0.0,0.0,0.0,-0.45090529006385255,-1.6891418536807075,171.6165351990343,0.0008731416142170545,-0.0029654724845487312,0.006039052516786174,0.4,0.0005620380336318126,0.040751829972017393,0.8956504077217837,0.027341730206854584,0.027689413400366902,0.06027732160873711,1.4090883545577526,0.13277560911280833,3.8664378225803375,1.6118275001645088,16.831262409687042,0.0,0.0,0.0,0.0,0.0,0.0,0.0,0.0,0.0,0.0,0.0,0.0,0.0,0.0,0.0,0.0,True,0,1.6749532222747803,0.034921875
STABILIZE,1.6847734451293945,29.622673757512835,0.032369168599446614,0.03286910057067871,0.0,0.0,0.0,-0.4501048772704917,-1.6892004438971815,171.65012606937242,0.0001504952377054575,-0.0037258476422052287,0.004770128458208708,0.4,-0.004113750573305194,0.040265225473578706,0.8844486169841556,0.014554113857111115,-0.04631182528100908,0.052070029778406024,1.3727531768381596,-0.23830161824289542,5.7200029492378235,-0.39991941303014755,17.211347818374634,0.0,0.0,0.0,0.0,0.0,0.0,0.0,0.0,0.0,0.0,0.0,0.0,0.0,0.0,0.0,0.0,True,0,1.7322437763214111,0.034921875
STABILIZE,1.7183837890625,29.75781139143514,0.03244617780049642,0.032601118087768555,0.0,0.0,0.0,-0.44926860598398827,-1.6895779185705304,171.6655486365183,0.0002898112607275122,-0.0036826178741970286,0.004522548259753192,0.4,-0.007902923327970128,0.03817088907358915,0.8763964740231748,0.011997928715955647,-0.1652775565162301,0.002706989471334964,1.3727924786508083,-0.051350089221776495,1.3463052920997143,-0.38616068195551634,15.834933519363403,0.0,0.0,0.0,0.0,0.0,0.0,0.0,0.0,0.0,0.0,0.0,0.0,0.0,0.0,0.0,0.0,True,0,1.7608973979949951,0.029932861328125
STABILIZE,1.7553765773773193,27.030031191194286,0.03228119214375814,0.036066532135009766,0.0,0.0,0.0,-0.44946764196527067,-1.6890897734882862,171.6810668263126,0.0008402673723864691,-0.002848612093204318,0.004569268983348465,0.4,-0.007231041883367949,0.03464177689044279,0.8682737609233151,0.012373270633730008,0.045905745355412364,-0.07896095048636198,1.5647916123270988,0.08159168558693354,2.9531732201576233,-0.2833859296515584,20.904093980789185,0.0,0.0,0.0,0.0,0.0,0.0,0.0,0.0,0.0,0.0,0.0,0.0,0.0,0.0,0.0,0.0,True,0,1.7904038429260254,0.03492236328125
STABILIZE,1.788801670074463,29.91657631954351,0.03242376645406087,0.03254842758178711,0.0,0.0,0.0,-0.4484760905968552,-1.6897244474725683,171.71251301725133,0.0007314113113622597,-0.0018102290370290884,0.004597207445306676,0.4,-0.006807894873813487,0.031210505162840765,0.8650090840435488,0.012568684308030226,0.045905745355412364,-0.07896095048636198,1.5647916123270988,0.08159168558693354,2.9531732201576233,-0.2833859296515584,20.904093980789185,0.0,0.0,0.0,0.0,0.0,0.0,0.0,0.0,0.0,0.0,0.0,0.0,0.0,0.0,0.0,0.0,True,0,1.818641185760498,0.03492236328125
STABILIZE,1.8222405910491943,29.907616833758787,0.03244045575459798,0.03257918357849121,0.0,0.0,0.0,-0.4475165557401742,-1.6908672234980762,171.7432488685164,0.0007275915448200179,-0.0012142190861656518,0.004529112600997757,0.4,-0.006528224992202812,0.029714442038726727,0.8617447101288234,0.01180872282230647,0.03454198595136404,0.01894381712190807,1.5535447746515274,0.025636621461753623,3.6999769508838654,-0.19280140986666083,23.227381706237793,0.0,0.0,0.0,0.0,0.0,0.0,0.0,0.0,0.0,0.0,0.0,0.0,0.0,0.0,0.0,0.0,True,0,1.8493759632110596,0.029933837890625
STABILIZE,1.8567841053009033,28.946996466431095,0.03245547612508138,0.03363990783691406,0.0,0.0,0.0,-0.44792572676014025,-1.6901680896035018,171.76057022825154,0.0007215891872450426,-0.000969248867742109,0.004339823567299669,0.4,-0.00981298917765576,0.02927787011639471,0.8502195489204369,0.009847872532759868,-0.17326895613223314,0.06796866073273122,1.3131852261722088,-0.05348254231574191,-2.063085325062275,1.5909180045127869,13.44098150730133,0.0,0.0,0.0,0.0,0.0,0.0,0.0,0.0,0.0,0.0,0.0,0.0,0.0,0.0,0.0,0.0,True,1,1.8764100074768066,0.034921875
STABILIZE,1.890275239944458,29.859923397832926,0.032424004872639973,0.03257918357849121,0.0,0.0,0.0,-0.447445372362418,-1.6905741656940003,171.77861558803872,0.0012492904259360914,-1.3170810502739475e-05,0.0038665022946386815,0.4,-0.009616682432177677,0.025439243791880107,0.8484447328076191,0.005080635822377413,-0.18195240991190076,-0.01453796139685437,1.6670098528265953,0.1349707278583873,-0.5915922112762928,1.8795287236571312,26.634612679481506,0.0,0.0,0.0,0.0,0.0,0.0,0.0,0.0,0.0,0.0,0.0,0.0,0.0,0.0,0.0,0.0,True,0,1.9338669776916504,0.029932861328125
STABILIZE,1.9237372875213623,29.884176926584587,0.032364638646443684,0.03250908851623535,0.0,0.0,0.0,-0.4482652085062311,-1.6893611667860884,171.8097066091406,0.0008290389816048386,0.0009439925912961847,0.0034717463187610652,0.4,-0.005521500486387441,0.0241607590621947,0.8419456624534898,0.0011255515161666774,0.22780532017350197,0.009166386735159904,1.5319565311074257,-0.1821726310878248,5.07725290954113,-0.23486060090363026,18.16384345293045,0.0,0.0,0.0,0.0,0.0,0.0,0.0,0.0,0.0,0.0,0.0,0.0,0.0,0.0,0.0,0.0,True,0,1.9624459743499756,0.034922119140625
STABILIZE,1.9572358131408691,29.851422715044198,0.0323670228322347,0.032507896423339844,0.0,0.0,0.0,-0.4487833423878,-1.689335446854995,171.82511551590815,-1.923621493421054e-05,0.0009120525521281328,0.0030606804286967743,0.4,-0.005260313752870917,0.024244520748418607,0.8371978601085611,-0.0029652669867220476,0.021568749798461795,0.08549289195798337,1.3733754865825176,-0.18275016893887433,0.48524122685194016,1.668393425643444,16.387203335762024,0.0,0.0,0.0,0.0,0.0,0.0,0.0,0.0,0.0,0.0,0.0,0.0,0.0,0.0,0.0,0.0,True,0,1.9911596775054932,0.034921875
STABILIZE,1.991300344467163,29.355842047061127,0.032325061162312825,0.03315138816833496,0.0,0.0,0.0,-0.44790576980115915,-1.6884592616505294,171.85878834851633,-0.00042136275195935643,0.0009223878914047754,0.00265588671928506,0.4,-0.004965243762533527,0.024396890145572378,0.8325410267066403,-0.006965651427624797,0.021568749798461795,0.08549289195798337,1.3733754865825176,-0.18275016893887433,0.48524122685194016,1.668393425643444,16.387203335762024,0.0,0.0,0.0,0.0,0.0,0.0,0.0,0.0,0.0,0.0,0.0,0.0,0.0,0.0,0.0,0.0,True,0,2.0197246074676514,0.034921875
STABILIZE,2.024785280227661,29.86587675700309,0.03240922292073568,0.0325469970703125,0.0,0.0,0.0,-0.44729830985185115,-1.6880986490066938,171.87351423636687,-0.0003833850950277896,0.0008145639579619964,0.0029224279882762174,0.4,-0.008191665578010819,0.023864451854966145,0.8339588033032992,-0.004271645636236645,-0.1790890353731811,0.04334927361924201,1.71103123575449,0.19019077958553052,-0.9859848767518997,1.818675547838211,22.669987380504608,0.0,0.0,0.0,0.0,0.0,0.0,0.0,0.0,0.0,0.0,0.0,0.0,0.0,0.0,0.0,0.0,True,0,2.0485894680023193,0.034922119140625
STABILIZE,2.058903455734253,29.31296344182211,0.0323825200398763,0.03261160850524902,0.0,0.0,0.0,-0.447431178375549,-1.6887028005831226,171.89056238853522,-0.0012909991520330109,0.0012683778072075083,0.0028961555829939813,0.4,-0.006323272314678528,0.023814302987485967,0.8307749876920366,-0.004504155802519973,0.10813554981723428,0.06763465935364366,1.4441940002143383,0.018660310266206234,-0.14287979574874043,-0.25410589296370745,18.12366098165512,0.0,0.0,0.0,0.0,0.0,0.0,0.0,0.0,0.0,0.0,0.0,0.0,0.0,0.0,0.0,0.0,True,1,2.0774407386779785,0.0349228515625
STABILIZE,2.091848134994507,30.348424441952172,0.03180650075276693,0.03195548057556152,0.0,0.0,0.0,-0.4468151806897785,-1.6889723796119265,171.92259597574258,-0.0010848127453270862,-0.00025931011752335987,0.003310342301316083,0.4,-0.008353030380276627,0.021896577248055955,0.8275603894044476,-0.0003598797448206418,-0.06141717312857509,0.011823524255305529,1.6370302066206932,0.13950431928083615,0.19438317976891994,-0.2112983027473092,20.923690497875214,0.0,0.0,0.0,0.0,0.0,0.0,0.0,0.0,0.0,0.0,0.0,0.0,0.0,0.0,0.0,0.0,True,0,2.1368749141693115,0.02993310546875
STABILIZE,2.125316858291626,29.878854798150694,0.032335789998372395,0.0325932502746582,0.0,0.0,0.0,-0.44706416242936664,-1.6885580859500828,171.9394938637492,-0.0006560225608813671,-0.001028660068478828,0.003004413250027008,0.4,-0.01098055100208265,0.020360357987216013,0.8269915153294264,-0.003396370553972285,-0.16143162501975894,-0.02631520328577608,1.7822109162807465,-0.1628429556128507,-3.9533790200948715,-0.1554551417939365,25.083398818969727,0.0,0.0,0.0,0.0,0.0,0.0,0.0,0.0,0.0,0.0,0.0,0.0,0.0,0.0,0.0,0.0,True,0,2.1654791831970215,0.039910888671875
STABILIZE,2.1587390899658203,29.92191189584448,0.03240326245625814,0.03251528739929199,0.0,0.0,0.0,-0.4468966093512898,-1.6884419727341926,171.97210118684683,-0.00044656549672365717,-0.0014000588496731184,0.002995459920504366,0.4,-0.012095135513296749,0.019702980107552268,0.8323688970418386,-0.0034627557581094087,-0.057670840760692954,0.0239432294620201,1.6385579481720924,0.02405712687597495,-2.4251550436019897,-0.2133609028533101,23.46656173467636,0.0,0.0,0.0,0.0,0.0,0.0,0.0,0.0,0.0,0.0,0.0,0.0,0.0,0.0,0.0,0.0,True,0,2.1942100524902344,0.024944091796875
STABILIZE,2.192319869995117,29.777670495690572,0.032459529240926106,0.03267168998718262,0.0,0.0,0.0,-0.44598723369632604,-1.6888532781882744,171.98826141442308,-0.0004860020369599264,-0.0009150499218026099,0.0029102262326092376,0.4,-0.01315288692607981,0.019363824758381797,0.8209442964392185,-0.004286337627024664,-0.08440384408459067,0.03801697457674891,1.3801589608192444,-0.047443581202286214,0.7054525893181562,-0.3541557118296623,20.102618634700775,0.0,0.0,0.0,0.0,0.0,0.0,0.0,0.0,0.0,0.0,0.0,0.0,0.0,0.0,0.0,0.0,True,0,2.2244808673858643,0.034922119140625
STABILIZE,2.225820779800415,29.84972315925815,0.03240636189778646,0.032547712326049805,0.0,0.0,0.0,-0.44600815115065917,-1.688144432618474,172.00474949107948,0.0001504910259613244,-0.0016188635735858222,0.002705565706410614,0.4,-0.014103180153656778,0.01694342157020838,0.8212681380899144,-0.006290850937471578,-0.060100347036495805,-0.08638481958769262,1.5514548867940903,-0.1029444444177669,0.1957216765731573,-0.3498444566503167,21.239280700683594,0.0,0.0,0.0,0.0,0.0,0.0,0.0,0.0,0.0,0.0,0.0,0.0,0.0,0.0,0.0,0.0,True,0,2.252998113632202,0.02993408203125
STABILIZE,2.259228467941284,29.934084129091193,0.03236821492513021,0.032491445541381836,0.0,0.0,0.0,-0.4455938574888156,-1.6877031383650678,172.03600443672147,0.000320789183138547,-0.0013369929597841787,0.002519685526361257,0.4,-0.014848997789250667,0.014599198721666751,0.8176245622932531,-0.0080955109358304,-0.060100347036495805,-0.08638481958769262,1.5514548867940903,-0.1029444444177669,0.1957216765731573,-0.3498444566503167,21.239280700683594,0.0,0.0,0.0,0.0,0.0,0.0,0.0,0.0,0.0,0.0,0.0,0.0,0.0,0.0,0.0,0.0,True,0,2.2816383838653564,0.02993408203125
STABILIZE,2.2927732467651367,29.813441376123965,0.032396825154622395,0.032535552978515625,0.0,0.0,0.0,-0.4448742330267313,-1.687403143650116,172.0533531172133,0.0006056044813594917,-0.0017635374476981127,0.00257457809206736,0.4,-0.01874943456868824,0.012172482135001654,0.8373841901319315,-0.007496422228092313,-0.0948831788264215,-0.061506329802796245,1.4756676740944386,0.1483796164987388,-4.3558519333601,-0.49907355569303036,13.866996765136719,0.0,0.0,0.0,0.0,0.0,0.0,0.0,0.0,0.0,0.0,0.0,0.0,0.0,0.0,0.0,0.0,True,0,2.339066505432129,0.029932861328125
STABILIZE,2.3261032104492188,30.000243188922028,0.03228476842244466,0.032418251037597656,0.0,0.0,0.0,-0.44439868110576913,-1.6886870057706669,172.08575553463584,0.000947961899399785,-0.0018176626764161853,0.002849402366421754,0.4,-0.01992873125041708,0.01031073275911197,0.8301679523544463,-0.0047166412285612695,-0.0948831788264215,-0.061506329802796245,1.4756676740944386,0.1483796164987388,-4.3558519333601,-0.49907355569303036,13.866996765136719,0.0,0.0,0.0,0.0,0.0,0.0,0.0,0.0,0.0,0.0,0.0,0.0,0.0,0.0,0.0,0.0,True,0,2.367658853530884,0.029932861328125
STABILIZE,2.359595537185669,29.857797773285117,0.032434733708699544,0.0325627326965332,0.0,0.0,0.0,-0.4443339010303598,-1.6884084621185773,172.10192942259042,0.000696278325848433,-0.002036115004353019,0.002795191495158303,0.4,-0.021664789716358976,0.010938558430644509,0.822271266463422,-0.005223788960799838,-0.1283704536035657,0.07603756967000663,1.3975775800645351,-0.03540898131781548,-3.5567373037338257,1.5588526614010334,14.234255254268646,0.0,0.0,0.0,0.0,0.0,0.0,0.0,0.0,0.0,0.0,0.0,0.0,0.0,0.0,0.0,0.0,True,0,2.3970108032226562,0.034922119140625
STABILIZE,2.396580696105957,27.03909231562661,0.03238657315572103,0.03589606285095215,0.0,0.0,0.0,-0.44435673947539706,-1.6885759084749483,172.11696949914278,0.00020082610170445457,-0.0017513680900980355,0.0028340037657216747,0.4,-0.02141644444453911,0.010593775765937613,0.8172911414270609,-0.004800312013222654,-0.004637218808056787,0.022142341185826808,1.3102056458592415,0.020191326517133682,2.414947561919689,-0.41888891719281673,11.51501014828682,0.0,0.0,0.0,0.0,0.0,0.0,0.0,0.0,0.0,0.0,0.0,0.0,0.0,0.0,0.0,0.0,True,0,2.425466775894165,0.029932861328125
STABILIZE,2.429946184158325,29.96937543318114,0.032212289174397786,0.03234601020812988,0.0,0.0,0.0,-0.4439092553630554,-1.6885870075323497,172.14904406748516,-0.00029308717078985614,-0.0014443590408514241,0.0028789429530393664,0.4,-0.020925914518825597,0.010338902569173558,0.8086940594320082,-0.00432200806360895,-0.004637218808056787,0.022142341185826808,1.3102056458592415,0.020191326517133682,2.414947561919689,-0.41888891719281673,11.51501014828682,0.0,0.0,0.0,0.0,0.0,0.0,0.0,0.0,0.0,0.0,0.0,0.0,0.0,0.0,0.0,0.0,True,0,2.4542360305786133,0.029932861328125
STABILIZE,2.463646173477173,29.672760201482824,0.032260926564534505,0.03262209892272949,0.0,0.0,0.0,-0.4443558857017508,-1.6884459214373067,172.16469886106285,-0.0006226113647718387,-0.00040306774257666895,0.0028388392369362845,0.4,-0.02050690600360861,0.00939612612214429,0.8039790592582787,-0.004691444139831375,-0.008650591189507395,-0.019484726362861693,1.5009360387921333,-0.028627203781587836,-2.011539600789547,-0.17443576361984015,20.50699293613434,0.0,0.0,0.0,0.0,0.0,0.0,0.0,0.0,0.0,0.0,0.0,0.0,0.0,0.0,0.0,0.0,True,1,2.483168601989746,0.03492236328125
STABILIZE,2.4969100952148438,30.06238532110092,0.03229835828145345,0.03240656852722168,0.0,0.0,0.0,-0.44371075299030194,-1.6887385523545593,172.19749742945726,-0.0008854031239927791,-1.5269251786401623e-05,0.002725966363031163,0.4,-0.02010272186848584,0.008712946946110689,0.812188872295222,-0.005781549578596691,-0.08836118504405022,0.06061811582185328,1.6685452312231064,0.0240055169260697,-0.8139397948980331,-0.20023556426167488,22.099366784095764,0.0,0.0,0.0,0.0,0.0,0.0,0.0,0.0,0.0,0.0,0.0,0.0,0.0,0.0,0.0,0.0,True,0,2.540591239929199,0.034922119140625
STABILIZE,2.530461549758911,29.807085243222115,0.03246358235677083,0.03257346153259277,0.0,0.0,0.0,-0.44400690572384544,-1.688717208013403,172.2146138835173,-0.0003502006275505387,-9.991627593064358e-05,0.0026476185047058865,0.4,-0.02194493853580797,0.007277936173322011,0.8113289467599811,-0.006521410643239736,-0.13289904454723,-0.051160226576030254,1.4711670577526093,-0.048565366402288083,-3.301398456096649,-0.23447235580533743,22.30716645717621,0.0,0.0,0.0,0.0,0.0,0.0,0.0,0.0,0.0,0.0,0.0,0.0,0.0,0.0,0.0,0.0,True,0,2.5691323280334473,0.0299326171875
STABILIZE,2.56394624710083,29.862687162253565,0.03233793576558431,0.032520294189453125,0.0,0.0,0.0,-0.4439668850841774,-1.689322213363478,172.22883433736928,-0.0006829116343868569,-0.0004850544425142965,0.0025023004721848215,0.4,-0.023164419767568875,0.00823298773874109,0.806875028932216,-0.007921435454412413,-0.10841409675776958,0.08359391358681023,1.4873933047056198,-0.09145899441060783,1.519519742578268,1.6911230981349945,16.013947129249573,0.0,0.0,0.0,0.0,0.0,0.0,0.0,0.0,0.0,0.0,0.0,0.0,0.0,0.0,0.0,0.0,True,0,2.597604274749756,0.039911376953125
STABILIZE,2.597346305847168,29.941990705377602,0.03235653241475423,0.03248715400695801,0.0,0.0,0.0,-0.44339250886366166,-1.6903958337236396,172.2618514718171,-0.0009705843007627812,-0.0009255397167060387,0.0027644863451473695,0.4,-0.024348235340447978,0.009068401129565749,0.8106567409598987,-0.005264413643146171,-0.08467931766062975,0.07758516003377736,1.4941316097974777,0.1513861403733741,-0.6129163317382336,-0.12050585355609655,20.99742591381073,0.0,0.0,0.0,0.0,0.0,0.0,0.0,0.0,0.0,0.0,0.0,0.0,0.0,0.0,0.0,0.0,True,0,2.6264841556549072,0.0299326171875
STABILIZE,2.6308512687683105,29.845687489771088,0.03237131436665853,0.03251075744628906,0.0,0.0,0.0,-0.44433945055906043,-1.6899183608119732,172.27676860496442,-0.0014335488439175762,-0.0012305500950651025,0.003040593283980912,0.4,-0.025096139420459157,0.009950586414501035,0.8062904172433073,-0.0024867034030468466,-0.08467931766062975,0.07758516003377736,1.4941316097974777,0.1513861403733741,-0.6129163317382336,-0.12050585355609655,20.99742591381073,0.0,0.0,0.0,0.0,0.0,0.0,0.0,0.0,0.0,0.0,0.0,0.0,0.0,0.0,0.0,0.0,True,0,2.6555564403533936,0.0299326171875
STABILIZE,2.665012836456299,29.27184411813969,0.0323515256245931,0.03279709815979004,0.0,0.0,0.0,-0.4445901398459411,-1.6898028879263178,172.30910272049525,-0.0014289783032480833,-0.0018350353990613764,0.0032838581879920917,0.4,-0.0269795258490999,0.009315207355221117,0.8017725321310696,-5.369205106606342e-05,-0.1527360873296857,-0.011496876686578616,1.4609926380217075,0.13441229319267262,-1.6062121838331223,1.7156727612018585,20.6993505358696,0.0,0.0,0.0,0.0,0.0,0.0,0.0,0.0,0.0,0.0,0.0,0.0,0.0,0.0,0.0,0.0,True,1,2.6841483116149902,0.02993408203125
STABILIZE,2.6980738639831543,30.24774817005012,0.03196290334065755,0.0321345329284668,0.0,0.0,0.0,-0.4442009257849561,-1.6892205075778683,172.32601426888021,-0.002322528517916088,-0.00146326570739471,0.002756209652394968,0.4,-0.02721976848512143,0.011354574004305947,0.8025715972529299,-0.005294705451678067,-0.003281483077444136,0.06923408946022391,1.6553111374378204,-0.22759118793322786,-2.324873022735119,1.845281943678856,23.361651599407196,0.0,0.0,0.0,0.0,0.0,0.0,0.0,0.0,0.0,0.0,0.0,0.0,0.0,0.0,0.0,0.0,True,0,2.7413809299468994,0.034923095703125
STABILIZE,2.7316412925720215,29.791418363650568,0.03239491780598958,0.0325322151184082,0.0,0.0,0.0,-0.4434751114639365,-1.689307592489786,172.3424613644016,-0.002507245737945819,-0.0013866668946812114,0.002703383458933438,0.4,-0.027998376211446303,0.012879182993964195,0.8028506208905772,-0.0057842611549416304,-0.079339649528265,0.11236313730478287,1.4771178364753723,-0.03511631037992308,-0.9327556006610394,-0.28480770997703075,15.522745251655579,0.0,0.0,0.0,0.0,0.0,0.0,0.0,0.0,0.0,0.0,0.0,0.0,0.0,0.0,0.0,0.0,True,0,2.770123243331909,0.02993310546875
STABILIZE,2.766218662261963,28.918456415171093,0.032270224889119466,0.03372979164123535,0.0,0.0,0.0,-0.44350061795161827,-1.6904847329045554,172.37472717804073,-0.002257637312464428,-0.0006060214655705971,0.002683818499522672,0.4,-0.026069984889934075,0.012680746482732702,0.8018778593176028,-0.0059386209275463404,0.0679469492752105,0.013721965660806745,1.6391748562455177,-0.01838848341147427,3.9781853556632996,-0.3430750221014023,14.140178263187408,0.0,0.0,0.0,0.0,0.0,0.0,0.0,0.0,0.0,0.0,0.0,0.0,0.0,0.0,0.0,0.0,True,0,2.798938751220703,0.034921875
STABILIZE,2.799750566482544,29.822768609438214,0.03249052365620931,0.03262662887573242,0.0,0.0,0.0,-0.44363658140478385,-1.6902633920867647,172.39118793394047,-0.0020147997756968846,4.101593701798041e-05,0.0026597243219380925,0.4,-0.024314315408509316,0.012554560224825975,0.8051228676141357,-0.0061384712950082986,0.0679469492752105,0.013721965660806745,1.6391748562455177,-0.01838848341147427,3.9781853556632996,-0.3430750221014023,14.140178263187408,0.0,0.0,0.0,0.0,0.0,0.0,0.0,0.0,0.0,0.0,0.0,0.0,0.0,0.0,0.0,0.0,True,0,2.827531099319458,0.034921875
STABILIZE,2.833455801010132,29.670871032321504,0.03241446812947591,0.03254437446594238,0.0,0.0,0.0,-0.44315259846906496,-1.6917768125964514,172.42170521915207,-0.001726182008657526,-0.0005225938251829563,0.0025299621379255128,0.4,-0.028049625672810833,0.010915659756279297,0.805524218999026,-0.007386680983395137,-0.26083618868142366,-0.07566550630144775,1.475488767027855,-0.0810543217880041,-4.69224750995636,1.6176018863916397,16.007770597934723,0.0,0.0,0.0,0.0,0.0,0.0,0.0,0.0,0.0,0.0,0.0,0.0,0.0,0.0,0.0,0.0,True,0,2.8562068939208984,0.034922119140625
STABILIZE,2.867685556411743,29.215365862153032,0.032148154576619466,0.03327322006225586,0.0,0.0,0.0,-0.4418883731423779,-1.6933876700235166,172.42800265356684,-0.0011567174909271245,-0.0011201070562618738,0.0025661115962584027,0.4,-0.03052691777927511,0.010594111370270585,0.8092501023222683,-0.006977110043940898,-0.1845862716436386,0.003666104021249339,1.6794444993138313,0.017329163759887606,-2.492949366569519,1.8561732023954391,23.461951315402985,0.0,0.0,0.0,0.0,0.0,0.0,0.0,0.0,0.0,0.0,0.0,0.0,0.0,0.0,0.0,0.0,True,0,2.8953704833984375,0.02993408203125
STABILIZE,2.901052951812744,29.96659188660103,0.032355578740437825,0.03247976303100586,0.0,0.0,0.0,-0.4452898073490443,-1.690090823088516,172.46343767498087,-0.0008588083228913962,-0.000908163347021263,0.002504251211910106,0.4,-0.030412266595406624,0.010834800708197567,0.8047771467567588,-0.007545282171114914,-0.045087613398209214,0.03913530963473022,1.4318163506686687,-0.04519554850095949,2.1652542054653168,-0.18261648947373033,18.672437965869904,0.0,0.0,0.0,0.0,0.0,0.0,0.0,0.0,0.0,0.0,0.0,0.0,0.0,0.0,0.0,0.0,True,0,2.9234304428100586,0.034921875
STABILIZE,2.9346516132354736,29.766047590998447,0.032442363103230794,0.03258633613586426,0.0,0.0,0.0,-0.44600356211731057,-1.6875568229064413,172.47849141191156,-0.0008440046129833455,-0.001029391153596086,0.001115330125682127,0.4,-0.029195775807364335,0.010602429603151232,0.8056294819310322,-0.021291948843669674,0.03644100506789982,-0.009370224870508537,1.520262099802494,-0.7865891308109981,5.62865287065506,13.632981479167938,25.908464193344116,0.0,0.0,0.0,0.0,0.0,0.0,0.0,0.0,0.0,0.0,0.0,0.0,0.0,0.0,0.0,0.0,True,0,2.9807839393615723,0.06485498046875
STABILIZE,2.9679958820343018,29.988017102083422,0.03230026563008626,0.03242087364196777,0.0,0.0,0.0,-0.4465230833810547,-1.6858287850464282,172.49879073412484,-0.0028108595465314887,-0.001996659471604874,0.001848312871212077,0.4,-0.031211180199768554,0.01778214535872006,0.8337441150509745,-0.013869394967064649,-0.0960468896664679,0.40280427783727646,1.7446605488657951,0.4905873017594515,10.824935883283615,3.941420465707779,28.034457564353943,0.0,0.0,0.0,0.0,0.0,0.0,0.0,0.0,0.0,0.0,0.0,0.0,0.0,0.0,0.0,0.0,True,0,3.010000467300415,0.034922119140625
STABILIZE,3.0014829635620117,29.862261934427398,0.032401355107625325,0.03254532814025879,0.0,0.0,0.0,-0.4434342370506222,-1.6988599322091662,172.53305096300164,-0.003325751552998928,0.005403529090595437,0.0028951511472515437,0.4,-0.007021249227148453,0.018230536424647028,0.8297190956632046,-0.003378400472966987,1.2741114012897015,0.04535939369816333,1.3901663944125175,0.5535057237331396,40.277063846588135,1.746877282857895,12.664610147476196,0.0,0.0,0.0,0.0,0.0,0.0,0.0,0.0,0.0,0.0,0.0,0.0,0.0,0.0,0.0,0.0,True,0,3.038484811782837,0.034921875
STABILIZE,3.0349628925323486,29.868854326895686,0.03237918217976888,0.03252387046813965,0.0,0.0,0.0,-0.4464230851427375,-1.693675605185715,172.52638469837171,-0.003519063481441865,0.012521385670604098,0.0039544706466141544,0.4,0.017285610192947713,0.018652880835994985,0.825810959891581,0.0071668308121953465,1.2741114012897015,0.04535939369816333,1.3901663944125175,0.5535057237331396,40.277063846588135,1.746877282857895,12.664610147476196,0.0,0.0,0.0,0.0,0.0,0.0,0.0,0.0,0.0,0.0,0.0,0.0,0.0,0.0,0.0,0.0,True,0,3.066650390625,0.034921875
STABILIZE,3.0684921741485596,29.828070774307335,0.03236106236775716,0.032508134841918945,0.0,0.0,0.0,-0.45599143311798485,-1.6916868461984778,172.53445798197066,-0.00478293871169706,0.013796608789107438,0.0019018240589110157,0.4,0.02210736142579923,0.023567130308351503,0.8296834477914345,-0.013270821294130286,0.20599225535988808,0.2933647483587265,1.8116282299160957,-1.147032940907969,1.1969240382313728,14.066965878009796,42.19866991043091,0.0,0.0,0.0,0.0,0.0,0.0,0.0,0.0,0.0,0.0,0.0,0.0,0.0,0.0,0.0,0.0,True,0,3.095348596572876,0.02993310546875
STABILIZE,3.1019084453582764,29.921484979704232,0.032280715306599934,0.03244590759277344,0.0,0.0,0.0,-0.46295726557604583,-1.6937409188696533,172.6071038739829,-0.00090429591366048,0.003123171194205075,0.004901043250381003,0.4,-0.016485657915445637,0.008916978627926366,0.8090646026472413,0.016610137495366956,-2.1697061136364937,-0.7809259463101625,0.6629972718656063,1.6443558764061108,1.9119834527373314,-33.96793603897095,-3.5915590822696686,0.0,0.0,0.0,0.0,0.0,0.0,0.0,0.0,0.0,0.0,0.0,0.0,0.0,0.0,0.0,0.0,True,0,3.1240479946136475,0.034923095703125
STABILIZE,3.135423183441162,29.839105318573747,0.03236821492513021,0.03254127502441406,0.0,0.0,0.0,-0.456501669593326,-1.6958077981455226,172.6138247801262,0.0008617919947321336,-0.0046209283507741335,0.005216392365385391,0.4,-0.04705131743369235,0.008742813013701323,0.7930806102563749,0.019632144933951053,0.4046181682497263,0.8301656693220139,1.5821762382984161,-1.5247227652158102,-23.237481713294983,41.46494269371033,56.55834078788757,0.0,0.0,0.0,0.0,0.0,0.0,0.0,0.0,0.0,0.0,0.0,0.0,0.0,0.0,0.0,0.0,True,0,3.1813032627105713,0.064854736328125
STABILIZE,3.1688199043273926,29.941776959209605,0.032321961720784505,0.0324552059173584,0.0,0.0,0.0,-0.4534874217352347,-1.6942067591153893,172.60568319463556,1.4795740843360437e-05,-0.011042206810215664,0.007297579514057151,0.4,-0.04939160242496431,0.01230251495705234,0.8135383489370418,0.040175290601598815,-0.005228321606409736,0.20307390950620174,1.5397901646792889,0.9653804313934832,14.344924688339233,-39.555564522743225,18.815380334854126,0.0,0.0,0.0,0.0,0.0,0.0,0.0,0.0,0.0,0.0,0.0,0.0,0.0,0.0,0.0,0.0,True,0,3.2100791931152344,0.034828125
STABILIZE,3.202298879623413,29.869279742490495,0.0323977788289388,0.03254270553588867,0.0,0.0,0.0,-0.4462832797081638,-1.6923697583937731,172.6786022942146,0.004901681587895196,-0.01105321380629318,0.005623508644645316,0.4,-0.02782221193394094,-0.005495614284130574,0.8171424336150743,0.023278760935806234,1.0619468986988068,-0.9065302088856697,1.8681343644857407,-0.8672931519399879,24.0375354886055,-2.028956450521946,30.140984058380127,0.0,0.0,0.0,0.0,0.0,0.0,0.0,0.0,0.0,0.0,0.0,0.0,0.0,0.0,0.0,0.0,True,0,3.2387027740478516,0.034922119140625
STABILIZE,3.2358105182647705,29.839105318573747,0.0323825200398763,0.03254389762878418,0.0,0.0,0.0,-0.458668333664101,-1.688924354844325,172.70517173008597,-0.0042944617398184915,-0.016385570494764343,0.002735162778017812,0.4,-0.0433247428574392,0.03300984866475623,0.8107305329239674,-0.005567432089035363,-0.8785532787442207,2.041546255350113,1.3231197372078896,-1.493859381512344,-31.595486402511597,64.21041488647461,0.7182542234659195,0.0,0.0,0.0,0.0,0.0,0.0,0.0,0.0,0.0,0.0,0.0,0.0,0.0,0.0,0.0,0.0,True,0,3.267465114593506,0.039910888671875
STABILIZE,3.269291400909424,29.869492454832255,0.032349379857381184,0.0324857234954834,0.0,0.0,0.0,-0.46433685706668265,-1.7036168388009627,172.71896871220937,-0.009130920014577684,-0.0037261432966006996,0.0036272396441645663,0.4,-0.03052501881808077,0.03795796266766563,0.7965188484314076,0.003331048122870792,0.6185377016663551,0.2558482578024268,0.7163794245570898,0.49451722185314756,74.83054399490356,-59.44453477859497,-18.402260541915894,0.0,0.0,0.0,0.0,0.0,0.0,0.0,0.0,0.0,0.0,0.0,0.0,0.0,0.0,0.0,0.0,True,0,3.2963268756866455,0.02494482421875
STABILIZE,3.3027024269104004,29.930025617788306,0.03232553799947103,0.03245997428894043,0.0,0.0,0.0,-0.47128518716499546,-1.7080985101135489,172.79104086833135,-0.0004327803865928201,0.014102048355664906,0.0014922207973092454,0.4,0.008579901086930759,0.005494965803058249,0.7970738096360395,-0.01789937260536246,2.031898871064186,-1.6749648377299309,2.0541563630104065,-1.133818018967875,-4.7148846089839935,-33.223262429237366,26.819828152656555,0.0,0.0,0.0,0.0,0.0,0.0,0.0,0.0,0.0,0.0,0.0,0.0,0.0,0.0,0.0,0.0,True,0,3.324699878692627,0.034922119140625
STABILIZE,3.3361406326293945,29.906763829271423,0.0323667844136556,0.03250575065612793,0.0,0.0,0.0,-0.4830857263383676,-1.7162360401793844,172.78595920758886,-0.0016002227822748008,0.019991235456532273,-0.002999198303831416,0.4,0.028352287091403992,0.013050721187616608,0.7960516114711873,-0.06239622353464905,-1.0885406285524368,2.1467411890625954,1.0756908915936947,-1.2549492894639356,-57.60515332221985,93.40106248855591,12.773148715496063,0.0,0.0,0.0,0.0,0.0,0.0,0.0,0.0,0.0,0.0,0.0,0.0,0.0,0.0,0.0,0.0,True,0,3.382091999053955,0.034922119140625
STABILIZE,3.3695740699768066,29.908683157797157,0.032381804784139,0.0325314998626709,0.0,0.0,0.0,-0.48232832239243667,-1.7172453073509597,172.81049324708755,-0.007814658098001064,0.020709520893168312,-0.0009526553708642505,0.4,0.05013751436064993,0.02029802781372576,0.7891550978140843,-0.041652031820270226,1.150036696344614,0.4128518048673868,1.2048915959894657,1.1377913747958242,31.132113933563232,-39.8400753736496,15.339666604995728,0.0,0.0,0.0,0.0,0.0,0.0,0.0,0.0,0.0,0.0,0.0,0.0,0.0,0.0,0.0,0.0,True,0,3.410846710205078,0.029932861328125
STABILIZE,3.4031474590301514,29.785917693427546,0.03242328961690267,0.032550811767578125,0.0,0.0,0.0,-0.48877303276116685,-1.7209500446454569,172.8874694790336,-0.0004743467805191279,0.029887602356049,0.0011527652210157136,0.4,0.07044647929996169,0.027190197380416305,0.7789228830635889,-0.020460933929985055,1.150036696344614,0.4128518048673868,1.2048915959894657,1.1377913747958242,31.132113933563232,-39.8400753736496,15.339666604995728,0.0,0.0,0.0,0.0,0.0,0.0,0.0,0.0,0.0,0.0,0.0,0.0,0.0,0.0,0.0,0.0,True,0,3.4394662380218506,0.029932861328125
STABILIZE,3.4365525245666504,29.93579330526015,0.032290252049764,0.03244328498840332,0.0,0.0,0.0,-0.48339169746884303,-1.71176621497614,172.88106276159212,0.012803252194511125,0.03158685965380343,0.0006110099713202031,0.4,0.08810799094838263,-0.017744578607947356,0.7752974547294119,-0.025706400859927165,1.0382323525846004,-2.50988956540823,1.5402240678668022,-0.3254057667480251,-8.701509237289429,-16.20568484067917,53.43484282493591,0.0,0.0,0.0,0.0,0.0,0.0,0.0,0.0,0.0,0.0,0.0,0.0,0.0,0.0,0.0,0.0,True,0,3.4683094024658203,0.034923095703125
STABILIZE,3.470000982284546,29.895466111661523,0.03236273129781087,0.032474517822265625,0.0,0.0,0.0,-0.4838411025718887,-1.716744675829139,172.88257906358785,-0.005492202429594096,0.015483627063971604,-0.001093618904177274,0.4,0.06296425163672152,0.02133523805923265,0.7631366238017098,-0.04246880913930573,-1.4480319805443287,2.243369072675705,0.8273598738014698,-0.9668779503690085,12.000907957553864,2.177305333316326,8.325797319412231,0.0,0.0,0.0,0.0,0.0,0.0,0.0,0.0,0.0,0.0,0.0,0.0,0.0,0.0,0.0,0.0,True,0,3.4968743324279785,0.034921875
STABILIZE,3.503445863723755,29.900367846245974,0.03234866460164388,0.03247809410095215,0.0,0.0,0.0,-0.401336686266366,-1.644311800341623,172.95119514398982,0.0018433125782599674,0.00830048291905898,0.0008275593063223566,0.4,0.05383430700996626,0.0007668936600775805,0.7578938788151371,-0.023102474201560235,-0.5143200512975454,-1.1558843776583672,1.2161283753812313,1.0834715206569476,-59.34022665023804,37.27847933769226,13.490232825279236,0.0,0.0,0.0,0.0,0.0,0.0,0.0,0.0,0.0,0.0,0.0,0.0,0.0,0.0,0.0,0.0,True,0,3.526587963104248,0.02993310546875
STABILIZE,3.5368473529815674,29.938784833257195,0.03235367139180501,0.0324859619140625,0.0,0.0,0.0,-0.3967093398253881,-1.6525253162619749,172.8513650990809,-0.015216484916136308,-0.009543569638245548,-0.006675717839588386,0.4,0.00679065100022597,0.07046137570654885,0.7619048719918955,-0.09748315525653824,-1.3131270185112953,2.0218506455421448,1.7048835754394531,-2.1734391915448117,-6.318750232458115,41.9904351234436,50.66941976547241,0.0,0.0,0.0,0.0,0.0,0.0,0.0,0.0,0.0,0.0,0.0,0.0,0.0,0.0,0.0,0.0,True,0,3.583050489425659,0.034922119140625
STABILIZE,3.570350170135498,29.848448619413606,0.03241089185078939,0.03261089324951172,0.0,0.0,0.0,-0.43798993595188734,-1.6680503362454138,172.8564877409584,-0.007220002501355073,-0.03808303302829309,-0.003354010434169432,0.4,-0.08123743310350129,0.04670708701229939,0.7925972792275758,-0.06383813491154387,-5.038824304938316,-1.3641641475260258,3.2423220574855804,1.9219970897516052,-179.1744351387024,-159.7774624824524,143.5503363609314,0.0,0.0,0.0,0.0,0.0,0.0,0.0,0.0,0.0,0.0,0.0,0.0,0.0,0.0,0.0,0.0,True,0,3.6116316318511963,0.02993408203125
STABILIZE,3.603755474090576,29.93600696600504,0.032363208134969075,0.03248023986816406,0.0,0.0,0.0,-0.45481365237298077,-1.6746556627813451,172.99537280754146,-0.010573802008234434,-0.02193628480734245,0.009035410752825435,0.4,-0.005538246088649473,0.019513339308498058,0.8500798934955207,0.05965724724182732,4.407015070319176,-1.5331716276705265,5.0543904304504395,7.137355583592918,427.41427421569824,95.26801705360413,-35.41920185089111,0.0,0.0,0.0,0.0,0.0,0.0,0.0,0.0,0.0,0.0,0.0,0.0,0.0,0.0,0.0,0.0,True,0,3.640347957611084,0.034921875
