E-kp,E-ki,E-kd,E-I-Tot,E-P,E-I,E-D,E-PID,N-kp,N-ki,N-kd,N-I-Tot,N-P,N-I,N-D,N-PID,D-kp,D-ki,D-kd,D-I-Tot,D-P,D-I,D-D,D-PID,Y-kp,Y-ki,Y-kd,Y-I-Tot,Y-P,Y-I,Y-D,Y-PID,errorN,desiredN,actualN,errorE,desiredE,actualE,errorD,desiredD,actualD,errorY,desiredY,actualY,roll,pitch,yaw-rate,thrust,dt,Time,Mode
0.17,0.015,0.1,-0.0006348454545548669,-0.003267701754904246,-9.522681818323004e-06,-0.05819946139784981,-0.06147668583457238,0.17,0.015,0.1,0.0006653169118162152,0.003424545650773696,9.979753677243228e-06,0.06099293245114974,0.06442745785560068,0.002,8e-05,0,-0.02231836757448432,-0.0013515057482098058,-1.7854694059587458e-06,-0.0,-0.0013532912176157646,0.2,0.02,0.0,0.0002951133994114046,0.0017870816687069698,5.902267988228092e-06,0.0,0.001792983936695198,0.02014438618102174,0.0,-0.02014438618102174,-0.019221775028848503,0.0,0.019221775028848503,-0.6757528741049029,0.0,0.6757528741049029,0.008935408343534849,0,-0.008935408343534849,-0.06148673269689334,-0.06441786964188355,-0.001792983936695198,0.4,0.03302741050720215,0.03333926200866699,STABILIZE
0.17,0.015,0.1,-0.0012449830416671479,-0.0031028052632804566,-1.8674745625007217e-05,-0.027648921447146754,-0.030770401456052216,0.17,0.015,0.1,0.0011752736436777063,0.002593343640987573,1.7629104655165593e-05,0.023183299316932617,0.025794272062575355,0.002,8e-05,0,-0.04500074232754921,-0.0013570515174455514,-3.6000593862039375e-06,-0.0,-0.0013606515768317554,0.2,0.02,0.0,0.00044849720352171073,0.0009176716564535929,8.969944070434214e-06,0.0,0.0009266416005240271,0.015254962594044547,0.0,-0.015254962594044547,-0.018251795666355625,0.0,0.018251795666355625,-0.6785257587227757,0.0,0.6785257587227757,0.004588358282267964,0,-0.004588358282267964,-0.03077246701322801,-0.025791807825830466,-0.0009266416005240271,0.4,0.03342890739440918,0.06668734550476074,STABILIZE
0.17,0.015,0.1,-0.0017431320718606974,-0.0025317617030369884,-2.614698107791046e-05,-0.015085167542801446,-0.017643076226916344,0.17,0.015,0.1,0.0023296506720371607,0.00586693413842554,3.494476008055741e-05,0.03464525963740883,0.04054713853591493,0.002,8e-05,0,-0.06754611338750743,-0.0013480375779532843,-5.403689071000595e-06,-0.0,-0.0013534412670242848,0.2,0.02,0.0,0.0005952839822362353,0.0008776706008859062,1.1905679644724707e-05,0.0,0.000889576280530631,0.034511377284856114,0.0,-0.034511377284856114,-0.014892715900217578,0.0,0.014892715900217578,-0.6740187889766421,0.0,0.6740187889766421,0.004388353004429531,0,-0.004388353004429531,-0.01764618172951274,-0.040545787112454344,-0.000889576280530631,0.4,0.03344917297363281,0.10013985633850098,STABILIZE
0.17,0.015,0.1,-0.0023477373753427893,-0.0030718012802920434,-3.521606063014184e-05,-0.013687373925448054,-0.01679439126637024,0.17,0.015,0.1,0.0036956867590741595,0.006940381397447788,5.543530138611239e-05,0.030701793785344884,0.03769761048417879,0.002,8e-05,0,-0.08973913708453225,-0.001326535008258768,-7.179130966762581e-06,-0.0,-0.0013337141392255306,0.2,0.02,0.0,0.000941731290518188,0.0020708060750398703,1.883462581036376e-05,0.0,0.002089640700850234,0.040825772926163455,0.0,-0.040825772926163455,-0.018069419295835547,0.0,0.018069419295835547,-0.663267504129384,0.0,0.663267504129384,0.010354030375199351,0,-0.010354030375199351,-0.016801203399711525,-0.0376945749219476,-0.002089640700850234,0.4,0.033460140228271484,0.1336205005645752,STABILIZE
0.17,0.015,0.1,-0.0028184713508191614,-0.002392497343875605,-4.227707026228742e-05,-0.008560590775345628,-0.010995365189483521,0.17,0.015,0.1,0.004731612491128487,0.005265074737561138,7.097418736692731e-05,0.018668897090773105,0.02400494601570117,0.002,8e-05,0,-0.11203673562698498,-0.001333260724161087,-8.9629388501588e-06,-0.0,-0.0013422236630112458,0.2,0.02,0.0,0.0009119530277770839,-0.00017805589274949956,1.8239060555541676e-05,-0.0,-0.00015981683219395789,0.03097102786800669,0.0,-0.03097102786800669,-0.014073513787503558,0.0,0.014073513787503558,-0.6666303620805435,0.0,0.6666303620805435,-0.0008902794637474978,0,0.0008902794637474978,-0.010994992191913739,-0.024005116862173142,0.00015981683219395789,0.4,0.033448219299316406,0.16707158088684082,STABILIZE
0.17,0.015,0.1,-0.0031531878780099473,-0.0017018096541425954,-4.729781817014921e-05,0.005509533277342559,0.0037604258050298145,0.17,0.015,0.1,0.005429504709107748,0.0035483151192923505,8.144257063661622e-05,0.0004297747213878678,0.004059532411316834,0.002,8e-05,0,-0.13443789839249445,-0.0013399403397298575,-1.0755031871399557e-05,0.0,-0.001350695371601257,0.2,0.02,0.0,0.0004996040671190818,-0.0024664925308343503,9.992081342381637e-06,-0.0,-0.0024565004494919687,0.020872441878190297,0.0,-0.020872441878190297,-0.010010645024368207,0.0,0.010010645024368207,-0.6699701698649287,0.0,0.6699701698649287,-0.01233246265417175,0,0.01233246265417175,0.0037612995001071077,-0.004058722915420566,0.0024565004494919687,0.4,0.03343605995178223,0.20051789283752441,STABILIZE
0.17,0.015,0.1,-0.0034470528399110655,-0.001491065969368808,-5.170579259866598e-05,0.005669216483423283,0.004126444721455808,0.17,0.015,0.1,0.00633358617807263,0.00458729446065808,9.500379267108945e-05,0.007003321097351842,0.01168561935068101,0.002,8e-05,0,-0.15687816337602362,-0.001339547463213138,-1.255025307008189e-05,0.0,-0.0013520977162832198,0.2,0.02,0.0,0.0001674754705066364,-0.0019826059067452753,3.3495094101327283e-06,-0.0,-0.0019792563973351426,0.026984085062694584,0.0,-0.026984085062694584,-0.008770976290404752,0.0,0.008770976290404752,-0.669773731606569,0.0,0.669773731606569,-0.009913029533726376,0,0.009913029533726376,0.004128466447165994,-0.011684905238933929,0.0019792563973351426,0.4,0.03350424766540527,0.23404335975646973,STABILIZE
0.17,0.015,0.1,-0.0038102477685213604,-0.0017507165270512748,-5.71537165278204e-05,0.0027945897371585504,0.0009867194935794551,0.17,0.015,0.1,0.0072607990420046065,0.004469464623835729,0.0001089119856300691,-0.004903579153443381,-0.0003252025439775827,0.002,8e-05,0,-0.1801107481088085,-0.0013175122439536854,-1.4408859848704682e-05,0.0,-0.00133192110380239,0.2,0.02,0.0,-4.011633369101084e-05,-0.001177246298337514,-8.023266738202167e-07,-0.0,-0.0011780486250113343,0.02629096837550429,0.0,-0.02629096837550429,-0.010298332512066322,0.0,0.010298332512066322,-0.6587561219768427,0.0,0.6587561219768427,-0.00588623149168757,0,0.00588623149168757,0.0009866860789752492,0.00032530391202018527,0.0011780486250113343,0.4,0.03526735305786133,0.2692883014678955,STABILIZE
0.17,0.015,0.1,-0.0045172532420340306,-0.0035928053747545452,-6.775879863051046e-05,-0.0017848010593812446,-0.0054453652327663,0.17,0.015,0.1,0.008445917647495499,0.0060224434676218784,0.00012668876471243247,-0.003216400275685909,0.0029327319566484016,0.002,8e-05,0,-0.20211086676399492,-0.0013152763560885022,-1.6168869341119594e-05,0.0,-0.0013314452254296217,0.2,0.02,0.0,0.00013748110348704574,0.001061765682646186,2.7496220697409148e-06,-0.0,0.001064515304715927,0.035426138044834576,0.0,-0.035426138044834576,-0.021134149263262028,0.0,0.021134149263262028,-0.6576381780442511,0.0,0.6576381780442511,0.005308828413230929,0,-0.005308828413230929,-0.00544563694617292,-0.002932227395384476,-0.001064515304715927,0.4,0.03345322608947754,0.3027527332305908,STABILIZE
0.17,0.015,0.1,-0.005514332232615354,-0.00506673395060403,-8.271498348923032e-05,-0.009357418747443506,-0.014506867681536766,0.17,0.015,0.1,0.009842950071236463,0.007099128231892724,0.00014764425106854695,0.0064624745766934735,0.013709247059654744,0.002,8e-05,0,-0.2250903248836264,-0.0013737869696330853,-1.8007225990690112e-05,-0.0,-0.0013917941956237754,0.2,0.02,0.0,0.0005414559763883476,0.0024150935742774174,1.0829119527766952e-05,0.0,0.0024259226938051844,0.04175957783466308,0.0,-0.04175957783466308,-0.02980431735649429,0.0,0.02980431735649429,-0.6868934848165427,0.0,0.6868934848165427,0.012075467871387087,0,-0.012075467871387087,-0.014509756674630283,-0.013706189336036846,-0.0024259226938051844,0.4,0.033454179763793945,0.3362133502960205,STABILIZE
0.17,0.015,0.1,-0.006492741465555882,-0.004972003870568627,-9.739112198333823e-05,-0.011454507305361086,-0.016523902297913052,0.17,0.015,0.1,0.010861065826644393,0.005173781385281377,0.0001629159873996659,0.005732022416813882,0.011068719789494925,0.002,8e-05,0,-0.24779957169639694,-0.0013576715592110605,-1.9823965735711757e-05,-0.0,-0.0013774955249467723,0.2,0.02,0.0,0.0012612212696190245,0.004303114392050061,2.5224425392380488e-05,0.0,0.004328338817442441,0.030434008148713977,0.0,-0.030434008148713977,-0.029247081591580158,0.0,0.029247081591580158,-0.6788357796055302,0.0,0.6788357796055302,0.021515571960250304,0,-0.021515571960250304,-0.016528057631540333,-0.011062513993564671,-0.004328338817442441,0.4,0.03345322608947754,0.36966633796691895,STABILIZE
0.17,0.015,0.1,-0.007451739380973747,-0.004874507376296681,-0.0001117760907146062,-0.01185156151593978,-0.016837844982951065,0.17,0.015,0.1,0.0115020669769359,0.003258156024196504,0.00017253100465403849,-0.004654641867106435,-0.0012239548382558928,0.002,8e-05,0,-0.2702460890853041,-0.00134227997819166,-2.1619687126824332e-05,-0.0,-0.0013638996653184843,0.2,0.02,0.0,0.0022940255817536642,0.006176069657262003,4.5880511635073285e-05,0.0,0.006221950168897076,0.01916562367174414,0.0,-0.01916562367174414,-0.02867357280174518,0.0,0.02867357280174518,-0.6711399890958301,0.0,0.6711399890958301,0.030880348286310012,0,-0.030880348286310012,-0.016837182870146634,0.0012330296481517073,-0.006221950168897076,0.4,0.03344535827636719,0.4031088352203369,STABILIZE
0.17,0.015,0.1,-0.008472270691134811,-0.005189385154908569,-0.00012708406036702216,-0.012093463996288772,-0.017409933211564366,0.17,0.015,0.1,0.012269559157725244,0.003902685287399995,0.00018404338736587866,-0.001993466359564335,0.0020932623152015387,0.002,8e-05,0,-0.2928150000992078,-0.0013501476040486983,-2.3425200007936625e-05,-0.0,-0.0013735728040566348,0.2,0.02,0.0,0.003629626760650101,0.00799001214786453,7.259253521300202e-05,0.0,0.008062604683077533,0.022956972278823498,0.0,-0.022956972278823498,-0.030525795028873932,0.0,0.030525795028873932,-0.6750738020243492,0.0,0.6750738020243492,0.039950060739322654,0,-0.039950060739322654,-0.01741138852762179,-0.0020811225556355978,-0.008062604683077533,0.4,0.0334317684173584,0.43654894828796387,STABILIZE
0.17,0.015,0.1,-0.009247641325231596,-0.003933350117764163,-0.00013871461987847392,-0.0012057967472142805,-0.005277861484856918,0.17,0.015,0.1,0.012988829459974458,0.0036487607392454735,0.00019483244189961687,-0.008346360338413924,-0.004502767157268834,0.002,8e-05,0,-0.31532417044297173,-0.0013433643507951222,-2.522593363543774e-05,-0.0,-0.0013685902844305599,0.2,0.02,0.0,0.004620598076194844,0.0059141919388075795,9.241196152389689e-05,0.0,0.006006603900331476,0.021463298466149843,0.0,-0.021463298466149843,-0.023137353633906843,0.0,0.023137353633906843,-0.6716821753975611,0.0,0.6716821753975611,0.029570959694037897,0,-0.029570959694037897,-0.005275536856125112,0.004505490517755031,-0.006006603900331476,0.4,0.03351163864135742,0.47007107734680176,STABILIZE
0.17,0.015,0.1,-0.009782408894148636,-0.0027209143641272813,-0.00014673613341222955,0.008246655549615556,0.005379005052076046,0.17,0.015,0.1,0.013657086201766068,0.003400111512648136,0.00020485629302649102,-0.013008223313520717,-0.00940325550784609,0.002,8e-05,0,-0.33776953461323905,-0.0013435614742621097,-2.7021562769059128e-05,0.0,-0.0013705830370311688,0.2,0.02,0.0,0.005279501317978107,0.003944141891442793,0.00010559002635956214,0.0,0.004049731917802355,0.02000065595675374,0.0,-0.02000065595675374,-0.01600537861251342,0.0,0.01600537861251342,-0.6717807371310548,0.0,0.6717807371310548,0.019720709457213964,0,-0.019720709457213964,0.005382241252232653,0.009401403544091838,-0.004049731917802355,0.4,0.03341174125671387,0.503471851348877,STABILIZE
0.17,0.015,0.1,-0.010161432714948142,-0.001568492665273912,-0.00015242149072422213,0.011213859050024644,0.009492944894026509,0.17,0.015,0.1,0.014904554503734284,0.00516232694206801,0.00022356831755601425,-0.001190539338033605,0.004195355921590418,0.002,8e-05,0,-0.36500413649828145,-0.0013259223533524183,-2.9200330919862518e-05,0.0,-0.0013551226842722808,0.2,0.02,0.0,0.005405878625449975,0.0006152705945206817,0.0001081175725089995,-0.0,0.0007233881670296813,0.03036662907098829,0.0,-0.03036662907098829,-0.009226427442787717,0.0,0.009226427442787717,-0.6629611766762091,0.0,0.6629611766762091,0.0030763529726034085,0,-0.0030763529726034085,0.009492719621244249,-0.00419586561537571,-0.0007233881670296813,0.4,0.04108023643493652,0.544564962387085,STABILIZE
0.17,0.015,0.1,-0.009901643382182702,0.0013178854442526561,-0.00014852465073274054,0.021003992198657822,0.022173352992177736,0.17,0.015,0.1,0.015941756167837284,0.005261620873056186,0.00023912634251755925,0.005896432347414503,0.011397179562988248,0.002,8e-05,0,-0.38733277788170156,-0.0013325997263607565,-3.098662223053613e-05,0.0,-0.0013635863485912927,0.2,0.02,0.0,0.005529295763371039,0.0007365680759419632,0.00011058591526742079,-0.0,0.0008471539912093839,0.030950711017977566,0.0,-0.030950711017977566,0.00775226731913327,0.0,-0.00775226731913327,-0.6662998631803783,0.0,0.6662998631803783,0.0036828403797098154,0,-0.0036828403797098154,0.022172620361992322,-0.01139860479136275,-0.0008471539912093839,0.4,0.03351140022277832,0.5780885219573975,STABILIZE
0.17,0.015,0.1,-0.010096732165773817,-0.0009798988652497842,-0.00015145098248660726,0.014124930486133802,0.01299358063839741,0.17,0.015,0.1,0.01658097510778029,0.0032106915752221155,0.00024871462661670436,-0.003500731184776869,-4.132498293804923e-05,0.002,8e-05,0,-0.4097356652794124,-0.0013238355037936307,-3.2778853222352996e-05,0.0,-0.0013566143570159837,0.2,0.02,0.0,0.005866791390389078,0.0019943353081675864,0.00011733582780778157,-0.0,0.002111671135975368,0.018886421030718324,0.0,-0.018886421030718324,-0.005764110972057554,0.0,0.005764110972057554,-0.6619177518968153,0.0,0.6619177518968153,0.00997167654083793,0,-0.00997167654083793,0.01299358763375496,3.906359790167713e-05,-0.002111671135975368,0.4,0.03384542465209961,0.6119213104248047,STABILIZE
0.17,0.015,0.1,-0.009865070385357048,0.001177274362174624,-0.00014797605578035572,0.01730193533709762,0.01833123364349189,0.17,0.015,0.1,0.017463110692029042,0.004482895734590581,0.0002619466603804356,0.0018648723956322822,0.006609714790603299,0.002,8e-05,0,-0.43206904302057186,-0.0013352383039328365,-3.456552344164575e-05,0.0,-0.0013698038273744822,0.2,0.02,0.0,0.005479396058102588,-0.0023161077219430773,0.00010958792116205177,-0.0,-0.0022065198007810254,0.02636997490935636,0.0,-0.02636997490935636,0.0069251433069095515,0.0,-0.0069251433069095515,-0.6676191519664182,0.0,0.6676191519664182,-0.011580538609715385,0,0.011580538609715385,0.018332569214873216,-0.006606009573660324,0.0022065198007810254,0.4,0.03345227241516113,0.6453838348388672,STABILIZE
0.17,0.015,0.1,-0.009628613274526665,0.001175996282204204,-0.00014442919911789997,0.013028393466737115,0.01405996054982342,0.17,0.015,0.1,0.018270240757644742,0.004014182331358049,0.00027405361136467114,0.0011271803206500518,0.0054154162633727725,0.002,8e-05,0,-0.45466744635894624,-0.0013222464202966738,-3.63733957087157e-05,0.0,-0.0013586198160053895,0.2,0.02,0.0,0.004583076274912623,-0.005244421948835246,9.166152549825247e-05,-0.0,-0.005152760423336993,0.02361283724328264,0.0,-0.02361283724328264,0.006917625189436493,0.0,-0.006917625189436493,-0.6611232101483369,0.0,0.6611232101483369,-0.026222109744176228,0,0.026222109744176228,0.014062437508335187,-0.005408980984655135,0.005152760423336993,0.4,0.034181833267211914,0.6795525550842285,STABILIZE
0.17,0.015,0.1,-0.009407826783306218,0.00104431078857577,-0.00014111740174959327,0.009296997042406076,0.010200190429232254,0.17,0.015,0.1,0.01936314195646008,0.005169376561316345,0.00029044712934690124,-0.00013818691649175984,0.005321636774171487,0.002,8e-05,0,-0.47873757453052307,-0.0013394198910838947,-3.829900596244185e-05,-0.0,-0.0013777188970463365,0.2,0.02,0.0,0.0032229979888947075,-0.007568368131395559,6.445995977789415e-05,-0.0,-0.007503908171617665,0.03040809741950791,0.0,-0.03040809741950791,0.006143004638680999,0.0,-0.006143004638680999,-0.6697099455419473,0.0,0.6697099455419473,-0.03784184065697779,0,0.03784184065697779,0.010203702957558326,-0.005314898748116565,0.007503908171617665,0.4,0.035941123962402344,0.7155065536499023,STABILIZE
0.17,0.015,0.1,-0.008852474975382761,0.0027454236351671523,-0.00013278712463074142,0.004983689692235842,0.007596326202772253,0.17,0.015,0.1,0.019705450950725352,0.0016922303843759255,0.0002955817642608803,-0.012382645849871666,-0.01039483370123486,0.002,8e-05,0,-0.5015272274128552,-0.001325439663920808,-4.0122178193028414e-05,0.0,-0.0013655618421138363,0.2,0.02,0.0,0.00043274957272371097,-0.016228004621572825,8.65499145447422e-06,-0.0,-0.01621934963011835,0.009954296378681914,0.0,-0.009954296378681914,0.016149550795100893,0.0,-0.016149550795100893,-0.662719831960404,0.0,0.662719831960404,-0.08114002310786413,0,0.08114002310786413,0.007581597836938549,0.010405580891722528,0.01621934963011835,0.4,0.034388065338134766,0.7499115467071533,STABILIZE
0.17,0.015,0.1,-0.00791329584439792,0.004769520128108415,-0.0001186994376659688,0.020084415467928194,0.02473523615837064,0.17,0.015,0.1,0.019155795210687845,-0.0027913675135542732,0.00028733692816031766,-0.021011011853164403,-0.02351504243855836,0.002,8e-05,0,-0.5237380432567218,-0.0013270027953020645,-4.189904346053775e-05,-0.0,-0.0013689018387626022,0.2,0.02,0.0,-0.0034217986304137284,-0.02302930372367391,-6.843597260827456e-05,-0.0,-0.023097739696282184,-0.01641980890326043,0.0,0.01641980890326043,0.02805600075357891,0.0,-0.02805600075357891,-0.6635013976510322,0.0,0.6635013976510322,-0.11514651861836954,0,0.11514651861836954,0.024687928390830713,0.02356470497304776,0.023097739696282184,0.4,0.03347516059875488,0.7833747863769531,STABILIZE
0.17,0.015,0.1,-0.007314426765098739,0.003044349410488424,-0.00010971640147648108,0.006428797231688779,0.009363430240700722,0.17,0.015,0.1,0.019323373571628402,0.0008518841629576552,0.00028985060357442603,-0.012668251936150971,-0.01152651716961889,0.002,8e-05,0,-0.5459065989767601,-0.0013258093585065208,-4.367252791814081e-05,0.0,-0.0013694818864246616,0.2,0.02,0.0,-0.006688033622730001,-0.01953399659672063,-0.00013376067245460003,-0.0,-0.019667757269175228,0.005011083311515618,0.0,-0.005011083311515618,0.017907937708755435,0.0,-0.017907937708755435,-0.6629046792532604,0.0,0.6629046792532604,-0.09766998298360313,0,0.09766998298360313,0.009343767820898677,0.011542461905638946,0.019667757269175228,0.4,0.03344154357910156,0.8168368339538574,STABILIZE
0.17,0.015,0.1,-0.00656025608927885,0.003800040873052914,-9.840384133918276e-05,0.00906828516869692,0.012769922200410651,0.17,0.015,0.1,0.019688537382963254,0.0018399514233613794,0.0002953280607444488,-0.0076096525334832165,-0.005474373049377389,0.002,8e-05,0,-0.5680221599857507,-0.0013109848139332416,-4.5441772798860055e-05,0.0,-0.0013564265867321017,0.2,0.02,0.0,-0.009303449434796806,-0.015503881680173344,-0.00018606898869593614,-0.0,-0.01568995066886928,0.010823243666831643,0.0,-0.010823243666831643,0.02235318160619361,0.0,-0.02235318160619361,-0.6554924069666208,0.0,0.6554924069666208,-0.07751940840086671,0,0.07751940840086671,0.012762503858300108,0.005491645341349451,0.01568995066886928,0.4,0.03373885154724121,0.8505547046661377,STABILIZE
0.17,0.015,0.1,-0.005619909550131313,0.004779158868325214,-8.429864325196969e-05,0.012943077790756569,0.017637938015829812,0.17,0.015,0.1,0.01977575963243638,0.0004432929454524913,0.0002966363944865457,-0.016303292883561558,-0.01556336354362252,0.002,8e-05,0,-0.5893487088056631,-0.0012751615017043162,-4.7147896704453055e-05,0.0,-0.0013223093984087693,0.2,0.02,0.0,-0.012144158676849579,-0.016985228569280534,-0.00024288317353699158,-0.0,-0.017228111742817527,0.0026076055614852427,0.0,-0.0026076055614852427,0.028112699225442433,0.0,-0.028112699225442433,-0.6375807508521582,0.0,0.6375807508521582,-0.08492614284640267,0,0.08492614284640267,0.017614849996029313,0.015589490108999689,0.017228111742817527,0.4,0.03344917297363281,0.8840196132659912,STABILIZE
0.17,0.015,0.1,-0.004888245703764929,0.0037193582305753673,-7.332368555647394e-05,0.0033949830514688516,0.007041017596487745,0.17,0.015,0.1,0.020339477156560013,0.002865615710659123,0.0003050921573484002,0.004114167902145158,0.007284875770152681,0.002,8e-05,0,-0.6105933952286509,-0.0012705384518369816,-4.8847471618292076e-05,0.0,-0.0013193859234552736,0.2,0.02,0.0,-0.015477974872333496,-0.01993788744810999,-0.0003095594974466699,-0.0,-0.020247446945556663,0.01685656300387719,0.0,-0.01685656300387719,0.021878577826913922,0.0,-0.021878577826913922,-0.6352692259184908,0.0,0.6352692259184908,-0.09968943724054995,0,0.09968943724054995,0.007053681952774497,-0.0072726140203994765,0.020247446945556663,0.4,0.033442020416259766,0.9174594879150391,STABILIZE
0.17,0.015,0.1,-0.004000692007170813,0.004510076278311813,-6.001038010756219e-05,-0.0009379907966669322,0.003512075101537319,0.17,0.015,0.1,0.02107261078427768,0.0037253955404505648,0.0003160891617641652,0.022895076952238747,0.026936561654453475,0.002,8e-05,0,-0.6316305664752028,-0.0012576438356342327,-5.0530445318016226e-05,0.0,-0.001308174280952249,0.2,0.02,0.0,-0.019179867246461063,-0.02213064708148911,-0.00038359734492922126,0.0,-0.02251424442641833,0.021914091414415086,0.0,-0.021914091414415086,0.026529860460657723,0.0,-0.026529860460657723,-0.6288219178171164,0.0,0.6288219178171164,-0.11065323540744554,0,0.11065323540744554,0.0035640901121413117,-0.02692972868328881,0.02251424442641833,0.4,0.03345489501953125,0.9509000778198242,STABILIZE
0.17,0.015,0.1,-0.0031157251747327116,0.004406613224375108,-4.673587762099067e-05,0.00477461532010779,0.009134492666861907,0.17,0.015,0.1,0.02116378983435971,0.0004540179282996203,0.0003174568475153956,-0.0011948834596145108,-0.0004234086837994949,0.002,8e-05,0,-0.6532139925889074,-0.0012643851850947811,-5.22571194071126e-05,0.0,-0.0013166423045018938,0.2,0.02,0.0,-0.02268648570307548,-0.02054222718379239,-0.00045372971406150957,-0.0,-0.020995956897853902,0.002670693695880119,0.0,-0.002670693695880119,0.025921254261030046,0.0,-0.025921254261030046,-0.6321925925473906,0.0,0.6321925925473906,-0.10271113591896194,0,0.10271113591896194,0.009133718967519187,0.00043978292014469443,0.020995956897853902,0.4,0.034140586853027344,0.9851183891296387,STABILIZE
0.17,0.015,0.1,-0.0019790382979303833,0.005780322883268079,-2.9685574468955747e-05,0.006973879258725055,0.012724516567524179,0.17,0.015,0.1,0.021067130148169858,-0.0004915374738419361,0.00031600695222254785,-0.007967859132192624,-0.008143389653812012,0.002,8e-05,0,-0.6744226629651022,-0.0012688368088314488,-5.395381303720818e-05,0.0,-0.001322790621868657,0.2,0.02,0.0,-0.0265844599738298,-0.0233201475947423,-0.000531689199476596,-0.0,-0.023851836794218897,-0.002891396904952565,0.0,0.002891396904952565,0.03400189931334164,0.0,-0.03400189931334164,-0.6344184044157244,0.0,0.6344184044157244,-0.1166007379737115,0,0.1166007379737115,0.012707917887874426,0.008169268014091043,0.023851836794218897,0.4,0.03343009948730469,1.0184926986694336,STABILIZE
0.17,0.015,0.1,-0.0009117999984713646,0.005425303125703012,-1.3676999977070469e-05,0.0022811799327445044,0.0076928060584704454,0.17,0.015,0.1,0.02113828784563839,0.00036172997041950173,0.00031707431768457584,-5.376004987920569e-05,0.0006250442382248719,0.002,8e-05,0,-0.6954759794472076,-0.001259111525896321,-5.563807835577662e-05,0.0,-0.0013147496042520976,0.2,0.02,0.0,-0.03007948018894422,-0.02090226611009992,-0.0006015896037788844,-0.0,-0.021503855713878806,0.0021278233554088335,0.0,-0.0021278233554088335,0.031913547798253006,0.0,-0.031913547798253006,-0.6295557629481605,0.0,0.6295557629481605,-0.1045113305504996,0,0.1045113305504996,0.007693933382471844,-0.000611011013863977,0.021503855713878806,0.4,0.03344154357910156,1.0519425868988037,STABILIZE
0.17,0.015,0.1,0.00019530262986586135,0.0054068811910746506,2.92953944798792e-06,0.005947233708918879,0.011357044439441518,0.17,0.015,0.1,0.020840912179544563,-0.0014523268706361032,0.00031261368269316843,-0.014706499584611203,-0.015846212772554137,0.002,8e-05,0,-0.7173778550969743,-0.0012584075869741427,-5.739022840775795e-05,0.0,-0.0013157978153819007,0.2,0.02,0.0,-0.03365528145080278,-0.02054534282538703,-0.0006731056290160556,-0.0,-0.021218448454403085,-0.0085430992390359,0.0,0.0085430992390359,0.03180518347690971,0.0,-0.03180518347690971,-0.6292037934870713,0.0,0.6292037934870713,-0.10272671412693514,0,0.10272671412693514,0.011328615218559704,0.015866549557554246,0.021218448454403085,0.4,0.03480887413024902,1.0867688655853271,STABILIZE
0.17,0.015,0.1,0.00140944109655182,0.006171013847611435,2.1141616448277298e-05,0.00585435680229403,0.012046512266353743,0.17,0.015,0.1,0.019894586068035815,-0.00480982334281584,0.0002984187910205372,-0.02953961303941843,-0.034051017591213734,0.002,8e-05,0,-0.7380330486916461,-0.0012350901162594993,-5.9042643895331695e-05,0.0,-0.001294132760154831,0.2,0.02,0.0,-0.03705356478819438,-0.020320246058329945,-0.0007410712957638876,0.0,-0.021061317354093834,-0.028293078487152002,0.0,0.028293078487152002,0.036300081456537854,0.0,-0.036300081456537854,-0.6175450581297497,0.0,0.6175450581297497,-0.10160123029164972,0,0.10160123029164972,0.011986111505807976,0.034072325834185374,0.021061317354093834,0.4,0.033447265625,1.1202144622802734,STABILIZE
0.17,0.015,0.1,0.0025475043807686093,0.005783651156348061,3.8212565711529134e-05,0.004848545881630246,0.010670409603689836,0.17,0.015,0.1,0.01898925989989034,-0.004600878362287371,0.0002848388984983551,-0.01753172845101157,-0.021847767914800587,0.002,8e-05,0,-0.7585482500125336,-0.0012265705564449406,-6.068386000100269e-05,0.0,-0.0012872544164459433,0.2,0.02,0.0,-0.04045473499616911,-0.020335044093922883,-0.0008090946999233823,0.0,-0.021144138793846266,-0.0270639903663963,0.0,0.0270639903663963,0.03402147739028271,0.0,-0.03402147739028271,-0.6132852782224704,0.0,0.6132852782224704,-0.10167522046961441,0,0.10167522046961441,0.010631622487069049,0.021866668865237655,0.021144138793846266,0.4,0.03345131874084473,1.1536431312561035,STABILIZE
0.17,0.015,0.1,0.0038160014909268286,0.0064472066828088976,5.7240022363902425e-05,0.0023481428288777955,0.008852589534050596,0.17,0.015,0.1,0.017677802152010234,-0.006665556498823652,0.0002651670322801535,-0.02146630758287868,-0.027866697049422177,0.002,8e-05,0,-0.7799093560998712,-0.0012772823823015836,-6.239274848798971e-05,-0.0,-0.0013396751307895734,0.2,0.02,0.0,-0.04406138480074038,-0.021565878825165714,-0.0008812276960148076,0.0,-0.02244710652118052,-0.03920915587543324,0.0,0.03920915587543324,0.03792474519299351,0.0,-0.03792474519299351,-0.6386411911507918,0.0,0.6386411911507918,-0.10782939412582856,0,0.10782939412582856,0.008800129378173913,0.027883308068270118,0.02244710652118052,0.4,0.0334477424621582,1.187103271484375,STABILIZE
0.17,0.015,0.1,0.005166355037134118,0.0067621208082573065,7.749532555701177e-05,0.004688438379504832,0.01152805451331915,0.17,0.015,0.1,0.016039781669228485,-0.00820266101576173,0.00024059672503842726,-0.0297949513950936,-0.0377570156858169,0.002,8e-05,0,-0.8018143630200831,-0.0012905056345404477,-6.414514904160666e-05,-0.0,-0.0013546507835820543,0.2,0.02,0.0,-0.04776309424416664,-0.021808150582072278,-0.0009552618848833327,-0.0,-0.02276341246695561,-0.04825094715153959,0.0,0.04825094715153959,0.03977718122504298,0.0,-0.03977718122504298,-0.6452528172702239,0.0,0.6452528172702239,-0.10904075291036137,0,0.10904075291036137,0.011456177542539631,0.03777888657007896,0.02276341246695561,0.4,0.03394794464111328,1.2210848331451416,STABILIZE
0.17,0.015,0.1,0.006995793636325475,0.0075481007640307175,0.00010493690454488212,0.006994910752833547,0.014647948421409148,0.17,0.015,0.1,0.013595957068653646,-0.0100830026997952,0.0002039393560298047,-0.029032743536131285,-0.038911806879896677,0.002,8e-05,0,-0.8286903421256171,-0.0013045634906810376,-6.629522737004937e-05,-0.0,-0.0013708587180510869,0.2,0.02,0.0,-0.05185924297334069,-0.019882758739679485,-0.001037184859466814,0.0,-0.0209199435991463,-0.05931178058703058,0.0,0.05931178058703058,0.04440059272959245,0.0,-0.04440059272959245,-0.6522817453405187,0.0,0.6522817453405187,-0.09941379369839742,0,0.09941379369839742,0.01458041060684273,0.03893716392022543,0.0209199435991463,0.4,0.04120302200317383,1.262251615524292,STABILIZE
0.17,0.015,0.1,0.008216285473684892,0.006193019870472541,0.0001232442821052734,-0.0004512854515611109,0.005864978701016705,0.17,0.015,0.1,0.012186529670448469,-0.0071517167226269815,0.00018279794505672703,-0.00692974252766218,-0.013898661305232434,0.002,8e-05,0,-0.8506038134258327,-0.0013081569349546241,-6.804830507406662e-05,-0.0,-0.0013762052400286906,0.2,0.02,0.0,-0.05538999810094315,-0.0210773626073306,-0.001107799962018863,-0.0,-0.022185162569349465,-0.04206892189780577,0.0,0.04206892189780577,0.03642952864983848,0.0,-0.03642952864983848,-0.654078467477312,0.0,0.654078467477312,-0.105386813036653,0,0.105386813036653,0.005839404334997647,0.01390942551845171,0.022185162569349465,0.4,0.033502817153930664,1.295788049697876,STABILIZE
0.17,0.015,0.1,0.009934234502242716,0.008742601200366516,0.00014901351753364073,0.009890126137037351,0.018781740854937508,0.17,0.015,0.1,0.010733746077658236,-0.007393180688755903,0.00016100619116487353,-0.008514977947672113,-0.015747152445263143,0.002,8e-05,0,-0.8721466561013935,-0.001289776554716202,-6.977173248811149e-05,-0.0,-0.0013595482872043136,0.2,0.02,0.0,-0.059197022869401296,-0.022792773282198038,-0.001183940457388026,-0.0,-0.023976713739586063,-0.04348929816915237,0.0,0.04348929816915237,0.05142706588450891,0.0,-0.05142706588450891,-0.6448882773581011,0.0,0.6448882773581011,-0.11396386641099018,0,0.11396386641099018,0.018750381932446488,0.01578447899247137,0.023976713739586063,0.4,0.03340554237365723,1.3291723728179932,STABILIZE
0.17,0.015,0.1,0.01121859156090488,0.006521354358841415,0.00016827887341357319,-0.000248969209106423,0.006440664023148565,0.17,0.015,0.1,0.008410793756904823,-0.011794847188448998,0.00012616190635357234,-0.016719634335897716,-0.028388319617993145,0.002,8e-05,0,-0.8936711892993526,-0.0012857805110102977,-7.149369514394821e-05,-0.0,-0.001357274206154246,0.2,0.02,0.0,-0.06158304386348685,-0.014253035198679776,-0.001231660877269737,0.0,-0.015484696075949513,-0.06938145404969999,0.0,0.06938145404969999,0.03836090799318479,0.0,-0.03836090799318479,-0.6428902555051489,0.0,0.6428902555051489,-0.07126517599339888,0,0.07126517599339888,0.006405349318627276,0.028396308631559414,0.015484696075949513,0.4,0.03348088264465332,1.362645149230957,STABILIZE
0.17,0.015,0.1,0.012060309048130439,0.004279021196513725,0.00018090463572195656,-0.009229098079434051,-0.00476917224719837,0.17,0.015,0.1,0.005225043290288503,-0.016195331545727682,7.837564935432755e-05,-0.02687419543513534,-0.0429911513315087,0.002,8e-05,0,-0.9151029716500384,-0.0012817916916648567,-7.320823773200308e-05,0.0,-0.0013549999293968598,0.2,0.02,0.0,-0.06253140883677172,-0.00567197969600332,-0.0012506281767354344,0.0,-0.006922607872738754,-0.09526665615133931,0.0,0.09526665615133931,0.025170712920668966,0.0,-0.025170712920668966,-0.6408958458324283,0.0,0.6408958458324283,-0.028359898480016597,0,0.028359898480016597,-0.004790451147223565,0.042988785450838146,0.006922607872738754,0.4,0.033440351486206055,1.3960838317871094,STABILIZE
0.17,0.015,0.1,0.012444888122025715,0.0019536278303569515,0.0001866733218303857,-0.019648251605084453,-0.017507950452897117,0.17,0.015,0.1,0.0017154039646871556,-0.017828658724361804,2.5731059470307332e-05,-0.027247230647129663,-0.04505015831202116,0.002,8e-05,0,-0.9365204414733086,-0.0012799865968898005,-7.492163531786469e-05,0.0,-0.0013549082322076651,0.2,0.02,0.0,-0.06230382237255181,0.0013601402324308059,-0.0012460764474510363,0.0,0.00011406378497976952,-0.10487446308448119,0.0,0.10487446308448119,0.011491928413864419,0.0,-0.011491928413864419,-0.6399932984449003,0.0,0.6399932984449003,0.006800701162154029,0,-0.006800701162154029,-0.01750260311785535,0.045052236094317334,-0.00011406378497976952,0.4,0.03346514701843262,1.4296069145202637,STABILIZE
0.17,0.015,0.1,0.012832704141282198,0.001972052229617055,0.00019249056211923296,-0.01482497124538052,-0.012660428453644233,0.17,0.015,0.1,-0.0024270218269793527,-0.021064318163393055,-3.640532740469029e-05,-0.048927040231253466,-0.07002776372205122,0.002,8e-05,0,-0.9584785000256578,-0.0013136137384768814,-7.667828000205263e-05,-0.0,-0.001390292018478934,0.2,0.02,0.0,-0.06137131548628746,0.005578607298549624,-0.0012274263097257492,0.0,0.004351180988823875,-0.12390775390231207,0.0,0.12390775390231207,0.0116003072330415,0.0,-0.0116003072330415,-0.6568068692384407,0.0,0.6568068692384407,0.027893036492748116,0,-0.027893036492748116,-0.012626335665891638,0.07003391884075537,-0.004351180988823875,0.4,0.0334315299987793,1.462984561920166,STABILIZE
0.17,0.015,0.1,0.013816460459870512,0.004999675126363269,0.00020724690689805767,-0.013155548634604742,-0.007948626601343415,0.17,0.015,0.1,-0.007982225262011186,-0.02823281732601458,-0.00011973337893016779,-0.07328908295791418,-0.10164163366285893,0.002,8e-05,0,-0.9788239172333015,-0.0012164714613174547,-7.830591337866413e-05,0.0,-0.0012947773746961187,0.2,0.02,0.0,-0.06055956989776009,0.004853502546622147,-0.001211191397955202,0.0,0.0036423111486669447,-0.16607539603537988,0.0,0.16607539603537988,0.02940985368448982,0.0,-0.02940985368448982,-0.6082357306587274,0.0,0.6082357306587274,0.024267512733110733,0,-0.024267512733110733,-0.007905575779168601,0.10164499117075186,-0.0036423111486669447,0.4,0.03344988822937012,1.4964337348937988,STABILIZE
0.17,0.015,0.1,0.014879616615635192,0.0054019711955820985,0.00022319424923452786,-0.003935804861944412,0.001689360582872214,0.17,0.015,0.1,-0.012007740481938724,-0.02045392593319012,-0.00018011610722908086,-0.030469246645288408,-0.05110328868570761,0.002,8e-05,0,-0.9997132972527384,-0.001248710693617859,-7.997706378021907e-05,0.0,-0.0013286877573980781,0.2,0.02,0.0,-0.06048656683909673,0.00043639255896980866,-0.0012097313367819345,0.0,-0.0007733387778121258,-0.12031721137170659,0.0,0.12031721137170659,0.03177630115048293,0.0,-0.03177630115048293,-0.6243553468089295,0.0,0.6243553468089295,0.0021819627948490433,0,-0.0021819627948490433,0.0016913067193126124,0.051103224313686336,0.0007733387778121258,0.4,0.03345751762390137,1.529987096786499,STABILIZE
0.17,0.015,0.1,0.017072441419492174,0.011146583451008144,0.0002560866212923826,0.024161328123995164,0.03556399819629569,0.17,0.015,0.1,-0.014897613134996764,-0.014689822293800838,-0.00022346419702495146,0.005289080696387243,-0.009624205794438546,0.002,8e-05,0,-1.0219070142650164,-0.001327238451572174,-8.175256114120132e-05,-0.0,-0.0014089910127133753,0.2,0.02,0.0,-0.061183526564159346,-0.004167989281779731,-0.001223670531283187,0.0,-0.005391659813062918,-0.08641071937529904,0.0,0.08641071937529904,0.06556813794710672,0.0,-0.06556813794710672,-0.663619225786087,0.0,0.663619225786087,-0.020839946408898656,0,0.020839946408898656,0.035560495273074456,0.00963714069698459,0.005391659813062918,0.4,0.033443450927734375,1.563345193862915,STABILIZE
0.17,0.015,0.1,0.020350604540089162,0.01666655370306184,0.00030525906810133745,0.0517578328712118,0.06872964564237498,0.17,0.015,0.1,-0.016654228962467273,-0.008930834417676578,-0.0002498134344370091,0.03129358368720654,0.022112935835092953,0.002,8e-05,0,-1.045277609579225,-0.001397867781967055,-8.362220876633802e-05,-0.0,-0.001481489990733393,0.2,0.02,0.0,-0.06264288167538368,-0.008728855491281317,-0.0012528576335076736,-0.0,-0.00998171312478899,-0.05253432010397987,0.0,0.05253432010397987,0.0980385511944814,0.0,-0.0980385511944814,-0.6989338909835275,0.0,0.6989338909835275,-0.04364427745640658,0,0.04364427745640658,0.06874646992766248,-0.022060575555918106,0.00998171312478899,0.4,0.033437490463256836,1.596778392791748,STABILIZE
0.17,0.015,0.1,0.022410295249656945,0.010475809796019088,0.00033615442874485415,0.02990282819649236,0.0407147924212563,0.17,0.015,0.1,-0.020151712798021203,-0.017788581196058712,-0.00030227569197031803,0.011502534977751236,-0.006588321910277795,0.002,8e-05,0,-1.0705620504851854,-0.0015129341421712007,-8.564496403881484e-05,-0.0,-0.0015985791062100155,0.2,0.02,0.0,-0.06696115654466803,-0.02583907435137355,-0.0013392231308933607,-0.0,-0.027178297482266908,-0.10463871291799241,0.0,0.10463871291799241,0.06162241056481817,0.0,-0.06162241056481817,-0.7564670710856003,0.0,0.7564670710856003,-0.12919537175686774,0,0.12919537175686774,0.04069983302089662,0.0066801122423630795,0.027178297482266908,0.4,0.03342437744140625,1.630206823348999,STABILIZE
0.17,0.015,0.1,0.02478635830943948,0.01208112207494994,0.0003717953746415922,0.0249029365473817,0.037355853996973234,0.17,0.015,0.1,-0.025307678138112417,-0.026215569671603652,-0.00037961517207168625,0.007062970064948333,-0.019532214778727006,0.002,8e-05,0,-1.0947685165347392,-0.0014479773721085547,-8.758148132277915e-05,-0.0,-0.0015355588534313339,0.2,0.02,0.0,-0.06665541499973084,0.0018288784404806913,-0.0013331082999946168,-0.0,0.0004957701404860746,-0.1542092333623744,0.0,0.1542092333623744,0.07106542397029376,0.0,-0.07106542397029376,-0.7239886860542774,0.0,0.7239886860542774,0.009144392202403456,0,-0.009144392202403456,0.03735897085782953,0.019526252544954617,-0.0004957701404860746,0.4,0.03343486785888672,1.6636443138122559,STABILIZE
0.17,0.015,0.1,0.02785872084042445,0.01561600896059639,0.0004178808126063667,0.03592217788144038,0.05195606765464314,0.17,0.015,0.1,-0.02133704846218927,0.02018166410151717,-0.00032005572693283904,0.14291059365855213,0.16277220203313647,0.002,8e-05,0,-1.1151949173666544,-0.0012214354309428041,-8.921559338933236e-05,0.0,-0.0013106510243321365,0.2,0.02,0.0,-0.06533829551651389,0.007875966093217,-0.0013067659103302778,0.0,0.006569200182886722,0.11871567118539511,0.0,-0.11871567118539511,0.09185887623880229,0.0,-0.09185887623880229,-0.6107177154714021,0.0,0.6107177154714021,0.039379830466084995,0,-0.039379830466084995,0.05184418080375321,-0.1628078733895809,-0.006569200182886722,0.4,0.033446550369262695,1.6971218585968018,STABILIZE
0.17,0.015,0.1,0.0309290903928991,0.01561600896059639,0.0004639363558934865,0.0157138346278436,0.03179377994433348,0.17,0.015,0.1,-0.017368994452235467,0.02018166410151717,-0.000260534916783532,0.12263368379678352,0.14255481298151718,0.002,8e-05,0,-1.1356080680116238,-0.0012214354309428041,-9.084864544092992e-05,0.0,-0.0013122840763837341,0.2,0.02,0.0,-0.06402203042167043,0.007875966093217,-0.0012804406084334086,0.0,0.006595525484783591,0.11871567118539511,0.0,-0.11871567118539511,0.09185887623880229,0.0,-0.09185887623880229,-0.6107177154714021,0.0,0.6107177154714021,0.039379830466084995,0,-0.039379830466084995,0.03169579342177918,-0.1425766314187144,-0.006595525484783591,0.4,0.03342485427856445,1.730520486831665,STABILIZE
0.17,0.015,0.1,0.03383534107230261,0.014761604522237544,0.0005075301160845392,-0.006711008703660638,0.008558125934661445,0.17,0.015,0.1,-0.01500749054580365,0.011994693710186138,-0.00022511235818705475,0.07359347300827733,0.08536305436027641,0.002,8e-05,0,-1.15524692826407,-0.0011735398681057374,-9.241975426112561e-05,0.0,-0.001265959622366863,0.2,0.02,0.0,-0.06397507812999295,0.0002805681463902199,-0.001279501562599859,0.0,-0.000998933416209639,0.07055702182462434,0.0,-0.07055702182462434,0.0868329677778679,0.0,-0.0868329677778679,-0.5867699340528687,0.0,0.5867699340528687,0.0014028407319510994,0,-0.0014028407319510994,0.008556035886884089,-0.08536326387346832,0.000998933416209639,0.4,0.033469438552856445,1.7639906406402588,STABILIZE
0.17,0.015,0.1,0.03766133251657444,0.019440408662320448,0.0005649199877486166,0.031531527641252347,0.05153685629132141,0.17,0.015,0.1,-0.011163170471968444,0.019533539045417853,-0.00016744755707952664,0.1312802603721383,0.15064635186047662,0.002,8e-05,0,-1.1745806665322711,-0.0011557351046935214,-9.396645332258169e-05,0.0,-0.0012497015580161031,0.2,0.02,0.0,-0.06483214864380452,-0.0051234089665883765,-0.0012966429728760904,0.0,-0.006420051939464467,0.11490317085539913,0.0,-0.11490317085539913,0.11435534507247322,0.0,-0.11435534507247322,-0.5778675523467607,0.0,0.5778675523467607,-0.02561704483294188,0,0.02561704483294188,0.05160420538957896,-0.1506232945841147,0.006420051939464467,0.4,0.033457040786743164,1.797468900680542,STABILIZE
0.17,0.015,0.1,0.042397437965590964,0.024073748547298598,0.0006359615694838645,0.042181464184694976,0.06689117430147744,0.17,0.015,0.1,-0.008626746088234468,0.012892711845326043,-0.00012940119132351702,0.13757204448602856,0.15033535514003107,0.002,8e-05,0,-1.1935814049700697,-0.001136250037178047,-9.548651239760559e-05,0.0,-0.0012317365495756525,0.2,0.02,0.0,-0.06824017727105092,-0.02038011663119981,-0.0013648035454210184,-0.0,-0.02174492017662083,0.07583948144309437,0.0,-0.07583948144309437,0.14161028557234467,0.0,-0.14161028557234467,-0.5681250185890235,0.0,0.5681250185890235,-0.10190058315599905,0,0.10190058315599905,0.06715843990221007,-0.1502161514432158,0.02174492017662083,0.4,0.03344464302062988,1.830904483795166,STABILIZE
0.17,0.015,0.1,0.047396928095513255,0.025253397514057776,0.0007109539214326988,0.033871248361503535,0.05983559979699401,0.17,0.015,0.1,-0.005358767220874123,0.01650719718618063,-8.038150831311185e-05,-0.012993658981715282,0.003433156696152238,0.002,8e-05,0,-1.212632306368825,-0.0011321154134697868,-9.7010584509506e-05,0.0,-0.0012291259979792927,0.2,0.02,0.0,-0.07139499622329076,-0.01874776992321589,-0.0014278999244658154,-0.0,-0.020175669847681706,0.09710115991870959,0.0,-0.09710115991870959,0.14854939714151633,0.0,-0.14854939714151633,-0.5660577067348934,0.0,0.5660577067348934,-0.09373884961607945,0,0.09373884961607945,0.059841136535964956,-0.003335258018559299,0.020175669847681706,0.4,0.033655405044555664,1.864570140838623,STABILIZE
0.17,0.015,0.1,0.05218827778031561,0.02432784866035344,0.0007828241667047341,0.03061904767069954,0.05572972049775772,0.17,0.015,0.1,-0.0017561236491177939,0.01829225027529973,-2.6341854736766906e-05,-0.00672132568853459,0.011544582732028373,0.002,8e-05,0,-1.2309732053899836,-0.0010955886681436671,-9.847785643119869e-05,0.0,-0.0011940665245748659,0.2,0.02,0.0,-0.07387428858638849,-0.014809986222002587,-0.0014774857717277697,-0.0,-0.016287471993730356,0.10760147220764546,0.0,-0.10760147220764546,0.1431049921197261,0.0,-0.1431049921197261,-0.5477943340718335,0.0,0.5477943340718335,-0.07404993111001293,0,0.07404993111001293,0.055744594343055676,-0.011472547177632787,0.016287471993730356,0.4,0.03348135948181152,1.8980505466461182,STABILIZE
0.17,0.015,0.1,0.0559252427770025,0.018565745986223937,0.0008388786416550374,0.013811324317213556,0.03321594894509253,0.17,0.015,0.1,0.0033019323043801236,0.02512910399214486,4.952898456570185e-05,0.0455625270017921,0.07074115997850267,0.002,8e-05,0,-1.2494507571112994,-0.0010799878637261758,-9.995606056890395e-05,0.0,-0.0011799439242950798,0.2,0.02,0.0,-0.07544499495224934,-0.00918056590067745,-0.0015088998990449869,-0.0,-0.010689465799722436,0.1478182587773227,0.0,-0.1478182587773227,0.10921027050719961,0.0,-0.10921027050719961,-0.5399939318630879,0.0,0.5399939318630879,-0.04590282950338725,0,0.04590282950338725,0.03327261294935765,-0.07071452613819411,0.010689465799722436,0.4,0.03421807289123535,1.9322600364685059,STABILIZE
0.17,0.015,0.1,0.06014168463605438,0.018195585682878913,0.0009021252695408156,-0.003746500807044351,0.015351210145375379,0.17,0.015,0.1,0.007157634129096566,0.01663885220393773,0.00010736451193644848,-0.006302307707999004,0.010443909007875174,0.002,8e-05,0,-1.2701790083762121,-0.0010523583755181107,-0.00010161432067009698,0.0,-0.0011539726961882076,0.2,0.02,0.0,-0.0742313734639735,0.006161468816511895,-0.00148462746927947,0.0,0.004676841347232425,0.09787560119963369,0.0,-0.09787560119963369,0.10703285695811125,0.0,-0.10703285695811125,-0.5261791877590554,0.0,0.5261791877590554,0.030807344082559474,0,-0.030807344082559474,0.015345592345419198,-0.010452161683616642,-0.004676841347232425,0.4,0.03939390182495117,1.9716777801513672,STABILIZE
0.17,0.015,0.1,0.06282851844379252,0.01364858743436672,0.0009424277766568877,-0.03602971569585998,-0.02143870048483637,0.17,0.015,0.1,0.010313553753817806,0.016031451148853394,0.00015470330630726708,0.01492262057646146,0.03110877503162212,0.002,8e-05,0,-1.2869031878805846,-0.0009994769814899176,-0.00010295225503044678,0.0,-0.0011024292365203643,0.2,0.02,0.0,-0.07088042248421685,0.020026084804293406,-0.001417608449684337,0.0,0.01860847635460907,0.09430265381678467,0.0,-0.09430265381678467,0.08028580843745128,0.0,-0.08028580843745128,-0.4997384907449588,0.0,0.4997384907449588,0.10013042402146702,0,-0.10013042402146702,-0.021493033587783605,-0.03107126115304953,-0.01860847635460907,0.4,0.03346586227416992,2.0051698684692383,STABILIZE
0.17,0.015,0.1,0.0655073229344487,0.013621191676156903,0.0009826098440167306,-0.04024974234075718,-0.025645940820583545,0.17,0.015,0.1,0.014957824168059396,0.02361519764840814,0.00022436736252089094,0.0289740974483241,0.05281366245925313,0.002,8e-05,0,-1.3032046266578816,-0.0009751717184780852,-0.00010425637013263053,0.0,-0.0010794280886107157,0.2,0.02,0.0,-0.06795383591043092,0.017507193674268496,-0.0013590767182086183,0.0,0.016148116956059878,0.1389129273435773,0.0,-0.1389129273435773,0.08012465691857001,0.0,-0.08012465691857001,-0.48758585923904263,0.0,0.48758585923904263,0.08753596837134248,0,-0.08753596837134248,-0.025726599089422566,-0.05277441920310369,-0.016148116956059878,0.4,0.033432960510253906,2.038627862930298,STABILIZE
0.17,0.015,0.1,0.06754516371241015,0.010353010569877856,0.0010131774556861523,-0.04848792919939104,-0.03712174117382703,0.17,0.015,0.1,0.01890977956969385,0.02007744495413245,0.0002836466935454077,0.010263607214208922,0.03062469886188678,0.002,8e-05,0,-1.3195294934607757,-0.0009757243196415552,-0.00010556235947686207,0.0,-0.0010812866791184172,0.2,0.02,0.0,-0.06332463137217882,0.02766838776146624,-0.0012664926274435764,0.0,0.026401895134022663,0.1181026173772497,0.0,-0.1181026173772497,0.06090006217575209,0.0,-0.06090006217575209,-0.4878621598207776,0.0,0.4878621598207776,0.1383419388073312,0,-0.1383419388073312,-0.037195576912799344,-0.030534978406442054,-0.026401895134022663,0.4,0.0334620475769043,2.072049140930176,STABILIZE
0.17,0.015,0.1,0.0692627189159108,0.008728200526290064,0.001038940783738662,-0.03439103577504402,-0.024623894465015297,0.17,0.015,0.1,0.02375242949681973,0.02460917678595162,0.0003562864424522959,0.002694579549652443,0.027660042778056358,0.002,8e-05,0,-1.336885661142865,-0.0010376452981021972,-0.0001069508528914292,0.0,-0.0011445961509936264,0.2,0.02,0.0,-0.05664415976765877,0.03993946173203272,-0.0011328831953531754,0.0,0.03880657853667955,0.14475986344677422,0.0,-0.14475986344677422,0.05134235603700037,0.0,-0.05134235603700037,-0.5188226490510986,0.0,0.5188226490510986,0.19969730866016358,0,-0.19969730866016358,-0.024720150343012576,-0.02757405142751014,-0.03880657853667955,0.4,0.03345298767089844,2.105556011199951,STABILIZE
0.17,0.015,0.1,0.07070485229587863,0.007333643238615905,0.0010605727844381794,-0.03819333347504839,-0.02979911745199431,0.17,0.015,0.1,0.02809853118219491,0.022101117470840474,0.00042147796773292365,0.019223692568484354,0.04174628800705775,0.002,8e-05,0,-1.354297864741612,-0.0010417155825416516,-0.00010834382917932896,0.0,-0.0011500594117209806,0.2,0.02,0.0,-0.049682042576592325,0.04165208570118569,-0.0009936408515318466,0.0,0.04065844484965384,0.13000657335788512,0.0,-0.13000657335788512,0.0431390778742112,0.0,-0.0431390778742112,-0.5208577912708258,0.0,0.5208577912708258,0.20826042850592844,0,-0.20826042850592844,-0.029950660932762316,-0.04163769773866791,-0.04065844484965384,0.4,0.033429861068725586,2.1389834880828857,STABILIZE
0.17,0.015,0.1,0.07235137862382239,0.008365162303276686,0.0010852706793573357,-0.018581928335507265,-0.009131495352873244,0.17,0.015,0.1,0.03169302637521057,0.018261800724118663,0.00047539539562815853,0.007860276295933938,0.026597472415680758,0.002,8e-05,0,-1.3720010880799498,-0.001058130212414707,-0.00010976008704639599,-0.0,-0.0011678902994611028,0.2,0.02,0.0,-0.0421619633889493,0.044947876644385536,-0.000843239267778986,0.0,0.04410463737660655,0.10742235720069801,0.0,-0.10742235720069801,0.04920683707809814,0.0,-0.04920683707809814,-0.5290651062073535,0.0,0.5290651062073535,0.22473938322192766,0,-0.22473938322192766,-0.00923575188700361,-0.026561450136695357,-0.04410463737660655,0.4,0.03346133232116699,2.1724188327789307,STABILIZE
0.17,0.015,0.1,0.0745306812023227,0.011079821876948618,0.0011179602180348405,-0.008934219217449493,0.0032635628775339667,0.17,0.015,0.1,0.03549462381180026,0.01932775322748608,0.0005324193571770039,-0.015075660916967493,0.0047845116676955915,0.002,8e-05,0,-1.3906034014382325,-0.0011126620509229938,-0.00011124827211505861,-0.0,-0.0012239103230380524,0.2,0.02,0.0,-0.03521146204242057,0.04157310402326014,-0.0007042292408484114,0.0,0.04086887478241173,0.11369266604403577,0.0,-0.11369266604403577,0.0651754228055801,0.0,-0.0651754228055801,-0.5563310254614969,0.0,0.5563310254614969,0.20786552011630072,0,-0.20786552011630072,0.0032461835278517668,-0.004796320157937426,-0.04086887478241173,0.4,0.033437490463256836,2.206916332244873,STABILIZE
0.17,0.015,0.1,0.07724752358556594,0.013686166060158902,0.0011587128537834891,0.01164234717391624,0.026487226087858633,0.17,0.015,0.1,0.0395142329349007,0.020248888303196412,0.0005927134940235105,0.0005737365383213988,0.021415338335541323,0.002,8e-05,0,-1.4101830226874057,-0.0011603866461862415,-0.00011281464181499246,-0.0,-0.0012732012880012338,0.2,0.02,0.0,-0.028827375604474965,0.037835301083791635,-0.0005765475120894993,0.0,0.037258753571702136,0.11911110766586123,0.0,-0.11911110766586123,0.0805068591774053,0.0,-0.0805068591774053,-0.5801933230931208,0.0,0.5801933230931208,0.18917650541895817,0,-0.18917650541895817,0.026416373685083608,-0.021502675721525154,-0.037258753571702136,0.4,0.03374671936035156,2.2395684719085693,STABILIZE
0.17,0.015,0.1,0.0792297362577437,0.010027743987173852,0.0011884460438661554,0.004548529139598989,0.015764719170638996,0.17,0.015,0.1,0.04308926669186301,0.018085608957860405,0.0006463390003779452,-0.022936922135844168,-0.004204974177605819,0.002,8e-05,0,-1.4295693656743855,-0.001153798462339201,-0.00011436554925395085,-0.0,-0.0012681640115931518,0.2,0.02,0.0,-0.022319173844300558,0.038734242907627066,-0.00044638347688601116,-0.0,0.038287859430741054,0.10638593504623767,0.0,-0.10638593504623767,0.058986729336316775,0.0,-0.058986729336316775,-0.5768992311696004,0.0,0.5768992311696004,0.19367121453813532,0,-0.19367121453813532,0.015778842736981553,0.00415166234718682,-0.038287859430741054,0.4,0.03360438346862793,2.2731752395629883,STABILIZE
0.17,0.015,0.1,0.08179655389549814,0.012990249925486797,0.0012269483084324721,0.019831899624771845,0.03404909785869112,0.17,0.015,0.1,0.04620019437935248,0.01574390309860836,0.0006930029156902871,-0.02231188888879498,-0.005874982874496334,0.002,8e-05,0,-1.4492257307911982,-0.001170325793301363,-0.00011593805846329586,-0.0,-0.001286263851764659,0.2,0.02,0.0,-0.016061676752327114,0.037256686089845524,-0.0003212335350465423,-0.0,0.036935452554798985,0.09261119469769624,0.0,-0.09261119469769624,0.07641323485580469,0.0,-0.07641323485580469,-0.5851628966506816,0.0,0.5851628966506816,0.1862834304492276,0,-0.1862834304492276,0.034068018956169406,0.005764249575480855,-0.036935452554798985,0.4,0.033591270446777344,2.306821823120117,STABILIZE
0.17,0.015,0.1,0.0839044496182621,0.010669007478028033,0.0012585667442739314,0.008074477812735566,0.02000205203503753,0.17,0.015,0.1,0.04905175189710818,0.014433014001788647,0.0007357762784566226,-0.01340488844044516,0.0017639018398001097,0.002,8e-05,0,-1.4688219194824554,-0.0011668837283051645,-0.00011750575355859644,-0.0,-0.001284389481863761,0.2,0.02,0.0,-0.010437157135630454,0.033492025024155124,-0.00020874314271260907,-0.0,0.033283281881442514,0.08490008236346262,0.0,-0.08490008236346262,0.06275886751781196,0.0,-0.06275886751781196,-0.5834418641525823,0.0,0.5834418641525823,0.16746012512077563,0,-0.16746012512077563,0.019996811200342097,-0.0018223548311654693,-0.033283281881442514,0.4,0.03358721733093262,2.3404016494750977,STABILIZE
0.17,0.015,0.1,0.0868676979364503,0.015058619257042632,0.0013030154690467544,0.013960614637386288,0.030322249363475676,0.17,0.015,0.1,0.050828326054330374,0.009028184931820936,0.0007624248908149556,-0.03616312700021891,-0.02637251717758302,0.002,8e-05,0,-1.48819573244454,-0.0011582792682273495,-0.00011905565859556321,-0.0,-0.0012773349268229127,0.2,0.02,0.0,-0.0052451272874105325,0.03104097549088555,-0.00010490254574821065,-0.0,0.03093607294513734,0.053106970187181975,0.0,-0.053106970187181975,0.08858011327672136,0.0,-0.08858011327672136,-0.5791396341136748,0.0,0.5791396341136748,0.15520487745442774,0,-0.15520487745442774,0.03039357685426305,0.026290282515536372,-0.03093607294513734,0.4,0.033452749252319336,2.3739004135131836,STABILIZE
0.17,0.015,0.1,0.08936691372826658,0.012437586177274017,0.0013405037059239986,-0.004152430329030033,0.009625659554167982,0.17,0.015,0.1,0.05303178058047092,0.010965701979924187,0.0007954767087070638,-0.03270153795658618,-0.02094035926795493,0.002,8e-05,0,-1.5080635214232918,-0.0011632229427575164,-0.00012064508171386336,-0.0,-0.0012838680244713796,0.2,0.02,0.0,0.0005184754771354423,0.033744846876674194,1.0369509542708845e-05,-0.0,0.0337552163862169,0.06450412929367168,0.0,-0.06450412929367168,0.07316227163102362,0.0,-0.07316227163102362,-0.5816114713787581,0.0,0.5816114713787581,0.16872423438337095,0,-0.16872423438337095,0.009687282761277205,0.02091192293470002,-0.0337552163862169,0.4,0.03415989875793457,2.4079811573028564,STABILIZE
0.17,0.015,0.1,0.09167510052204599,0.01171145169944026,0.0013751265078306898,0.006105800386631425,0.019192378593902375,0.17,0.015,0.1,0.055509297963191914,0.012570613973036023,0.0008326394694478787,-0.01949263915426669,-0.0060893857117827865,0.002,8e-05,0,-1.52762157981818,-0.0011674723199019865,-0.0001222097263854544,-0.0,-0.001289682046287441,0.2,0.02,0.0,0.004830445116105828,0.025739289126324696,9.660890232211657e-05,-0.0,0.025835898028646814,0.07394478807668248,0.0,-0.07394478807668248,0.06889089234964858,0.0,-0.06889089234964858,-0.5837361599509933,0.0,0.5837361599509933,0.12869644563162347,0,-0.12869644563162347,0.019206008003048638,0.006046260912777259,-0.025835898028646814,0.4,0.03350496292114258,2.4415183067321777,STABILIZE
0.17,0.015,0.1,0.09423567292017884,0.013016755942781085,0.0014135350938026827,0.00032226645469548567,0.014752557491279255,0.17,0.015,0.1,0.057275972077062295,0.008980947302036248,0.0008591395811559344,-0.023919764255000146,-0.014079677371807963,0.002,8e-05,0,-1.5469190797967363,-0.001154111652396694,-0.00012375352638373892,0.0,-0.001277865178780433,0.2,0.02,0.0,0.009321107412009066,0.02685697985977219,0.00018642214824018133,-0.0,0.027043402008012373,0.052829101776683804,0.0,-0.052829101776683804,0.07656915260459461,0.0,-0.07656915260459461,-0.5770558261983469,0.0,0.5770558261983469,0.13428489929886095,0,-0.13428489929886095,0.014785515674976596,0.014045062963643926,-0.027043402008012373,0.4,0.03344130516052246,2.4749605655670166,STABILIZE
0.17,0.015,0.1,0.0970678361750532,0.014323260138431566,0.001456017542625798,0.013025594496992655,0.02880487217805002,0.17,0.015,0.1,0.05834409030201262,0.005401854984253714,0.0008751613545301892,-0.031854538048671395,-0.02557752170988749,0.002,8e-05,0,-1.566088237252685,-0.0011405325776353576,-0.0001252870589802148,0.0,-0.0012658196366155724,0.2,0.02,0.0,0.014025797488866312,0.027992113438811042,0.00028051594977732624,-0.0,0.028272629388588367,0.03177561755443361,0.0,-0.03177561755443361,0.08425447140253861,0.0,-0.08425447140253861,-0.5702662888176788,0.0,0.5702662888176788,0.1399605671940552,0,-0.1399605671940552,0.02886726624691388,0.02550708171162183,-0.028272629388588367,0.4,0.033614397048950195,2.5085434913635254,STABILIZE
0.17,0.015,0.1,0.09950181579052539,0.012323576094994548,0.0014925272368578808,-0.009418545847144508,0.004397557484707921,0.17,0.015,0.1,0.0596215508723882,0.0064679598988032026,0.0008943232630858229,-0.00911123837835727,-0.0017489552164682443,0.002,8e-05,0,-1.585228407690135,-0.0011401098279671409,-0.00012681827261521082,0.0,-0.0012669281005823518,0.2,0.02,0.0,0.017837644165898402,0.022705774085923825,0.00035675288331796803,-0.0,0.023062526969241794,0.038046822934136484,0.0,-0.038046822934136484,0.07249162408820321,0.0,-0.07249162408820321,-0.5700549139835704,0.0,0.5700549139835704,0.11352887042961912,0,-0.11352887042961912,0.004401014321533203,0.0017402382371910405,-0.023062526969241794,0.4,0.033576011657714844,2.5421552658081055,STABILIZE
0.17,0.015,0.1,0.101800346006026,0.011688822442206924,0.00152700519009039,-0.002625549775740621,0.010590277856556692,0.17,0.015,0.1,0.06039894831150357,0.003953335297298612,0.0009059842246725534,-0.02463371309770951,-0.019774393575738344,0.002,8e-05,0,-1.6040554519588754,-0.0011263769705313256,-0.00012832443615671006,0.0,-0.0012547014066880357,0.2,0.02,0.0,0.022193481893279094,0.026059933962334088,0.0004438696378655819,-0.0,0.02650380360019967,0.02325491351352124,0.0,-0.02325491351352124,0.06875777907180543,0.0,-0.06875777907180543,-0.5631884852656628,0.0,0.5631884852656628,0.13029966981167043,0,-0.13029966981167043,0.010635220532766722,0.019750258494174045,-0.02650380360019967,0.4,0.03342938423156738,2.575593948364258,STABILIZE
0.17,0.015,0.1,0.10417730911409713,0.011986124555314214,0.0015626596367114569,0.0009616458277762063,0.014510430019801877,0.17,0.015,0.1,0.06107204611012975,0.0033941772275919353,0.0009160806916519462,-0.032220388166290345,-0.027910130247046465,0.002,8e-05,0,-1.6231046414238122,-0.0011300923129191713,-0.00012984837131390498,0.0,-0.0012599406842330762,0.2,0.02,0.0,0.026194185644038977,0.023734157105858057,0.0005238837128807795,-0.0,0.024258040818738835,0.01996574839759962,0.0,-0.01996574839759962,0.07050661503126007,0.0,-0.07050661503126007,-0.5650461564595857,0.0,0.5650461564595857,0.11867078552929028,0,-0.11867078552929028,0.014568206202947987,0.02788001645973426,-0.024258040818738835,0.4,0.03371262550354004,2.6092710494995117,STABILIZE
0.17,0.015,0.1,0.1066778395374482,0.012386637733622686,0.0016001675930617228,-0.0022574367486055133,0.011729368578078894,0.17,0.015,0.1,0.0621288288355879,0.005234883231637774,0.0009319324325338184,-0.013281758341742748,-0.007114942677571155,0.002,8e-05,0,-1.6423130458910846,-0.0011194215404912878,-0.00013138504367128678,0.0,-0.0012508065841625746,0.2,0.02,0.0,0.02960309302554331,0.019866326528564494,0.0005920618605108662,-0.0,0.02045838838907536,0.030793430774339846,0.0,-0.030793430774339846,0.07286257490366285,0.0,-0.07286257490366285,-0.5597107702456439,0.0,0.5597107702456439,0.09933163264282246,0,-0.09933163264282246,0.011741685865335869,0.007094597210928873,-0.02045838838907536,0.4,0.03431844711303711,2.6436307430267334,STABILIZE
0.17,0.015,0.1,0.10917911232425143,0.012719657221499751,0.0016376866848637713,-0.0056581028992172535,0.00869924100714627,0.17,0.015,0.1,0.06352702703758488,0.0071102208247540225,0.0009529054055637732,0.005844436981827333,0.013907563212145129,0.002,8e-05,0,-1.6607547902809432,-0.0011033096638927587,-0.00013286038322247545,0.0,-0.0012361700471152342,0.2,0.02,0.0,0.03228257949541984,0.01603049719152589,0.0006456515899083969,-0.0,0.016676148781434287,0.04182482838090601,0.0,-0.04182482838090601,0.07482151306764559,0.0,-0.07482151306764559,-0.5516548319463793,0.0,0.5516548319463793,0.08015248595762944,0,-0.08015248595762944,0.008679776866469964,-0.013919719183536738,-0.016676148781434287,0.4,0.033429861068725586,2.677028179168701,STABILIZE
