D-kp,D-ki,D-kd,D-I-Tot,D-P,D-I,D-D,D-PID,E-kp,E-ki,E-kd,E-I-Tot,E-P,E-I,E-D,E-PID,N-kp,N-ki,N-kd,N-I-Tot,N-P,N-I,N-D,N-PID,Y-kp,Y-ki,Y-kd,Y-I-Tot,Y-P,Y-I,Y-D,Y-PID,errorN,desiredN,actualN,errorE,desiredE,actualE,errorD,desiredD,actualD,errorY,desiredY,actualY,roll,pitch,yaw-rate,thrust,dt,Time,Mode
0.05,0.004,0.04,-0.0009920906600837168,-0.0014783144060821001,-3.968362640334867e-06,-0.035245383449862666,-0.0367276662185851,0.08,0.002,0.06,-0.000991122267966646,-0.002362994247804276,-1.982244535933292e-06,-0.052816469984559,-0.05518144647689921,0.5,0,0,-0.0009986842482014576,-0.014881395124906268,-0.0,-0.0,-0.014881395124906268,0.002,8e-05,0.0,-0.0011047134145392835,-6.584534341519799e-05,-8.837707316314269e-08,-0.0,-6.593372048836113e-05,-0.02953742809755345,0,0.02953742809755345,-0.029566288121642,0,0.029566288121642,-0.032922671707598994,0.0,0.032922671707598994,-0.029762790249812536,0.0,0.029762790249812536,-0.03675632574364086,0.055162360527574,0.014881395124906268,0.4,0.033554792404174805,0.03379559516906738,STABILIZE
0.05,0.004,0.04,-0.0026832859221050014,-0.002529612306189036,-1.0733143688420005e-05,-0.02515973089851503,-0.027700076348392486,0.08,0.002,0.06,-0.0026763013604798568,-0.004032981753233166,-5.352602720959714e-06,-0.037468360748591785,-0.04150669510454591,0.5,0,0,-0.0027178483439850415,-0.025714468049389365,-0.0,-0.0,-0.025714468049389365,0.002,8e-05,0.0,-0.0030903022685501514,-0.00011879810954849901,-2.4722418148401213e-07,-0.0,-0.00011904533372998303,-0.050412271915414565,0,0.050412271915414565,-0.050592246123780715,0,0.050592246123780715,-0.059399054774249505,0.0,0.059399054774249505,-0.05142893609877873,0.0,0.05142893609877873,-0.027737321771087585,0.041481814680359136,0.025714468049389365,0.4,0.03342795372009277,0.06717681884765625,STABILIZE
0.05,0.004,0.04,-0.004973075515644271,-0.003423936588260926,-1.9892302062577085e-05,-0.021396618377835172,-0.024840447268158674,0.08,0.002,0.06,-0.004967837892874702,-0.005482478074835376,-9.935675785749404e-06,-0.03251161266576644,-0.03800402641638756,0.5,0,0,-0.005042633468606145,-0.034762656230485744,-0.0,-0.0,-0.034762656230485744,0.002,8e-05,0.0,-0.005983947804023576,-0.00017307544501591208,-4.787158243218862e-07,-0.0,-0.00017355416084023395,-0.06853097593544219,0,0.06853097593544219,-0.06847873176521851,0,0.06847873176521851,-0.08653772250795604,0.0,0.08653772250795604,-0.06952531246097149,0.0,0.06952531246097149,-0.024886544787924497,0.0379738559124338,0.034762656230485744,0.4,0.03343796730041504,0.10060811042785645,STABILIZE
0.05,0.004,0.04,-0.009418058358880831,-0.006236196830096027,-3.767223343552333e-05,-0.06312846289509527,-0.06940233195862683,0.08,0.002,0.06,-0.009268026673682081,-0.009652887163599173,-1.853605334736416e-05,-0.0877646535097155,-0.09743607672666205,0.5,0,0,-0.00952817874245656,-0.06293104879043844,-0.0,-0.0,-0.06293104879043844,0.002,8e-05,0.0,-0.012285784773809531,-0.00035365262023054887,-9.828627819047626e-07,-0.0,-0.0003546354830124536,-0.12066108954498966,0,0.12066108954498966,-0.12472393660192053,0,0.12472393660192053,-0.17682631011527444,0.0,0.17682631011527444,-0.12586209758087688,0.0,0.12586209758087688,-0.06961620294501512,0.09728338510094041,0.06293104879043844,0.4,0.03563857078552246,0.13624000549316406,STABILIZE
0.05,0.004,0.04,-0.013980330951490625,-0.006813201660711254,-5.59213238059625e-05,-0.013786989498362266,-0.020656112482879484,0.08,0.002,0.06,-0.013640868078375761,-0.01044849459236478,-2.7281736156751523e-05,-0.017822150293213494,-0.028297926621735026,0.5,0,0,-0.014084693254289356,-0.06804602664330392,-0.0,-0.0,-0.06804602664330392,0.002,8e-05,0.0,-0.019246701811114507,-0.00041581146725395453,-1.5397361448891606e-06,-0.0,-0.0004173512033988437,-0.13060618240455973,0,0.13060618240455973,-0.13626403321422506,0,0.13626403321422506,-0.20790573362697726,0.0,0.20790573362697726,-0.13609205328660784,0.0,0.13609205328660784,-0.020723268925692415,0.028248783319426356,0.06804602664330392,0.4,0.03348112106323242,0.16973352432250977,STABILIZE
0.05,0.004,0.04,-0.01897911816431926,-0.0074591874264150655,-7.591647265727704e-05,-0.015423033455202741,-0.022958137354275085,0.08,0.002,0.06,-0.018343189488517247,-0.01122688211971856,-3.6686378977034495e-05,-0.017422641361933916,-0.02868620986062951,0.5,0,0,-0.019026333639426834,-0.0737391296274527,-0.0,-0.0,-0.0737391296274527,0.002,8e-05,0.0,-0.027343827074654832,-0.00048330102790457226,-2.1875061659723867e-06,-0.0,-0.00048548853407054464,-0.140336026496482,0,0.140336026496482,-0.1491837485283013,0,0.1491837485283013,-0.24165051395228612,0.0,0.24165051395228612,-0.1474782592549054,0.0,0.1474782592549054,-0.02303189898445516,0.02862702108350941,0.0737391296274527,0.4,0.033507585525512695,0.20323657989501953,STABILIZE
0.05,0.004,0.04,-0.023999148787212952,-0.007512160622266366,-9.599659514885181e-05,-0.0012683369829496751,-0.008876494200364893,0.08,0.002,0.06,-0.023030124317227247,-0.011221925889868301,-4.606024863445449e-05,0.00011125030158050183,-0.011156735836922253,0.5,0,0,-0.02394329160706515,-0.07357918865550638,-0.0,0.0,-0.07357918865550638,0.002,8e-05,0.0,-0.035981599270103394,-0.000517035349185599,-2.878527941608272e-06,-0.0,-0.0005199138771272072,-0.14027407362335376,0,0.14027407362335376,-0.15024321244532732,0,0.15024321244532732,-0.25851767459279945,0.0,0.25851767459279945,-0.14715837731101275,0.0,0.14715837731101275,-0.008905119831535907,0.011133900691579874,0.07357918865550638,0.4,0.03341269493103027,0.23665738105773926,STABILIZE
0.05,0.004,0.04,-0.02923039286410952,-0.00781801945352379,-0.00011692157145643809,-0.007313626380732526,-0.015248567405712756,0.08,0.002,0.06,-0.027871410947875905,-0.011576373803900173,-5.574282189575181e-05,-0.007945760070918103,-0.019577876696714028,0.5,0,0,-0.029013333003569265,-0.07577104353264114,-0.0,-0.0,-0.07577104353264114,0.002,8e-05,0.0,-0.04557993291655016,-0.0005737828942124232,-3.646394633324013e-06,-0.0,-0.0005774292888457472,-0.14470467254875216,0,0.14470467254875216,-0.1563603890704758,0,0.1563603890704758,-0.28689144710621156,0.0,0.28689144710621156,-0.15154208706528227,0.0,0.15154208706528227,-0.01530029569941908,0.019537477201231526,0.07577104353264114,0.4,0.03345632553100586,0.2701072692871094,STABILIZE
0.05,0.004,0.04,-0.03461167513612927,-0.008056027639686164,-0.00013844670054451709,-0.00570094763076161,-0.013895421970992292,0.08,0.002,0.06,-0.03274631647581826,-0.0116767332955303,-6.549263295163651e-05,-0.0022536417835233675,-0.013995867712005304,0.5,0,0,-0.03420941353098261,-0.0777877209016316,-0.0,-0.0,-0.0777877209016316,0.002,8e-05,0.0,-0.05606468010241706,-0.0006278459954695013,-4.485174408193365e-06,-0.0,-0.0006323311698776947,-0.14595916619412874,0,0.14595916619412874,-0.16112055279372328,0,0.16112055279372328,-0.3139229977347507,0.0,0.3139229977347507,-0.1555754418032632,0.0,0.1555754418032632,-0.013933373731035533,0.013958085872897357,0.0777877209016316,0.4,0.033399105072021484,0.3034982681274414,STABILIZE
0.05,0.004,0.04,-0.040212951442372656,-0.008370609769755458,-0.00016085180576949062,-0.007521840687383058,-0.016053302262908006,0.08,0.002,0.06,-0.037742356174425735,-0.011945819895265197,-7.548471234885147e-05,-0.006031890226895035,-0.01805319483450908,0.5,0,0,-0.03971667447000023,-0.082301121566436,-0.0,-0.0,-0.082301121566436,0.002,8e-05,0.0,-0.06856012390788126,-0.0007469332221934074,-5.484809912630501e-06,-0.0,-0.0007524180321060379,-0.14932274869081497,0,0.14932274869081497,-0.16741219539510915,0,0.16741219539510915,-0.3734666110967037,0.0,0.3734666110967037,-0.164602243132872,0.0,0.164602243132872,-0.01610510008608338,0.018007001651976096,0.082301121566436,0.4,0.03345799446105957,0.33698487281799316,STABILIZE
0.05,0.004,0.04,-0.04580462888391965,-0.008355491093365797,-0.00018321851553567862,0.00036146281251114127,-0.008177246796390335,0.08,0.002,0.06,-0.042680808322915514,-0.011807030966451078,-8.536161664583103e-05,0.0031108276649180117,-0.008781564918178898,0.5,0,0,-0.04519927479370459,-0.08192500131145358,-0.0,0.0,-0.08192500131145358,0.002,8e-05,0.0,-0.08171645085129939,-0.0007863656210235621,-6.537316068103952e-06,-0.0,-0.000792902937091666,-0.14758788708063847,0,0.14758788708063847,-0.16710982186731593,0,0.16710982186731593,-0.39318281051178106,0.0,0.39318281051178106,-0.16385000262290716,0.0,0.16385000262290716,-0.008202326159992999,0.008758144389444653,0.08192500131145358,0.4,0.03346109390258789,0.37043237686157227,STABILIZE
0.05,0.004,0.04,-0.05145214239804102,-0.00841829146433056,-0.0002058085695921641,-0.0014977829107341877,-0.01012188294465691,0.08,0.002,0.06,-0.04761473360294796,-0.01176736515046767,-9.522946720589593e-05,0.0008868993388432158,-0.01097569527883035,0.5,0,0,-0.05071999458586354,-0.08229290321675828,-0.0,-0.0,-0.08229290321675828,0.002,8e-05,0.0,-0.09575231898938838,-0.0008368853205637819,-7.660185519151071e-06,-0.0,-0.000844545506082933,-0.14709206438084588,0,0.14709206438084588,-0.1683658292866112,0,0.1683658292866112,-0.4184426602818909,0.0,0.4184426602818909,-0.16458580643351656,0.0,0.16458580643351656,-0.010153369529928215,0.01094657427635699,0.08229290321675828,0.4,0.03354310989379883,0.4039735794067383,STABILIZE
0.05,0.004,0.04,-0.057083753393128336,-0.008435658913302632,-0.00022833501357251334,-0.00041623862401115425,-0.009080232550886299,0.08,0.002,0.06,-0.05242338072539297,-0.011524690038361263,-0.00010484676145078595,0.005452590229322273,-0.006176946570489776,0.5,0,0,-0.05615722127254102,-0.08144488282860637,-0.0,0.0,-0.08144488282860637,0.002,8e-05,0.0,-0.11064672914744454,-0.0008924207578811556,-8.851738331795564e-06,-0.0,-0.0009012724962129512,-0.14405862547951578,0,0.14405862547951578,-0.16871317826605262,0,0.16871317826605262,-0.4462103789405778,0.0,0.4462103789405778,-0.16288976565721275,0.0,0.16288976565721275,-0.00909775666092716,0.006151106880181486,0.08144488282860637,0.4,0.03337979316711426,0.43739748001098633,STABILIZE
0.05,0.004,0.04,-0.06271731693452508,-0.008421020440898428,-0.0002508692677381003,0.00035010415537800035,-0.008321785553258527,0.08,0.002,0.06,-0.05729067215518064,-0.011640961624624413,-0.00011458134431036129,-0.002607032114103702,-0.014362575083038476,0.5,0,0,-0.0616341084429512,-0.08186821445362387,-0.0,-0.0,-0.08186821445362387,0.002,8e-05,0.0,-0.1264068049308514,-0.0009423230560688613,-1.0112544394468113e-05,-0.0,-0.0009524356004633294,-0.14551202030780516,0,0.14551202030780516,-0.16842040881796858,0,0.16842040881796858,-0.4711615280344306,0.0,0.4711615280344306,-0.16373642890724774,0.0,0.16373642890724774,-0.008362796019049431,0.014338734970495514,0.08186821445362387,0.4,0.033449411392211914,0.4708061218261719,STABILIZE
0.05,0.004,0.04,-0.06826910834529104,-0.008299734433508931,-0.00027307643338116415,0.0029010935818125187,-0.005671717285077578,0.08,0.002,0.06,-0.06215293347169974,-0.011630257605190337,-0.00012430586694339948,0.0002400320331785215,-0.011514531438955214,0.5,0,0,-0.06707265117135056,-0.08130431605098462,-0.0,0.0,-0.08130431605098462,0.002,8e-05,0.0,-0.14276852562950068,-0.0009784080605816535,-1.1421482050360056e-05,-0.0,-0.0009898295426320136,-0.14537822006487922,0,0.14537822006487922,-0.1659946886701786,0,0.1659946886701786,-0.48920403029082676,0.0,0.48920403029082676,-0.16260863210196924,0.0,0.16260863210196924,-0.00570437328491948,0.011498388436943358,0.08130431605098462,0.4,0.03344559669494629,0.504260778427124,STABILIZE
0.05,0.004,0.04,-0.07364461087953253,-0.008040888944064946,-0.00029457844351813014,0.006195060859246426,-0.0021404065283366497,0.08,0.002,0.06,-0.06674526695995008,-0.010991030018246827,-0.00013349053391990015,0.014342727969676236,0.0032182074175095103,0.5,0,0,-0.07238543138732353,-0.07947066423789154,-0.0,0.0,-0.07947066423789154,0.002,8e-05,0.0,-0.16035496382538558,-0.001052259546369844,-1.2828397106030848e-05,-0.0,-0.0010650879434758748,-0.13738787522808532,0,0.13738787522808532,-0.16081777888129892,0,0.16081777888129892,-0.5261297731849219,0.0,0.5261297731849219,-0.15894132847578307,0.0,0.15894132847578307,-0.0021314708375270706,-0.0032241326209433486,0.07947066423789154,0.4,0.03342604637145996,0.537677526473999,STABILIZE
0.05,0.004,0.04,-0.07923619195078849,-0.00833770285527654,-0.00031694476780315395,-0.007081349374233666,-0.01573599699731336,0.08,0.002,0.06,-0.07130731468906562,-0.010884076726702505,-0.00014261462937813124,0.00239219843080091,-0.008634492925279725,0.5,0,0,-0.07792291465275246,-0.08257036685125321,-0.0,-0.0,-0.08257036685125321,0.002,8e-05,0.0,-0.17973860303215008,-0.001156131132861062,-1.4379088242572008e-05,-0.0,-0.001170510221103634,-0.13605095908378131,0,0.13605095908378131,-0.1667540571055308,0,0.1667540571055308,-0.578065566430531,0.0,0.578065566430531,-0.16514073370250643,0.0,0.16514073370250643,-0.015760818363782028,0.008589102053185296,0.08257036685125321,0.4,0.033531904220581055,0.571223258972168,STABILIZE
0.05,0.004,0.04,-0.08472292760634192,-0.008197219264317558,-0.0003388917104253677,0.003358134586167338,-0.0051779763885755874,0.08,0.002,0.06,-0.07557552544954396,-0.010202776052328388,-0.00015115105089908793,0.015268015528831037,0.0049140884256035616,0.5,0,0,-0.08336404687945742,-0.08129087440781048,-0.0,0.0,-0.08129087440781048,0.002,8e-05,0.0,-0.1995039612770934,-0.0011811830242457306,-1.5960316902167475e-05,-0.0,-0.001197143341147898,-0.12753470065410485,0,0.12753470065410485,-0.16394438528635116,0,0.16394438528635116,-0.5905915121228653,0.0,0.5905915121228653,-0.16258174881562096,0.0,0.16258174881562096,-0.005164011408479846,-0.004928761579584386,0.08129087440781048,0.4,0.03346705436706543,0.6046786308288574,STABILIZE
0.05,0.004,0.04,-0.09009417201665718,-0.008018448147481093,-0.0003603766880666287,0.004270047895396661,-0.00410877694015106,0.08,0.002,0.06,-0.07972742430832606,-0.009917042136096347,-0.00015945484861665214,0.006398356925119502,-0.0036781400595934976,0.5,0,0,-0.08865318544758008,-0.07895876656047532,-0.0,0.0,-0.07895876656047532,0.002,8e-05,0.0,-0.22002038197592594,-0.0012251153958256842,-1.7601630558074078e-05,-0.0,-0.0012427170263837582,-0.12396302670120433,0,0.12396302670120433,-0.16036896294962186,0,0.16036896294962186,-0.6125576979128421,0.0,0.6125576979128421,-0.15791753312095064,0.0,0.15791753312095064,-0.004118898940473959,0.0036668015708606404,0.07895876656047532,0.4,0.0334930419921875,0.6381945610046387,STABILIZE
0.05,0.004,0.04,-0.09531873648627219,-0.007827784004359482,-0.0003812749459450888,0.004570647718981188,-0.0036384112313233834,0.08,0.002,0.06,-0.08359744285121677,-0.009277303606161618,-0.00016719488570243355,0.014377471253497238,0.004932972761633186,0.5,0,0,-0.09386030085308458,-0.07801640675909877,-0.0,0.0,-0.07801640675909877,0.002,8e-05,0.0,-0.24115327015849541,-0.0012665069790487229,-1.9292261612679634e-05,-0.0,-0.0012857992406614025,-0.11596629507702022,0,0.11596629507702022,-0.15655568008718965,0,0.15655568008718965,-0.6332534895243614,0.0,0.6332534895243614,-0.15603281351819753,0.0,0.15603281351819753,-0.0036249638588602595,-0.004942862892817483,0.07801640675909877,0.4,0.033371925354003906,0.6715512275695801,STABILIZE
0.05,0.004,0.04,-0.10040036214348817,-0.007592577237305372,-0.0004016014485739527,0.005622848013007268,-0.002371330672872057,0.08,0.002,0.06,-0.08732262401884998,-0.008905410243447489,-0.00017464524803769996,0.00833482020592757,-0.0007452352855576196,0.5,0,0,-0.09888659982499858,-0.0750991232655127,-0.0,0.0,-0.0750991232655127,0.002,8e-05,0.0,-0.26263569296302447,-0.0012838958663255562,-2.101085543704196e-05,-0.0,-0.001304906721762598,-0.1113176280430936,0,0.1113176280430936,-0.15185154474610743,0,0.15185154474610743,-0.6419479331627781,0.0,0.6419479331627781,-0.1501982465310254,0.0,0.1501982465310254,-0.002373276122692537,0.0007390163979246119,0.0750991232655127,0.4,0.03346443176269531,0.705019474029541,STABILIZE
0.05,0.004,0.04,-0.10560587316094527,-0.007438148794539783,-0.0004224234926437811,0.003530602030186518,-0.004329970256997047,0.08,0.002,0.06,-0.09108723980550783,-0.008606808371060062,-0.00018217447961101565,0.00640007815668068,-0.002388904693990398,0.5,0,0,-0.10395707018996941,-0.07245189359215168,-0.0,0.0,-0.07245189359215168,0.002,8e-05,0.0,-0.2857031915784174,-0.0013184449053607011,-2.2856255326273392e-05,-0.0,-0.0013413011606869746,-0.10758510463825077,0,0.10758510463825077,-0.14876297589079565,0,0.14876297589079565,-0.6592224526803505,0.0,0.6592224526803505,-0.14490378718430336,0.0,0.14490378718430336,-0.0043359980582160515,0.0023779463624302075,0.07245189359215168,0.4,0.03499197959899902,0.7400228977203369,STABILIZE
0.05,0.004,0.04,-0.11026401374375482,-0.006908794981166634,-0.0004410560549750193,0.012561911875619709,0.005212060839478056,0.08,0.002,0.06,-0.09417896198372606,-0.007336858744663312,-0.00018835792396745214,0.028253188528369035,0.02072797185973827,0.5,0,0,-0.10846869194375142,-0.06691483259324757,-0.0,0.0,-0.06691483259324757,0.002,8e-05,0.0,-0.30858566252440023,-0.0013575399678722956,-2.4686853001952022e-05,-0.0,-0.0013822268208742476,-0.0917107343082914,0,0.0917107343082914,-0.13817589962333268,0,0.13817589962333268,-0.6787699839361477,0.0,0.6787699839361477,-0.13382966518649514,0.0,0.13382966518649514,0.005260462316920053,-0.020715741160402312,0.06691483259324757,0.4,0.03371167182922363,0.773723840713501,STABILIZE
0.05,0.004,0.04,-0.11476028884107134,-0.006722157730202922,-0.0004590411553642854,0.004464513446015156,-0.002716685439552051,0.08,0.002,0.06,-0.09705599006102923,-0.00688208300827386,-0.00019411198012205848,0.01019868946754485,0.0031224944791489323,0.5,0,0,-0.11287163405668063,-0.06582620217728098,-0.0,0.0,-0.06582620217728098,0.002,8e-05,0.0,-0.3316803836541466,-0.0013811108511742058,-2.653443069233173e-05,-0.0,-0.0014076452818665376,-0.08602603760342324,0,0.08602603760342324,-0.13444315460405842,0,0.13444315460405842,-0.6905554255871029,0.0,0.6905554255871029,-0.13165240435456196,0.0,0.13165240435456196,-0.002709503506518245,-0.003128728543347124,0.06582620217728098,0.4,0.03344368934631348,0.8071763515472412,STABILIZE
0.05,0.004,0.04,-0.11910995430048052,-0.006494218804752087,-0.00047643981720192207,0.005445146142154513,-0.0015255124797994967,0.08,0.002,0.06,-0.09983514814417135,-0.006639024854981603,-0.0001996702962883427,0.005443428389455809,-0.001395266761814137,0.5,0,0,-0.1170447543295588,-0.062306300113247684,-0.0,0.0,-0.062306300113247684,0.002,8e-05,0.0,-0.35517322296272164,-0.001403028717849859,-2.8413857837017733e-05,-0.0,-0.0014314425756868766,-0.08298781068727004,0,0.08298781068727004,-0.12988437609504175,0,0.12988437609504175,-0.7015143589249294,0.0,0.7015143589249294,-0.12461260022649537,0.0,0.12461260022649537,-0.0015285434353343747,0.0013919456271505387,0.062306300113247684,0.4,0.03348875045776367,0.8406732082366943,STABILIZE
0.05,0.004,0.04,-0.12328704745045421,-0.006244964642984487,-0.0004931481898018168,0.0059623604127294364,-0.000775752420056868,0.08,0.002,0.06,-0.10251122168556485,-0.00640138356431296,-0.0002050224433711297,0.0053292854791192135,-0.0012771205285648764,0.5,0,0,-0.1209645074321511,-0.058602283109420006,-0.0,0.0,-0.058602283109420006,0.002,8e-05,0.0,-0.37879652949955295,-0.001412721323428709,-3.0303722359964238e-05,-0.0,-0.001443025045788673,-0.080017294553912,0,0.080017294553912,-0.12489929285968973,0,0.12489929285968973,-0.7063606617143545,0.0,0.7063606617143545,-0.11720456621884001,0.0,0.11720456621884001,-0.0007783632800447426,0.0012755309741374005,0.058602283109420006,0.4,0.03344368934631348,0.8741226196289062,STABILIZE
0.05,0.004,0.04,-0.1273424156595123,-0.006059653402467115,-0.0005093696626380492,0.004430362250641822,-0.002138660814463343,0.08,0.002,0.06,-0.10514836130035066,-0.0063047895888020105,-0.00021029672260070131,0.002165004441725046,-0.004350081869677665,0.5,0,0,-0.12471008845449517,-0.05596760051422088,-0.0,0.0,-0.05596760051422088,0.002,8e-05,0.0,-0.40264797985086814,-0.001425582238893092,-3.221183838806945e-05,-0.0,-0.0014577940772811616,-0.07880986986002513,0,0.07880986986002513,-0.1211930680493423,0,0.1211930680493423,-0.712791119446546,0.0,0.712791119446546,-0.11193520102844176,0.0,0.11193520102844176,-0.0021471552121479203,0.004345895402234776,0.05596760051422088,0.4,0.0334620475769043,0.9075767993927002,STABILIZE
0.05,0.004,0.04,-0.13126946652962068,-0.005869799783578324,-0.0005250778661184827,0.004540415769187027,-0.0018544618805097796,0.08,0.002,0.06,-0.1074827492532212,-0.005582770523232507,-0.0002149654985064424,0.016188130081578156,0.010390394059839207,0.5,0,0,-0.12828510807772617,-0.0534361537571584,-0.0,0.0,-0.0534361537571584,0.002,8e-05,0.0,-0.42687853186235647,-0.0014487053379992668,-3.415028254898852e-05,-0.0,-0.0014828556205482553,-0.06978463154040633,0,0.06978463154040633,-0.11739599567156647,0,0.11739599567156647,-0.7243526689996334,0.0,0.7243526689996334,-0.1068723075143168,0.0,0.1068723075143168,-0.0018350777374804886,-0.010393835061343299,0.0534361537571584,0.4,0.03345131874084473,0.9410374164581299,STABILIZE
0.05,0.004,0.04,-0.135780969758866,-0.005662503977100703,-0.0005431238790354641,0.00416291694885808,-0.0020427109072780865,0.08,0.002,0.06,-0.11024963182445673,-0.005556457000754566,-0.00022049926364891347,0.00049540170352863,-0.005281554560874849,0.5,0,0,-0.13243248407739408,-0.05205478506679492,-0.0,0.0,-0.05205478506679492,0.002,8e-05,0.0,-0.4558847223557348,-0.0014562566903605744,-3.647077778845879e-05,-0.0,-0.0014927274681490333,-0.06945571250943207,0,0.06945571250943207,-0.11325007954201405,0,0.11325007954201405,-0.7281283451802872,0.0,0.7281283451802872,-0.10410957013358985,0.0,0.10410957013358985,-0.0020523044037703813,0.005277834126275235,0.05205478506679492,0.4,0.03983664512634277,0.9808714389801025,STABILIZE
0.05,0.004,0.04,-0.1393337530939961,-0.005308562465237471,-0.0005573350123759844,0.008461740320329455,0.0025958428427159987,0.08,0.002,0.06,-0.11251791594879491,-0.005422825689994899,-0.00022503583189758983,0.002995074960516584,-0.002652786561375905,0.5,0,0,-0.13564989605195324,-0.04807451181856242,-0.0,0.0,-0.04807451181856242,0.002,8e-05,0.0,-0.48028878037763306,-0.0014585799830068463,-3.842310243021065e-05,-0.0,-0.001497003085437057,-0.06778532112493624,0,0.06778532112493624,-0.10617124930474942,0,0.10617124930474942,-0.7292899915034231,0.0,0.7292899915034231,-0.09614902363712484,0.0,0.09614902363712484,0.002591387503440871,0.002657138952201589,0.04807451181856242,0.4,0.0334627628326416,1.014333724975586,STABILIZE
0.05,0.004,0.04,-0.14273191144222927,-0.005057056490029081,-0.0005709276457689171,0.005988561068061959,0.0003605769322639601,0.08,0.002,0.06,-0.11465569840652262,-0.005090233258961911,-0.00022931139681304526,0.007424339331175182,0.0021047946754002254,0.5,0,0,-0.13883616760367332,-0.047417317200650365,-0.0,0.0,-0.047417317200650365,0.002,8e-05,0.0,-0.5051163503371218,-0.0014779113970432114,-4.040930802696975e-05,-0.0,-0.0015183207050701811,-0.0636279157370239,0,0.0636279157370239,-0.10114112980058163,0,0.10114112980058163,-0.7389556985216057,0.0,0.7389556985216057,-0.09483463440130073,0.0,0.09483463440130073,0.00036406024367992203,-0.0021041949740092394,0.047417317200650365,0.4,0.03359818458557129,1.0479371547698975,STABILIZE
0.05,0.004,0.04,-0.14605450958921,-0.004885294568636059,-0.00058421803835684,0.004040729788246338,-0.0014287828187465618,0.08,0.002,0.06,-0.11674193519248219,-0.004907909190811248,-0.0002334838703849644,0.004021130785906749,-0.0011202622752894634,0.5,0,0,-0.1418378331373168,-0.04413419763595465,-0.0,0.0,-0.04413419763595465,0.002,8e-05,0.0,-0.5305237563076847,-0.0014942843750624798,-4.244190050461478e-05,-0.0,-0.0015367262755670945,-0.061348864885140596,0,0.061348864885140596,-0.09770589137272118,0,0.09770589137272118,-0.7471421875312398,0.0,0.7471421875312398,-0.0882683952719093,0.0,0.0882683952719093,-0.0014305069696222837,0.0011180598009248733,0.04413419763595465,0.4,0.03400611877441406,1.0819308757781982,STABILIZE
0.05,0.004,0.04,-0.14923097669615518,-0.004745730429271589,-0.0005969239067846208,0.0033362034522890684,-0.002006450883767141,0.08,0.002,0.06,-0.11858537944060096,-0.004406651373828442,-0.00023717075888120192,0.011233397332044025,0.006589575199334381,0.5,0,0,-0.1447613073857544,-0.04367752044297126,-0.0,0.0,-0.04367752044297126,0.002,8e-05,0.0,-0.5565552292065754,-0.001555669854536389,-4.4524418336526033e-05,-0.0,-0.0016001942728729151,-0.05508314217285552,0,0.05508314217285552,-0.09491460858543177,0,0.09491460858543177,-0.7778349272681946,0.0,0.7778349272681946,-0.08735504088594252,0.0,0.08735504088594252,-0.0019964018713131792,-0.006592626640791205,0.04367752044297126,0.4,0.03346657752990723,1.1154131889343262,STABILIZE
0.05,0.004,0.04,-0.15233902807799143,-0.004549554800458334,-0.0006093561123119657,0.004594579248032776,-0.0005643316647375232,0.08,0.002,0.06,-0.12025133246921102,-0.0039017859964325576,-0.00024050266493842205,0.011085302746634284,0.006943014085263304,0.5,0,0,-0.1476956032431533,-0.04295212068246799,-0.0,0.0,-0.04295212068246799,0.002,8e-05,0.0,-0.5830743596479944,-0.0015527444354212422,-4.6645948771839554e-05,0.0,-0.0015993903841930819,-0.04877232495540697,0,0.04877232495540697,-0.09099109600916667,0,0.09099109600916667,-0.7763722177106211,0.0,0.7763722177106211,-0.08590424136493598,0.0,0.08590424136493598,-0.0005539212910316831,-0.006943852390376098,0.04295212068246799,0.4,0.034157752990722656,1.1495635509490967,STABILIZE
0.05,0.004,0.04,-0.15510364285351677,-0.0041303232879224385,-0.0006204145714140671,0.010021282933664015,0.00527054507432751,0.08,0.002,0.06,-0.12179526527303423,-0.0036906069784896846,-0.00024359053054606847,0.004732508974406562,0.0007983114653708091,0.5,0,0,-0.15042761007315333,-0.040816071492521415,-0.0,0.0,-0.040816071492521415,0.002,8e-05,0.0,-0.6093195932065147,-0.0015684109095180862,-4.8745567456521186e-05,-0.0,-0.0016171564769746074,-0.046132587231121056,0,0.046132587231121056,-0.08260646575844877,0,0.08260646575844877,-0.784205454759043,0.0,0.784205454759043,-0.08163214298504283,0.0,0.08163214298504283,0.00527167711857054,-0.0007908014503023336,0.040816071492521415,0.4,0.03346729278564453,1.183051347732544,STABILIZE
0.05,0.004,0.04,-0.15775301762340135,-0.003956295018024331,-0.0006310120704936054,0.0041580054888090846,-0.00042930159970885114,0.08,0.002,0.06,-0.12310250605999108,-0.003123351378798463,-0.00024620501211998215,0.012706189372573427,0.00933663298165498,0.5,0,0,-0.15316266808663653,-0.04084245277697126,-0.0,-0.0,-0.04084245277697126,0.002,8e-05,0.0,-0.6355536290290626,-0.0015670049614300377,-5.0844290322325015e-05,0.0,-0.0016178492517523626,-0.039041892234980786,0,0.039041892234980786,-0.07912590036048661,0,0.07912590036048661,-0.7835024807150188,0.0,0.7835024807150188,-0.08168490555394252,0.0,0.08168490555394252,-0.0004159902052441589,-0.009337235535573743,0.04084245277697126,0.4,0.033483028411865234,1.2165205478668213,STABILIZE
0.05,0.004,0.04,-0.1602654409673465,-0.003750557814840989,-0.000641061763869386,0.0049140079967011415,0.0005223884179907665,0.08,0.002,0.06,-0.12432696580518499,-0.0029246071621569798,-0.00024865393161037,0.004450295030944305,0.0012770339371769553,0.5,0,0,-0.15568322624813793,-0.03762701510142801,-0.0,0.0,-0.03762701510142801,0.002,8e-05,0.0,-0.6618507650066093,-0.0015702597109872702,-5.294806120052875e-05,-0.0,-0.001623207772187799,-0.036557589526962246,0,0.036557589526962246,-0.07501115629681977,0,0.07501115629681977,-0.7851298554936351,0.0,0.7851298554936351,-0.07525403020285602,0.0,0.07525403020285602,0.0005240652623759012,-0.0012763467149342492,0.03762701510142801,0.4,0.033493995666503906,1.2500383853912354,STABILIZE
0.05,0.004,0.04,-0.16267950235305334,-0.003551094695199349,-0.0006507180094122134,0.004694577728577134,0.0004927650239655709,0.08,0.002,0.06,-0.12548074606756843,-0.002715545176064956,-0.00025096149213513685,0.0046129662288714604,0.0016464595606713673,0.5,0,0,-0.15789297967407306,-0.032505568064662586,-0.0,0.0,-0.032505568064662586,0.002,8e-05,0.0,-0.6885115121117218,-0.0015687229525407403,-5.508092096893775e-05,0.0,-0.001623803873509678,-0.03394431470081195,0,0.03394431470081195,-0.07102189390398697,0,0.07102189390398697,-0.7843614762703701,0.0,0.7843614762703701,-0.06501113612932517,0.0,0.06501113612932517,0.0004946328754907963,-0.0016458993809627754,0.032505568064662586,0.4,0.03399038314819336,1.2840213775634766,STABILIZE
0.05,0.004,0.04,-0.16497850494387792,-0.0034356795893687344,-0.0006599140197755117,0.002759661602746454,-0.0013359320063977922,0.08,0.002,0.06,-0.12665311811750862,-0.002803229358123487,-0.00025330623623501724,-0.001965557297399148,-0.005022092891757653,0.5,0,0,-0.15993186189296588,-0.030469500349994814,-0.0,0.0,-0.030469500349994814,0.002,8e-05,0.0,-0.7146997005576889,-0.0015654479883657865,-5.717597604461512e-05,0.0,-0.0016226239644104017,-0.035040366976543585,0,0.035040366976543585,-0.06871359178737468,0,0.06871359178737468,-0.7827239941828933,0.0,0.7827239941828933,-0.06093900069998963,0.0,0.06093900069998963,-0.0013412726784975924,0.005020669172637913,0.030469500349994814,0.4,0.03345775604248047,1.3174865245819092,STABILIZE
0.05,0.004,0.04,-0.16721893288321013,-0.0033268554371071626,-0.0006688757315328406,0.0025855219266576208,-0.0014102092419823829,0.08,0.002,0.06,-0.1278685487854741,-0.00288770698144601,-0.0002557370975709482,-0.0018816372233881884,-0.005025081302405147,0.5,0,0,-0.1618494237455352,-0.028474252455140483,-0.0,0.0,-0.028474252455140483,0.002,8e-05,0.0,-0.7411542483118644,-0.0015713150954263105,-5.929233986494915e-05,-0.0,-0.0016306074352912597,-0.036096337268075124,0,0.036096337268075124,-0.06653710874214325,0,0.06653710874214325,-0.7856575477131552,0.0,0.7856575477131552,-0.056948504910280966,0.0,0.056948504910280966,-0.001415203168433294,0.0050236771586170525,0.028474252455140483,0.4,0.03367185592651367,1.3511497974395752,STABILIZE
0.05,0.004,0.04,-0.16928368257279827,-0.0030824219915140316,-0.0006771347302911931,0.005838553947393817,0.002078997225588592,0.08,0.002,0.06,-0.1288063016219621,-0.0022399228190197527,-0.0002576126032439242,0.014505953128987843,0.012008417706724166,0.5,0,0,-0.16350033172518916,-0.024646062852618177,-0.0,0.0,-0.024646062852618177,0.002,8e-05,0.0,-0.767983249572065,-0.0016020983833889464,-6.14386599657652e-05,-0.0,-0.0016635370433547116,-0.027999035237746907,0,0.027999035237746907,-0.06164843983028063,0,0.06164843983028063,-0.8010491916944732,0.0,0.8010491916944732,-0.049292125705236355,0.0,0.049292125705236355,0.002089327415449619,-0.012006624681159237,0.024646062852618177,0.4,0.033492326736450195,1.3846256732940674,STABILIZE
0.05,0.004,0.04,-0.17127882792104274,-0.0029622110140612896,-0.0006851153116841709,0.002855653853870137,-0.0007916724718753233,0.08,0.002,0.06,-0.12958652090252562,-0.0018534382155580593,-0.00025917304180505125,0.008607259742855545,0.006494648485492435,0.5,0,0,-0.1652626399418432,-0.026165155406530662,-0.0,-0.0,-0.026165155406530662,0.002,8e-05,0.0,-0.7948310740048335,-0.0015944486712872084,-6.358648592038669e-05,0.0,-0.001658035157207595,-0.02316797769447574,0,0.02316797769447574,-0.059244220281225786,0,0.059244220281225786,-0.7972243356436042,0.0,0.7972243356436042,-0.052330310813061325,0.0,0.052330310813061325,-0.000785740344787391,-0.006495368839673984,0.026165155406530662,0.4,0.0336766242980957,1.4183082580566406,STABILIZE
0.05,0.004,0.04,-0.1731573563250075,-0.002808414493774136,-0.0006926294253000301,0.003678831798378858,0.00017778787930469156,0.08,0.002,0.06,-0.13021032968641447,-0.001492158331016545,-0.00026042065937282894,0.008101743326696522,0.006349164336307148,0.5,0,0,-0.1670120075925932,-0.026153181686988068,-0.0,0.0,-0.026153181686988068,0.002,8e-05,0.0,-0.8215751340492055,-0.0015993030649407835,-6.572601072393644e-05,-0.0,-0.0016650290756647199,-0.018651979137706814,0,0.018651979137706814,-0.05616828987548272,0,0.05616828987548272,-0.7996515324703918,0.0,0.7996515324703918,-0.052306363373976136,0.0,0.052306363373976136,0.00018358407247590596,-0.006348999384768864,0.026153181686988068,0.4,0.03344464302062988,1.4520056247711182,STABILIZE
0.05,0.004,0.04,-0.1749603203165903,-0.002695252974884262,-0.0006998412812663613,0.0027066445861747717,-0.0006884496699758515,0.08,0.002,0.06,-0.13075417166701414,-0.001300784018246658,-0.0002615083433340283,0.004291285252097426,0.0027289928905167397,0.5,0,0,-0.16879809668572196,-0.02670026669494116,-0.0,-0.0,-0.02670026669494116,0.002,8e-05,0.0,-0.848366200761808,-0.0016019998756397363,-6.786929606094465e-05,-0.0,-0.0016698691717006808,-0.016259800228083224,0,0.016259800228083224,-0.05390505949768523,0,0.05390505949768523,-0.8009999378198681,0.0,0.8009999378198681,-0.05340053338988232,0.0,0.05340053338988232,-0.0006859059086688881,-0.002729633350659732,0.02670026669494116,0.4,0.0334470272064209,1.4852116107940674,STABILIZE
0.05,0.004,0.04,-0.17674393566736343,-0.0026674314871421405,-0.0007069757426694537,0.0006657212264095497,-0.0027086860034020444,0.08,0.002,0.06,-0.13126037498156093,-0.001211259061687323,-0.00026252074996312185,0.0020082947360922743,0.0005345149244418295,0.5,0,0,-0.1705496460184453,-0.026194761327681476,-0.0,0.0,-0.026194761327681476,0.002,8e-05,0.0,-0.8750060445161523,-0.0015936162023293505,-7.000048356129218e-05,0.0,-0.0016636166858906426,-0.015140738271091537,0,0.015140738271091537,-0.0533486297428428,0,0.0533486297428428,-0.7968081011646753,0.0,0.7968081011646753,-0.05238952265536295,0.0,0.05238952265536295,-0.0027081961269103216,-0.0005369914409607722,0.026194761327681476,0.4,0.03343319892883301,1.5186443328857422,STABILIZE
0.05,0.004,0.04,-0.17846420236985303,-0.002538014531400632,-0.0007138568094794121,0.0030549878230507173,-0.00019688351782932685,0.08,0.002,0.06,-0.13161694128691204,-0.0008417024760909844,-0.00026323388257382406,0.00817844102075204,0.007073504662087232,0.5,0,0,-0.1722146368244834,-0.02456462625392671,-0.0,0.0,-0.02456462625392671,0.002,8e-05,0.0,-0.9021260243391921,-0.0016004705033830955,-7.217008194713538e-05,-0.0,-0.0016726405853302309,-0.010521280951137305,0,0.010521280951137305,-0.05076029062801264,0,0.05076029062801264,-0.8002352516915477,0.0,0.8002352516915477,-0.04912925250785342,0.0,0.04912925250785342,-0.00019081814784822535,-0.007073670882831235,0.02456462625392671,0.4,0.0338900089263916,1.5525338649749756,STABILIZE
0.05,0.004,0.04,-0.18006099415308224,-0.002385158678743799,-0.000720243976612329,0.003653179755962138,0.0005477771006060098,0.08,0.002,0.06,-0.13186541165839846,-0.0005938319765278852,-0.00026373082331679695,0.0055537341760539954,0.0046961713762093136,0.5,0,0,-0.17380057234358745,-0.02368942467670532,-0.0,0.0,-0.02368942467670532,0.002,8e-05,0.0,-0.9290237791488267,-0.0016071078019497403,-7.432190233190614e-05,-0.0,-0.0016814297042816464,-0.007422899706598565,0,0.007422899706598565,-0.04770317357487598,0,0.04770317357487598,-0.8035539009748701,0.0,0.8035539009748701,-0.04737884935341064,0.0,0.04737884935341064,0.000551660256436996,-0.004695716804508537,0.02368942467670532,0.4,0.03347349166870117,1.5860302448272705,STABILIZE
0.05,0.004,0.04,-0.18156075020937543,-0.002239432962588987,-0.0007262430008375017,0.0034815579068032494,0.000515881943376761,0.08,0.002,0.06,-0.13203672314996204,-0.0004092832025239501,-0.0002640734462999241,0.004133518307616758,0.0034601616587928838,0.5,0,0,-0.17532780064042386,-0.022804544612323792,-0.0,0.0,-0.022804544612323792,0.002,8e-05,0.0,-0.9558249950877362,-0.0016007810379350478,-7.64659996070189e-05,0.0,-0.0016772470375420667,-0.0051160400315493765,0,0.0051160400315493765,-0.04478865925177973,0,0.04478865925177973,-0.8003905189675239,0.0,0.8003905189675239,-0.045609089224647584,0.0,0.045609089224647584,0.000518636167887874,-0.0034597499056783117,0.022804544612323792,0.4,0.03348517417907715,1.6194822788238525,STABILIZE
0.05,0.004,0.04,-0.18299781039927876,-0.0021475281657292763,-0.000731991241597115,0.0021974655336893553,-0.0006820538736370362,0.08,0.002,0.06,-0.13212823429892392,-0.00021880533189036846,-0.00026425646859784785,0.004269722956015502,0.0037866611555272857,0.5,0,0,-0.17683581668109513,-0.02253563869117354,-0.0,0.0,-0.02253563869117354,0.002,8e-05,0.0,-0.9826392048856548,-0.0016028353213702784,-7.86111363908524e-05,-0.0,-0.0016814464577611307,-0.0027350666486296057,0,0.0027350666486296057,-0.04295056331458553,0,0.04295056331458553,-0.8014176606851392,0.0,0.8014176606851392,-0.04507127738234708,0.0,0.04507127738234708,-0.0006790749154966471,-0.0037871965162195828,0.02253563869117354,0.4,0.03345847129821777,1.652951955795288,STABILIZE
0.05,0.004,0.04,-0.1843557804548902,-0.002029828453158337,-0.0007374231218195608,0.002814910087512663,4.7658512534764965e-05,0.08,0.002,0.06,-0.13219982215061007,-0.00017120973488632,-0.00026439964430122014,0.0010671542054037485,0.0006315448262162085,0.5,0,0,-0.17833310694228813,-0.022380776087421984,-0.0,0.0,-0.022380776087421984,0.002,8e-05,0.0,-1.0092290244460582,-0.001589807436033647,-8.073832195568466e-05,0.0,-0.0016705457579893317,-0.002140121686079,0,0.002140121686079,-0.040596569063166735,0,0.040596569063166735,-0.7949037180168235,0.0,0.7949037180168235,-0.04476155217484397,0.0,0.04476155217484397,4.815188378759328e-05,-0.000631507400926698,0.022380776087421984,0.4,0.03345036506652832,1.6864049434661865,STABILIZE
0.05,0.004,0.04,-0.18566534854827374,-0.0019335412679532885,-0.000742661394193095,0.0022746460865642987,-0.000401556575582085,0.08,0.002,0.06,-0.13221149555501377,-2.7576736807916374e-05,-0.00026442299111002754,0.0031810525618438763,0.0028890528339259322,0.5,0,0,-0.17980186269017429,-0.02168577461095592,-0.0,0.0,-0.02168577461095592,0.002,8e-05,0.0,-1.0363362902268543,-0.0016009252917311705,-8.290690321814834e-05,-0.0,-0.0016838321949493187,-0.0003447092100989547,0,0.0003447092100989547,-0.03867082535906577,0,0.03867082535906577,-0.8004626458655852,0.0,0.8004626458655852,-0.04337154922191184,0.0,0.04337154922191184,-0.00039936951611472675,-0.0028893559749894023,0.02168577461095592,0.4,0.033864498138427734,1.7202844619750977,STABILIZE
0.05,0.004,0.04,-0.18698330269429045,-0.0019671543170899446,-0.0007479332107771618,-0.000802723583907043,-0.0035178111117741494,0.08,0.002,0.06,-0.13238664128505528,-0.0004182709148263867,-0.0002647732825701106,-0.008747145049853645,-0.009430189247250143,0.5,0,0,-0.18130177478175177,-0.02238741427476534,-0.0,-0.0,-0.02238741427476534,0.002,8e-05,0.0,-1.0630648016483746,-0.0015957795433518811,-8.504518413186997e-05,0.0,-0.0016808247274837512,-0.005228386435329834,0,0.005228386435329834,-0.039343086341798894,0,0.039343086341798894,-0.7978897716759406,0.0,0.7978897716759406,-0.04477482854953068,0.0,0.04477482854953068,-0.003525179429703711,0.009427437310609268,0.02238741427476534,0.4,0.03349900245666504,1.7537717819213867,STABILIZE
0.05,0.004,0.04,-0.18832605996746477,-0.0018500168191626669,-0.0007533042398698591,0.0025822250457260493,-2.1096013306476542e-05,0.08,0.002,0.06,-0.13240041135933323,-3.0355292977233413e-05,-0.00026480082271866645,0.008016904162511041,0.007721748046815141,0.5,0,0,-0.18287481954064425,-0.02167301059831212,-0.0,0.0,-0.02167301059831212,0.002,8e-05,0.0,-1.0920765165844883,-0.0015988641180898092,-8.736612132675908e-05,-0.0,-0.0016862302394165683,-0.00037944116221541764,0,0.00037944116221541764,-0.037000336383253334,0,0.037000336383253334,-0.7994320590449046,0.0,0.7994320590449046,-0.04334602119662424,0.0,0.04334602119662424,-1.5254267695794707e-05,-0.007721761796869153,0.02167301059831212,0.4,0.03629040718078613,1.7900757789611816,STABILIZE
0.05,0.004,0.04,-0.1895891851435704,-0.0018881530851784852,-0.0007583567405742817,-0.0009121136647053272,-0.003558623490458094,0.08,0.002,0.06,-0.13248523833693376,-0.00020288259310182553,-0.00026497047667386754,-0.0038684759060710573,-0.00433632897584675,0.5,0,0,-0.1843543953711309,-0.02211709276274652,-0.0,-0.0,-0.02211709276274652,0.002,8e-05,0.0,-1.118980953983713,-0.001608698724126727,-8.951847631869704e-05,-0.0,-0.001698217200445424,-0.002536032413772819,0,0.002536032413772819,-0.0377630617035697,0,0.0377630617035697,-0.8043493620633635,0.0,0.8043493620633635,-0.04423418552549304,0.0,0.04423418552549304,-0.003561970215105479,0.004333580311971811,0.02211709276274652,0.4,0.03344869613647461,1.8235118389129639,STABILIZE
0.05,0.004,0.04,-0.19087843248081499,-0.0019276546094760022,-0.0007635137299232599,-0.0009449891352103445,-0.0036361574746096065,0.08,0.002,0.06,-0.13264781011295737,-0.0003889180601666417,-0.00026529562022591476,-0.0041723428304294855,-0.004826556510822042,0.5,0,0,-0.1858602694234597,-0.02251550167608575,-0.0,-0.0,-0.02251550167608575,0.002,8e-05,0.0,-1.1459051248991619,-0.0016102574167780235,-9.167240999193295e-05,-0.0,-0.0017019298267699563,-0.004861475752083021,0,0.004861475752083021,-0.03855309218952004,0,0.03855309218952004,-0.8051287083890117,0.0,0.8051287083890117,-0.0450310033521715,0.0,0.0450310033521715,-0.0036399497315108137,0.004823697221467399,0.02251550167608575,0.4,0.03344082832336426,1.856959342956543,STABILIZE
0.05,0.004,0.04,-0.19209901550168848,-0.0018263173420122215,-0.000768396062006754,0.0024260407467085513,-0.00016867265731042433,0.08,0.002,0.06,-0.1327783381714231,-0.00031248759351022975,-0.00026555667634284617,0.0017154050686302097,0.0011373607987771339,0.5,0,0,-0.18727750002172097,-0.021205545013911396,-0.0,0.0,-0.021205545013911396,0.002,8e-05,0.0,-1.1726873881918505,-0.0016029360092120633,-9.381499105534805e-05,0.0,-0.0016967510002674113,-0.0039060949188778715,0,0.0039060949188778715,-0.03652634684024443,0,0.03652634684024443,-0.8014680046060316,0.0,0.8014680046060316,-0.04241109002782279,0.0,0.04241109002782279,-0.00016783072174680796,-0.0011374853408976599,0.021205545013911396,0.4,0.0334165096282959,1.8903729915618896,STABILIZE
0.05,0.004,0.04,-0.1933353269649121,-0.001803640387980756,-0.0007733413078596485,0.0005293303040110871,-0.0020476513918293174,0.08,0.002,0.06,-0.13274006849103348,8.93299052727144e-05,-0.000265480136982067,0.0087931030039059,0.008616952772196547,0.5,0,0,-0.18852530227754394,-0.018204041714112162,-0.0,0.0,-0.018204041714112162,0.002,8e-05,0.0,-1.2003777886673026,-0.0016158881040110084,-9.603022309338422e-05,-0.0,-0.0017119183271043926,0.00111662381590893,0,-0.00111662381590893,-0.03607280775961512,0,0.03607280775961512,-0.8079440520055041,0.0,0.8079440520055041,-0.036408083428224325,0.0,0.036408083428224325,-0.0020421754143074467,-0.00861825219391522,0.018204041714112162,0.4,0.03427267074584961,1.924649953842163,STABILIZE
0.05,0.004,0.04,-0.1944256095270054,-0.001629156279860858,-0.0007777024381080217,0.0041715700551413345,0.0017647113371724549,0.08,0.002,0.06,-0.13260635122678385,0.00031969154177401127,-0.0002652127024535677,0.005163273078832271,0.005217751918152714,0.5,0,0,-0.18979910785770754,-0.019033858124456567,-0.0,-0.0,-0.019033858124456567,0.002,8e-05,0.0,-1.227131790109494,-0.001599088198834172,-9.817054320875953e-05,0.0,-0.0016972587420429315,0.003996144272175141,0,-0.003996144272175141,-0.03258312559721716,0,0.03258312559721716,-0.799544099417086,0.0,0.799544099417086,-0.038067716248913135,0.0,0.038067716248913135,0.00176817765824549,-0.005216578280042658,0.019033858124456567,0.4,0.033461570739746094,1.9581096172332764,STABILIZE
0.05,0.004,0.04,-0.19573303215096785,-0.001953131056244738,-0.0007829321286038714,-0.007743665261383567,-0.010479728446232177,0.08,0.002,0.06,-0.1326662240131782,-0.0001431083065413958,-0.0002653324480263564,-0.010370503844778419,-0.01077894459934617,0.5,0,0,-0.19009472674295813,-0.004416188117087301,-0.0,0.0,-0.004416188117087301,0.002,8e-05,0.0,-1.2537103863899575,-0.001588208154741434,-0.00010029683091119661,0.0,-0.0016885049856526307,-0.0017888538317674474,0,0.0017888538317674474,-0.03906262112489475,0,0.03906262112489475,-0.7941040773707171,0.0,0.7941040773707171,-0.008832376234174603,0.0,0.008832376234174603,-0.0104813899396305,0.010777328978738395,0.004416188117087301,0.4,0.03346991539001465,1.991617202758789,STABILIZE
0.05,0.004,0.04,-0.1972603136661746,-0.002284095533116713,-0.0007890412546646985,-0.007919477589080829,-0.01099261437686224,0.08,0.002,0.06,-0.1329240468126782,-0.0006169308265019748,-0.0002658480936253564,-0.010629237870258096,-0.011512016790385427,0.5,0,0,-0.18940098366587677,0.010375136788568218,-0.0,0.0,0.010375136788568218,0.002,8e-05,0.0,-1.2800697256266484,-0.0015768474484098786,-0.00010240557805013188,0.0,-0.0016792530264600105,-0.007711635331274685,0,0.007711635331274685,-0.045681910662334256,0,0.045681910662334256,-0.7884237242049393,0.0,0.7884237242049393,0.020750273577136435,0.0,-0.020750273577136435,-0.010988444457210136,0.011515997127097692,-0.010375136788568218,0.4,0.033432960510253906,2.025024890899658,STABILIZE
0.05,0.004,0.04,-0.19827945392630236,-0.0015237963759045404,-0.0007931178157052095,0.018188524515248824,0.015871610323639075,0.08,0.002,0.06,-0.13261623921875404,0.0007363635636001086,-0.0002652324784375081,0.03035124557209093,0.030822376657253528,0.5,0,0,-0.19173042545397492,-0.034829307539470035,-0.0,-0.0,-0.034829307539470035,0.002,8e-05,0.0,-1.3067833495761036,-0.001597665206802977,-0.0001045426679660883,-0.0,-0.0017022078747690652,0.009204544545001357,0,-0.009204544545001357,-0.030475927518090806,0,0.030475927518090806,-0.7988326034014884,0.0,0.7988326034014884,-0.06965861507894007,0.0,0.06965861507894007,0.015909071572710605,-0.03080305762033089,0.034829307539470035,0.4,0.03344082832336426,2.058465003967285,STABILIZE
0.05,0.004,0.04,-0.19974418008612083,-0.002187671563339036,-0.0007989767203444834,-0.015864708738040932,-0.01885135702172445,0.08,0.002,0.06,-0.13353523577211263,-0.0021961376063232133,-0.0002670704715442253,-0.06569845198601652,-0.06816166006388397,0.5,0,0,-0.19389227359030928,-0.03228872277875011,-0.0,0.0,-0.03228872277875011,0.002,8e-05,0.0,-1.3333721984917648,-0.0015884926553621215,-0.0001066697758793412,0.0,-0.0016951624312414627,-0.027451720079040166,0,0.027451720079040166,-0.04375343126678072,0,0.04375343126678072,-0.7942463276810607,0.0,0.7942463276810607,-0.06457744555750022,0.0,0.06457744555750022,-0.01892816929225862,0.06814036961646591,0.03228872277875011,0.4,0.033476829528808594,2.0919415950775146,STABILIZE
0.05,0.004,0.04,-0.20094039077915973,-0.0017747813195197193,-0.000803761563116639,0.009801482578368917,0.0072229396957325595,0.08,0.002,0.06,-0.13477999915738578,-0.002954907948923472,-0.00026955999831477156,-0.016886466209787312,-0.020110934157025556,0.5,0,0,-0.19694740114138448,-0.045327995627789934,-0.0,-0.0,-0.045327995627789934,0.002,8e-05,0.0,-1.3604861497837446,-0.00160912570106271,-0.00010883889198269958,-0.0,-0.0017179645930454094,-0.0369363493615434,0,0.0369363493615434,-0.035495626390394386,0,0.035495626390394386,-0.8045628505313549,0.0,0.8045628505313549,-0.09065599125557987,0.0,0.09065599125557987,0.0071911102319374915,0.020122337442467518,0.045327995627789934,0.4,0.03370022773742676,2.1257195472717285,STABILIZE
0.05,0.004,0.04,-0.20212165031885726,-0.001764583269483886,-0.000808486601275429,0.0002437440087613452,-0.00232932586199797,0.08,0.002,0.06,-0.13545581648834093,-0.0016152737519289655,-0.00027091163297668185,0.03001748572354768,0.028131300338642033,0.5,0,0,-0.20086505431808957,-0.058522492466172096,-0.0,-0.0,-0.058522492466172096,0.002,8e-05,0.0,-1.3873864033516516,-0.0016073601370604016,-0.00011099091226813214,0.0,-0.0017183510493285338,-0.020190921899112067,0,0.020190921899112067,-0.03529166538967772,0,0.03529166538967772,-0.8036800685302008,0.0,0.8036800685302008,-0.11704498493234419,0.0,0.11704498493234419,-0.0022718538486112935,-0.02813600003207286,0.058522492466172096,0.4,0.03347134590148926,2.159123182296753,STABILIZE
0.05,0.004,0.04,-0.2030644717575367,-0.0014072480966872375,-0.0008122578870301467,0.008533692106141745,0.006314186122424362,0.08,0.002,0.06,-0.13637767155863964,-0.0022015261679520608,-0.0002727553431172793,-0.013125538348740957,-0.015599819859810297,0.5,0,0,-0.20517621541563427,-0.06434806210526438,-0.0,-0.0,-0.06434806210526438,0.002,8e-05,0.0,-1.4142929318176825,-0.0016064191762681064,-0.00011314343454541461,0.0,-0.001719562610813521,-0.027519077099400758,0,0.027519077099400758,-0.028144961933744748,0,0.028144961933744748,-0.8032095881340532,0.0,0.8032095881340532,-0.12869612421052876,0.0,0.12869612421052876,0.006279130358896366,0.01561396323753627,0.06434806210526438,0.4,0.03349876403808594,2.192620277404785,STABILIZE
0.05,0.004,0.04,-0.20407173974036266,-0.0015027239364587377,-0.0008162869589614507,-0.002279017417003292,-0.00459802831242348,0.08,0.002,0.06,-0.13735207436174338,-0.0023259088003467093,-0.0002747041487234868,-0.0027834612362261954,-0.005384074185296392,0.5,0,0,-0.20959591460188282,-0.0659366511431198,-0.0,-0.0,-0.0659366511431198,0.002,8e-05,0.0,-1.4411791197363213,-0.0016044396857374402,-0.00011529432957890571,0.0,-0.001719734015316346,-0.029073860004333863,0,0.029073860004333863,-0.03005447872917475,0,0.03005447872917475,-0.8022198428687201,0.0,0.8022198428687201,-0.1318733022862396,0.0,0.1318733022862396,-0.0046104082332329025,0.005373477004469377,0.0659366511431198,0.4,0.03351473808288574,2.2261345386505127,STABILIZE
0.05,0.004,0.04,-0.20506692187007786,-0.0014882187379287198,-0.0008202676874803115,0.00034706263475091186,-0.001961423790658119,0.08,0.002,0.06,-0.13798042409951866,-0.0015034383368558086,-0.0002759608481990373,0.018449124817640748,0.0166697256325859,0.5,0,0,-0.2133930540361499,-0.056783315213081186,-0.0,0.0,-0.056783315213081186,0.002,8e-05,0.0,-1.4679117313598742,-0.0015990630194827968,-0.00011743293850878994,0.0,-0.0017164959579915868,-0.018792979210697607,0,0.018792979210697607,-0.029764374758574394,0,0.029764374758574394,-0.7995315097413984,0.0,0.7995315097413984,-0.11356663042616237,0.0,0.11356663042616237,-0.00192837870240582,-0.016673580645211118,0.056783315213081186,0.4,0.03343534469604492,2.259579658508301,STABILIZE
0.05,0.004,0.04,-0.20621828442570544,-0.0017222412883448766,-0.0008248731377028217,-0.005600922792015339,-0.008148037218063037,0.08,0.002,0.06,-0.13906531418615342,-0.0025964957660099754,-0.00027813062837230685,-0.024525402000700986,-0.027400028395083268,0.5,0,0,-0.21728173122719296,-0.05816795398395428,-0.0,-0.0,-0.05816795398395428,0.002,8e-05,0.0,-1.4945645942797592,-0.001594724815354144,-0.00011956516754238075,0.0,-0.0017142899828965247,-0.03245619707512469,0,0.03245619707512469,-0.03444482576689753,0,0.03444482576689753,-0.797362407677072,0.0,0.797362407677072,-0.11633590796790856,0.0,0.11633590796790856,-0.008203654624443692,0.02738342778691436,0.05816795398395428,0.4,0.03342628479003906,2.293004274368286,STABILIZE
0.05,0.004,0.04,-0.2074506524765491,-0.001818354151466846,-0.0008298026099061963,-0.0022690263487120618,-0.0049171831100851045,0.08,0.002,0.06,-0.14016945557372504,-0.0026066499526958935,-0.00028033891114745006,-0.00022473693028396614,-0.00311172579412731,0.5,0,0,-0.22123550564149755,-0.05833778403531713,-0.0,-0.0,-0.05833778403531713,0.002,8e-05,0.0,-1.5217281452123392,-0.0016031884491982656,-0.00012173825161698715,-0.0,-0.0017249267008152527,-0.03258312440869867,0,0.03258312440869867,-0.036367083029336916,0,0.036367083029336916,-0.8015942245991328,0.0,0.8015942245991328,-0.11667556807063426,0.0,0.11667556807063426,-0.004923509544215432,0.0031017061311418618,0.05833778403531713,0.4,0.03388690948486328,2.326887607574463,STABILIZE
0.05,0.004,0.04,-0.20849979681776903,-0.0015682664890503554,-0.0008339991872710761,0.005981317687313317,0.003579052010991886,0.08,0.002,0.06,-0.1404966888423264,-0.0007826400224826468,-0.0002809933776846528,0.04089809481203923,0.039834461411871934,0.5,0,0,-0.2254865701413159,-0.06354513612592698,-0.0,-0.0,-0.06354513612592698,0.002,8e-05,0.0,-1.548442632752944,-0.0015973182692237582,-0.00012387541062023553,0.0,-0.0017211936798439938,-0.009783000281033086,0,0.009783000281033086,-0.031365329781007104,0,0.031365329781007104,-0.7986591346118791,0.0,0.7986591346118791,-0.12709027225185396,0.0,0.12709027225185396,0.0036674016933282167,-0.039826424570767995,0.06354513612592698,0.4,0.03344917297363281,2.3603358268737793,STABILIZE
0.05,0.004,0.04,-0.20965163715810725,-0.0017227962267557214,-0.000838606548632429,-0.0036980576521524686,-0.006259460427540619,0.08,0.002,0.06,-0.1408740819773601,-0.0009031410986680363,-0.0002817481639547202,-0.0027034840520245114,-0.003888373314647268,0.5,0,0,-0.22956709076071974,-0.061031944099505936,-0.0,0.0,-0.061031944099505936,0.002,8e-05,0.0,-1.5749641495421136,-0.0015867188342718848,-0.0001259971319633691,0.0,-0.001712715966235254,-0.011289263733350454,0,0.011289263733350454,-0.034455924535114424,0,0.034455924535114424,-0.7933594171359424,0.0,0.7933594171359424,-0.12206388819901187,0.0,0.12206388819901187,-0.006267730072077378,0.003875029241384493,0.061031944099505936,0.4,0.03342938423156738,2.393789291381836,STABILIZE
0.05,0.004,0.04,-0.21055224434557285,-0.0013441054985182464,-0.0008422089773822914,0.00904279330027102,0.0068564788243704825,0.08,0.002,0.06,-0.14143043584120238,-0.0013285228861948677,-0.00028286087168240476,-0.0095228753591227,-0.011134259116999973,0.5,0,0,-0.23377352934971177,-0.06277872656728553,-0.0,-0.0,-0.06277872656728553,0.002,8e-05,0.0,-1.6015615742110763,-0.0015878063262888557,-0.0001281249259368861,-0.0,-0.0017159312522257418,-0.016606536077435844,0,0.016606536077435844,-0.026882109970364925,0,0.026882109970364925,-0.7939031631444279,0.0,0.7939031631444279,-0.12555745313457106,0.0,0.12555745313457106,0.006832062866084982,0.01114925759624382,0.06277872656728553,0.4,0.03350210189819336,2.427311897277832,STABILIZE
0.05,0.004,0.04,-0.21107332582214858,-0.0007796989481386632,-0.0008442933032885943,0.013512426395823408,0.011888434144396151,0.08,0.002,0.06,-0.14165716761522065,-0.0005428173018112598,-0.0002833143352304413,0.017634876076856893,0.01680874443981519,0.5,0,0,-0.23769751795962615,-0.05871499811822017,-0.0,0.0,-0.05871499811822017,0.002,8e-05,0.0,-1.6280444291298592,-0.001585061457918327,-0.00013024355433038874,0.0,-0.0017153050122487158,-0.006785216272640747,0,0.006785216272640747,-0.015593978962773262,0,0.015593978962773262,-0.7925307289591634,0.0,0.7925307289591634,-0.11742999623644033,0.0,0.11742999623644033,0.011922859346260362,-0.016784343331151037,0.05871499811822017,0.4,0.03341555595397949,2.4606988430023193,STABILIZE
0.05,0.004,0.04,-0.2120295850483301,-0.0014174689874151235,-0.0008481183401933205,-0.015125927815816707,-0.01739151514342515,0.08,0.002,0.06,-0.14165875478313267,-3.764270158582786e-06,-0.0002833175095662653,0.011985624828806482,0.011698543049081633,0.5,0,0,-0.24149517182170996,-0.05629285895558185,-0.0,0.0,-0.05629285895558185,0.002,8e-05,0.0,-1.6550546252026008,-0.0016014952527044208,-0.00013240437001620808,-0.0,-0.0017338996227206289,-4.7053376982284824e-05,0,4.7053376982284824e-05,-0.02834937974830247,0,0.02834937974830247,-0.8007476263522104,0.0,0.8007476263522104,-0.1125857179111637,0.0,0.1125857179111637,-0.01736849404496155,-0.011732694620816553,0.05629285895558185,0.4,0.03373122215270996,2.494428873062134,STABILIZE
0.05,0.004,0.04,-0.21389701991123802,-0.002756828026311121,-0.0008555880796449521,-0.03163597389391734,-0.03524838999987341,0.08,0.002,0.06,-0.14190173950245324,-0.0005739355926087396,-0.0002838034790049065,-0.012625856296924401,-0.013483595368538047,0.5,0,0,-0.24582853049452869,-0.06397184113122184,-0.0,-0.0,-0.06397184113122184,0.002,8e-05,0.0,-1.6816496678155657,-0.001570452823659754,-0.00013453197342524527,0.0,-0.0017049847970849992,-0.007174194907609245,0,0.007174194907609245,-0.055136560526222414,0,0.055136560526222414,-0.7852264118298771,0.0,0.7852264118298771,-0.12794368226244368,0.0,0.12794368226244368,-0.035278411480272054,0.013404850803878644,0.06397184113122184,0.4,0.033869266510009766,2.5283124446868896,STABILIZE
0.05,0.004,0.04,-0.2147505231763016,-0.001273533653509565,-0.0008590020927052065,0.035412172473569495,0.033279636727354726,0.08,0.002,0.06,-0.14315079571196868,-0.00298199701499583,-0.00028630159142393737,-0.05389693373169946,-0.05716523233811922,0.5,0,0,-0.2509304483304549,-0.07612699713584217,-0.0,-0.0,-0.07612699713584217,0.002,8e-05,0.0,-1.7078174572366425,-0.001561824627031046,-0.0001366253965789314,0.0,-0.0016984500236099775,-0.03727496268744787,0,0.03727496268744787,-0.025470673070191296,0,0.025470673070191296,-0.780912313515523,0.0,0.780912313515523,-0.15225399427168435,0.0,0.15225399427168435,0.03312761231854512,0.057253465493784975,0.07612699713584217,0.4,0.033509254455566406,2.561828374862671,STABILIZE
0.05,0.004,0.04,-0.2156499753352325,-0.0013103498322412613,-0.00086259990134093,-0.0008581592365234157,-0.0030311089701056068,0.08,0.002,0.06,-0.14415672345181682,-0.00234474682317482,-0.0002883134469036336,0.013925487981610122,0.011292427711531668,0.5,0,0,-0.256188699442956,-0.07660383484251053,-0.0,-0.0,-0.07660383484251053,0.002,8e-05,0.0,-1.7346982195907836,-0.001566429168756799,-0.0001387758575672627,-0.0,-0.0017052050263240616,-0.029309335289685247,0,0.029309335289685247,-0.026206996644825224,0,0.026206996644825224,-0.7832145843783994,0.0,0.7832145843783994,-0.15320766968502106,0.0,0.15320766968502106,-0.0030009024632631307,-0.011300492450101646,0.07660383484251053,0.4,0.03432106971740723,2.596146583557129,STABILIZE
0.05,0.004,0.04,-0.21657120953260664,-0.0013771344435355487,-0.0008662848381304265,-0.0015973595209322164,-0.0038407788025981915,0.08,0.002,0.06,-0.14596344204848638,-0.004321323574555647,-0.0002919268840969728,-0.04432117151713752,-0.04893442197579014,0.5,0,0,-0.2602421171752906,-0.06059372512599688,-0.0,0.0,-0.06059372512599688,0.002,8e-05,0.0,-1.7609964862459178,-0.001572509961931385,-0.00014087971889967344,-0.0,-0.0017133896808310585,-0.05401654468194558,0,0.05401654468194558,-0.02754268887071097,0,0.02754268887071097,-0.7862549809656925,0.0,0.7862549809656925,-0.12118745025199376,0.0,0.12118745025199376,-0.003944272309657949,0.048926188813992515,0.06059372512599688,0.4,0.0334475040435791,2.6295852661132812,STABILIZE
0.05,0.004,0.04,-0.21695394232609003,-0.0005723557740660506,-0.0008678157693043601,0.019256033500502544,0.017815861957132133,0.08,0.002,0.06,-0.1487475446687047,-0.006661554953873315,-0.00029749508933740943,-0.05249530346272147,-0.05945435350593219,0.5,0,0,-0.26364681527568334,-0.05091538143297622,-0.0,0.0,-0.05091538143297622,0.002,8e-05,0.0,-1.7874189208051485,-0.0015805317174123618,-0.0001429935136644119,-0.0,-0.0017235252310767737,-0.08326943692341643,0,0.08326943692341643,-0.011447115481321012,0,0.011447115481321012,-0.7902658587061808,0.0,0.7902658587061808,-0.10183076286595244,0.0,0.10183076286595244,0.017710166717237855,0.05948592340152063,0.05091538143297622,0.4,0.03343486785888672,2.663024425506592,STABILIZE
0.05,0.004,0.04,-0.2173232297911668,-0.000552048262462445,-0.0008692929191646673,0.00048572356468696025,-0.000935617616940152,0.08,0.002,0.06,-0.1518896845144999,-0.007515501635235316,-0.00030377936902899986,-0.019148488356494367,-0.026967769360758682,0.5,0,0,-0.26688747652537276,-0.04844468283667534,-0.0,0.0,-0.04844468283667534,0.002,8e-05,0.0,-1.814536142147261,-0.001621502633089417,-0.0001451628913717809,-0.0,-0.001766665524461198,-0.09394377044044144,0,0.09394377044044144,-0.011040965249248899,0,0.011040965249248899,-0.8107513165447084,0.0,0.8107513165447084,-0.09688936567335069,0.0,0.09688936567335069,-0.000981219792116142,0.02696614863750037,0.04844468283667534,0.4,0.0334470272064209,2.6964681148529053,STABILIZE
0.05,0.004,0.04,-0.2176759265220843,-0.0005272129316852373,-0.0008707037060883372,0.0005939837327944645,-0.00080393290497911,0.08,0.002,0.06,-0.1554237587260132,-0.008452404403060354,-0.0003108475174520264,-0.02100730790631752,-0.0297705598268299,0.5,0,0,-0.26997410085264073,-0.04613902307391998,-0.0,0.0,-0.04613902307391998,0.002,8e-05,0.0,-1.8424874787196812,-0.001671272207205462,-0.00014739899829757452,-0.0,-0.0018186712055030365,-0.10565505503825443,0,0.10565505503825443,-0.010544258633704746,0,0.010544258633704746,-0.8356361036027309,0.0,0.8356361036027309,-0.09227804614783996,0.0,0.09227804614783996,-0.0008518789873858291,0.029769226437874014,0.04613902307391998,0.4,0.03344917297363281,2.7299447059631348,STABILIZE
