E-kp,E-ki,E-kd,E-I-Tot,E-P,E-I,E-D,E-PID,N-kp,N-ki,N-kd,N-I-Tot,N-P,N-I,N-D,N-PID,Y-kp,Y-ki,Y-kd,Y-I-Tot,Y-P,Y-I,Y-D,Y-PID,D-kp,D-ki,D-kd,D-I-Tot,D-P,D-I,D-D,D-PID,errorN,desiredN,actualN,errorE,desiredE,actualE,errorD,desiredD,actualD,errorY,desiredY,actualY,roll,pitch,yaw-rate,thrust,dt,Time,Mode
0.05,0,0.01,-0.001731314045088011,-0.00257979459594888,-0.0,-0.015376390380865235,-0.017956184976814116,0.06,0,0.01,-0.001688844075132625,-0.003019813185797345,-0.0,-0.014999200096208103,-0.018019013282005447,0.5,0,0,-0.0016987980542460908,-0.025313432028039432,-0.0,-0.0,-0.025313432028039432,0.002,8e-05,0.0,-0.0021306492738073003,-0.0001269934243998132,-1.7045194190458404e-07,-0.0,-0.00012716387634171777,-0.05033021976328909,0.0,0.05033021976328909,-0.05159589191897759,0.0,0.05159589191897759,-0.0634967121999066,0.0,0.0634967121999066,-0.050626864056078864,0,0.050626864056078864,-0.01797209966367884,0.01800314006659529,0.025313432028039432,0.4,0.03355526924133301,0.03386330604553223,STABILIZE
0.05,0,0.01,-0.004185321711875315,-0.003682121148201541,-0.0,-0.006615953104315072,-0.010298074252516613,0.06,0,0.01,-0.004110478302355373,-0.004360255620361147,-0.0,-0.006704232567612871,-0.011064488187974019,0.5,0,0,-0.004087857406110752,-0.035846693076252635,-0.0,-0.0,-0.035846693076252635,0.002,8e-05,0.0,-0.005400293475762934,-0.00019623779055061706,-4.3202347806103475e-07,-0.0,-0.0001966698140286781,-0.07267092700601913,0.0,0.07267092700601913,-0.07364242296403081,0.0,0.07364242296403081,-0.09811889527530852,0.0,0.09811889527530852,-0.07169338615250527,0,0.07169338615250527,-0.010311911022162768,0.011051593696981455,0.035846693076252635,0.4,0.03332328796386719,0.06713271141052246,STABILIZE
0.05,0,0.01,-0.00742141762123501,-0.004835678766819745,-0.0,-0.006895017006784484,-0.011730695773604229,0.06,0,0.01,-0.007275313154433768,-0.0056750325540437015,-0.0,-0.006548877700569639,-0.01222391025461334,0.5,0,0,-0.007244149321123036,-0.04716428135261815,-0.0,-0.0,-0.04716428135261815,0.002,8e-05,0.0,-0.009991046509211333,-0.0002743973922818896,-7.992837207369066e-07,-0.0,-0.0002751966760026265,-0.09458387590072836,0.0,0.09458387590072836,-0.0967135753363949,0.0,0.0967135753363949,-0.1371986961409448,0.0,0.1371986961409448,-0.0943285627052363,0,0.0943285627052363,-0.011750804628071213,0.012204580936623651,0.04716428135261815,0.4,0.03346061706542969,0.10059428215026855,STABILIZE
0.05,0,0.01,-0.010953013414898703,-0.005280026507359665,-0.0,-0.0026573458409318448,-0.00793737234829151,0.06,0,0.01,-0.010693894570953202,-0.0061332728493476,-0.0,-0.0022836899117824193,-0.008416962761130018,0.5,0,0,-0.010697598922113923,-0.05163191514662607,-0.0,-0.0,-0.05163191514662607,0.002,8e-05,0.0,-0.015304448278983074,-0.00031775892630727444,-1.224355862318646e-06,-0.0,-0.0003189832821695931,-0.10222121415579333,0.0,0.10222121415579333,-0.1056005301471933,0.0,0.1056005301471933,-0.1588794631536372,0.0,0.1588794631536372,-0.10326383029325215,0,0.10326383029325215,-0.007952529288854922,0.008402643621359694,0.05163191514662607,0.4,0.03344297409057617,0.1340770721435547,STABILIZE
0.05,0,0.01,-0.014718897393441982,-0.005631470908913937,-0.0,-0.0021021878897279477,-0.007733658798641884,0.06,0,0.01,-0.014386488621290324,-0.00662624852747992,-0.0,-0.00245730547021806,-0.009083553997697981,0.5,0,0,-0.01437871892156329,-0.055047155746787584,-0.0,-0.0,-0.055047155746787584,0.002,8e-05,0.0,-0.021364189518053713,-0.0003624674227650821,-1.7091351614442972e-06,-0.0,-0.0003641765579265264,-0.11043747545799867,0.0,0.11043747545799867,-0.11262941817827872,0.0,0.11262941817827872,-0.18123371138254105,0.0,0.18123371138254105,-0.11009431149357517,0,0.11009431149357517,-0.007751098634525053,0.009068676948748912,0.055047155746787584,0.4,0.03343605995178223,0.16748523712158203,STABILIZE
0.05,0,0.01,-0.01889127253705792,-0.006234666379650614,-0.0,-0.0036053541614192493,-0.009840020541069864,0.06,0,0.01,-0.018428248909920012,-0.0072473905970846285,-0.0,-0.003093852178557884,-0.010341242775642513,0.5,0,0,-0.0184402675822463,-0.060690613888879585,-0.0,-0.0,-0.060690613888879585,0.002,8e-05,0.0,-0.028640478333793948,-0.00043491039694775087,-2.2912382667035162e-06,-0.0,-0.0004372016352144544,-0.12078984328474382,0.0,0.12078984328474382,-0.12469332759301227,0.0,0.12469332759301227,-0.21745519847387543,0.0,0.21745519847387543,-0.12138122777775917,0,0.12138122777775917,-0.009861906387710154,0.010320373481298871,0.060690613888879585,0.4,0.03346109390258789,0.20094895362854004,STABILIZE
0.05,0,0.01,-0.023427593060910412,-0.006767650268717092,-0.0,-0.0031805940881790493,-0.009948244356896141,0.06,0,0.01,-0.022738142614340658,-0.007715818086529798,-0.0,-0.002329460192939075,-0.010045278279468873,0.5,0,0,-0.0228416678997202,-0.06566365380192947,-0.0,-0.0,-0.06566365380192947,0.002,8e-05,0.0,-0.03710207106319799,-0.000504947567155534,-2.9681656850558395e-06,-0.0,-0.0005079157328405898,-0.12859696810882998,0.0,0.12859696810882998,-0.13535300537434183,0.0,0.13535300537434183,-0.25247378357776695,0.0,0.25247378357776695,-0.13132730760385894,0,0.13132730760385894,-0.009971242925451903,0.010022449601674753,0.06566365380192947,0.4,0.03351473808288574,0.2344958782196045,STABILIZE
0.05,0,0.01,-0.02835534226148038,-0.007363558632403265,-0.0,-0.003561874597867185,-0.01092543323027045,0.06,0,0.01,-0.02728105517005068,-0.008146194525155415,-0.0,-0.0021437117372356536,-0.010289906262391069,0.5,0,0,-0.02760749219779736,-0.07121593494767181,-0.0,-0.0,-0.07121593494767181,0.002,8e-05,0.0,-0.04744294732009429,-0.0006180967864133614,-3.7954357856075435e-06,-0.0,-0.0006218922221989689,-0.13576990875259026,0.0,0.13576990875259026,-0.1472711726480653,0.0,0.1472711726480653,-0.30904839320668065,0.0,0.30904839320668065,-0.14243186989534362,0,0.14243186989534362,-0.010950979176207904,0.010262714905918102,0.07121593494767181,0.4,0.033460378646850586,0.2679257392883301,STABILIZE
0.05,0,0.01,-0.03412942905142025,-0.008634581902236153,-0.0,-0.0076027638116844785,-0.01623734571392063,0.06,0,0.01,-0.032527803026610874,-0.009415197741769193,-0.0,-0.0063255672031945626,-0.015740764944963757,0.5,0,0,-0.03315574672993101,-0.08296871854373324,-0.0,-0.0,-0.08296871854373324,0.002,8e-05,0.0,-0.06044118064294291,-0.0007775034514968235,-4.835294451435433e-06,-0.0,-0.0007823387459482589,-0.15691996236281988,0.0,0.15691996236281988,-0.17269163804472304,0.0,0.17269163804472304,-0.3887517257484117,0.0,0.3887517257484117,-0.16593743708746647,0,0.16593743708746647,-0.016282865242419235,0.015693673132290992,0.08296871854373324,0.4,0.033435821533203125,0.3013734817504883,STABILIZE
0.05,0,0.01,-0.039970402171245964,-0.00873366971600922,-0.0,-0.0005926411374419906,-0.00932631085345121,0.06,0,0.01,-0.037801771311446526,-0.00946303216553819,-0.0,-0.0002384135027295597,-0.00970144566826775,0.5,0,0,-0.03893387204264195,-0.08639697020286168,-0.0,-0.0,-0.08639697020286168,0.002,8e-05,0.0,-0.07450909375210478,-0.0008413975148894526,-5.960727500168383e-06,-0.0,-0.000847358242389621,-0.15771720275896986,0.0,0.15771720275896986,-0.1746733943201844,0.0,0.1746733943201844,-0.4206987574447263,0.0,0.4206987574447263,-0.17279394040572335,0,0.17279394040572335,-0.009355526241649524,0.009673275088167399,0.08639697020286168,0.4,0.03343939781188965,0.33483004570007324,STABILIZE
0.05,0,0.01,-0.04581389408579852,-0.008740551874460777,-0.0,-4.117665521486391e-05,-0.008781728529675641,0.06,0,0.01,-0.04308092602296171,-0.009475716154114466,-0.0,-6.324132998279116e-05,-0.009538957484097258,0.5,0,0,-0.044672440789304164,-0.08583610373524597,-0.0,0.0,-0.08583610373524597,0.002,8e-05,0.0,-0.08937931897431935,-0.0008897007258005841,-7.150345517945549e-06,-0.0,-0.0008968510713185297,-0.15792860256857444,0.0,0.15792860256857444,-0.17481103748921553,0.0,0.17481103748921553,-0.44485036290029206,0.0,0.44485036290029206,-0.17167220747049194,0,0.17167220747049194,-0.008810270124114854,0.009512602493138428,0.08583610373524597,0.4,0.03342747688293457,0.36822962760925293,STABILIZE
0.05,0,0.01,-0.051675919466614845,-0.008768461399573267,-0.0,-0.0001669891054584297,-0.008935450505031696,0.06,0,0.01,-0.04833070048016634,-0.009423182267707116,-0.0,0.00026193526708356276,-0.009161247000623552,0.5,0,0,-0.050372861798076096,-0.08526732371426997,-0.0,0.0,-0.08526732371426997,0.002,8e-05,0.0,-0.10530398881935708,-0.000952809609416715,-8.424319105548567e-06,-0.0,-0.0009612339285222636,-0.1570530377951186,0.0,0.1570530377951186,-0.17536922799146532,0.0,0.17536922799146532,-0.4764048047083575,0.0,0.4764048047083575,-0.17053464742853994,0,0.17053464742853994,-0.008962678339564874,0.009134611065382032,0.08526732371426997,0.4,0.033426761627197266,0.40170788764953613,STABILIZE
0.05,0,0.01,-0.05759973670389519,-0.008750234313644623,-0.0,0.00010769493138771174,-0.008642539382256911,0.06,0,0.01,-0.05358655694919975,-0.009316285181824702,-0.0,0.0005263354756177156,-0.008789949706206985,0.5,0,0,-0.056069792670184256,-0.08415094187218432,-0.0,0.0,-0.08415094187218432,0.002,8e-05,0.0,-0.12247660241027948,-0.0010146457034669507,-9.79812819282236e-06,-0.0,-0.001024443831659773,-0.15527141969707836,0.0,0.15527141969707836,-0.17500468627289245,0.0,0.17500468627289245,-0.5073228517334754,0.0,0.5073228517334754,-0.16830188374436864,0,0.16830188374436864,-0.0086683218510238,0.00876452503553805,0.08415094187218432,0.4,0.033849477767944336,0.438570499420166,STABILIZE
0.05,0,0.01,-0.06337861116942059,-0.008601872484296625,-0.0,0.0008833481642155166,-0.007718524320081108,0.06,0,0.01,-0.058651596550653946,-0.009047192502180888,-0.0,0.0013351509482584095,-0.007712041553922478,0.5,0,0,-0.06153949500647838,-0.08141668815362267,-0.0,0.0,-0.08141668815362267,0.002,8e-05,0.0,-0.1412785590765491,-0.0011194708219626843,-1.1302284726123929e-05,-0.0,-0.0011307731066888082,-0.1507865417030148,0.0,0.1507865417030148,-0.17203744968593251,0.0,0.17203744968593251,-0.5597354109813422,0.0,0.5597354109813422,-0.16283337630724534,0,0.16283337630724534,-0.007740410576610083,0.007690074558456071,0.08141668815362267,0.4,0.03359079360961914,0.46912097930908203,STABILIZE
0.05,0,0.01,-0.06912782955063022,-0.008590165738034566,-0.0,6.996630427042336e-05,-0.008520199433764144,0.06,0,0.01,-0.06356697496164875,-0.00881314552675978,-0.0,0.0011656670385688248,-0.007647478488190955,0.5,0,0,-0.0669669074758987,-0.08109341052928762,-0.0,0.0,-0.08109341052928762,0.002,8e-05,0.0,-0.16089186823249002,-0.001172205090497152,-1.2871349458599203e-05,-0.0,-0.0011850764399557513,-0.14688575877932966,0.0,0.14688575877932966,-0.17180331476069133,0.0,0.17180331476069133,-0.586102545248576,0.0,0.586102545248576,-0.16218682105857524,0,0.16218682105857524,-0.00854181294113515,0.007623329803774353,0.08109341052928762,0.4,0.03346395492553711,0.5025742053985596,STABILIZE
0.05,0,0.01,-0.07521427152600335,-0.008379359125010808,-0.0,0.0011608912554168921,-0.007218467869593916,0.06,0,0.01,-0.06870646049798351,-0.008490792197017401,-0.0,0.0014793066983872383,-0.007011485498630163,0.5,0,0,-0.07269869339281071,-0.07891095129111234,-0.0,0.0,-0.07891095129111234,0.002,8e-05,0.0,-0.18285061416559584,-0.0012092465111989104,-1.4628049133247668e-05,-0.0,-0.001223874560332158,-0.14151320328362335,0.0,0.14151320328362335,-0.16758718250021618,0.0,0.16758718250021618,-0.6046232555994552,0.0,0.6046232555994552,-0.15782190258222467,0,0.15782190258222467,-0.007237753680484701,0.006991575569389989,0.07891095129111234,0.4,0.036318063735961914,0.5389389991760254,STABILIZE
0.05,0,0.01,-0.08075953702352973,-0.008288205934437375,-0.0,0.0005449668120602338,-0.00774323912237714,0.06,0,0.01,-0.07341312512004594,-0.008441753925625899,-0.0,0.0002443161000093402,-0.008197437825616558,0.5,0,0,-0.07793388775263083,-0.07824759514282899,-0.0,0.0,-0.07824759514282899,0.002,8e-05,0.0,-0.20382080140342948,-0.0012537198111679706,-1.630566411227436e-05,-0.0,-0.001270025475280245,-0.14069589876043165,0.0,0.14069589876043165,-0.1657641186887475,0.0,0.1657641186887475,-0.6268599055839853,0.0,0.6268599055839853,-0.15649519028565798,0,0.15649519028565798,-0.007765600334811151,0.00817625772900671,0.07824759514282899,0.4,0.033452749252319336,0.5723576545715332,STABILIZE
0.05,0,0.01,-0.08621978131430527,-0.008139954388018216,-0.0,0.0008840343116836773,-0.007255920076334538,0.06,0,0.01,-0.07810059061158277,-0.008385505101516191,-0.0,0.0002795130512177397,-0.00810599205029845,0.5,0,0,-0.0831003002917524,-0.0770191958062775,-0.0,0.0,-0.0770191958062775,0.002,8e-05,0.0,-0.22569219710933008,-0.0013042065810065931,-1.805537576874641e-05,-0.0,-0.0013222619567753394,-0.1397584183586032,0.0,0.1397584183586032,-0.1627990877603643,0.0,0.1627990877603643,-0.6521032905032965,0.0,0.6521032905032965,-0.154038391612555,0,0.154038391612555,-0.007277686601597842,0.008086455404105035,0.0770191958062775,0.4,0.033539772033691406,0.6059205532073975,STABILIZE
0.05,0,0.01,-0.09148891617414324,-0.007880093782012943,-0.0,0.0015545063848566854,-0.006325587397156258,0.06,0,0.01,-0.08213911950884706,-0.0072476383235612575,-0.0,0.005672339742187769,-0.0015752985813734886,0.5,0,0,-0.08814974270492083,-0.07551539450228562,-0.0,0.0,-0.07551539450228562,0.002,8e-05,0.0,-0.24886833643402737,-0.0013864147055763798,-1.990946691472219e-05,-0.0,-0.001406324172491102,-0.1207939720593543,0.0,0.1207939720593543,-0.15760187564025885,0.0,0.15760187564025885,-0.6932073527881899,0.0,0.6932073527881899,-0.15103078900457123,0,0.15103078900457123,-0.006329717878664974,0.0015586189771873054,0.07551539450228562,0.4,0.03343319892883301,0.639345645904541,STABILIZE
0.05,0,0.01,-0.09692964850500843,-0.007655537455055647,-0.0,0.0012638735135260181,-0.006391663941529629,0.06,0,0.01,-0.08629378886350506,-0.007015135078971621,-0.0,0.0010905010509218705,-0.005924634028049751,0.5,0,0,-0.09344004744866985,-0.0744387403230123,-0.0,0.0,-0.0744387403230123,0.002,8e-05,0.0,-0.27393688291912033,-0.0014109365055267461,-2.191495063352963e-05,-0.0,-0.0014328514561602757,-0.11691891798286036,0.0,0.11691891798286036,-0.15311074910111294,0.0,0.15311074910111294,-0.705468252763373,0.0,0.705468252763373,-0.1488774806460246,0,0.1488774806460246,-0.006407036929145988,0.005908005932320536,0.0744387403230123,0.4,0.03553462028503418,0.674903154373169,STABILIZE
0.05,0,0.01,-0.10193206390559127,-0.007485373248969411,-0.0,0.0010185020588427112,-0.0064668711901267,0.06,0,0.01,-0.09003585348524998,-0.0067193341230144,-0.0,0.001475407635068838,-0.005243926487945562,0.5,0,0,-0.09817869541395756,-0.0709068437449541,-0.0,0.0,-0.0709068437449541,0.002,8e-05,0.0,-0.298211342580119,-0.0014529252485385807,-2.3856907406409523e-05,-0.0,-0.0014767821559449903,-0.11198890205024001,0.0,0.11198890205024001,-0.14970746497938822,0.0,0.14970746497938822,-0.7264626242692903,0.0,0.7264626242692903,-0.1418136874899082,0,0.1418136874899082,-0.006479830693370329,0.005227904186758169,0.0709068437449541,0.4,0.033414602279663086,0.7082929611206055,STABILIZE
0.05,0,0.01,-0.10682889088313173,-0.007311672663687899,-0.0,0.0010374406340224256,-0.0062742320296654734,0.06,0,0.01,-0.09355949303435575,-0.006313565683097083,-0.0,0.0020195703759041776,-0.004293995307192906,0.5,0,0,-0.1028749156449022,-0.07012137705241653,-0.0,0.0,-0.07012137705241653,0.002,8e-05,0.0,-0.3233265574971589,-0.0015000262920770108,-2.5866124599772712e-05,-0.0,-0.0015258924166767836,-0.10522609471828473,0.0,0.10522609471828473,-0.14623345327375797,0.0,0.14623345327375797,-0.7500131460385054,0.0,0.7500131460385054,-0.14024275410483306,0,0.14024275410483306,-0.006284723626927961,0.004278625035383245,0.07012137705241653,0.4,0.033486366271972656,0.7417941093444824,STABILIZE
0.05,0,0.01,-0.1115720095944754,-0.007096867810397894,-0.0,0.0012856027787668156,-0.005811265031631079,0.06,0,0.01,-0.09683845789965707,-0.005887361869732449,-0.0,0.002125684461928947,-0.003761677407803502,0.5,0,0,-0.10748363456917859,-0.0689577279662964,-0.0,0.0,-0.0689577279662964,0.002,8e-05,0.0,-0.34892144768183886,-0.0015318490918467202,-2.791371581454711e-05,-0.0,-0.0015597628076612672,-0.09812269782887416,0.0,0.09812269782887416,-0.1419373562079579,0.0,0.1419373562079579,-0.7659245459233601,0.0,0.7659245459233601,-0.1379154559325928,0,0.1379154559325928,-0.005820302841501792,0.003747678350851845,0.0689577279662964,0.4,0.0334169864654541,0.7752175331115723,STABILIZE
0.05,0,0.01,-0.11725058640611512,-0.007127498738760886,-0.0,-0.00015378635212033427,-0.00728128509088122,0.06,0,0.01,-0.1004328884716708,-0.005413884545735752,-0.0,0.0019809593973740052,-0.0034329251483617464,0.5,0,0,-0.11295250112239928,-0.0686427968723323,-0.0,0.0,-0.0686427968723323,0.002,8e-05,0.0,-0.37958977547672884,-0.0015397412057889573,-3.036718203813831e-05,-0.0,-0.0015701083878270957,-0.09023140909559586,0.0,0.09023140909559586,-0.14254997477521772,0.0,0.14254997477521772,-0.7698706028944786,0.0,0.7698706028944786,-0.1372855937446646,0,0.1372855937446646,-0.00728948976387206,0.003415468727912483,0.0686427968723323,0.4,0.03983569145202637,0.81504225730896,STABILIZE
0.05,0,0.01,-0.12169903135940512,-0.006645390664664079,-0.0,0.0028808237742428393,-0.00376456689042124,0.06,0,0.01,-0.1032057937018472,-0.004970826090672634,-0.0,0.0022062365254172547,-0.002764589565255379,0.5,0,0,-0.11823927177198582,-0.07897738803084174,-0.0,-0.0,-0.07897738803084174,0.002,8e-05,0.0,-0.40655036087762836,-0.0016110224981384564,-3.252402887021027e-05,-0.0,-0.0016435465270086666,-0.08284710151121057,0.0,0.08284710151121057,-0.13290781329328158,0.0,0.13290781329328158,-0.8055112490692282,0.0,0.8055112490692282,-0.15795477606168348,0,0.15795477606168348,-0.00377217408117363,0.0027542007984343937,0.07897738803084174,0.4,0.03347015380859375,0.8485395908355713,STABILIZE
0.05,0,0.01,-0.12609127494940855,-0.006319430865301111,-0.0,0.0018759254806631376,-0.004443505384637974,0.06,0,0.01,-0.10575760860836732,-0.004405771461173298,-0.0,0.0027099465934042073,-0.0016958248677690904,0.5,0,0,-0.12256151063990846,-0.062187101305856876,-0.0,0.0,-0.062187101305856876,0.002,8e-05,0.0,-0.43505515319681753,-0.001640474265141938,-3.4804412255745404e-05,-0.0,-0.0016752786773976834,-0.0734295243528883,0.0,0.0734295243528883,-0.12638861730602222,0.0,0.12638861730602222,-0.820237132570969,0.0,0.820237132570969,-0.12437420261171375,0,0.12437420261171375,-0.004447176106363983,0.0016861751879434109,0.062187101305856876,0.4,0.03475189208984375,0.8832781314849854,STABILIZE
0.05,0,0.01,-0.13074257269677095,-0.006018051030296418,-0.0,0.001559753277535549,-0.004458297752760869,0.06,0,0.01,-0.10823217163145,-0.003842036530740097,-0.0,0.0024312824528963835,-0.0014107540778437134,0.5,0,0,-0.1260780786822004,-0.045498884568340475,-0.0,0.0,-0.045498884568340475,0.002,8e-05,0.0,-0.4675562143941281,-0.0016820513796186535,-3.740449715153025e-05,-0.0,-0.0017194558767701837,-0.06403394217900162,0.0,0.06403394217900162,-0.12036102060592836,0.0,0.12036102060592836,-0.8410256898093268,0.0,0.8410256898093268,-0.09099776913668095,0,0.09099776913668095,-0.004460532703683702,0.0014036715854477651,0.045498884568340475,0.4,0.03864455223083496,0.9219484329223633,STABILIZE
0.05,0,0.01,-0.13513611560006278,-0.005974031035332445,-0.0,0.0002394211886656874,-0.005734609846666757,0.06,0,0.01,-0.110582113411553,-0.003834342925853651,-0.0,3.48707450736221e-05,-0.003799472180780029,0.5,0,0,-0.1296407131210241,-0.04844220068758327,-0.0,-0.0,-0.04844220068758327,0.002,8e-05,0.0,-0.4988308734199984,-0.0017010033838522726,-3.9906469873599875e-05,-0.0,-0.0017409098537258725,-0.06390571543089418,0.0,0.06390571543089418,-0.11948062070664889,0.0,0.11948062070664889,-0.8505016919261363,0.0,0.8505016919261363,-0.09688440137516655,0,0.09688440137516655,-0.00574102636938532,0.0037897698046228476,0.04844220068758327,0.4,0.03677201271057129,0.9587268829345703,STABILIZE
0.05,0,0.01,-0.13895593363500786,-0.005680327763406137,-0.0,0.0017470265174557894,-0.003933301245950347,0.06,0,0.01,-0.11234119424400034,-0.0031390466035442705,-0.0,0.003446508853979081,0.0003074622504348106,0.5,0,0,-0.1325739212445597,-0.04361878861124141,-0.0,0.0,-0.04361878861124141,0.002,8e-05,0.0,-0.5296674648497767,-0.001834243880990522,-4.237339718798214e-05,-0.0,-0.0018766172781785042,-0.05231744339240451,0.0,0.05231744339240451,-0.11360655526812273,0.0,0.11360655526812273,-0.917121940495261,0.0,0.917121940495261,-0.08723757722248282,0,0.08723757722248282,-0.003932828550145381,-0.00031345066916242697,0.04361878861124141,0.4,0.03362321853637695,0.9923117160797119,STABILIZE
0.05,0,0.01,-0.14254320857212932,-0.005346424476188362,-0.0,0.0019905791875471325,-0.0033558452886412295,0.06,0,0.01,-0.11394943981522018,-0.002876288091569876,-0.0,0.0013053720575931097,-0.0015709160339767664,0.5,0,0,-0.13497367642437655,-0.03576561611563549,-0.0,0.0,-0.03576561611563549,0.002,8e-05,0.0,-0.5605203372917569,-0.0018393076112184765,-4.484162698334055e-05,-0.0,-0.001884149238201817,-0.04793813485949794,0.0,0.04793813485949794,-0.10692848952376724,0.0,0.10692848952376724,-0.9196538056092383,0.0,0.9196538056092383,-0.07153123223127097,0,0.07153123223127097,-0.003357803891647528,0.0015667251872417017,0.03576561611563549,0.4,0.03354835510253906,1.02593994140625,STABILIZE
0.05,0,0.01,-0.14590018135231347,-0.005015446668691404,-0.0,0.0019779743843265176,-0.0030374722843648865,0.06,0,0.01,-0.11541220372210521,-0.0026225107598755377,-0.0,0.0012638437030221645,-0.0013586670568533732,0.5,0,0,-0.13684258646104158,-0.027922235988346093,-0.0,0.0,-0.027922235988346093,0.002,8e-05,0.0,-0.591361341362221,-0.00184310593207517,-4.730890730897768e-05,-0.0,-0.0018904148393841477,-0.043708512664592296,0.0,0.043708512664592296,-0.10030893337382807,0.0,0.10030893337382807,-0.921552966037585,0.0,0.921552966037585,-0.055844471976692185,0,0.055844471976692185,-0.0030387950932754815,0.0013557058791449975,0.027922235988346093,0.4,0.033466339111328125,1.0593950748443604,STABILIZE
0.05,0,0.01,-0.1489685583336274,-0.004589472090319771,-0.0,0.002548576593460411,-0.0020408954968593597,0.06,0,0.01,-0.11673993793181826,-0.0023831227268162366,-0.0,0.0011935351090309933,-0.0011895876177852433,0.5,0,0,-0.1388089691486971,-0.029411830811018527,-0.0,-0.0,-0.029411830811018527,0.002,8e-05,0.0,-0.6222658981355524,-0.001848998368045011,-4.97812718508442e-05,-0.0,-0.0018987796398958552,-0.03971871211360394,0.0,0.03971871211360394,-0.09178944180639541,0.0,0.09178944180639541,-0.9244991840225055,0.0,0.9244991840225055,-0.05882366162203705,0,0.05882366162203705,-0.0020421157308911078,0.0011874916720280011,0.029411830811018527,0.4,0.03342843055725098,1.0927798748016357,STABILIZE
0.05,0,0.01,-0.15226757061679738,-0.004933209411935248,-0.0,-0.00205604349990172,-0.006989252911836968,0.06,0,0.01,-0.11814587591230342,-0.0025228592860874503,-0.0,-0.0006965213122575526,-0.003219380598345003,0.5,0,0,-0.14009068030030297,-0.019166189676653303,-0.0,0.0,-0.019166189676653303,0.002,8e-05,0.0,-0.6530476749009756,-0.0018411929125569917,-5.2243813992078054e-05,0.0,-0.0018934367265490697,-0.04204765476812417,0.0,0.04204765476812417,-0.09866418823870496,0.0,0.09866418823870496,-0.9205964562784958,0.0,0.9205964562784958,-0.038332379353306606,0,0.038332379353306606,-0.006991405197559318,0.0032147038846777666,0.019166189676653303,0.4,0.03343677520751953,1.1262729167938232,STABILIZE
0.05,0,0.01,-0.15531340787023915,-0.004407266590583168,-0.0,0.003044115666367649,-0.0013631509242155193,0.06,0,0.01,-0.11915288883748267,-0.0017485534723483106,-0.0,0.00373468426996075,0.0019861307976124397,0.5,0,0,-0.14139907833036638,-0.018932262117968432,-0.0,0.0,-0.018932262117968432,0.002,8e-05,0.0,-0.685283586746669,-0.0018657892129196156,-5.482268693973352e-05,-0.0,-0.0019206118998593492,-0.029142557872471844,0.0,0.029142557872471844,-0.08814533181166337,0.0,0.08814533181166337,-0.9328946064598078,0.0,0.9328946064598078,-0.037864524235936864,0,0.037864524235936864,-0.0013618380710164332,-0.0019870312166004062,0.018932262117968432,0.4,0.03455471992492676,1.1608006954193115,STABILIZE
0.05,0,0.01,-0.15863035995764116,-0.004211893496412037,-0.0,0.0009923455546297188,-0.003219547941782318,0.06,0,0.01,-0.12013118244394282,-0.0014906944821834922,-0.0,0.001091438339624654,-0.0003992561425588382,0.5,0,0,-0.14236333210124202,-0.01224417501195462,-0.0,0.0,-0.01224417501195462,0.002,8e-05,0.0,-0.7222709894282001,-0.001878676528312878,-5.7781679154256015e-05,-0.0,-0.001936458207467134,-0.024844908036391538,0.0,0.024844908036391538,-0.08423786992824073,0.0,0.08423786992824073,-0.939338264156439,0.0,0.939338264156439,-0.02448835002390924,0,0.02448835002390924,-0.0032197182907233884,0.0003978800638219815,0.01224417501195462,0.4,0.039376020431518555,1.2001547813415527,STABILIZE
0.05,0,0.01,-0.16112493422305132,-0.0037266449233538976,-0.0,0.00289965170638768,-0.0008269932169662174,0.06,0,0.01,-0.12082559544452035,-0.0012448604409319006,-0.0,0.0012241717214315753,-2.0688719500325248e-05,0.5,0,0,-0.1431040559690891,-0.011065675133410047,-0.0,0.0,-0.011065675133410047,0.002,8e-05,0.0,-0.7539345680919061,-0.0018920890240630374,-6.031476544735249e-05,-0.0,-0.00195240378951039,-0.020747674015531677,0.0,0.020747674015531677,-0.07453289846707795,0.0,0.07453289846707795,-0.9460445120315186,0.0,0.9460445120315186,-0.022131350266820095,0,0.022131350266820095,-0.0008270011465988699,2.036927948776575e-05,0.011065675133410047,0.4,0.033469438552856445,1.233673334121704,STABILIZE
0.05,0,0.01,-0.16337140194259503,-0.0033580796548509113,-0.0,0.002203764637038148,-0.0011543150178127634,0.06,0,0.01,-0.12143856028822013,-0.0010995313680368676,-0.0,0.0007241392026267797,-0.00037539216541008797,0.5,0,0,-0.1436733302239458,-0.008509662865990255,-0.0,0.0,-0.008509662865990255,0.002,8e-05,0.0,-0.7856925334980556,-0.0018989060306909011,-6.285540267984445e-05,-0.0,-0.0019617614333707458,-0.01832552280061446,0.0,0.01832552280061446,-0.06716159309701822,0.0,0.06716159309701822,-0.9494530153454506,0.0,0.9494530153454506,-0.01701932573198051,0,0.01701932573198051,-0.0011544264746023323,0.00037504926734575233,0.008509662865990255,0.4,0.03344869613647461,1.267305850982666,STABILIZE
0.05,0,0.01,-0.1653793706642607,-0.0030036631719725137,-0.0,0.0021206460552409398,-0.0008830171167315739,0.06,0,0.01,-0.12198484965502586,-0.0009806144296630676,-0.0,0.0005929481943005778,-0.00038766623536248975,0.5,0,0,-0.14409523943738622,-0.006311219655232915,-0.0,0.0,-0.006311219655232915,0.002,8e-05,0.0,-0.8173452502751213,-0.0018939358696241516,-6.53876200220097e-05,0.0,-0.001959323489646161,-0.016343573827717794,0.0,0.016343573827717794,-0.06007326343945027,0.0,0.06007326343945027,-0.9469679348120758,0.0,0.9469679348120758,-0.01262243931046583,0,0.01262243931046583,-0.0008831024993862823,0.00038747169452589515,0.006311219655232915,0.4,0.033425331115722656,1.3004989624023438,STABILIZE
0.05,0,0.01,-0.16736490629380496,-0.002963152475765863,-0.0,0.0002418276821097158,-0.002721324793656147,0.06,0,0.01,-0.12226699035960874,-0.0005052697608801718,-0.0,0.002364632681794194,0.0018593629209140224,0.5,0,0,-0.14436314280216506,-0.003998107648124072,-0.0,0.0,-0.003998107648124072,0.002,8e-05,0.0,-0.8491412717727492,-0.0018980562910740004,-6.793130174181995e-05,-0.0,-0.0019659875928158205,-0.008421162681336197,0.0,0.008421162681336197,-0.05926304951531726,0.0,0.05926304951531726,-0.9490281455370002,0.0,0.9490281455370002,-0.007996215296248143,0,0.007996215296248143,-0.002721065273936818,-0.0018597426916680561,0.003998107648124072,0.4,0.03350377082824707,1.334021806716919,STABILIZE
0.05,0,0.01,-0.1693549252084244,-0.002652926761360877,-0.0,0.0016542678941615283,-0.0009986588671993487,0.06,0,0.01,-0.12230171597295239,-5.555193969298518e-05,-0.0,0.0019984206081721904,0.0019428686684792053,0.5,0,0,-0.1450797892533244,-0.009553731046212039,-0.0,-0.0,-0.009553731046212039,0.002,8e-05,0.0,-0.884824311924973,-0.0019027857765794441,-7.078594495399784e-05,-0.0,-0.001973571721533442,-0.000925865661549753,0.0,0.000925865661549753,-0.05305853522721753,0.0,0.05305853522721753,-0.951392888289722,0.0,0.951392888289722,-0.019107462092424077,0,0.019107462092424077,-0.000998010888048985,-0.0019432016013089643,0.009553731046212039,0.4,0.037506103515625,1.3715465068817139,STABILIZE
0.05,0,0.01,-0.17093294567323963,-0.002357203545638453,-0.0,0.0017669728071875754,-0.0005902307384508775,0.06,0,0.01,-0.12210097648669617,0.00035983094463216904,-0.0,0.002068291739683759,0.002428122684315928,0.5,0,0,-0.14610268177698746,-0.015279687034147012,-0.0,-0.0,-0.015279687034147012,0.002,8e-05,0.0,-0.9165611227467846,-0.0018963029862908787,-7.332488981974277e-05,0.0,-0.0019696278761106214,0.005997182410536151,0.0,-0.005997182410536151,-0.04714407091276905,0.0,0.04714407091276905,-0.9481514931454393,0.0,0.9481514931454393,-0.030559374068294023,0,0.030559374068294023,-0.0005889355869292395,-0.0024284371453982844,0.015279687034147012,0.4,0.033472299575805664,1.4049978256225586,STABILIZE
0.05,0,0.01,-0.17245132458697385,-0.0022551017865736277,-0.0,0.0006065675891484331,-0.0016485341974251946,0.06,0,0.01,-0.12194293530541372,0.00028166799238728225,-0.0,-0.00038695965294946254,-0.00010529166056218029,0.5,0,0,-0.1466553973331001,-0.00820895118328024,-0.0,0.0,-0.00820895118328024,0.002,8e-05,0.0,-0.9484027997120108,-0.001891654894895383,-7.587222397696087e-05,0.0,-0.001967527118872344,0.004694466539788038,0.0,-0.004694466539788038,-0.045102035731472555,0.0,0.045102035731472555,-0.9458274474476915,0.0,0.9458274474476915,-0.01641790236656048,0,0.01641790236656048,-0.0016485643006969616,0.00010481927461974685,0.00820895118328024,0.4,0.03366541862487793,1.4386661052703857,STABILIZE
0.05,0,0.01,-0.1738897706419859,-0.0021501814159680293,-0.0,0.0006273376196391154,-0.001522843796328914,0.06,0,0.01,-0.12181960393293091,0.00022122608563127127,-0.0,-0.00030116078898617926,-7.993470335490799e-05,0.5,0,0,-0.14738264958717506,-0.010870927526161173,-0.0,-0.0,-0.010870927526161173,0.002,8e-05,0.0,-0.9802952686695796,-0.0019069076333578976,-7.842362149356637e-05,-0.0,-0.001985331254851464,0.0036871014271878545,0.0,-0.0036871014271878545,-0.04300362831936058,0.0,0.04300362831936058,-0.9534538166789488,0.0,0.9534538166789488,-0.021741855052322345,0,0.021741855052322345,-0.0015228740192656841,7.935682871357929e-05,0.010870927526161173,0.4,0.033449411392211914,1.472156047821045,STABILIZE
0.05,0,0.01,-0.17594796702102616,-0.002405563474016369,-0.0,-0.0011939341785193102,-0.0035994976525356792,0.06,0,0.01,-0.12166544255559032,0.0002162155072534865,-0.0,-1.9520755246422198e-05,0.00019669475200706428,0.5,0,0,-0.14669425017341825,0.008045823528461593,-0.0,0.0,0.008045823528461593,0.002,8e-05,0.0,-1.0229331995841882,-0.0019933617658708215,-8.183465596673506e-05,-0.0,-0.0020751964218375567,0.0036035917875581083,0.0,-0.0036035917875581083,-0.04811126948032738,0.0,0.04811126948032738,-0.9966808829354107,0.0,0.9966808829354107,0.016091647056923186,0,-0.016091647056923186,-0.003599552752732813,-0.0001956838173447512,-0.008045823528461593,0.4,0.04277992248535156,1.5149328708648682,STABILIZE
0.05,0,0.01,-0.17728011681216244,-0.001993080308181433,-0.0,0.002468527430629924,0.00047544712244849095,0.06,0,0.01,-0.12150285753625367,0.000291899607027322,-0.0,0.0003774462649404388,0.0006693458719677608,0.5,0,0,-0.1463850553450652,0.0046259822122280215,-0.0,-0.0,0.0046259822122280215,0.002,8e-05,0.0,-1.0571020696633493,-0.002044854191644575,-8.456816557306795e-05,-0.0,-0.002129422357217643,0.004864993450455367,0.0,-0.004864993450455367,-0.03986160616362866,0.0,0.03986160616362866,-1.0224270958222874,0.0,1.0224270958222874,0.009251964424456043,0,-0.009251964424456043,0.00047533903212533855,-0.0006694226371306687,-0.0046259822122280215,0.4,0.03341937065124512,1.5483226776123047,STABILIZE
0.05,0,0.01,-0.17826900725651273,-0.001476861748538429,-0.0,0.0030837933523495302,0.0016069316038111012,0.06,0,0.01,-0.12132923749824466,0.0003111521132156398,-0.0,9.584239964925734e-05,0.00040699451286489713,0.5,0,0,-0.14635738894734804,0.0004131847439904869,-0.0,-0.0,0.0004131847439904869,0.002,8e-05,0.0,-1.0911854579426694,-0.0020360780184657075,-8.729483663541356e-05,0.0,-0.002123372855101121,0.005185868553593997,0.0,-0.005185868553593997,-0.02953723497076858,0.0,0.02953723497076858,-1.0180390092328537,0.0,1.0180390092328537,0.0008263694879809737,0,-0.0008263694879809737,0.0016069257336156651,-0.00040701768938561985,-0.0004131847439904869,0.4,0.03347945213317871,1.5818238258361816,STABILIZE
0.05,0,0.01,-0.17960242830275244,-0.0019615093775830197,-0.0,-0.0028517350071087764,-0.004813244384691796,0.06,0,0.01,-0.12075403359309451,0.0010153742725055766,-0.0,0.0034531187610605117,0.004468493033566088,0.5,0,0,-0.14581181689168024,0.008025557316329071,-0.0,0.0,0.008025557316329071,0.002,8e-05,0.0,-1.125524576000052,-0.002020562140591214,-9.004196608000418e-05,0.0,-0.002110604106671218,0.01692290454175961,0.0,-0.01692290454175961,-0.03923018755166039,0.0,0.03923018755166039,-1.010281070295607,0.0,1.010281070295607,0.016051114632658143,0,-0.016051114632658143,-0.004814496020883565,-0.004467144452857113,-0.008025557316329071,0.4,0.033989667892456055,1.6157886981964111,STABILIZE
0.05,0,0.01,-0.18076398581097808,-0.0015247924356932155,-0.0,0.002293137222451814,0.0007683447867585986,0.06,0,0.01,-0.1197536844921458,0.0015758063441998667,-0.0,0.0024522894980456237,0.00402809584224549,0.5,0,0,-0.1464573528322106,-0.008474038625882294,-0.0,-0.0,-0.008474038625882294,0.002,8e-05,0.0,-1.163546416889882,-0.001996471632937234,-9.308371335119057e-05,0.0,-0.0020895553462884245,0.026263439069997778,0.0,-0.026263439069997778,-0.03049584871386431,0.0,0.03049584871386431,-0.9982358164686169,0.0,0.9982358164686169,-0.016948077251764587,0,0.016948077251764587,0.000769536262869915,-0.004027868389828883,0.008474038625882294,0.4,0.03808903694152832,1.6538844108581543,STABILIZE
0.05,0,0.01,-0.18145810812281088,-0.0009537937324759397,-0.0,0.003138438140347311,0.002184644407871371,0.06,0,0.01,-0.11918367483337566,0.0009399005864833759,-0.0,-0.0029126611444691697,-0.001972760557985794,0.5,0,0,-0.1470030224243521,-0.007498047939318308,-0.0,0.0,-0.007498047939318308,0.002,8e-05,0.0,-1.1996629830134564,-0.001985111489429609,-9.597303864107651e-05,0.0,-0.0020810845280706857,0.015665009774722932,0.0,-0.015665009774722932,-0.019075874649518793,0.0,0.019075874649518793,-0.9925557447148046,0.0,0.9925557447148046,-0.014996095878636616,0,0.014996095878636616,0.0021841279999667497,0.0019733322801163823,0.007498047939318308,0.4,0.03638744354248047,1.6903111934661865,STABILIZE
0.05,0,0.01,-0.1823970934295037,-0.0012975717671991722,-0.0,-0.0019002498499628275,-0.0031978216171619995,0.06,0,0.01,-0.11855484717909806,0.0010427626564235091,-0.0,0.00047381258939353837,0.0015165752458170475,0.5,0,0,-0.14705562225657282,-0.0007268703435778633,-0.0,0.0,-0.0007268703435778633,0.002,8e-05,0.0,-1.2353339988690941,-0.00197173279503643,-9.882671990952753e-05,0.0,-0.0020705595149459574,0.017379377607058485,0.0,-0.017379377607058485,-0.025951435343983444,0.0,0.025951435343983444,-0.9858663975182148,0.0,0.9858663975182148,-0.0014537406871557267,0,0.0014537406871557267,-0.003197783136734043,-0.0015166563822544012,0.0007268703435778633,0.4,0.036182403564453125,1.726470947265625,STABILIZE
0.05,0,0.01,-0.18322084588077328,-0.001230796814372361,-0.0,0.00039908299680292144,-0.0008317138175694394,0.06,0,0.01,-0.11764014652066947,0.0016400227831986699,-0.0,0.0029746228584956727,0.004614645641694342,0.5,0,0,-0.14756661146288025,-0.007634865138580758,-0.0,-0.0,-0.007634865138580758,0.002,8e-05,0.0,-1.2681077610845282,-0.001958736126008928,-0.00010144862088676226,0.0,-0.0020601847468956903,0.027333713053311167,0.0,-0.027333713053311167,-0.024615936287447217,0.0,0.024615936287447217,-0.979368063004464,0.0,0.979368063004464,-0.015269730277161516,0,0.015269730277161516,-0.0008304839523618442,-0.004614867135423724,0.007634865138580758,0.4,0.03346419334411621,1.7599401473999023,STABILIZE
0.05,0,0.01,-0.18356040605086768,-0.0004896847037132061,-0.0,0.004275074596947003,0.0037853898932337974,0.06,0,0.01,-0.11673099738716533,0.0015733167666183631,-0.0,-0.0003206590843279646,0.0012526576822903986,0.5,0,0,-0.1481148206779615,-0.007905805530291571,-0.0,-0.0,-0.007905805530291571,0.002,8e-05,0.0,-1.3013774383258454,-0.001919147588837531,-0.00010411019506606765,0.0,-0.002023257783903599,0.026221946110306052,0.0,-0.026221946110306052,-0.009793694074264121,0.0,0.009793694074264121,-0.9595737944187654,0.0,0.9595737944187654,-0.015811611060583142,0,0.015811611060583142,0.003785735438356126,-0.001251613000720385,0.007905805530291571,0.4,0.03467130661010742,1.7946114540100098,STABILIZE
0.05,0,0.01,-0.18404526923981238,-0.0007241463390888071,-0.0,-0.001400679934342356,-0.002124826273431163,0.06,0,0.01,-0.11609997080303515,0.0011309307891823846,-0.0,-0.0022023544876768335,-0.0010714236984944489,0.5,0,0,-0.14828648696817617,-0.0025638472550263266,-0.0,0.0,-0.0025638472550263266,0.002,8e-05,0.0,-1.3333282943186873,-0.001908752483217261,-0.000106666263545495,0.0,-0.002015418746762756,0.01884884648637308,0.0,-0.01884884648637308,-0.01448292678177614,0.0,0.01448292678177614,-0.9543762416086304,0.0,0.9543762416086304,-0.005127694510052653,0,0.005127694510052653,-0.002124922152148769,0.001071233532553164,0.0025638472550263266,0.4,0.0334782600402832,1.8280916213989258,STABILIZE
0.05,0,0.01,-0.18440848484624608,-0.000542975304352304,-0.0,0.0010833388872438499,0.0005403635828915459,0.06,0,0.01,-0.11504078238391922,0.0019000719486127948,-0.0,0.003832660709269643,0.005732732657882438,0.5,0,0,-0.1487575230824977,-0.007041574563545934,-0.0,-0.0,-0.007041574563545934,0.002,8e-05,0.0,-1.3652842918639385,-0.001910855941833652,-0.0001092227433491151,-0.0,-0.002020078685182767,0.03166786581021325,0.0,-0.03166786581021325,-0.01085950608704608,0.0,0.01085950608704608,-0.955427970916826,0.0,0.955427970916826,-0.014083149127091868,0,0.014083149127091868,0.0005417726568851015,-0.005732599664787249,0.007041574563545934,0.4,0.0334467887878418,1.861534595489502,STABILIZE
0.05,0,0.01,-0.1846056121267797,-0.0002946668975777077,-0.0,0.0014846908589957184,0.0011900239614180106,0.06,0,0.01,-0.11344741165836371,0.0028581347469694247,-0.0,0.004773724396274551,0.007631859143243976,0.5,0,0,-0.14957539457693111,-0.012225586191295683,-0.0,-0.0,-0.012225586191295683,0.002,8e-05,0.0,-1.3981814850766245,-0.0019669959098013085,-0.00011185451880612998,-0.0,-0.0020788504286074383,0.04763557911615708,0.0,-0.04763557911615708,-0.005893337951554153,0.0,0.005893337951554153,-0.9834979549006543,0.0,0.9834979549006543,-0.024451172382591365,0,0.024451172382591365,0.0011932807752829669,-0.007631350601460123,0.012225586191295683,0.4,0.03344917297363281,1.8949880599975586,STABILIZE
0.05,0,0.01,-0.18510647563021732,-0.0007488535339720127,-0.0,-0.0027162631368616475,-0.00346511667083366,0.06,0,0.01,-0.11220322068366619,0.0022322652026596757,-0.0,-0.003119177293115173,-0.0008869120904554974,0.5,0,0,-0.1497756356338339,-0.0029938540556214577,-0.0,0.0,-0.0029938540556214577,0.002,8e-05,0.0,-1.4318310760681894,-0.0020124137580637374,-0.00011454648608545516,-0.0,-0.0021269602441491924,0.03720442004432793,0.0,-0.03720442004432793,-0.014977070679440254,0.0,0.014977070679440254,-1.0062068790318688,0.0,1.0062068790318688,-0.0059877081112429155,0,0.0059877081112429155,-0.0034652093388558196,0.0008865499628288886,0.0029938540556214577,0.4,0.033442020416259766,1.928438663482666,STABILIZE
0.05,0,0.01,-0.18528699162159176,-0.00026742308835909926,-0.0,0.002852835709803514,0.0025854126214444146,0.06,0,0.01,-0.1110945035752179,0.0019709936011781844,-0.0,-0.0012901914863925645,0.0006808021147856199,0.5,0,0,-0.1501878751382068,-0.006107068995031648,-0.0,-0.0,-0.006107068995031648,0.002,8e-05,0.0,-1.4656169302254003,-0.0020020647240785883,-0.00011724935441803203,0.0,-0.0021193140784966204,0.03284989335296974,0.0,-0.03284989335296974,-0.005348461767181985,0.0,0.005348461767181985,-1.0010323620392942,0.0,1.0010323620392942,-0.012214137990063295,0,0.012214137990063295,0.0025855576939972035,-0.0006802509490125799,0.006107068995031648,0.4,0.03375101089477539,1.9621927738189697,STABILIZE
0.05,0,0.01,-0.1847368116405136,0.0007089425242720879,-0.0,0.0050324412071464245,0.005741383731418513,0.06,0,0.01,-0.10878654502151566,0.0035687448164229505,-0.0,0.006862686264197029,0.010431431080619979,0.5,0,0,-0.1512409063642847,-0.013568989080446354,-0.0,-0.0,-0.013568989080446354,0.002,8e-05,0.0,-1.5040949126987972,-0.001983254859264753,-0.00012032759301590379,0.0,-0.0021035824522806566,0.059479080273715845,0.0,-0.059479080273715845,0.014178850485441758,0.0,-0.014178850485441758,-0.9916274296323765,0.0,0.9916274296323765,-0.02713797816089271,0,0.02713797816089271,0.0057463239039985264,-0.01042871052103072,0.013568989080446354,0.4,0.0388028621673584,2.001008987426758,STABILIZE
0.05,0,0.01,-0.18413909648935217,0.0008923419622905875,-0.0,0.0010952040555533731,0.0019875460178439604,0.06,0,0.01,-0.1066788413558452,0.003775964028277165,-0.0,0.0010312069094618166,0.0048071709377389815,0.5,0,0,-0.15215006153686217,-0.013572975507614955,-0.0,-0.0,-0.013572975507614955,0.002,8e-05,0.0,-1.5369153585449242,-0.0019599343260867795,-0.00012295322868359395,0.0,-0.0020828875547703736,0.06293273380461942,0.0,-0.06293273380461942,0.01784683924581175,0.0,-0.01784683924581175,-0.9799671630433898,0.0,0.9799671630433898,-0.02714595101522991,0,0.02714595101522991,0.00198982336604892,-0.004806228726310829,0.013572975507614955,0.4,0.03349137306213379,2.03448486328125,STABILIZE
0.05,0,0.01,-0.183648724624896,0.0007303295454814956,-0.0,-0.0009651651190205895,-0.0002348355735390939,0.06,0,0.01,-0.1045430023044863,0.003817184002586804,-0.0,0.0002046349398920252,0.004021818942478829,0.5,0,0,-0.15369457918786483,-0.023003091241703875,-0.0,-0.0,-0.023003091241703875,0.002,8e-05,0.0,-1.569584071827708,-0.0019461904935954416,-0.00012556672574621665,0.0,-0.002071757219341658,0.06361973337644673,0.0,-0.06361973337644673,0.014606590909629912,0.0,-0.014606590909629912,-0.9730952467977207,0.0,0.9730952467977207,-0.04600618248340775,0,0.04600618248340775,-0.00023160614101519635,-0.004022006209359331,0.023003091241703875,0.4,0.03357195854187012,2.0680782794952393,STABILIZE
0.05,0,0.01,-0.18318186254083116,0.0006967256972523046,-0.0,-0.00020059598229948714,0.0004961297149528175,0.06,0,0.01,-0.10222309461889453,0.004154561327572813,-0.0,0.0016782932976793351,0.005832854625252148,0.5,0,0,-0.15604951768366987,-0.03514412974363834,-0.0,-0.0,-0.03514412974363834,0.002,8e-05,0.0,-1.6031848227246164,-0.0020057749297625526,-0.00012825478581796933,-0.0,-0.002134029715580522,0.06924268879288022,0.0,-0.06924268879288022,0.013934513945046093,0.0,-0.013934513945046093,-1.0028874648812762,0.0,1.0028874648812762,-0.07028825948727668,0,0.07028825948727668,0.0005032848616360921,-0.00583224160348596,0.03514412974363834,0.4,0.03350400924682617,2.101684093475342,STABILIZE
0.05,0,0.01,-0.18248396988500865,0.0010418843060640566,-0.0,0.002061149860934068,0.0031030341669981247,0.06,0,0.01,-0.10047719535973267,0.0031277446860863453,-0.0,-0.005109783646738158,-0.001982038960651813,0.5,0,0,-0.15770396996076222,-0.024699326583440404,-0.0,0.0,-0.024699326583440404,0.002,8e-05,0.0,-1.6371833197542787,-0.002030254950496542,-0.00013097466558034232,-0.0,-0.0021612296160768846,0.05212907810143909,0.0,-0.05212907810143909,0.02083768612128113,0.0,-0.02083768612128113,-1.015127475248271,0.0,1.015127475248271,-0.04939865316688081,0,0.04939865316688081,0.003101324161078263,0.001984713563971303,0.024699326583440404,0.4,0.03349184989929199,2.135075092315674,STABILIZE
0.05,0,0.01,-0.1816225200684083,0.0012882966004543227,-0.0,0.0014740365140522012,0.0027623331145065237,0.06,0,0.01,-0.09949935082011876,0.0017548376310005864,-0.0,-0.0068439331683370274,-0.005089095537336441,0.5,0,0,-0.15995846961281282,-0.033716000415722945,-0.0,-0.0,-0.033716000415722945,0.002,8e-05,0.0,-1.670312011561324,-0.001981755882237976,-0.00013362496092490594,0.0,-0.0021153808431628816,0.029247293850009775,0.0,-0.029247293850009775,0.025765932009086452,0.0,-0.025765932009086452,-0.9908779411189879,0.0,0.9908779411189879,-0.06743200083144589,0,0.06743200083144589,0.0027563417931642698,0.00509234303075637,0.033716000415722945,0.4,0.03343367576599121,2.168501615524292,STABILIZE
0.05,0,0.01,-0.181002099029845,0.0009279179154502008,-0.0,-0.0021559671086336784,-0.0012280491931834776,0.06,0,0.01,-0.09910018390262783,0.000716405365335604,-0.0,-0.00517702142791835,-0.004460616062582745,0.5,0,0,-0.16109767711116896,-0.017038284994134595,-0.0,0.0,-0.017038284994134595,0.002,8e-05,0.0,-1.7030971179897665,-0.0019613704709524763,-0.00013624776943918133,0.0,-0.0020976182403916574,0.011940089422260068,0.0,-0.011940089422260068,0.018558358309004014,0.0,-0.018558358309004014,-0.9806852354762381,0.0,0.9806852354762381,-0.03407656998826919,0,0.03407656998826919,-0.001230701919847672,0.0044598848934847,0.017038284994134595,0.4,0.03343081474304199,2.2019588947296143,STABILIZE
0.05,0,0.01,-0.18026978637713892,0.0010939786188225535,-0.0,0.0009922912474320043,0.0020862698662545576,0.06,0,0.01,-0.0971118804432998,0.003564316084172009,-0.0,0.014181344644758197,0.017745660728930204,0.5,0,0,-0.16427387121064735,-0.0474481551181711,-0.0,-0.0,-0.0474481551181711,0.002,8e-05,0.0,-1.7353527978976755,-0.0019274294401137285,-0.00013882822383181405,0.0,-0.0020662576639455424,0.05940526806953348,0.0,-0.05940526806953348,0.021879572376451068,0.0,-0.021879572376451068,-0.9637147200568642,0.0,0.9637147200568642,-0.0948963102363422,0,0.0948963102363422,0.0021156582962295234,-0.01774218099994284,0.0474481551181711,0.4,0.03347015380859375,2.235419750213623,STABILIZE
0.05,0,0.01,-0.17942234348590325,0.0012670691664461483,-0.0,0.0010351975250029717,0.00230226669144912,0.06,0,0.01,-0.09358509817220059,0.006327756763827897,-0.0,0.013772690032989941,0.02010044679681784,0.5,0,0,-0.1694372516250749,-0.07720119179020365,-0.0,-0.0,-0.07720119179020365,0.002,8e-05,0.0,-1.7672056867732753,-0.0019050163155021785,-0.00014137645494186204,0.0,-0.0020463927704440403,0.10546261273046495,0.0,-0.10546261273046495,0.025341383328922964,0.0,-0.025341383328922964,-0.9525081577510892,0.0,0.9525081577510892,-0.1544023835804073,0,0.1544023835804073,0.0023564255526036418,-0.02009416960128727,0.07720119179020365,0.4,0.03344106674194336,2.2688615322113037,STABILIZE
0.05,0,0.01,-0.17834925447525646,0.0016032705908566678,-0.0,0.0020092344661571475,0.0036125050570138153,0.06,0,0.01,-0.08797906940648142,0.010050962366474969,-0.0,0.018542438347647235,0.028593400714122204,0.5,0,0,-0.17581874858627278,-0.09534406094945352,-0.0,-0.0,-0.09534406094945352,0.002,8e-05,0.0,-1.7983041944678118,-0.0018585344668147349,-0.00014386433555742495,0.0,-0.00200239880237216,0.1675160394412495,0.0,-0.1675160394412495,0.032065411817133356,0.0,-0.032065411817133356,-0.9292672334073674,0.0,0.9292672334073674,-0.19068812189890705,0,0.19068812189890705,0.0037076475884518776,-0.02858121947267404,0.09534406094945352,0.4,0.03346562385559082,2.302332878112793,STABILIZE
0.05,0,0.01,-0.17827073561169163,0.00011745999455214512,-0.0,-0.008890770784187697,-0.00877331078963555,0.06,0,0.01,-0.08351863401254797,0.00800708558354078,-0.0,-0.01019176559997337,-0.0021846800164325893,0.5,0,0,-0.1779496401260611,-0.03187699073714868,-0.0,0.0,-0.03187699073714868,0.002,8e-05,0.0,-1.830348686408355,-0.001917473421226881,-0.0001464278949126684,-0.0,-0.0020639013161395494,0.13345142639234633,0.0,-0.13345142639234633,0.0023491998910429024,0.0,-0.0023491998910429024,-0.9587367106134405,0.0,0.9587367106134405,-0.06375398147429737,0,0.06375398147429737,-0.008775736288195028,0.0021749164548994556,0.03187699073714868,0.4,0.033423662185668945,2.335756540298462,STABILIZE
0.05,0,0.01,-0.17764430847555893,0.000917839546565704,-0.0,0.004690856846565283,0.005608696393130988,0.06,0,0.01,-0.08225041300003152,0.0022298332851786694,-0.0,-0.028216054318572256,-0.025986221033393587,0.5,0,0,-0.18149700717366749,-0.0519759374183217,-0.0,-0.0,-0.0519759374183217,0.002,8e-05,0.0,-1.8629641102088164,-0.0019115216481121597,-0.00014903712881670533,0.0,-0.002060558776928865,0.03716388808631116,0.0,-0.03716388808631116,0.01835679093131408,0.0,-0.01835679093131408,-0.9557608240560798,0.0,0.9557608240560798,-0.1039518748366434,0,0.1039518748366434,0.005561540322690073,0.025996354130258345,0.0519759374183217,0.4,0.03412508964538574,2.369887113571167,STABILIZE
0.05,0,0.01,-0.1774333263942799,0.00031537038305228166,-0.0,-0.003602219292227317,-0.003286848909175035,0.06,0,0.01,-0.07734426768371622,0.00880029006256746,-0.0,0.0327378113210939,0.04153810138366136,0.5,0,0,-0.18137404105600005,0.0018380647018047674,-0.0,0.0,0.0018380647018047674,0.002,8e-05,0.0,-1.8954112495054576,-0.0019400447065261936,-0.00015163289996043662,-0.0,-0.00209167760648663,0.146671501042791,0.0,-0.146671501042791,0.006307407661045632,0.0,-0.006307407661045632,-0.9700223532630968,0.0,0.9700223532630968,0.003676129403609535,0,-0.003676129403609535,-0.0032895140103297318,-0.04153789041209145,-0.0018380647018047674,0.4,0.03344988822937012,2.403348684310913,STABILIZE
0.05,0,0.01,-0.17808791881102132,-0.0009792420149756724,-0.0,-0.007746737180783291,-0.008725979195758963,0.06,0,0.01,-0.07023610051105,0.012760213715146483,-0.0,0.019746249816563956,0.03250646353171044,0.5,0,0,-0.17276662306804538,0.12876325968182076,-0.0,0.0,0.12876325968182076,0.002,8e-05,0.0,-1.9294797291120807,-0.002038599028275988,-0.00015435837832896646,-0.0,-0.0021929574066049547,0.21267022858577472,0.0,-0.21267022858577472,-0.019584840299513448,0.0,0.019584840299513448,-1.0192995141379941,0.0,1.0192995141379941,0.2575265193636415,0,-0.2575265193636415,-0.00887199689792904,-0.032466914779608745,-0.12876325968182076,0.4,0.033423423767089844,2.436785936355591,STABILIZE
0.05,0,0.01,-0.1783303139255496,-0.0003623464079828563,-0.0,0.0036886866755421184,0.003326340267559262,0.06,0,0.01,-0.06506198729514041,0.00928148081827449,-0.0,-0.017334045310915393,-0.008052564492640904,0.5,0,0,-0.1671986357974747,0.0832335334444251,-0.0,-0.0,0.0832335334444251,0.002,8e-05,0.0,-1.962987674433462,-0.002003585534257387,-0.00015703901395467697,0.0,-0.002160624548212064,0.1546913469712415,0.0,-0.1546913469712415,-0.007246928159657126,0.0,0.007246928159657126,-1.0017927671286935,0.0,1.0017927671286935,0.1664670668888502,0,-0.1664670668888502,0.0033497221033695073,0.008042866175308716,-0.0832335334444251,0.4,0.033447980880737305,2.4702329635620117,STABILIZE
0.05,0,0.01,-0.1787132503658065,-0.0005723175039606716,-0.0,-0.001255248870786965,-0.0018275663747476367,0.06,0,0.01,-0.059013047242650156,0.010848529129669365,-0.0,0.007806771428017829,0.018655300557687195,0.5,0,0,-0.16059008943607245,0.09876800327043511,-0.0,0.0,0.09876800327043511,0.002,8e-05,0.0,-1.9958922091190188,-0.0019670983673000272,-0.0001596713767295215,0.0,-0.0021267697440295486,0.18080881882782276,0.0,-0.18080881882782276,-0.011446350079213432,0.0,0.011446350079213432,-0.9835491836500136,0.0,0.9835491836500136,0.19753600654087022,0,-0.19753600654087022,-0.001891872401919961,-0.018648888882896106,-0.09876800327043511,0.4,0.03345489501953125,2.503697395324707,STABILIZE
0.05,0,0.01,-0.17962915731737744,-0.0013660160122470491,-0.0,-0.004735000075525857,-0.006101016087772906,0.06,0,0.01,-0.05051469233114513,0.015209696400224093,-0.0,0.02168133023209895,0.03689102663232304,0.5,0,0,-0.15323208332095722,0.10973990484753286,-0.0,0.0,0.10973990484753286,0.002,8e-05,0.0,-2.029022187021778,-0.001976448818209623,-0.00016232177496174226,-0.0,-0.0021387705931713652,0.2534949400037349,0.0,-0.2534949400037349,-0.027320320244940983,0.0,0.027320320244940983,-0.9882244091048115,0.0,0.9882244091048115,0.21947980969506573,0,-0.21947980969506573,-0.006242287418090524,-0.036867385194504644,-0.10973990484753286,0.4,0.03352475166320801,2.5372214317321777,STABILIZE
0.05,0,0.01,-0.18012859832022424,-0.0005985848085507689,-0.0,0.003679094487813606,0.003080509679262837,0.06,0,0.01,-0.042626197395254806,0.011345323761658888,-0.0,-0.015438291628971496,-0.004092967867312608,0.5,0,0,-0.14443018078675413,0.1054916419214144,-0.0,-0.0,0.1054916419214144,0.002,8e-05,0.0,-2.0696001507569814,-0.0019453230724244875,-0.00016556801206055852,0.0,-0.002110891084485046,0.18908872936098148,0.0,-0.18908872936098148,-0.011971696171015376,0.0,0.011971696171015376,-0.9726615362122437,0.0,0.9726615362122437,0.2109832838428288,0,-0.2109832838428288,0.0030955605121766095,0.004081596619258012,-0.1054916419214144,0.4,0.041718482971191406,2.5789263248443604,STABILIZE
0.05,0,0.01,-0.18128824520859005,-0.0017150846917658399,-0.0,-0.006605086004271577,-0.008320170696037417,0.06,0,0.01,-0.0350711040391553,0.013408521255812454,-0.0,0.010171367605699982,0.023579888861512438,0.5,0,0,-0.13647353786080293,0.11767648080681234,-0.0,0.0,0.11767648080681234,0.002,8e-05,0.0,-2.102306625570823,-0.001934877757621342,-0.00016818453004566587,0.0,-0.002103062287667008,0.2234753542635409,0.0,-0.2234753542635409,-0.034301693835316796,0.0,0.034301693835316796,-0.9674388788106709,0.0,0.9674388788106709,0.23535296161362468,0,-0.23535296161362468,-0.008416958964537318,-0.02354551339261416,-0.11767648080681234,0.4,0.03380727767944336,2.6127398014068604,STABILIZE
0.05,0,0.01,-0.18195724711937927,-0.0010020631916173998,-0.0,0.004271991386617628,0.003269928195000228,0.06,0,0.01,-0.02788676644746671,0.012913255057746818,-0.0,-0.002472778324097736,0.010440476733649081,0.5,0,0,-0.12860535186723526,0.11785346860448405,-0.0,0.0,0.11785346860448405,0.002,8e-05,0.0,-2.134634006400283,-0.0019368601427391643,-0.00017077072051202265,-0.0,-0.0021076308632511868,0.21522091762911363,0.0,-0.21522091762911363,-0.020041263832347993,0.0,0.020041263832347993,-0.9684300713695821,0.0,0.9684300713695821,0.2357069372089681,0,-0.2357069372089681,0.0032269499644896654,-0.010453840382988704,-0.11785346860448405,0.4,0.03338122367858887,2.6461236476898193,STABILIZE
0.05,0,0.01,-0.1823812393018171,-0.0006340433498412544,-0.0,0.0022013663737491754,0.001567323023907921,0.06,0,0.01,-0.022436978813904003,0.009779618823837558,-0.0,-0.015620266105755823,-0.005840647281918266,0.5,0,0,-0.12054388804945063,0.12055216429377491,-0.0,0.0,0.12055216429377491,0.002,8e-05,0.0,-2.1672438935340894,-0.0019506097454327711,-0.00017337951148272717,-0.0,-0.002123989256915498,0.1629936470639593,0.0,-0.1629936470639593,-0.012680866996825088,0.0,0.012680866996825088,-0.9753048727163856,0.0,0.9753048727163856,0.24110432858754982,0,-0.24110432858754982,0.0015918868942180803,0.005834000192755208,-0.12055216429377491,0.4,0.03343558311462402,2.6795578002929688,STABILIZE
0.05,0,0.01,-0.1830821092820316,-0.0010184244344300676,-0.0,-0.002234155262624647,-0.0032525796970547145,0.06,0,0.01,-0.016356612068091,0.01060235576761888,-0.0,0.003985025422255687,0.014587381189874567,0.5,0,0,-0.11272225828810978,0.11365501577877186,-0.0,-0.0,0.11365501577877186,0.002,8e-05,0.0,-2.2004201354462896,-0.0019283174545787064,-0.00017603361083570317,0.0,-0.0021043510654144095,0.1767059294603147,0.0,-0.1767059294603147,-0.020368488688601354,0.0,0.020368488688601354,-0.9641587272893531,0.0,0.9641587272893531,0.22731003155754373,0,-0.22731003155754373,-0.0033104265892258183,-0.014574362437573233,-0.11365501577877186,0.4,0.034409523010253906,2.7139768600463867,STABILIZE
0.05,0,0.01,-0.1837309588154024,-0.0007609529675694192,-0.0,0.00120782194758918,0.0004468689800197609,0.06,0,0.01,-0.008560435052645065,0.010971771538058254,-0.0,0.001444135670522447,0.012415907208580702,0.5,0,0,-0.1030379802914514,0.11357456083910139,-0.0,-0.0,0.11357456083910139,0.002,8e-05,0.0,-2.2411594812672533,-0.0019111195742562551,-0.00017929275850138028,0.0,-0.0020904123327576355,0.18286285896763757,0.0,-0.18286285896763757,-0.015219059351388382,0.0,0.015219059351388382,-0.9555597871281275,0.0,0.9555597871281275,0.22714912167820278,0,-0.22714912167820278,0.0003976427322359812,-0.012417581244142922,-0.11357456083910139,0.4,0.042634010314941406,2.7566025257110596,STABILIZE
0.05,0,0.01,-0.18423188831786197,-0.0007482747059625807,-0.0,7.575375320793669e-05,-0.000672520952754644,0.06,0,0.01,-0.0034803266846696835,0.009106231299950545,-0.0,-0.00928897556959881,-0.00018274426964826583,0.5,0,0,-0.09567944497512762,0.109919775599204,-0.0,-0.0,0.109919775599204,0.002,8e-05,0.0,-2.273092140017359,-0.0019080050761249405,-0.00018184737120138875,0.0,-0.0020898524473263293,0.15177052166584243,0.0,-0.15177052166584243,-0.014965494119251611,0.0,0.014965494119251611,-0.9540025380624703,0.0,0.9540025380624703,0.219839551198408,0,-0.219839551198408,-0.000671814828186154,0.00018532332991963167,-0.109919775599204,0.4,0.033472299575805664,2.7900874614715576,STABILIZE
0.05,0,0.01,-0.18524204978663847,-0.00087106743936859,-0.0,-0.0004235392268152604,-0.0012946066661838505,0.06,0,0.01,0.009677931974736171,0.013615721087695615,0.0,0.012961854263515317,0.026577575351210934,0.5,0,0,-0.08330377746008383,0.10671601863673195,-0.0,-0.0,0.10671601863673195,0.002,8e-05,0.0,-2.328611583484679,-0.0019149880866005213,-0.00018628892667877433,-0.0,-0.0021012770132792956,0.22692868479492692,0.0,-0.22692868479492692,-0.0174213487873718,0.0,0.0174213487873718,-0.9574940433002607,0.0,0.9574940433002607,0.2134320372734639,0,-0.2134320372734639,-0.0013936013625094707,-0.02657256843460629,-0.10671601863673195,0.4,0.057984113693237305,2.848088264465332,STABILIZE
0.05,0,0.01,-0.185990840309853,-0.0011411103109715394,-0.0,-0.001646114343796034,-0.002787224654767573,0.06,0,0.01,0.017540488186230788,0.014378457555814106,0.0,0.0038745435531937857,0.01825300110900789,0.5,0,0,-0.07621791272973451,0.10798418322976967,-0.0,0.0,0.10798418322976967,0.002,8e-05,0.0,-2.3601228551560465,-0.0019208489371183874,-0.00018880982841248373,-0.0,-0.0021096587655308713,0.23964095926356843,0.0,-0.23964095926356843,-0.022822206219430787,0.0,0.022822206219430787,-0.9604244685591937,0.0,0.9604244685591937,0.21596836645953935,0,-0.21596836645953935,-0.0028560068067023615,-0.018242365413554715,-0.10798418322976967,0.4,0.03280973434448242,2.8808887004852295,STABILIZE
0.05,0,0.01,-0.18668182034656186,-0.0009748991966792695,-0.0,0.0009380246791180365,-3.687451756123302e-05,0.06,0,0.01,0.024497777984948028,0.011779193392862854,0.0,-0.012224282467396716,-0.00044508907453386266,0.5,0,0,-0.06890767927598615,0.1031396037943708,-0.0,-0.0,0.1031396037943708,0.002,8e-05,0.0,-2.393549686728565,-0.001886467887135911,-0.0001914839749382852,0.0,-0.002077951862074196,0.19631988988104757,0.0,-0.19631988988104757,-0.01949798393358539,0.0,0.01949798393358539,-0.9432339435679554,0.0,0.9432339435679554,0.2062792075887416,0,-0.2062792075887416,-3.527184950115569e-05,0.00044521894720188165,-0.1031396037943708,0.4,0.03543853759765625,2.9163241386413574,STABILIZE
0.05,0,0.01,-0.18711031564295635,-0.0006367589976363232,-0.0,0.0020099526507279066,0.0013731936530915834,0.06,0,0.01,0.030975871795741843,0.011552008779366118,0.0,-0.0011253476058027169,0.0104266611735634,0.5,0,0,-0.06237205532458859,0.09712165783935614,-0.0,-0.0,0.09712165783935614,0.002,8e-05,0.0,-2.4253882602239254,-0.0018925293524260228,-0.00019403106081791405,-0.0,-0.002086560413243937,0.19253347965610196,0.0,-0.19253347965610196,-0.012735179952726465,0.0,0.012735179952726465,-0.9462646762130114,0.0,0.9462646762130114,0.19424331567871228,0,-0.19424331567871228,0.001337837514937522,-0.010431256627118869,-0.09712165783935614,0.4,0.033646583557128906,2.9499855041503906,STABILIZE
0.05,0,0.01,-0.18773975803270354,-0.0009463847425066133,-0.0,-0.001862124862293969,-0.0028085096048005823,0.06,0,0.01,0.03838838015069136,0.013373903489997929,0.0,0.009130903715630991,0.02250480720562892,0.5,0,0,-0.055862439583913695,0.09787394552550024,-0.0,0.0,0.09787394552550024,0.002,8e-05,0.0,-2.456682011963403,-0.0018820422433847733,-0.00019653456095707224,0.0,-0.0020785768043418457,0.2228983914999655,0.0,-0.2228983914999655,-0.018927694850132265,0.0,0.018927694850132265,-0.9410211216923866,0.0,0.9410211216923866,0.1957478910510005,0,-0.1957478910510005,-0.0028853795052609797,-0.022495080766100937,-0.09787394552550024,0.4,0.03325510025024414,2.983238458633423,STABILIZE
