D-kp,D-ki,D-kd,D-I-Tot,D-P,D-I,D-D,D-PID,E-kp,E-ki,E-kd,E-I-Tot,E-P,E-I,E-D,E-PID,N-kp,N-ki,N-kd,N-I-Tot,N-P,N-I,N-D,N-PID,Y-kp,Y-ki,Y-kd,Y-I-Tot,Y-P,Y-I,Y-D,Y-PID,errorN,desiredN,actualN,errorE,desiredE,actualE,errorD,desiredD,actualD,errorY,desiredY,actualY,roll,pitch,yaw-rate,thrust,dt,Time,Mode
0.05,0.004,0.04,-0.0009971631322034007,-0.001465320368170122,-3.988652528813603e-06,-0.03445235728488598,-0.035921666305584916,0.08,0.002,0.06,-0.000997799989571809,-0.0023460099570247962,-1.995599979143618e-06,-0.05171154141593056,-0.0540595469729345,0.5,0,0,-0.0009932950180079447,-0.014596362164661925,-0.0,-0.0,-0.014596362164661925,0.002,8e-05,0.0,-0.0011338306508090626,-6.664607196276519e-05,-9.070645206472502e-08,-0.0,-6.673677841482991e-05,-0.029325124462809955,0,0.029325124462809955,-0.02930640736340244,0,0.02930640736340244,-0.033323035981382594,0.0,0.033323035981382594,-0.02919272432932385,0.0,0.02919272432932385,-0.0359492054759839,0.05404123753888502,0.014596362164661925,0.4,0.03402543067932129,0.03426861763000488,STABILIZE
0.05,0.004,0.04,-0.0029954056034812186,-0.0024927241009822017,-1.1981622413924875e-05,-0.020506292568845598,-0.023010998292241725,0.08,0.002,0.06,-0.002993425014396427,-0.003983134313202705,-5.986850028792854e-06,-0.030633664815011365,-0.034622785978242865,0.5,0,0,-0.0029943259553263137,-0.024962025960116895,-0.0,-0.0,-0.024962025960116895,0.002,8e-05,0.0,-0.003572362817074964,-0.00012167868492924724,-2.8578902536599714e-07,-0.0,-0.00012196447395461324,-0.049789178915033816,0,0.049789178915033816,-0.04985448201964403,0,0.04985448201964403,-0.06083934246462362,0.0,0.06083934246462362,-0.04992405192023379,0.0,0.04992405192023379,-0.02304115773963271,0.03460272245529427,0.024962025960116895,0.4,0.04008150100708008,0.07429695129394531,STABILIZE
0.05,0.004,0.04,-0.005244734854557776,-0.003365403652467203,-2.0978939418231107e-05,-0.020890984802481305,-0.02427736739436674,0.08,0.002,0.06,-0.0052445517787145695,-0.005388948892156723,-1.048910355742914e-05,-0.03155029560327227,-0.03694973359898642,0.5,0,0,-0.005265012409981761,-0.033973578943357424,-0.0,-0.0,-0.033973578943357424,0.002,8e-05,0.0,-0.006514763008966788,-0.00017609452859021946,-5.211810407173431e-07,-0.0,-0.0001766157096309368,-0.06736186115195904,0,0.06736186115195904,-0.06730807304934405,0,0.06730807304934405,-0.08804726429510973,0.0,0.08804726429510973,-0.06794715788671485,0.0,0.06794715788671485,-0.024321169061732248,0.036920917053992114,0.033973578943357424,0.4,0.03341841697692871,0.10769867897033691,STABILIZE
0.05,0.004,0.04,-0.00867976044563221,-0.005136341835974737,-3.4719041782528843e-05,-0.042368913487039014,-0.04753997436479628,0.08,0.002,0.06,-0.00865058962116231,-0.00814879502989921,-1.730117924232462e-05,-0.061901343100501216,-0.07006743930964275,0.5,0,0,-0.008727222165488682,-0.051769899060832736,-0.0,-0.0,-0.051769899060832736,0.002,8e-05,0.0,-0.01151208134766079,-0.0002988965825164541,-9.209665078128632e-07,-0.0,-0.000299817549024267,-0.10185993787374012,0,0.10185993787374012,-0.10272683671949474,0,0.10272683671949474,-0.14944829125822706,0.0,0.14944829125822706,-0.10353979812166547,0.0,0.10353979812166547,-0.04766651626865378,0.06998141496730488,0.051769899060832736,0.4,0.03343844413757324,0.14114880561828613,STABILIZE
0.05,0.004,0.04,-0.01241775797385409,-0.005585547957780053,-4.9671031895416354e-05,-0.010739706775421036,-0.016374925765096505,0.08,0.002,0.06,-0.012363615514889783,-0.008877174066087467,-2.472723102977957e-05,-0.016325837593610216,-0.025227738890727464,0.5,0,0,-0.012576692848149208,-0.05752118065283112,-0.0,-0.0,-0.05752118065283112,0.002,8e-05,0.0,-0.01731942096248926,-0.0003471074946501674,-1.385553676999141e-06,-0.0,-0.0003484930483271665,-0.11096467582609333,0,0.11096467582609333,-0.11171095915560104,0,0.11171095915560104,-0.1735537473250837,0.0,0.1735537473250837,-0.11504236130566224,0.0,0.11504236130566224,-0.016425546692267118,0.02519480937040995,0.05752118065283112,0.4,0.03346133232116699,0.17461633682250977,STABILIZE
0.05,0.004,0.04,-0.016518360857185332,-0.0061309575004340955,-6.607344342874133e-05,-0.013047379896008396,-0.01924441083987123,0.08,0.002,0.06,-0.016470667460164116,-0.009824959556423579,-3.2941334920328235e-05,-0.02125601792994714,-0.031113918821291046,0.5,0,0,-0.0168659237299594,-0.06412981942929462,-0.0,-0.0,-0.06412981942929462,0.002,8e-05,0.0,-0.024180124727294666,-0.00041030730750420103,-1.9344099781835733e-06,-0.0,-0.0004122417174823846,-0.12281199445529473,0,0.12281199445529473,-0.1226191500086819,0,0.1226191500086819,-0.2051536537521005,0.0,0.2051536537521005,-0.12825963885858924,0.0,0.12825963885858924,-0.019314012719878343,0.031070761265987998,0.06412981942929462,0.4,0.033441781997680664,0.2080521583557129,STABILIZE
0.05,0.004,0.04,-0.021702642854233185,-0.006572061680502989,-8.681057141693274e-05,-0.008946932687971086,-0.015605804939891006,0.08,0.002,0.06,-0.021661401670579165,-0.010528385737464287,-4.3322803341158335e-05,-0.013375893476028244,-0.02394760201683369,0.5,0,0,-0.022303391070218444,-0.06893022170910493,-0.0,-0.0,-0.06893022170910493,0.002,8e-05,0.0,-0.03341403214368735,-0.0004682292292521414,-2.6731225714949884e-06,-0.0,-0.00047090235182363634,-0.1316048217183036,0,0.1316048217183036,-0.13144123361005977,0,0.13144123361005977,-0.2341146146260707,0.0,0.2341146146260707,-0.13786044341820985,0.0,0.13786044341820985,-0.015663380481874236,0.023909983313641706,0.06893022170910493,0.4,0.039441823959350586,0.24761366844177246,STABILIZE
0.05,0.004,0.04,-0.02622572318327649,-0.006759341678873697,-0.00010490289273310597,-0.004477973085653439,-0.011342217657260241,0.08,0.002,0.06,-0.026218132211286705,-0.010895406288648744,-5.2436264422573414e-05,-0.00822719406295295,-0.019175036616024266,0.5,0,0,-0.027140922843667693,-0.07229261423722601,-0.0,-0.0,-0.07229261423722601,0.002,8e-05,0.0,-0.04203407296814083,-0.0005152754050746229,-3.3627258374512666e-06,-0.0,-0.0005186381309120741,-0.1361925786081093,0,0.1361925786081093,-0.13518683357747394,0,0.13518683357747394,-0.25763770253731144,0.0,0.25763770253731144,-0.14458522847445202,0.0,0.14458522847445202,-0.011390569472637816,0.019146353639780837,0.07229261423722601,0.4,0.03345799446105957,0.28098464012145996,STABILIZE
0.05,0.004,0.04,-0.03104303453142407,-0.0072076724777158305,-0.00012417213812569627,-0.010732697394680593,-0.01806454201052212,0.08,0.002,0.06,-0.031129711007811048,-0.011757945046239643,-6.22594220156221e-05,-0.0193579875206999,-0.031178191988955165,0.5,0,0,-0.032468356849541496,-0.07970919188303965,-0.0,-0.0,-0.07970919188303965,0.002,8e-05,0.0,-0.05254834366009077,-0.0006292590535487231,-4.203867492807262e-06,-0.0,-0.0006334629210415304,-0.14697431307799552,0,0.14697431307799552,-0.1441534495543166,0,0.1441534495543166,-0.31462952677436157,0.0,0.31462952677436157,-0.1594183837660793,0.0,0.1594183837660793,-0.01815122141756742,0.031127809026664698,0.07970919188303965,0.4,0.03341794013977051,0.3143939971923828,STABILIZE
0.05,0.004,0.04,-0.0359259201290589,-0.0072984429011240335,-0.0001437036805162356,-0.002170790985319049,-0.009612937566959318,0.08,0.002,0.06,-0.036060283660092514,-0.011791553089820678,-7.212056732018503e-05,-0.0007535085008345232,-0.012617182157975387,0.5,0,0,-0.03801101235692693,-0.08284600147266952,-0.0,-0.0,-0.08284600147266952,0.002,8e-05,0.0,-0.06403971268914556,-0.0006870453877102989,-5.1231770151316455e-06,-0.0,-0.0006921685647254305,-0.14739441362275849,0,0.14739441362275849,-0.14596885802248066,0,0.14596885802248066,-0.34352269385514944,0.0,0.34352269385514944,-0.16569200294533903,0.0,0.16569200294533903,-0.009649384583156185,0.012589330063197878,0.08284600147266952,0.4,0.03345155715942383,0.34784841537475586,STABILIZE
0.05,0.004,0.04,-0.04076579754882283,-0.007227101821103763,-0.0001630631901952913,0.001704470438787788,-0.0056856945725112665,0.08,0.002,0.06,-0.04089315876175592,-0.011546633079844335,-8.178631752351184e-05,0.005485867812157701,-0.0061425515852101455,0.5,0,0,-0.0436554472281714,-0.08428499732346992,-0.0,-0.0,-0.08428499732346992,0.002,8e-05,0.0,-0.07629574569282879,-0.000732048279394211,-6.103659655426304e-06,-0.0,-0.0007381519390496374,-0.1443329134980542,0,0.1443329134980542,-0.14454203642207525,0,0.14454203642207525,-0.3660241396971055,0.0,0.3660241396971055,-0.16856999464693984,0.0,0.16856999464693984,-0.005703741948664746,0.006125797134405762,0.08428499732346992,0.4,0.03348422050476074,0.3813154697418213,STABILIZE
0.05,0.004,0.04,-0.045614930780988536,-0.007239221971086007,-0.00018245972312395416,-0.0002895047897214019,-0.007711186483931364,0.08,0.002,0.06,-0.04562083699081077,-0.011292644840022594,-9.124167398162155e-05,0.0056876471260426335,-0.005696239387961582,0.5,0,0,-0.04928686778605836,-0.08407090809685469,-0.0,0.0,-0.08407090809685469,0.002,8e-05,0.0,-0.08928609101427212,-0.0007757262072255907,-7.14288728114177e-06,-0.0,-0.0007828690945067325,-0.14115806050028243,0,0.14115806050028243,-0.14478443942172015,0,0.14478443942172015,-0.3878631036127953,0.0,0.3878631036127953,-0.16814181619370938,0.0,0.16814181619370938,-0.007727869600753498,0.005673585426225699,0.08407090809685469,0.4,0.033492088317871094,0.41481709480285645,STABILIZE
0.05,0.004,0.04,-0.05052951778627714,-0.00732301852832113,-0.00020211807114510854,-0.0019977873724306024,-0.00952292397189684,0.08,0.002,0.06,-0.050388436840540334,-0.011366398681352599,-0.00010077687368108067,-0.001648462259432808,-0.013115637814466488,0.5,0,0,-0.05500374862474669,-0.08518482684479446,-0.0,-0.0,-0.08518482684479446,0.002,8e-05,0.0,-0.10314532045403373,-0.0008260420976689407,-8.2516256363227e-06,-0.0,-0.0008342937233052634,-0.14207998351690748,0,0.14207998351690748,-0.14646037056642258,0,0.14646037056642258,-0.41302104883447033,0.0,0.41302104883447033,-0.17036965368958892,0.0,0.17036965368958892,-0.009561881313295705,0.013087263350496052,0.08518482684479446,0.4,0.03355574607849121,0.4483642578125,STABILIZE
0.05,0.004,0.04,-0.055746540537090966,-0.007824478252661988,-0.00022298616214836388,-0.012033409536744213,-0.020080873951554563,0.08,0.002,0.06,-0.05532761678320399,-0.01185243243689589,-0.00011065523356640799,-0.010934283973694206,-0.022897371644156506,0.5,0,0,-0.06123764926766877,-0.09349589284844576,-0.0,-0.0,-0.09349589284844576,0.002,8e-05,0.0,-0.11918708949436219,-0.0009623762746343863,-9.534967159548975e-06,-0.0,-0.0009719112417939354,-0.14815540546119862,0,0.14815540546119862,-0.15648956505323974,0,0.15648956505323974,-0.4811881373171932,0.0,0.4811881373171932,-0.1869917856968915,0.0,0.1869917856968915,-0.020155495249481757,0.02283171342928435,0.09349589284844576,0.4,0.03333783149719238,0.4817237854003906,STABILIZE
0.05,0.004,0.04,-0.06082368595052465,-0.007593619645316388,-0.0002432947438020986,0.005524529437794712,-0.002312384951323774,0.08,0.002,0.06,-0.06001949647766776,-0.011227836721657518,-0.00012003899295533551,0.014012624932107897,0.002664749217495044,0.5,0,0,-0.06744789549049356,-0.09288338993623771,-0.0,0.0,-0.09288338993623771,0.002,8e-05,0.0,-0.1358532273929216,-0.000997066673120653,-1.086825819143373e-05,-0.0,-0.0010079349313120867,-0.14034795902071898,0,0.14034795902071898,-0.15187239290632776,0,0.15187239290632776,-0.4985333365603265,0.0,0.4985333365603265,-0.18576677987247542,0.0,0.18576677987247542,-0.002303733050724419,-0.0026722325097657687,0.09288338993623771,0.4,0.03343033790588379,0.515146017074585,STABILIZE
0.05,0.004,0.04,-0.06565773724195789,-0.007167925458122497,-0.0002626309489678316,0.01009950128471116,0.0026689448776208314,0.08,0.002,0.06,-0.06469122395345726,-0.011083571038301836,-0.00012938244790691454,0.0032087547342263645,-0.008004198751982385,0.5,0,0,-0.07351634766567923,-0.08998293608302929,-0.0,0.0,-0.08998293608302929,0.002,8e-05,0.0,-0.15389606143139015,-0.001070155707037795,-1.2311684914511213e-05,-0.0,-0.0010824673919523063,-0.13854463797877295,0,0.13854463797877295,-0.14335850916244994,0,0.14335850916244994,-0.5350778535188975,0.0,0.5350778535188975,-0.17996587216605858,0.0,0.17996587216605858,0.002643790588898703,0.008012542401951175,0.08998293608302929,0.4,0.03372001647949219,0.5488917827606201,STABILIZE
0.05,0.004,0.04,-0.07036858532553378,-0.006994190823546258,-0.00028147434130213514,0.004127097848463562,-0.003148567316384831,0.08,0.002,0.06,-0.06935209761533886,-0.011071990169853455,-0.00013870419523067773,0.0002579115343777522,-0.01095278283070638,0.5,0,0,-0.07934894238232791,-0.08659646781409842,-0.0,0.0,-0.08659646781409842,0.002,8e-05,0.0,-0.1723679216368615,-0.0010970059985026543,-1.378943373094892e-05,-0.0,-0.0011107954322336032,-0.13839987712316817,0,0.13839987712316817,-0.13988381647092515,0,0.13988381647092515,-0.5485029992513272,0.0,0.5485029992513272,-0.17319293562819685,0.0,0.17319293562819685,-0.003181660810570318,0.010943215357878336,0.08659646781409842,0.4,0.033676862716674805,0.5825362205505371,STABILIZE
0.05,0.004,0.04,-0.0749766056735392,-0.006863826843045247,-0.0002999064226941568,0.003106916102456459,-0.004056817163282945,0.08,0.002,0.06,-0.07402652995877154,-0.011140400179435784,-0.00014805305991754308,-0.001528490841975406,-0.012816944081328734,0.5,0,0,-0.08497009839412446,-0.0837293210725834,-0.0,0.0,-0.0837293210725834,0.002,8e-05,0.0,-0.19141129653972205,-0.001134634120242168,-1.5312903723177766e-05,-0.0,-0.0011499470239653459,-0.1392550022429473,0,0.1392550022429473,-0.13727653686090494,0,0.13727653686090494,-0.567317060121084,0.0,0.567317060121084,-0.1674586421451668,0.0,0.1674586421451668,-0.004094259925161162,0.012805032477328358,0.0837293210725834,0.4,0.03356742858886719,0.6161012649536133,STABILIZE
0.05,0.004,0.04,-0.07939899787215121,-0.0066007349466240435,-0.00031759599148860487,0.006282933930377587,-0.0006353970077350619,0.08,0.002,0.06,-0.07837825733802914,-0.010392420283108003,-0.00015675651467605828,0.016746198050726607,0.006197021252942546,0.5,0,0,-0.0908670130353092,-0.08801564583426938,-0.0,-0.0,-0.08801564583426938,0.002,8e-05,0.0,-0.21094767445700446,-0.0011663773510593035,-1.687581395656036e-05,-0.0,-0.0011832531650158638,-0.12990525353885005,0,0.12990525353885005,-0.13201469893248086,0,0.13201469893248086,-0.5831886755296517,0.0,0.5831886755296517,-0.17603129166853876,0.0,0.17603129166853876,-0.0006163547716738204,-0.006198944148989825,0.08801564583426938,0.4,0.03349924087524414,0.6496047973632812,STABILIZE
0.05,0.004,0.04,-0.08374456679479898,-0.006470137844878751,-0.0003349782671791959,0.00311114614624533,-0.003693969965812617,0.08,0.002,0.06,-0.08288948257814881,-0.010746854894235028,-0.00016577896515629763,-0.007915790193901326,-0.01882842405329265,0.5,0,0,-0.0967082144100606,-0.08696991981273011,-0.0,0.0,-0.08696991981273011,0.002,8e-05,0.0,-0.23118704237748944,-0.0012053795732593336,-1.8494963390199158e-05,-0.0,-0.0012238745366495328,-0.13433568617793784,0,0.13433568617793784,-0.12940275689757502,0,0.12940275689757502,-0.6026897866296668,0.0,0.6026897866296668,-0.17393983962546022,0.0,0.17393983962546022,-0.0037511126167518462,0.01881712306850811,0.08696991981273011,0.4,0.03358173370361328,0.6831879615783691,STABILIZE
0.05,0.004,0.04,-0.08836921241475706,-0.006799582718958405,-0.0003534768496590283,-0.00775008632176837,-0.014903145890385803,0.08,0.002,0.06,-0.08767515918309224,-0.011258152642378472,-0.00017535031836618447,-0.011276360238873916,-0.022709863199618575,0.5,0,0,-0.10243624937379572,-0.08421888022061241,-0.0,0.0,-0.08421888022061241,0.002,8e-05,0.0,-0.25351571362852104,-0.0013131872982491933,-2.0281257090281685e-05,-0.0,-0.001333468555339475,-0.1407269080297309,0,0.1407269080297309,-0.1359916543791681,0,0.1359916543791681,-0.6565936491245966,0.0,0.6565936491245966,-0.16843776044122483,0.0,0.16843776044122483,-0.01496984370321909,0.022665952957612548,0.08421888022061241,0.4,0.03400683403015137,0.7171928882598877,STABILIZE
0.05,0.004,0.04,-0.09299131144956695,-0.006906184441740729,-0.0003719652457982678,-0.0025484911640274196,-0.009826640851566417,0.08,0.002,0.06,-0.09241915336961397,-0.01134130570406956,-0.00018483830673922795,-0.0018636674915741614,-0.01338981150238295,0.5,0,0,-0.1076190700738198,-0.07743995836798491,-0.0,0.0,-0.07743995836798491,0.002,8e-05,0.0,-0.27603299164757794,-0.0013457822859648664,-2.208263933180624e-05,-0.0,-0.0013678649252966727,-0.1417663213008695,0,0.1417663213008695,-0.13812368883481457,0,0.13812368883481457,-0.6728911429824331,0.0,0.6728911429824331,-0.15487991673596982,0.0,0.15487991673596982,-0.00986279976840446,0.013363199587800134,0.07743995836798491,0.4,0.033463478088378906,0.7506623268127441,STABILIZE
0.05,0.004,0.04,-0.09684631618071246,-0.005769019517994022,-0.00038738526472284983,0.027228300239511387,0.021071895456794516,0.08,0.002,0.06,-0.09668626119133758,-0.010217171713444209,-0.00019337252238267515,0.025234019352932516,0.014823475117105632,0.5,0,0,-0.11297432513881725,-0.08014146064258215,-0.0,-0.0,-0.08014146064258215,0.002,8e-05,0.0,-0.29918655886920326,-0.001385973720172858,-2.3934924709536263e-05,-0.0,-0.0014099086448823943,-0.1277146464180526,0,0.1277146464180526,-0.11538039035988043,0,0.11538039035988043,-0.692986860086429,0.0,0.692986860086429,-0.1602829212851643,0.0,0.1602829212851643,0.021113281098985366,-0.014764469307250921,0.08014146064258215,0.4,0.033411264419555664,0.7840700149536133,STABILIZE
0.05,0.004,0.04,-0.10021452486991297,-0.005032699646592023,-0.0004008580994796519,0.01760307438652497,0.012169516640453296,0.08,0.002,0.06,-0.10100623728639355,-0.01032769364277589,-0.0002020124745727871,-0.0024770897204423954,-0.013006795837791072,0.5,0,0,-0.11848414845204375,-0.08232650764831721,-0.0,-0.0,-0.08232650764831721,0.002,8e-05,0.0,-0.32254230601718453,-0.0013959047228209401,-2.5803384481374764e-05,-0.0,-0.0014217081073023149,-0.12909617053469863,0,0.12909617053469863,-0.10065399293184045,0,0.10065399293184045,-0.69795236141047,0.0,0.69795236141047,-0.16465301529663443,0.0,0.16465301529663443,0.01213208832819976,0.013041714075419994,0.08232650764831721,0.4,0.033463239669799805,0.8175432682037354,STABILIZE
0.05,0.004,0.04,-0.10353211869438256,-0.004959404175790009,-0.0004141284747775302,0.0017530867644178464,-0.003620445886149693,0.08,0.002,0.06,-0.10301207215630466,-0.0047975714236797905,-0.00020602414431260933,0.12400302452817208,0.11899942896017968,0.5,0,0,-0.12399782900699058,-0.08242289989356145,-0.0,-0.0,-0.08242289989356145,0.002,8e-05,0.0,-0.3458715494500665,-0.0013949766417539575,-2.766972395600532e-05,0.0,-0.0014226463657099628,-0.05996964279599738,0,0.05996964279599738,-0.09918808351580018,0,0.09918808351580018,-0.6974883208769788,0.0,0.6974883208769788,-0.1648457997871229,0.0,0.1648457997871229,-0.0032780578831739225,-0.11900935281639823,0.08242289989356145,0.4,0.0334475040435791,0.8510231971740723,STABILIZE
0.05,0.004,0.04,-0.1055293734871161,-0.002985549548156537,-0.0004221174939484644,0.04720912575078952,0.043801458708684515,0.08,0.002,0.06,-0.10416592489858374,-0.00275969559488054,-0.0002083318497971675,0.04569406428768877,0.04272603684301106,0.5,0,0,-0.130975491611518,-0.10430395516850237,-0.0,-0.0,-0.10430395516850237,0.002,8e-05,0.0,-0.36947834707056015,-0.0014115227406279267,-2.9558267765644815e-05,-0.0,-0.0014410810083935715,-0.03449619493600675,0,0.03449619493600675,-0.05971099096313074,0,0.05971099096313074,-0.7057613703139634,0.0,0.7057613703139634,-0.20860791033700474,0.0,0.20860791033700474,0.04395672905554851,-0.04256627749822657,0.10430395516850237,0.4,0.03344869613647461,0.8844490051269531,STABILIZE
0.05,0.004,0.04,-0.10620426141177854,-0.0010090489865481056,-0.00042481704564711415,0.04728218279146752,0.045848316759272305,0.08,0.002,0.06,-0.10464970428344265,-0.001157305277314387,-0.00020929940856688532,0.03593686300143827,0.034570258315557004,0.5,0,0,-0.13911977362175185,-0.12176806264090048,-0.0,-0.0,-0.12176806264090048,0.002,8e-05,0.0,-0.39187018766099696,-0.0013391535530008403,-3.134961501287976e-05,0.0,-0.00137050316801372,-0.014466315966429836,0,0.014466315966429836,-0.020180979730962112,0,0.020180979730962112,-0.6695767765004201,0.0,0.6695767765004201,-0.24353612528180096,0.0,0.24353612528180096,0.045994843284024534,-0.03437506801361899,0.12176806264090048,0.4,0.033441781997680664,0.9178853034973145,STABILIZE
0.05,0.004,0.04,-0.10709410964313384,-0.001330946707901777,-0.0004283764385725354,-0.007703402848626876,-0.009462725995101189,0.08,0.002,0.06,-0.11151870633431182,-0.016438354935651024,-0.00022303741266862365,-0.34283817205103695,-0.3594995643993566,0.5,0,0,-0.13629190674278843,0.04229642741671119,-0.0,0.0,0.04229642741671119,0.002,8e-05,0.0,-0.4162060603511434,-0.0014559673660995034,-3.329648482809147e-05,-0.0,-0.0014892638509275949,-0.20547943669563778,0,0.20547943669563778,-0.02661893415803554,0,0.02661893415803554,-0.7279836830497517,0.0,0.7279836830497517,0.08459285483342238,0.0,-0.08459285483342238,-0.00893194214685075,0.3595131435651147,-0.04229642741671119,0.4,0.03342914581298828,0.9513318538665771,STABILIZE
0.05,0.004,0.04,-0.10693460070795482,0.00023843309723554207,-0.0004277384028318193,0.03753440768772919,0.037345102382132914,0.08,0.002,0.06,-0.11797536796204786,-0.015442212843815474,-0.0002359507359240957,0.022335417509039068,0.006657253929299497,0.5,0,0,-0.1354705821694139,0.012277115488581444,-0.0,-0.0,0.012277115488581444,0.002,8e-05,0.0,-0.43823265529450617,-0.0013170094196928842,-3.5058612423560495e-05,0.0,-0.0013520680321164448,-0.19302766054769344,0,0.19302766054769344,0.004768661944710841,0,-0.004768661944710841,-0.6585047098464422,0.0,0.6585047098464422,0.02455423097716289,0.0,-0.02455423097716289,0.037342245972219607,-0.006673257642367168,-0.012277115488581444,0.4,0.033449411392211914,0.9847712516784668,STABILIZE
0.05,0.004,0.04,-0.10698857825048147,-8.052864143476636e-05,-0.0004279543130019259,-0.007613701337991488,-0.00812218429242818,0.08,0.002,0.06,-0.1258012058984804,-0.018680482811485117,-0.0002516024117969608,-0.07246721568512117,-0.09139930090840324,0.5,0,0,-0.1309540507823529,0.06738175166420854,-0.0,0.0,0.06738175166420854,0.002,8e-05,0.0,-0.4597153580607785,-0.0012819945385699257,-3.6777228644862284e-05,0.0,-0.001318771767214788,-0.23350603514356394,0,0.23350603514356394,-0.001610572828695327,0,0.001610572828695327,-0.6409972692849628,0.0,0.6409972692849628,0.13476350332841708,0.0,-0.13476350332841708,-0.007907184758519916,0.09141815199083626,-0.06738175166420854,0.4,0.03351449966430664,1.0182867050170898,STABILIZE
0.05,0.004,0.04,-0.10716329380209554,-0.00026096669479892733,-0.0004286531752083822,-0.004312227225785853,-0.005001847095793162,0.08,0.002,0.06,-0.13696364392234336,-0.026676728248393858,-0.00027392728784468676,-0.1791558098171411,-0.20610646535337965,0.5,0,0,-0.1283583679672749,0.03877083400644195,-0.0,-0.0,0.03877083400644195,0.002,8e-05,0.0,-0.48231415647776577,-0.0013502023545873426,-3.858513251822127e-05,-0.0,-0.0013887874871055638,-0.3334591031049232,0,0.3334591031049232,-0.005219333895978546,0,0.005219333895978546,-0.6751011772936713,0.0,0.6751011772936713,0.0775416680128839,0.0,-0.0775416680128839,-0.004722906887286369,0.20611304588833673,-0.03877083400644195,0.4,0.03347468376159668,1.0517830848693848,STABILIZE
0.05,0.004,0.04,-0.10608998876675434,0.0016045993295236223,-0.00042435995506701735,0.04462457017518291,0.045804809549639516,0.08,0.002,0.06,-0.14414483730636382,-0.01717750344553736,-0.00028828967461272766,0.21302121830834825,0.19555542518819816,0.5,0,0,-0.127458946017138,0.013446427722103464,-0.0,-0.0,0.013446427722103464,0.002,8e-05,0.0,-0.5057241038353197,-0.0013999220947351042,-4.0457928306825584e-05,-0.0,-0.0014403800230419297,-0.21471879306921698,0,0.21471879306921698,0.032091986590472445,0,-0.032091986590472445,-0.699961047367552,0.0,0.699961047367552,0.02689285544420693,0.0,-0.02689285544420693,0.04571301687796306,-0.19557690299810654,-0.013446427722103464,0.4,0.03344464302062988,1.0852043628692627,STABILIZE
0.05,0.004,0.04,-0.10610730119882077,-2.5511398249652985e-05,-0.0004244292047952831,-0.0384337949124054,-0.03888373551545034,0.08,0.002,0.06,-0.15047387949649513,-0.014922244567996026,-0.0003009477589929903,0.04984984821334454,0.03462665588635552,0.5,0,0,-0.1234403074238123,0.05921819024754889,-0.0,0.0,0.05921819024754889,0.002,8e-05,0.0,-0.5298018949353964,-0.0014192301009333583,-4.238415159483172e-05,-0.0,-0.00146161425252819,-0.18652805709995032,0,0.18652805709995032,-0.0005102279649930597,0,0.0005102279649930597,-0.7096150504666792,0.0,0.7096150504666792,0.11843638049509778,0.0,-0.11843638049509778,-0.03895522931729266,-0.03454620520903441,-0.05921819024754889,0.4,0.03393077850341797,1.119138479232788,STABILIZE
0.05,0.004,0.04,-0.10576121365061694,0.0005172486932566155,-0.00042304485460246776,0.012979002546170416,0.013073206384824563,0.08,0.002,0.06,-0.15915782694501784,-0.020765892299191763,-0.0003183156538900357,-0.1310052543857846,-0.1520894623388664,0.5,0,0,-0.12087878615236272,0.038283478769539754,-0.0,-0.0,0.038283478769539754,0.002,8e-05,0.0,-0.5543409330286191,-0.0014670028382550613,-4.434727464228953e-05,-0.0,-0.0015113501128973508,-0.25957365373989705,0,0.25957365373989705,0.01034497386513231,0,-0.01034497386513231,-0.7335014191275306,0.0,0.7335014191275306,0.07656695753907951,0.0,-0.07656695753907951,0.013276438720844152,0.1520718562213184,-0.038283478769539754,0.4,0.03345465660095215,1.1526243686676025,STABILIZE
0.05,0.004,0.04,-0.10485944589128886,0.0012405581496102958,-0.00041943778356515546,0.015920860891071767,0.016741981257116907,0.08,0.002,0.06,-0.1678237219983501,-0.019074617154357588,-0.0003356474439967002,0.03490020255970379,0.015489937961349502,0.5,0,0,-0.11914790884353907,0.023811607026587845,-0.0,-0.0,0.023811607026587845,0.002,8e-05,0.0,-0.5804248313204039,-0.0014353404084257865,-4.643398650563232e-05,0.0,-0.0014817743949314189,-0.23843271442946984,0,0.23843271442946984,0.024811162992205916,0,-0.024811162992205916,-0.7176702042128932,0.0,0.7176702042128932,0.04762321405317569,0.0,-0.04762321405317569,0.016729100519546583,-0.01550384824058261,-0.023811607026587845,0.4,0.03634524345397949,1.1889545917510986,STABILIZE
0.05,0.004,0.04,-0.10480504502677446,8.081352795372664e-05,-0.00041922018010709784,-0.027565166175360072,-0.027903572827513445,0.08,0.002,0.06,-0.17223841987026045,-0.010492989420325474,-0.0003444768397405209,0.19122258964902192,0.18038512338895593,0.5,0,0,-0.11716186696737058,0.029503033106121644,-0.0,0.0,0.029503033106121644,0.002,8e-05,0.0,-0.6047729384303652,-0.0014467832098735427,-4.838183507442922e-05,-0.0,-0.001495165044947972,-0.13116236775406842,0,0.13116236775406842,0.0016162705590745327,0,-0.0016162705590745327,-0.7233916049367713,0.0,0.7233916049367713,0.05900606621224329,0.0,-0.05900606621224329,-0.02808932764103723,-0.1803562912383809,-0.029503033106121644,0.4,0.03365826606750488,1.2226028442382812,STABILIZE
0.05,0.004,0.04,-0.10415220435022175,0.0009756193387921966,-0.000416608817400887,0.02139547696390296,0.021954487485294272,0.08,0.002,0.06,-0.177554099113188,-0.012710187105622694,-0.00035510819822637604,-0.049701428328354585,-0.06276672363220366,0.5,0,0,-0.11481191800534969,0.03511814957101749,-0.0,0.0,0.03511814957101749,0.002,8e-05,0.0,-0.6291811499525267,-0.0014590465356475832,-5.0334491996202144e-05,-0.0,-0.0015093810276437854,-0.15887733882028368,0,0.15887733882028368,0.01951238677584393,0,-0.01951238677584393,-0.7295232678237916,0.0,0.7295232678237916,0.07023629914203498,0.0,-0.07023629914203498,0.02203141385186959,0.06273976346744563,-0.03511814957101749,0.4,0.03345775604248047,1.2560851573944092,STABILIZE
0.05,0.004,0.04,-0.10314216354966574,0.0015105680009182576,-0.00041256865419866294,0.01280069210189258,0.013898691448612175,0.08,0.002,0.06,-0.18390786168564405,-0.015203806297093381,-0.0003678157233712881,-0.055940037596071336,-0.07151165961653601,0.5,0,0,-0.11380079568725576,0.015121854660585844,-0.0,-0.0,0.015121854660585844,0.002,8e-05,0.0,-0.653519646672052,-0.0014559789788582964,-5.228157173376416e-05,0.0,-0.0015082605505920606,-0.19004757871366726,0,0.19004757871366726,0.03021136001836515,0,-0.03021136001836515,-0.7279894894291482,0.0,0.7279894894291482,0.030243709321171687,0.0,-0.030243709321171687,0.013936437104987518,0.07150431319797261,-0.015121854660585844,0.4,0.0334324836730957,1.2894926071166992,STABILIZE
0.05,0.004,0.04,-0.10303286671665618,0.00016094884030226354,-0.0004121314668666247,-0.031798855687884146,-0.032050038314448505,0.08,0.002,0.06,-0.18888262552258747,-0.011721217507023768,-0.00037776525104517495,0.07692610273927314,0.06482711998120419,0.5,0,0,-0.11218887736777389,0.02373686199671425,-0.0,0.0,0.02373686199671425,0.002,8e-05,0.0,-0.6783987052576871,-0.0014654608068359436,-5.427189642061497e-05,-0.0,-0.0015197327032565584,-0.14651521883779708,0,0.14651521883779708,0.0032189768060452706,0,-0.0032189768060452706,-0.7327304034179718,0.0,0.7327304034179718,0.0474737239934285,0.0,-0.0474737239934285,-0.03210374129439226,-0.06480054194154393,-0.02373686199671425,0.4,0.03395390510559082,1.3234541416168213,STABILIZE
0.05,0.004,0.04,-0.10383601781930007,-0.0011998019298579876,-0.0004153440712772003,-0.03252451788401084,-0.03413966388514603,0.08,0.002,0.06,-0.19230925192557574,-0.008190285404923267,-0.0003846185038511515,0.07912121024957545,0.07054630634080103,0.5,0,0,-0.11011303785375014,0.031010307360624587,-0.0,0.0,0.031010307360624587,0.002,8e-05,0.0,-0.702655459977983,-0.0014494558261675952,-5.621243679823864e-05,0.0,-0.0015056682629658337,-0.10237856756154083,0,0.10237856756154083,-0.02399603859715975,0,0.02399603859715975,-0.7247279130837976,0.0,0.7247279130837976,0.06202061472124917,0.0,-0.06202061472124917,-0.03421600770111119,-0.07050931006270297,-0.031010307360624587,0.4,0.03347015380859375,1.35695219039917,STABILIZE
0.05,0.004,0.04,-0.10382464371464799,1.7013349442840994e-05,-0.00041529857485859197,0.02912173458903209,0.02872344936361634,0.08,0.002,0.06,-0.19623014701424346,-0.009383779778737639,-0.0003924602940284869,-0.02677837613710361,-0.03655461620986973,0.5,0,0,-0.10826759452740177,0.027604082385813015,-0.0,-0.0,0.027604082385813015,0.002,8e-05,0.0,-0.7270590157342984,-0.0014601104330568822,-5.816472125874388e-05,-0.0,-0.001518275154315626,-0.11729724723422048,0,0.11729724723422048,0.00034026698885681987,0,-0.00034026698885681987,-0.7300552165284411,0.0,0.7300552165284411,0.05520816477162603,0.0,-0.05520816477162603,0.028758658745261394,0.03652692235555445,-0.027604082385813015,0.4,0.03342700004577637,1.3903582096099854,STABILIZE
0.05,0.004,0.04,-0.10381247064345832,1.8181079231102352e-05,-0.00041524988257383327,2.790498794606671e-05,-0.0003691638153966642,0.08,0.002,0.06,-0.1984592298056823,-0.00532679127064999,-0.00039691845961136466,0.09088967158238882,0.08516596185212746,0.5,0,0,-0.10630245333634042,0.02935034810714518,-0.0,0.0,0.02935034810714518,0.002,8e-05,0.0,-0.7514317528699076,-0.0014560751614345292,-6.0114540229592615e-05,0.0,-0.0015161897016641218,-0.06658489088312487,0,0.06658489088312487,0.000363621584622047,0,-0.000363621584622047,-0.7280375807172645,0.0,0.7280375807172645,0.05870069621429036,0.0,-0.05870069621429036,-0.0004564178735772011,-0.08516553893944022,-0.02935034810714518,0.4,0.0334773063659668,1.4238455295562744,STABILIZE
0.05,0.004,0.04,-0.10350180244329522,0.00046459709006327023,-0.0004140072097731809,0.01068167669462911,0.0107322665749192,0.08,0.002,0.06,-0.19873197247088406,-0.0006526085310170049,-0.00039746394494176814,0.10485197864397246,0.10380190616801369,0.5,0,0,-0.1041357017753511,0.03240326720266891,-0.0,0.0,0.03240326720266891,0.002,8e-05,0.0,-0.776689449521761,-0.0015108919883002618,-6.213515596174089e-05,-0.0,-0.0015730271442620028,-0.008157606637712561,0,0.008157606637712561,0.009291941801265404,0,-0.009291941801265404,-0.7554459941501309,0.0,0.7554459941501309,0.06480653440533782,0.0,-0.06480653440533782,0.010614850706356349,-0.10381397889701564,-0.03240326720266891,0.4,0.033434152603149414,1.4572668075561523,STABILIZE
0.05,0.004,0.04,-0.10310351572392557,0.0005955181415092939,-0.00041241406289570226,0.0031320496496582053,0.003315153728271797,0.08,0.002,0.06,-0.1996822963003679,-0.0022734780879940185,-0.0003993645926007358,-0.03635285257794641,-0.03902569525854117,0.5,0,0,-0.10196022610083981,0.0325277034753756,-0.0,0.0,0.0325277034753756,0.002,8e-05,0.0,-0.8015743259480295,-0.0014883142862020052,-6.412594607584237e-05,0.0,-0.0015524402322778475,-0.02841847609992523,0,0.02841847609992523,0.011910362830185877,0,-0.011910362830185877,-0.7441571431010026,0.0,0.7441571431010026,0.0650554069507512,0.0,-0.0650554069507512,0.0033594625678443025,0.039021905974847636,-0.0325277034753756,0.4,0.033440351486206055,1.490713357925415,STABILIZE
0.05,0.004,0.04,-0.10287723351820079,0.00033833223797073643,-0.00041150893407280315,-0.00615262040884001,-0.006225797104942077,0.08,0.002,0.06,-0.20180995142246644,-0.0050899579436840805,-0.0004036199028449329,-0.06316709237407538,-0.06866067022060439,0.5,0,0,-0.10008065134101535,0.028102993467288694,-0.0,-0.0,0.028102993467288694,0.002,8e-05,0.0,-0.8264897641071566,-0.0014901208736937464,-6.611918112857253e-05,-0.0,-0.001556240054822319,-0.063624474296051,0,0.063624474296051,0.006766644759414729,0,-0.006766644759414729,-0.7450604368468732,0.0,0.7450604368468732,0.05620598693457739,0.0,-0.05620598693457739,-0.006158439408043383,0.06866674456235677,-0.028102993467288694,0.4,0.03344082832336426,1.5241518020629883,STABILIZE
0.05,0.004,0.04,-0.10233044719597954,0.0008179104047268304,-0.0004093217887839182,0.011478033199547792,0.011886621815490704,0.08,0.002,0.06,-0.20271583022455322,-0.0021680943141030645,-0.00040543166044910647,0.06556005243837024,0.06298652646381807,0.5,0,0,-0.09837511256159825,0.025512304471762087,-0.0,-0.0,0.025512304471762087,0.002,8e-05,0.0,-0.8513669461594605,-0.0014885014649382525,-6.810935569275685e-05,0.0,-0.0015566108206310095,-0.027101178926288307,0,0.027101178926288307,0.016358208094536607,0,-0.016358208094536607,-0.7442507324691262,0.0,0.7442507324691262,0.051024608943524175,0.0,-0.051024608943524175,0.011830524620425371,-0.06299708708636664,-0.025512304471762087,0.4,0.03342580795288086,1.5575919151306152,STABILIZE
0.05,0.004,0.04,-0.10217865561665884,0.00022558677798880443,-0.0004087146224666354,-0.014084615663710012,-0.014267743508187844,0.08,0.002,0.06,-0.20357069085136145,-0.002032737313036024,-0.0004071413817027229,0.003017435145505839,0.000577556450767092,0.5,0,0,-0.0963617552407483,0.029921738279771515,-0.0,0.0,0.029921738279771515,0.002,8e-05,0.0,-0.876671224735765,-0.0015042496293682787,-7.01336979788612e-05,-0.0,-0.0015743833273471398,-0.025409216412950297,0,0.025409216412950297,0.0045117355597760886,0,-0.0045117355597760886,-0.7521248146841393,0.0,0.7521248146841393,0.05984347655954303,0.0,-0.05984347655954303,-0.014268338963580488,-0.0005626539697095143,-0.029921738279771515,0.4,0.03364372253417969,1.5912134647369385,STABILIZE
0.05,0.004,0.04,-0.10213207418901145,6.955034932654215e-05,-0.0004085282967560458,-0.0037276274839066273,-0.004066605431336131,0.08,0.002,0.06,-0.20526829693395202,-0.004055490852080802,-0.00041053659386790405,-0.04530235192886258,-0.04976837937481129,0.5,0,0,-0.09461875549655528,0.026024586880923545,-0.0,-0.0,0.026024586880923545,0.002,8e-05,0.0,-0.9017598806474332,-0.0014983866926523246,-7.214079045179466e-05,0.0,-0.0015705274831041192,-0.050693635651010024,0,0.050693635651010024,0.0013910069865308429,0,-0.0013910069865308429,-0.7491933463261623,0.0,0.7491933463261623,0.05204917376184709,0.0,-0.05204917376184709,-0.004021392697827571,0.049772053062930546,-0.026024586880923545,0.4,0.033487558364868164,1.6247098445892334,STABILIZE
0.05,0.004,0.04,-0.10143112416403924,0.00104776885398973,-0.00040572449665615695,0.023395605280091387,0.02403764963742496,0.08,0.002,0.06,-0.20721112370476788,-0.004646570070073704,-0.0004144222474095358,-0.013253036010908022,-0.01831402832839126,0.5,0,0,-0.09331676551511094,0.019461937401573523,-0.0,-0.0,0.019461937401573523,0.002,8e-05,0.0,-0.9268030474558426,-0.0014973649619692197,-7.414424379646742e-05,0.0,-0.001571509205765687,-0.05808212587592129,0,0.05808212587592129,0.0209553770797946,0,-0.0209553770797946,-0.7486824809846099,0.0,0.7486824809846099,0.038923874803147046,0.0,-0.038923874803147046,0.024050085720573523,0.01829769413171451,-0.019461937401573523,0.4,0.033449649810791016,1.6581828594207764,STABILIZE
0.05,0.004,0.04,-0.10096122247036797,0.0007028323372365269,-0.0004038448898814719,-0.008254749162491238,-0.007955761715136183,0.08,0.002,0.06,-0.20815274441876683,-0.0022534125622392614,-0.00041630548883753366,0.05369171383907956,0.05102199578800276,0.5,0,0,-0.09115335961508202,0.03235807926609306,-0.0,0.0,0.03235807926609306,0.002,8e-05,0.0,-0.9517992728899499,-0.0014954749710891797,-7.6143941831196e-05,0.0,-0.0015716189129203757,-0.028167657027990768,0,0.028167657027990768,0.014056646744730537,0,-0.014056646744730537,-0.7477374855445899,0.0,0.7477374855445899,0.06471615853218612,0.0,-0.06471615853218612,-0.00801338648472104,-0.051012977130387986,-0.03235807926609306,0.4,0.03342914581298828,1.6915910243988037,STABILIZE
0.05,0.004,0.04,-0.10038304031453243,0.000864380633082024,-0.00040153216125812975,0.003864227681934171,0.004327076153758065,0.08,0.002,0.06,-0.20923099658337832,-0.0025791741353818425,-0.00041846199316675664,-0.007305188995841583,-0.010302825124390182,0.5,0,0,-0.08910544879898429,0.030616206844986404,-0.0,-0.0,0.030616206844986404,0.002,8e-05,0.0,-0.9770169358706574,-0.0015080132980315295,-7.81613548696526e-05,-0.0,-0.001586174652901182,-0.03223967669227303,0,0.03223967669227303,0.01728761266164048,0,-0.01728761266164048,-0.7540066490157648,0.0,0.7540066490157648,0.06123241368997281,0.0,-0.06123241368997281,0.004338084384287025,0.01029819486410081,-0.030616206844986404,0.4,0.033444881439208984,1.7250399589538574,STABILIZE
0.05,0.004,0.04,-0.09953255098766614,0.001271180016403785,-0.0003981302039506646,0.009728333662586656,0.010601383475039777,0.08,0.002,0.06,-0.2109206469837244,-0.004040685296390562,-0.0004218412939674488,-0.032766615457787605,-0.03722914204814562,0.5,0,0,-0.0876938434304122,0.021098495641194925,-0.0,-0.0,0.021098495641194925,0.002,8e-05,0.0,-1.0020831426704206,-0.001498603693866824,-8.016665141363366e-05,0.0,-0.0015787703452804578,-0.050508566204882026,0,0.050508566204882026,0.0254236003280757,0,-0.0254236003280757,-0.7493018469334121,0.0,0.7493018469334121,0.04219699128238985,0.0,-0.04219699128238985,0.010628798983192857,0.03722132428327515,-0.021098495641194925,0.4,0.033452749252319336,1.7584998607635498,STABILIZE
0.05,0.004,0.04,-0.0989837910145489,0.0008201022427047699,-0.0003959351640581956,-0.010785914774168372,-0.010361747695521797,0.08,0.002,0.06,-0.2112879124777481,-0.0008781843285135392,-0.00042257582495549623,0.07089367656260939,0.06959291640914035,0.5,0,0,-0.08588621423769047,0.02701437472760078,-0.0,0.0,0.02701437472760078,0.002,8e-05,0.0,-1.027439070962944,-0.00151574128414919,-8.219512567703552e-05,-0.0,-0.0015979364098262256,-0.01097730410641924,0,0.01097730410641924,0.016402044854095396,0,-0.016402044854095396,-0.757870642074595,0.0,0.757870642074595,0.05402874945520156,0.0,-0.05402874945520156,-0.010427367777211231,-0.06958311455284266,-0.02701437472760078,0.4,0.03345680236816406,1.7919528484344482,STABILIZE
0.05,0.004,0.04,-0.09821027802719712,0.0011544163482879709,-0.00039284111210878845,0.007983062733461195,0.008744637969640378,0.08,0.002,0.06,-0.21208283338304487,-0.001898185972157373,-0.00042416566676608977,-0.022834262487325056,-0.02515661412624852,0.5,0,0,-0.08454936556457233,0.01995157144960489,-0.0,-0.0,0.01995157144960489,0.002,8e-05,0.0,-1.0527877926177722,-0.0015132508006993103,-8.422302340942179e-05,0.0,-0.001597473824108732,-0.023727324651967162,0,0.023727324651967162,0.023088326965759416,0,-0.023088326965759416,-0.7566254003496551,0.0,0.7566254003496551,0.03990314289920978,0.0,-0.03990314289920978,0.008762155950687764,0.02515051789949602,-0.01995157144960489,0.4,0.03350234031677246,1.8254883289337158,STABILIZE
0.05,0.004,0.04,-0.09719226142347454,0.0015010022614353876,-0.0003887690456938982,0.008176310484738459,0.009288543700479948,0.08,0.002,0.06,-0.21331649964590965,-0.00291034286654319,-0.0004266329992918193,-0.022385437258760254,-0.025722413124595264,0.5,0,0,-0.08367141565453297,0.012944826200056849,-0.0,-0.0,0.012944826200056849,0.002,8e-05,0.0,-1.0785456427464963,-0.0015191340161467405,-8.628365141971971e-05,-0.0,-0.0016054176675664603,-0.03637928583178987,0,0.03637928583178987,0.03002004522870775,0,-0.03002004522870775,-0.7595670080733703,0.0,0.7595670080733703,0.025889652400113698,0.0,-0.025889652400113698,0.009300165673105478,0.025718213380421025,-0.012944826200056849,0.4,0.03391122817993164,1.859368085861206,STABILIZE
0.05,0.004,0.04,-0.09631889964658683,0.0012993284742262954,-0.0003852755985863473,-0.004800585528890526,-0.0038865326532505776,0.08,0.002,0.06,-0.2147132978943085,-0.003324898863078853,-0.000429426595788617,-0.009251224831126883,-0.013005550289994353,0.5,0,0,-0.08215207420045828,0.02260373267521015,-0.0,0.0,0.02260373267521015,0.002,8e-05,0.0,-1.1041971654246416,-0.0015265038935754096,-8.833577323397133e-05,-0.0,-0.001614839666809381,-0.04156123578848566,0,0.04156123578848566,0.025986569484525907,0,-0.025986569484525907,-0.7632519467877048,0.0,0.7632519467877048,0.0452074653504203,0.0,-0.0452074653504203,-0.0038762698167287444,0.01300861278992779,-0.02260373267521015,0.4,0.033608198165893555,1.892982006072998,STABILIZE
0.05,0.004,0.04,-0.09552040213762004,0.0011941345103682458,-0.0003820816085504802,-0.002517042142067404,-0.0017049892402496384,0.08,0.002,0.06,-0.21510223695419373,-0.0009306389535317841,-0.00043020447390838747,0.053708402706493345,0.05234755927905317,0.5,0,0,-0.08070017004090142,0.02171289006170428,-0.0,-0.0,0.02171289006170428,0.002,8e-05,0.0,-1.1297467829579524,-0.0015283544246851406,-9.03797426366362e-05,-0.0,-0.0016187341673217768,-0.011632986919147301,0,0.011632986919147301,0.023882690207364915,0,-0.023882690207364915,-0.7641772123425703,0.0,0.7641772123425703,0.04342578012340856,0.0,-0.04342578012340856,-0.0017446641577119441,-0.052346251993434526,-0.02171289006170428,0.4,0.033434152603149414,1.9264154434204102,STABILIZE
0.05,0.004,0.04,-0.09461297589385423,0.0013556525061021642,-0.00037845190357541693,0.003860805696579229,0.004838006299105977,0.08,0.002,0.06,-0.2156222032835556,-0.0012428887303287364,-0.0004312444065671112,-0.006997299152732114,-0.008671432289627962,0.5,0,0,-0.07958032075733358,0.01673002624902308,-0.0,-0.0,0.01673002624902308,0.002,8e-05,0.0,-1.1551032699302615,-0.0015152563790662786,-9.240826159442093e-05,0.0,-0.0016076646406606996,-0.015536109129109205,0,0.015536109129109205,0.027113050122043285,0,-0.027113050122043285,-0.7576281895331393,0.0,0.7576281895331393,0.03346005249804616,0.0,-0.03346005249804616,0.00484306948696448,0.008668605473098032,-0.01673002624902308,0.4,0.03346824645996094,1.9599058628082275,STABILIZE
0.05,0.004,0.04,-0.09373910125992628,0.001299077737264581,-0.00037495640503970514,-0.0013456396573946858,-0.00042151832516981,0.08,0.002,0.06,-0.2164173476193425,-0.0018912631435743844,-0.00043283469523868503,-0.014457830670861224,-0.016781928509674294,0.5,0,0,-0.07829841027099618,0.019056524921448024,-0.0,0.0,0.019056524921448024,0.002,8e-05,0.0,-1.1806957033971313,-0.0015218000051012719,-9.44556562717705e-05,-0.0,-0.0016162556613730423,-0.023640789294679804,0,0.023640789294679804,0.02598155474529162,0,-0.02598155474529162,-0.760900002550636,0.0,0.760900002550636,0.03811304984289605,0.0,-0.03811304984289605,-0.0004103549239675715,0.01678220518998169,-0.019056524921448024,0.4,0.03363442420959473,1.993518590927124,STABILIZE
0.05,0.004,0.04,-0.09299566859286754,0.0011115722975813382,-0.00037198267437147016,-0.004485696938173018,-0.0037461073149631504,0.08,0.002,0.06,-0.21676361387635096,-0.0008283735615774008,-0.0004335272277527019,0.0238383111293042,0.0225764103399741,0.5,0,0,-0.0771205773068827,0.017610828150267474,-0.0,-0.0,0.017610828150267474,0.002,8e-05,0.0,-1.2060459764118234,-0.0015161379082648768,-9.648367811294589e-05,0.0,-0.0016126215863778227,-0.010354669519717509,0,0.010354669519717509,0.022231445951626762,0,-0.022231445951626762,-0.7580689541324384,0.0,0.7580689541324384,0.03522165630053495,0.0,-0.03522165630053495,-0.0037599850903754996,-0.0225741032152833,-0.017610828150267474,0.4,0.033440589904785156,2.026951789855957,STABILIZE
0.05,0.004,0.04,-0.09239333812688837,0.0009000908809305687,-0.00036957335250755347,-0.005056426805287134,-0.004525909276864118,0.08,0.002,0.06,-0.217351316782173,-0.0014051715624030698,-0.00043470263356434603,-0.012929047674141401,-0.014768921870108817,0.5,0,0,-0.0761697294622573,0.014208968704721107,-0.0,-0.0,0.014208968704721107,0.002,8e-05,0.0,-1.2314230793515417,-0.0015168881689120242,-9.851384634812335e-05,-0.0,-0.0016154020152601475,-0.01756464453003837,0,0.01756464453003837,0.018001817618611374,0,-0.018001817618611374,-0.7584440844560121,0.0,0.7584440844560121,0.028417937409442214,0.0,-0.028417937409442214,-0.004518583533505318,0.014771164843657992,-0.014208968704721107,0.4,0.03345942497253418,2.0604453086853027,STABILIZE
0.05,0.004,0.04,-0.09193573667508871,0.0006844690273845737,-0.00036774294670035483,-0.005160350074906779,-0.00484362399422256,0.08,0.002,0.06,-0.21818774574774602,-0.002001775888745063,-0.00043637549149549206,-0.0133857917641678,-0.015823943144408353,0.5,0,0,-0.07544954699546712,0.010772312689233244,-0.0,-0.0,0.010772312689233244,0.002,8e-05,0.0,-1.256781985647053,-0.0015172492009684177,-0.00010054255885176425,-0.0,-0.001617791759820182,-0.02502219860931329,0,0.02502219860931329,0.013689380547691473,0,-0.013689380547691473,-0.7586246004842089,0.0,0.7586246004842089,0.02154462537846649,0.0,-0.02154462537846649,-0.004837673459265714,0.015825763347668026,-0.010772312689233244,0.4,0.03342747688293457,2.093855142593384,STABILIZE
0.05,0.004,0.04,-0.09127028397670973,0.0009946796605257782,-0.00036508113590683896,0.007418954537649853,0.008048553062268793,0.08,0.002,0.06,-0.21910525610551537,-0.002194305064009565,-0.00043821051221103077,-0.004316719771966552,-0.006949235348187148,0.5,0,0,-0.07485517284873279,0.008884356107341253,-0.0,-0.0,0.008884356107341253,0.002,8e-05,0.0,-1.2822794905128685,-0.0015244869873374523,-0.00010258235924102949,-0.0,-0.0016270693465784817,-0.027428813300119564,0,0.027428813300119564,0.019893593210515564,0,-0.019893593210515564,-0.7622434936687261,0.0,0.7622434936687261,0.017768712214682507,0.0,-0.017768712214682507,0.008050707789657035,0.006946738976397893,-0.008884356107341253,0.4,0.03345060348510742,2.1273140907287598,STABILIZE
0.05,0.004,0.04,-0.09067608715321974,0.0008880439679990961,-0.000362704348612879,-0.0025499209629705017,-0.0020245813435842844,0.08,0.002,0.06,-0.2195587946584838,-0.001084521923501468,-0.0004391175893169676,0.024879034641925396,0.023355395129106962,0.5,0,0,-0.0742835358235298,0.0085432771103499,-0.0,-0.0,0.0085432771103499,0.002,8e-05,0.0,-1.3077487755579282,-0.0015225826904068432,-0.00010461990204463427,0.0,-0.0016272025924514775,-0.01355652404376835,0,0.01355652404376835,0.01776087935998192,0,-0.01776087935998192,-0.7612913452034216,0.0,0.7612913452034216,0.0170865542206998,0.0,-0.0170865542206998,-0.0020315462206585487,-0.023354790326758038,-0.0085432771103499,0.4,0.03345537185668945,2.1607866287231445,STABILIZE
0.05,0.004,0.04,-0.09014847253104075,0.0007883439682891505,-0.000360593890124163,-0.0023834940156939404,-0.0019557439375289527,0.08,0.002,0.06,-0.22008404765134365,-0.0012557044822959224,-0.0004401680953026873,-0.0038366280622941745,-0.005532500639892784,0.5,0,0,-0.07396319743606258,0.004786388112753637,-0.0,-0.0,0.004786388112753637,0.002,8e-05,0.0,-1.3331588462821145,-0.0015186748165911968,-0.00010665270770256916,0.0,-0.001625327524293766,-0.01569630602869903,0,0.01569630602869903,0.01576687936578301,0,-0.01576687936578301,-0.7593374082955984,0.0,0.7593374082955984,0.009572776225507274,0.0,-0.009572776225507274,-0.001954819559594117,0.005532827321453614,-0.004786388112753637,0.4,0.033463478088378906,2.194247245788574,STABILIZE
0.05,0.004,0.04,-0.08945633123126881,0.0010340047379588985,-0.0003578253249250753,0.005871966313302719,0.006548145726336542,0.08,0.002,0.06,-0.22092694703185933,-0.0020147607509923334,-0.0004418538940637187,-0.017009556685927546,-0.0194661713309836,0.5,0,0,-0.07370116887064534,0.003914500958276436,-0.0,-0.0,0.003914500958276436,0.002,8e-05,0.0,-1.358672814445716,-0.0015246345781700565,-0.0001086938251556573,-0.0,-0.0016333284033257138,-0.025184509387404165,0,0.025184509387404165,0.02068009475917797,0,-0.02068009475917797,-0.7623172890850283,0.0,0.7623172890850283,0.007829001916552872,0.0,-0.007829001916552872,0.006550805559067262,0.019465276398444507,-0.003914500958276436,0.4,0.03346896171569824,2.2277417182922363,STABILIZE
0.05,0.004,0.04,-0.08893594491511625,0.0007786365511254939,-0.000355743779660465,-0.006113581332675584,-0.005690688561210555,0.08,0.002,0.06,-0.2214290589386392,-0.0012020690667338698,-0.00044285811787727843,0.01824004870567718,0.016595121521066035,0.5,0,0,-0.07315033617787486,0.008241924409484902,-0.0,0.0,0.008241924409484902,0.002,8e-05,0.0,-1.3841478378451249,-0.0015246968449294563,-0.00011073182702760999,-0.0,-0.0016354286719570663,-0.015025863334173372,0,0.015025863334173372,0.015572731022509877,0,-0.015572731022509877,-0.7623484224647281,0.0,0.7623484224647281,0.016483848818969804,0.0,-0.016483848818969804,-0.005695462699536046,-0.016593483637796957,-0.008241924409484902,0.4,0.0334165096282959,2.2611396312713623,STABILIZE
0.05,0.004,0.04,-0.0882456959855034,0.0010320893538451011,-0.00035298278394201363,0.006063573372831254,0.006742679942734342,0.08,0.002,0.06,-0.22194187664366147,-0.0012268587081790906,-0.00044388375328732293,-0.0005559977840661036,-0.002226740245532517,0.5,0,0,-0.07289212381322367,0.0038609003383336137,-0.0,-0.0,0.0038609003383336137,0.002,8e-05,0.0,-1.4096010288793932,-0.0015223474523945047,-0.00011276808231035146,0.0,-0.0016351155347048563,-0.015335733852238631,0,0.015335733852238631,0.02064178707690202,0,-0.02064178707690202,-0.7611737261972523,0.0,0.7611737261972523,0.0077218006766672275,0.0,-0.0077218006766672275,0.006742979981165867,0.0022258315086327992,-0.0038609003383336137,0.4,0.03343939781188965,2.294567823410034,STABILIZE
0.05,0.004,0.04,-0.08735864181251063,0.001325340319742478,-0.00034943456725004254,0.007010301571025024,0.00798620732351746,0.08,0.002,0.06,-0.22277304945638662,-0.0019869575048150146,-0.00044554609891277327,-0.017034860093784916,-0.019467363697512705,0.5,0,0,-0.07281368215162906,0.001171990392742114,-0.0,-0.0,0.001171990392742114,0.002,8e-05,0.0,-1.4350780972364292,-0.0015226031036411271,-0.00011480624777891434,-0.0,-0.0016374093514200415,-0.024836968810187682,0,0.024836968810187682,0.02650680639484956,0,-0.02650680639484956,-0.7613015518205636,0.0,0.7613015518205636,0.002343980785484228,0.0,-0.002343980785484228,0.007987003730232171,0.019467036964024517,-0.001171990392742114,0.4,0.03346514701843262,2.328030586242676,STABILIZE
0.05,0.004,0.04,-0.08654797374882447,0.001199885770916058,-0.0003461918949952979,-0.0029710039860022007,-0.0021173101100814408,0.08,0.002,0.06,-0.2238583095452934,-0.0025701037388866227,-0.0004477166190905868,-0.012946893432143948,-0.015964713790121158,0.5,0,0,-0.07245778349958198,0.0052677260596369615,-0.0,0.0,0.0052677260596369615,0.002,8e-05,0.0,-1.4607533749974118,-0.0015200993762915773,-0.00011686026999979295,0.0,-0.0016369596462913704,-0.032126296736082784,0,0.032126296736082784,0.023997715418321155,0,-0.023997715418321155,-0.7600496881457887,0.0,0.7600496881457887,0.010535452119273923,0.0,-0.010535452119273923,-0.0021143745094301253,0.01596510284766778,-0.0052677260596369615,0.4,0.03378105163574219,2.3618266582489014,STABILIZE
0.05,0.004,0.04,-0.08566994981864169,0.0011618594052552565,-0.00034267979927456676,-0.0008051040810512719,1.407552492941797e-05,0.08,0.002,0.06,-0.22469877088231757,-0.0017794465514791142,-0.00044939754176463514,0.015693749189686256,0.013464905096442506,0.5,0,0,-0.07205884522468926,0.005279015421640231,-0.0,0.0,0.005279015421640231,0.002,8e-05,0.0,-1.4893554984570445,-0.0015139289492908544,-0.00011914843987656356,0.0,-0.0016330773891674178,-0.022243081893488927,0,0.022243081893488927,0.023237188105105132,0,-0.023237188105105132,-0.7569644746454272,0.0,0.7569644746454272,0.010558030843280462,0.0,-0.010558030843280462,1.1594314316594136e-05,-0.013464907461563966,-0.005279015421640231,0.4,0.03778529167175293,2.399587869644165,STABILIZE
0.05,0.004,0.04,-0.08490496171455084,0.0011308612642091842,-0.00033961984685820334,-0.0007331794423267499,5.8061975024230935e-05,0.08,0.002,0.06,-0.22550207632782054,-0.0019000076090902843,-0.0004510041526556411,-0.0026733323556696223,-0.005024344117415548,0.5,0,0,-0.0717324607705848,0.004824853280894271,-0.0,-0.0,0.004824853280894271,0.002,8e-05,0.0,-1.5148843841882107,-0.0015095465060130907,-0.00012119075073505687,0.0,-0.0016307372567481474,-0.023750095113628553,0,0.023750095113628553,0.022617225284183685,0,-0.022617225284183685,-0.7547732530065453,0.0,0.7547732530065453,0.009649706561788542,0.0,-0.009649706561788542,5.8908169969134435e-05,0.005024334267409248,-0.004824853280894271,0.4,0.033823251724243164,2.4334611892700195,STABILIZE
0.05,0.004,0.04,-0.08415166983868173,0.0011268921477320646,-0.0003366066793547269,-9.500203222215199e-05,0.0006952834361551857,0.08,0.002,0.06,-0.2264099451053725,-0.0021730120382122326,-0.000452819890210745,-0.00612604271986852,-0.008751874648291497,0.5,0,0,-0.0712050658698288,0.007889600186251563,-0.0,0.0,0.007889600186251563,0.002,8e-05,0.0,-1.5400137857343827,-0.0015037000231505643,-0.00012320110285875063,0.0,-0.001626901126009315,-0.027162650477652907,0,0.027162650477652907,0.022537842954641292,0,-0.022537842954641292,-0.7518500115752822,0.0,0.7518500115752822,0.015779200372503126,0.0,-0.015779200372503126,0.0006976936672827635,0.008751682836039746,-0.007889600186251563,0.4,0.033423423767089844,2.4668657779693604,STABILIZE
0.05,0.004,0.04,-0.08338814478205521,0.0011417607418280056,-0.00033355257912822084,0.00035574737206247367,0.0011639555347622585,0.08,0.002,0.06,-0.22705510718823904,-0.0015436208296033822,-0.0004541102143764781,0.014117693329207382,0.012119962285227522,0.5,0,0,-0.07084555449647581,0.0053760642008099675,-0.0,-0.0,0.0053760642008099675,0.002,8e-05,0.0,-1.5651346064502227,-0.0015026077610377907,-0.00012521076851601783,0.0,-0.0016278185295538086,-0.019295260370042276,0,0.019295260370042276,0.022835214836560112,0,-0.022835214836560112,-0.7513038805188953,0.0,0.7513038805188953,0.010752128401619935,0.0,-0.010752128401619935,0.001161681081646535,-0.012120180499760956,-0.0053760642008099675,0.4,0.03343629837036133,2.5002851486206055,STABILIZE
0.05,0.004,0.04,-0.08268505435144126,0.0010509907714051836,-0.00033074021740576504,-0.0021709503547486324,-0.0014506998007492139,0.08,0.002,0.06,-0.22779043387512998,-0.0017586848649679028,-0.00045558086775025997,-0.004822217169814766,-0.007036482902532929,0.5,0,0,-0.07030147621955027,0.008132968720274808,-0.0,0.0,0.008132968720274808,0.002,8e-05,0.0,-1.5900870492618138,-0.0014919723538889809,-0.00012720696394094512,0.0,-0.0016191793178299261,-0.021983560812098783,0,0.021983560812098783,0.02101981542810367,0,-0.02101981542810367,-0.7459861769444904,0.0,0.7459861769444904,0.016265937440549615,0.0,-0.016265937440549615,-0.0014487021258828706,0.0070368944641791015,-0.008132968720274808,0.4,0.03344893455505371,2.5337412357330322,STABILIZE
0.05,0.004,0.04,-0.08204669927458041,0.0009545975657079741,-0.00032818679709832165,-0.0023063457400378114,-0.001679934971428159,0.08,0.002,0.06,-0.22861347427233694,-0.001969242230557178,-0.0004572269485446739,-0.004723019113950506,-0.007149488293052358,0.5,0,0,-0.06957519498842511,0.010860825273934475,-0.0,0.0,0.010860825273934475,0.002,8e-05,0.0,-1.6147340662905594,-0.001474288107697322,-0.00012917872530324477,0.0,-0.0016034668330005668,-0.02461552788196472,0,0.02461552788196472,0.019091951314159483,0,-0.019091951314159483,-0.737144053848661,0.0,0.737144053848661,0.02172165054786895,0.0,-0.02172165054786895,-0.0016772243773666028,0.007150124666653531,-0.010860825273934475,0.4,0.033435821533203125,2.567192792892456,STABILIZE
0.05,0.004,0.04,-0.08134878145149571,0.0010342793655125301,-0.00032539512580598284,0.0018893511784638765,0.0025982354181704236,0.08,0.002,0.06,-0.2295208299177968,-0.002151449217061264,-0.0004590416598355936,-0.004050324841120789,-0.006660815718017646,0.5,0,0,-0.06893742211225858,0.009451475573257677,-0.0,-0.0,0.009451475573257677,0.002,8e-05,0.0,-1.6394378668110408,-0.001464391954636775,-0.00013115502934488328,0.0,-0.0015955469839816583,-0.0268931152132658,0,0.0268931152132658,0.0206855873102506,0,-0.0206855873102506,-0.7321959773183875,0.0,0.7321959773183875,0.018902951146515353,0.0,-0.018902951146515353,0.00260043280462773,0.006659958148985783,-0.009451475573257677,0.4,0.033739328384399414,2.601256847381592,STABILIZE
0.05,0.004,0.04,-0.08069023039907332,0.0009366186449263728,-0.00032276092159629326,-0.002222354095500439,-0.0016084963721703593,0.08,0.002,0.06,-0.23020469996958692,-0.00155620540301578,-0.00046040939993917385,0.012698706936873009,0.010682092133918054,0.5,0,0,-0.06840041696247312,0.007637510165087798,-0.0,-0.0,0.007637510165087798,0.002,8e-05,0.0,-1.6652561423089942,-0.0014687929278848714,-0.00013322049138471954,-0.0,-0.0016020134192695908,-0.01945256753769725,0,0.01945256753769725,0.018732372898527454,0,-0.018732372898527454,-0.7343964639424356,0.0,0.7343964639424356,0.015275020330175595,0.0,-0.015275020330175595,-0.0016113441543075299,-0.010681662930142392,-0.007637510165087798,0.4,0.0351557731628418,2.6360995769500732,STABILIZE
0.05,0.004,0.04,-0.08000638336740533,0.0010174101477426656,-0.00032002553346962133,0.0019231925506190486,0.002620577164892093,0.08,0.002,0.06,-0.2309309259386199,-0.0017287367173824991,-0.00046186185187723985,-0.003850315244008478,-0.006040913813268217,0.5,0,0,-0.0679304079099086,0.00699267464017036,-0.0,-0.0,0.00699267464017036,0.002,8e-05,0.0,-1.6897156155563127,-0.0014556071833529015,-0.00013517724924450502,0.0,-0.0015907844325974065,-0.02160920896728124,0,0.02160920896728124,0.02034820295485331,0,-0.02034820295485331,-0.7278035916764507,0.0,0.7278035916764507,0.01398534928034072,0.0,-0.01398534928034072,0.0026220516158309195,0.0060402739756079855,-0.00699267464017036,0.4,0.03360724449157715,2.66970157623291,STABILIZE
0.05,0.004,0.04,-0.0793562497838844,0.0009628055539496384,-0.0003174249991355376,-0.0012938536327348018,-0.000648473077920701,0.08,0.002,0.06,-0.23153334081650082,-0.001427419607064711,-0.00046306668163300166,0.006693465650771519,0.0048029793620738065,0.5,0,0,-0.06734194672574455,0.008714727415380331,-0.0,0.0,0.008714727415380331,0.002,8e-05,0.0,-1.714389746958273,-0.0014616313542231152,-0.00013715117975666186,-0.0,-0.001598782533979777,-0.017842745088308888,0,0.017842745088308888,0.019256111078992767,0,-0.019256111078992767,-0.7308156771115576,0.0,0.7308156771115576,0.017429454830760662,0.0,-0.017429454830760662,-0.0006499341208132444,-0.0048027818734455935,-0.008714727415380331,0.4,0.033762454986572266,2.7034425735473633,STABILIZE
0.05,0.004,0.04,-0.07876391413712643,0.0008834617420557843,-0.00031505565654850573,-0.0018934459922715034,-0.0013250399067642248,0.08,0.002,0.06,-0.23192146278911824,-0.0009262070677271223,-0.00046384292557823646,0.011213290274702397,0.009823240281397038,0.5,0,0,-0.06668389618892845,0.009814747378420596,-0.0,0.0,0.009814747378420596,0.002,8e-05,0.0,-1.7389595311472708,-0.001465821917715214,-0.00013911676249178168,-0.0,-0.0016049386802069955,-0.011577588346589028,0,0.011577588346589028,0.017669234841115686,0,-0.017669234841115686,-0.7329109588576069,0.0,0.7329109588576069,0.01962949475684119,0.0,-0.01962949475684119,-0.001328405264317341,-0.009822785747144906,-0.009814747378420596,0.4,0.0335235595703125,2.7369704246520996,STABILIZE
