E-kp,E-ki,E-kd,E-I-Tot,E-P,E-I,E-D,E-PID,N-kp,N-ki,N-kd,N-I-Tot,N-P,N-I,N-D,N-PID,Y-kp,Y-ki,Y-kd,Y-I-Tot,Y-P,Y-I,Y-D,Y-PID,D-kp,D-ki,D-kd,D-I-Tot,D-P,D-I,D-D,D-PID,errorN,desiredN,actualN,errorE,desiredE,actualE,errorD,desiredD,actualD,errorY,desiredY,actualY,roll,pitch,yaw-rate,thrust,dt,Time,Mode
0.03,0,0.01,-0.0016982607308631656,-0.0015186492406071236,-0.0,-0.015089264721013096,-0.01660791396162022,0.05,0,0.01,-0.001689547045822138,-0.002518095220871139,-0.0,-0.01501184251022408,-0.017529937731095218,0.5,0,0,-0.0016933441668113087,-0.02523754437191598,-0.0,-0.0,-0.02523754437191598,0.002,8e-05,0.0,-0.0020380277170892066,-0.00012149878553770676,-1.6304221736713654e-07,-0.0,-0.0001216618277550739,-0.050361904417422776,0.0,0.050361904417422776,-0.050621641353570786,0.0,0.050621641353570786,-0.06074939276885338,0.0,0.06074939276885338,-0.05047508874383196,0,0.05047508874383196,-0.016623350627444928,0.017515300081062894,0.02523754437191598,0.4,0.03354811668395996,0.033760786056518555,STABILIZE
0.03,0,0.01,-0.004140946226134583,-0.0021710269280147947,-0.0,-0.006442497313077132,-0.008613524241091927,0.05,0,0.01,-0.004135923614586924,-0.003623845843119646,-0.0,-0.006551844629521523,-0.010175690472641169,0.5,0,0,-0.004125839154315777,-0.03603282896601757,-0.0,-0.0,-0.03603282896601757,0.002,8e-05,0.0,-0.0051858489851424345,-0.0001865161588410404,-4.148679188113948e-07,-0.0,-0.0001869310267598518,-0.07247691686239291,0.0,0.07247691686239291,-0.07236756426715983,0.0,0.07236756426715983,-0.0932580794205202,0.0,0.0932580794205202,-0.07206565793203513,0,0.07206565793203513,-0.008626316234919103,0.01016484848200157,0.03603282896601757,0.4,0.03375387191772461,0.06750178337097168,STABILIZE
0.03,0,0.01,-0.007869348122755061,-0.002732842053603966,-0.0,-0.004575543934647427,-0.007308385988251393,0.05,0,0.01,-0.007945353521590402,-0.004653723203120067,-0.0,-0.00503252642374724,-0.009686249626867307,0.5,0,0,-0.007875079732486683,-0.04580193965673433,-0.0,-0.0,-0.04580193965673433,0.002,8e-05,0.0,-0.010281290200335113,-0.00024899025410265763,-8.225032160268091e-07,-0.0,-0.00024981275731868446,-0.09307446406240133,0.0,0.09307446406240133,-0.0910947351201322,0.0,0.0910947351201322,-0.12449512705132881,0.0,0.12449512705132881,-0.09160387931346867,0,0.09160387931346867,-0.007323862913349935,0.009674552682874477,0.04580193965673433,0.4,0.04092884063720703,0.10843133926391602,STABILIZE
0.03,0,0.01,-0.01135667209131099,-0.0031050587752497884,-0.0,-0.0036823994821821864,-0.006787458257431975,0.05,0,0.01,-0.011585374062308456,-0.005401695695590113,-0.0,-0.004439886805911526,-0.00984158250150164,0.5,0,0,-0.011419760623853331,-0.052602141386154475,-0.0,-0.0,-0.052602141386154475,0.002,8e-05,0.0,-0.015329086630045794,-0.00029963193824400264,-1.2263269304036636e-06,-0.0,-0.0003008582651744063,-0.10803391391180225,0.0,0.10803391391180225,-0.10350195917499296,0.0,0.10350195917499296,-0.14981596912200132,0.0,0.14981596912200132,-0.10520428277230895,0,0.10520428277230895,-0.006805517536529129,0.00982910305115575,0.052602141386154475,0.4,0.03369331359863281,0.14212775230407715,STABILIZE
0.03,0,0.01,-0.015151244904836686,-0.0034004042153748695,-0.0,-0.002940731785299261,-0.006341136000674131,0.05,0,0.01,-0.015549497023783177,-0.005920570022364161,-0.0,-0.0030998350094871576,-0.009020405031851319,0.5,0,0,-0.015322614674474808,-0.05829062548850858,-0.0,-0.0,-0.05829062548850858,0.002,8e-05,0.0,-0.021192954232234554,-0.0003503164667497166,-1.6954363385787645e-06,-0.0,-0.0003520119030882954,-0.11841140044728321,0.0,0.11841140044728321,-0.11334680717916232,0.0,0.11334680717916232,-0.1751582333748583,0.0,0.1751582333748583,-0.11658125097701716,0,0.11658125097701716,-0.0063594769202487585,0.009007483889439795,0.05829062548850858,0.4,0.0334775447845459,0.17560958862304688,STABILIZE
0.03,0,0.01,-0.01992552768994457,-0.004176733815945616,-0.0,-0.0075462692303056725,-0.011723003046251288,0.05,0,0.01,-0.02043508137915142,-0.007123508146386537,-0.0,-0.007015856366624093,-0.01413936451301063,0.5,0,0,-0.020204075775894288,-0.07117496166865327,-0.0,-0.0,-0.07117496166865327,0.002,8e-05,0.0,-0.029674938135735754,-0.0004946919511703416,-2.3739950508588606e-06,-0.0,-0.0004970659462212004,-0.14247016292773074,0.0,0.14247016292773074,-0.13922446053152054,0.0,0.13922446053152054,-0.24734597558517082,0.0,0.24734597558517082,-0.14234992333730653,0,0.14234992333730653,-0.011758095724895081,0.014110195398307046,0.07117496166865327,0.4,0.034291982650756836,0.20990490913391113,STABILIZE
0.03,0,0.01,-0.024681750439188972,-0.004262768069100781,-0.0,-0.0008567584604050924,-0.005119526529505873,0.05,0,0.01,-0.02518207365031547,-0.007090825410774055,-0.0,0.00019527950241871598,-0.006895545908355339,0.5,0,0,-0.02504564716608044,-0.07232103083494189,-0.0,-0.0,-0.07232103083494189,0.002,8e-05,0.0,-0.03865877410293564,-0.0005367846309707661,-3.0927019282348516e-06,-0.0,-0.0005398773328990009,-0.14181650821548109,0.0,0.14181650821548109,-0.14209226897002603,0.0,0.14209226897002603,-0.26839231548538306,0.0,0.26839231548538306,-0.14464206166988378,0,0.14464206166988378,-0.005136917866856084,0.006882599806012642,0.07232103083494189,0.4,0.03347277641296387,0.24339890480041504,STABILIZE
0.03,0,0.01,-0.029676605429621347,-0.00448127064508887,-0.0,-0.002178172854372307,-0.006659443499461177,0.05,0,0.01,-0.030302744070420655,-0.007656915659796382,-0.0,-0.003385888906717068,-0.01104280456651345,0.5,0,0,-0.030163072068867633,-0.07652062652213885,-0.0,-0.0,-0.07652062652213885,0.002,8e-05,0.0,-0.048723832819836076,-0.0006020094978471354,-3.8979066255868865e-06,-0.0,-0.0006059074044727223,-0.15313831319592763,0.0,0.15313831319592763,-0.149375688169629,0.0,0.149375688169629,-0.3010047489235677,0.0,0.3010047489235677,-0.1530412530442777,0,0.1530412530442777,-0.006688915853533187,0.011024977329730816,0.07652062652213885,0.4,0.03343820571899414,0.27681589126586914,STABILIZE
0.03,0,0.01,-0.034869828321783744,-0.00466010573428692,-0.0,-0.0017830726313225879,-0.006443178365609508,0.05,0,0.01,-0.03556726473492892,-0.007873473899343076,-0.0,-0.0012955144488299595,-0.009168988348173035,0.5,0,0,-0.035535174133649726,-0.08034369715142836,-0.0,-0.0,-0.08034369715142836,0.002,8e-05,0.0,-0.05977879929255178,-0.0006613402854914617,-4.782303943404143e-06,-0.0,-0.0006661225894348658,-0.15746947798686153,0.0,0.15746947798686153,-0.155336857809564,0.0,0.155336857809564,-0.33067014274573087,0.0,0.33067014274573087,-0.16068739430285672,0,0.16068739430285672,-0.006468867641740964,0.009150882264220648,0.08034369715142836,0.4,0.0334320068359375,0.3102457523345947,STABILIZE
0.03,0,0.01,-0.04023026084755058,-0.004810356070808443,-0.0,-0.0014981328775515615,-0.006308488948360004,0.05,0,0.01,-0.041036469954600335,-0.008179944561214935,-0.0,-0.0018334751928736483,-0.010013419754088584,0.5,0,0,-0.04117346074889568,-0.08432828917639873,-0.0,-0.0,-0.08432828917639873,0.002,8e-05,0.0,-0.07171767824242813,-0.0007142490655262823,-5.73741425939425e-06,-0.0,-0.0007199864797856766,-0.16359889122429871,0.0,0.16359889122429871,-0.16034520236028146,0.0,0.16034520236028146,-0.35712453276314116,0.0,0.35712453276314116,-0.16865657835279746,0,0.16865657835279746,-0.006337937203272586,0.009994806650982553,0.08432828917639873,0.4,0.03343057632446289,0.3436567783355713,STABILIZE
0.03,0,0.01,-0.04560800964557165,-0.004825413592019289,-0.0,-0.00015012222945959386,-0.004975535821478883,0.05,0,0.01,-0.046672907945871984,-0.008429222435871502,-0.0,-0.0014911677602594733,-0.009920390196130975,0.5,0,0,-0.04690073110162733,-0.08565061095022461,-0.0,-0.0,-0.08565061095022461,0.002,8e-05,0.0,-0.0843251700236099,-0.0007541738434562417,-6.7460136018887925e-06,-0.0,-0.0007609198570581305,-0.16858444871743003,0.0,0.16858444871743003,-0.1608471197339763,0.0,0.1608471197339763,-0.37708692172812086,0.0,0.37708692172812086,-0.17130122190044922,0,0.17130122190044922,-0.005005173228150042,0.009905470171098453,0.08565061095022461,0.4,0.03343391418457031,0.3770880699157715,STABILIZE
0.03,0,0.01,-0.051125882338827325,-0.004945925810403132,-0.0,-0.0012002300413549568,-0.006146155851758089,0.05,0,0.01,-0.052641919654133625,-0.008917171136917168,-0.0,-0.002915807363713696,-0.011832978500630864,0.5,0,0,-0.052898726711730404,-0.08960470501295685,-0.0,-0.0,-0.08960470501295685,0.002,8e-05,0.0,-0.09872187850062897,-0.0008602959389086051,-7.897750280050318e-06,-0.0,-0.0008681936891886554,-0.17834342273834336,0.0,0.17834342273834336,-0.1648641936801044,0.0,0.1648641936801044,-0.43014796945430256,0.0,0.43014796945430256,-0.1792094100259137,0,0.1792094100259137,-0.006183136849396083,0.011813696739468674,0.08960470501295685,0.4,0.033469200134277344,0.4105715751647949,STABILIZE
0.03,0,0.01,-0.056621215888672,-0.004930394123820341,-0.0,0.00015483305682342883,-0.004775561066996913,0.05,0,0.01,-0.05859938662999312,-0.008908364373824527,-0.0,5.26759811853582e-05,-0.008855688392639168,0.5,0,0,-0.05891177482943695,-0.08991476385337671,-0.0,-0.0,-0.08991476385337671,0.002,8e-05,0.0,-0.11380076558219815,-0.0009019149985635906,-9.104061246575853e-06,-0.0,-0.0009110190598101665,-0.17816728747649055,0.0,0.17816728747649055,-0.16434647079401138,0.0,0.16434647079401138,-0.4509574992817953,0.0,0.4509574992817953,-0.17982952770675342,0,0.17982952770675342,-0.004803332116792485,0.008840656140125042,0.08991476385337671,0.4,0.033437490463256836,0.4440138339996338,STABILIZE
0.03,0,0.01,-0.06211022390232878,-0.004876629584349223,-0.0,0.0005307369506504444,-0.004345892633698779,0.05,0,0.01,-0.06457352105374096,-0.008846055182540174,-0.0,0.0003690513171513555,-0.008477003865388818,0.5,0,0,-0.06504238009075011,-0.09077745594135024,-0.0,-0.0,-0.09077745594135024,0.002,8e-05,0.0,-0.12971446692709449,-0.0009425531484248257,-1.0377157354167559e-05,-0.0,-0.0009529303057789932,-0.17692110365080346,0.0,0.17692110365080346,-0.16255431947830745,0.0,0.16255431947830745,-0.4712765742124128,0.0,0.4712765742124128,-0.18155491188270048,0,0.18155491188270048,-0.004372732115336691,0.008463190365633835,0.09077745594135024,0.4,0.0337672233581543,0.47779035568237305,STABILIZE
0.03,0,0.01,-0.06749459944627012,-0.004830980772257156,-0.0,0.00045507914869905844,-0.004375901623558097,0.05,0,0.01,-0.07052138666836257,-0.008894260868232222,-0.0,-0.0002883413793499811,-0.009182602247582203,0.5,0,0,-0.07119917492142963,-0.09206687387426975,-0.0,-0.0,-0.09206687387426975,0.002,8e-05,0.0,-0.14634265201892832,-0.0009946116846248152,-1.1707412161514267e-05,-0.0,-0.0010063190967863295,-0.1778852173646444,0.0,0.1778852173646444,-0.16103269240857188,0.0,0.16103269240857188,-0.4973058423124076,0.0,0.4973058423124076,-0.1841337477485395,0,0.1841337477485395,-0.004405389472985266,0.009168491841501017,0.09206687387426975,0.4,0.03343653678894043,0.5112423896789551,STABILIZE
0.03,0,0.01,-0.07283916911449567,-0.004764250178040695,-0.0,0.0006609434437654764,-0.004103306734275219,0.05,0,0.01,-0.07651896711336266,-0.008910593829091809,-0.0,-9.706339520135165e-05,-0.009007657224293161,0.5,0,0,-0.07746374071744805,-0.09307253455929339,-0.0,-0.0,-0.09307253455929339,0.002,8e-05,0.0,-0.16392535980266162,-0.0010449038168854844,-1.3114028784212932e-05,-0.0,-0.0010580178456696973,-0.17821187658183615,0.0,0.17821187658183615,-0.15880833926802318,0.0,0.15880833926802318,-0.5224519084427421,0.0,0.5224519084427421,-0.18614506911858678,0,0.18614506911858678,-0.004132549503845449,0.008994278705053333,0.09307253455929339,0.4,0.033654212951660156,0.5448906421661377,STABILIZE
0.03,0,0.01,-0.07816882439795449,-0.004777660235104931,-0.0,-0.00013356856427496728,-0.004911228799379898,0.05,0,0.01,-0.08248561178964628,-0.008914460532858541,-0.0,-2.310818223033169e-05,-0.008937568715088873,0.5,0,0,-0.08365229555493188,-0.09246005225258709,-0.0,0.0,-0.09246005225258709,0.002,8e-05,0.0,-0.18227024015915044,-0.0010963261316227107,-1.4581619212732036e-05,-0.0,-0.0011109077508354428,-0.17828921065717082,0.0,0.17828921065717082,-0.15925534117016438,0.0,0.15925534117016438,-0.5481630658113553,0.0,0.5481630658113553,-0.18492010450517418,0,0.18492010450517418,-0.004940048857670687,0.0089216713759598,0.09246005225258709,0.4,0.03346610069274902,0.578350305557251,STABILIZE
0.03,0,0.01,-0.08342456973785692,-0.004716243491182072,-0.0,0.0006123591106133889,-0.004103884380568683,0.05,0,0.01,-0.08838746860280974,-0.00882671945361274,-0.0,0.0005248964287527446,-0.008301823024859996,0.5,0,0,-0.08980683430433249,-0.09204626378969925,-0.0,0.0,-0.09204626378969925,0.002,8e-05,0.0,-0.20122681452698016,-0.0011340455659525999,-1.6098145162158414e-05,-0.0,-0.0011501437111147582,-0.1765343890722548,0.0,0.1765343890722548,-0.15720811637273574,0.0,0.15720811637273574,-0.5670227829762999,0.0,0.5670227829762999,-0.1840925275793985,0,0.1840925275793985,-0.004130537080976082,0.008288594330032852,0.09204626378969925,0.4,0.0334317684173584,0.6117753982543945,STABILIZE
0.03,0,0.01,-0.08859385437726316,-0.004634460542971187,-0.0,0.0008146836404529316,-0.0038197769025182554,0.05,0,0.01,-0.09407079107981327,-0.008492191734444524,-0.0,0.001999445601165838,-0.006492746133278686,0.5,0,0,-0.09588847371173613,-0.09087368896697787,-0.0,0.0,-0.09087368896697787,0.002,8e-05,0.0,-0.22201509551073195,-0.001242499039305651,-1.7761207640858556e-05,-0.0,-0.0012602602469465095,-0.16984383468889047,0.0,0.16984383468889047,-0.15448201809903958,0.0,0.15448201809903958,-0.6212495196528255,0.0,0.6212495196528255,-0.18174737793395573,0,0.18174737793395573,-0.003840353226467265,0.006480596811419436,0.09087368896697787,0.4,0.0334620475769043,0.6452550888061523,STABILIZE
0.03,0,0.01,-0.09368172013276099,-0.004566573728306176,-0.0,0.0006770141597576572,-0.0038895595685485185,0.05,0,0.01,-0.09964713624523051,-0.008341674274995981,-0.0,0.000900638380282699,-0.007441035894713282,0.5,0,0,-0.10180492506856642,-0.08850440318617454,-0.0,0.0,-0.08850440318617454,0.002,8e-05,0.0,-0.24296770358273376,-0.0012537231936948273,-1.9437416286618702e-05,-0.0,-0.001273160609981446,-0.1668334854999196,0.0,0.1668334854999196,-0.15221912427687254,0.0,0.15221912427687254,-0.6268615968474136,0.0,0.6268615968474136,-0.1770088063723491,0,0.1770088063723491,-0.003912529206078902,0.007428984051354426,0.08850440318617454,0.4,0.03342461585998535,0.6786646842956543,STABILIZE
0.03,0,0.01,-0.09871852388975665,-0.00448424713342477,-0.0,0.0008143894750908254,-0.003669857658333944,0.05,0,0.01,-0.10512429141028964,-0.008127150514889608,-0.0,0.0012732645578688738,-0.006853885957020734,0.5,0,0,-0.1076574495301808,-0.08684133598230798,-0.0,0.0,-0.08684133598230798,0.002,8e-05,0.0,-0.26474653313145574,-0.001292640580349001,-2.1179722650516462e-05,-0.0,-0.0013138203029995175,-0.16254301029779217,0.0,0.16254301029779217,-0.14947490444749234,0.0,0.14947490444749234,-0.6463202901745004,0.0,0.6463202901745004,-0.17368267196461595,0,0.17368267196461595,-0.0036906171862071888,0.006842729917887339,0.08684133598230798,0.4,0.033696651458740234,0.7123608589172363,STABILIZE
0.03,0,0.01,-0.1037025822732151,-0.0044661388283746785,-0.0,0.0001802952936878344,-0.004285843534686844,0.05,0,0.01,-0.11040566914616647,-0.007887603621644583,-0.0,0.0014310288240721586,-0.006456574797572424,0.5,0,0,-0.11344905565367203,-0.08649616770349074,-0.0,0.0,-0.08649616770349074,0.002,8e-05,0.0,-0.28716818574510117,-0.0013394467671363033,-2.2973454859608094e-05,-0.0,-0.0013624202219959113,-0.15775207243289166,0.0,0.15775207243289166,-0.14887129427915596,0.0,0.14887129427915596,-0.6697233835681516,0.0,0.6697233835681516,-0.17299233540698147,0,0.17299233540698147,-0.004305318214841684,0.006443605201237645,0.08649616770349074,0.4,0.03347897529602051,0.7458658218383789,STABILIZE
0.03,0,0.01,-0.10848834444941893,-0.004291780055597609,-0.0,0.0017373512792775007,-0.0025544287763201085,0.05,0,0.01,-0.11540819549690873,-0.0074769500409885455,-0.0,0.0024551085523119103,-0.005021841488676635,0.5,0,0,-0.11912566259931752,-0.08484454365467205,-0.0,0.0,-0.08484454365467205,0.002,8e-05,0.0,-0.3098358108766427,-0.0013551928667501734,-2.4786864870131417e-05,-0.0,-0.0013799797316203048,-0.1495390008197709,0.0,0.1495390008197709,-0.14305933518658698,0.0,0.14305933518658698,-0.6775964333750867,0.0,0.6775964333750867,-0.1696890873093441,0,0.1696890873093441,-0.002569290404662588,0.005014254194513373,0.08484454365467205,0.4,0.03345298767089844,0.7794253826141357,STABILIZE
0.03,0,0.01,-0.11317860906976955,-0.004203653048512073,-0.0,0.0008775988183978385,-0.0033260542301142343,0.05,0,0.01,-0.1203627212637011,-0.007400828819317042,-0.0,0.000454824665467677,-0.006946004153849365,0.5,0,0,-0.12473804182460872,-0.08383498213667072,-0.0,0.0,-0.08383498213667072,0.002,8e-05,0.0,-0.333045811563398,-0.00138679865693879,-2.6643664925071843e-05,-0.0,-0.0014134423218638617,-0.14801657638634083,0.0,0.14801657638634083,-0.14012176828373576,0.0,0.14012176828373576,-0.6933993284693949,0.0,0.6933993284693949,-0.16766996427334144,0,0.16766996427334144,-0.003346366696791407,0.006936241084157816,0.08383498213667072,0.4,0.03347277641296387,0.8127849102020264,STABILIZE
0.03,0,0.01,-0.11761116748639411,-0.0039758270716009,-0.0,0.0022705640136257907,-0.0017052630579751094,0.05,0,0.01,-0.12492040816987955,-0.0068134371779147666,-0.0,0.0035124449133188806,-0.003300992264595886,0.5,0,0,-0.13023276532943878,-0.08214244238545652,-0.0,0.0,-0.08214244238545652,0.002,8e-05,0.0,-0.35714069315632446,-0.001440809475702685,-2.857125545250596e-05,-0.0,-0.001469380731155191,-0.13626874355829532,0.0,0.13626874355829532,-0.13252756905336333,0.0,0.13252756905336333,-0.7204047378513425,0.0,0.7204047378513425,-0.16428488477091305,0,0.16428488477091305,-0.0017147210103474065,0.0032960891802998396,0.08214244238545652,0.4,0.033446311950683594,0.8462467193603516,STABILIZE
0.03,0,0.01,-0.12199368733856314,-0.0039315049933051965,-0.0,0.00044178660783470233,-0.0034897183854704942,0.05,0,0.01,-0.12926864259096107,-0.006501246586893269,-0.0,0.0018670824226941106,-0.004634164164199158,0.5,0,0,-0.1358134943176318,-0.08344006273204065,-0.0,-0.0,-0.08344006273204065,0.002,8e-05,0.0,-0.3817910117752693,-0.0014742333026965544,-3.054328094202155e-05,-0.0,-0.0015047765836385758,-0.13002493173786536,0.0,0.13002493173786536,-0.13105016644350656,0.0,0.13105016644350656,-0.7371166513482772,0.0,0.7371166513482772,-0.1668801254640813,0,0.1668801254640813,-0.003503201066237366,0.004623980341670135,0.08344006273204065,0.4,0.03344154357910156,0.8796751499176025,STABILIZE
0.03,0,0.01,-0.1263278304660771,-0.0038863612539933702,-0.0,0.00044977461303610144,-0.0034365866409572688,0.05,0,0.01,-0.13340613171654564,-0.006183374257767867,-0.0,0.0019002090567602646,-0.004283165201007602,0.5,0,0,-0.14148381824795966,-0.08474157625499704,-0.0,-0.0,-0.08474157625499704,0.002,8e-05,0.0,-0.40698173932340626,-0.001505876550030442,-3.25585391458725e-05,-0.0,-0.0015384350891763144,-0.12366748515535733,0.0,0.12366748515535733,-0.12954537513311234,0.0,0.12954537513311234,-0.7529382750152209,0.0,0.7529382750152209,-0.16948315250999407,0,0.16948315250999407,-0.003449241357304234,0.004272980919567802,0.08474157625499704,0.4,0.03345656394958496,0.9131565093994141,STABILIZE
0.03,0,0.01,-0.1303847691264582,-0.003637899856258294,-0.0,0.002475532959352878,-0.001162366896905416,0.05,0,0.01,-0.1372721633021062,-0.005777852434541375,-0.0,0.002424238086765771,-0.0033536143477756043,0.5,0,0,-0.14719902876798227,-0.08541482987454982,-0.0,-0.0,-0.08541482987454982,0.002,8e-05,0.0,-0.4325129871920225,-0.001526276021184393,-3.460103897536181e-05,-0.0,-0.0015608770601597548,-0.1155570486908275,0.0,0.1155570486908275,-0.12126332854194313,0.0,0.12126332854194313,-0.7631380105921965,0.0,0.7631380105921965,-0.17082965974909964,0,0.17082965974909964,-0.0011723606510161105,0.0033501338033841274,0.08541482987454982,0.4,0.033455610275268555,0.9465885162353516,STABILIZE
0.03,0,0.01,-0.13431679289854012,-0.0035247570034491484,-0.0,0.0011269318745697281,-0.0023978251288794203,0.05,0,0.01,-0.14087444728890808,-0.005381951062556664,-0.0,0.002365967611023825,-0.003015983451532839,0.5,0,0,-0.1527031467565879,-0.08223364333779964,-0.0,0.0,-0.08223364333779964,0.002,8e-05,0.0,-0.45825215091302984,-0.0015382120903863553,-3.666017207304239e-05,-0.0,-0.0015748722624593977,-0.10763902125113328,0.0,0.10763902125113328,-0.11749190011497161,0.0,0.11749190011497161,-0.7691060451931776,0.0,0.7691060451931776,-0.1644672866755993,0,0.1644672866755993,-0.0024064726056841437,0.003009088088889608,0.08223364333779964,0.4,0.033466339111328125,0.9800746440887451,STABILIZE
0.03,0,0.01,-0.13814812109279118,-0.003428360713088555,-0.0,0.0009584180095259736,-0.002469942703562581,0.05,0,0.01,-0.1444039229839705,-0.005263760240686951,-0.0,0.0007050657975542787,-0.004558694443132672,0.5,0,0,-0.15822471218163833,-0.08234706529185506,-0.0,-0.0,-0.08234706529185506,0.002,8e-05,0.0,-0.4844888226425064,-0.0015651452105566177,-3.8759105811400514e-05,-0.0,-0.0016039043163680181,-0.10527520481373902,0.0,0.10527520481373902,-0.11427869043628516,0.0,0.11427869043628516,-0.7825726052783089,0.0,0.7825726052783089,-0.16469413058371013,0,0.16469413058371013,-0.002483036242879733,0.004551575881085192,0.08234706529185506,0.4,0.03352618217468262,1.0135853290557861,STABILIZE
0.03,0,0.01,-0.14174001673455594,-0.003220340069506972,-0.0,0.0020722490623402605,-0.0011480910071667116,0.05,0,0.01,-0.14783627212489514,-0.005128829163137366,-0.0,0.0008064895698383812,-0.004322339593298985,0.5,0,0,-0.1636098368977843,-0.08046787653968339,-0.0,0.0,-0.08046787653968339,0.002,8e-05,0.0,-0.5115047233761109,-0.001614753439839255,-4.092037787008887e-05,-0.0,-0.001655673817709344,-0.10257658326274731,0.0,0.10257658326274731,-0.10734466898356575,0.0,0.10734466898356575,-0.8073767199196276,0.0,0.8073767199196276,-0.16093575307936678,0,0.16093575307936678,-0.0011602273036623648,0.00431909772109563,0.08046787653968339,0.4,0.03346133232116699,1.0470900535583496,STABILIZE
0.03,0,0.01,-0.14525013735487516,-0.0031496273202688465,-0.0,0.000705005234174251,-0.0024446220860945955,0.05,0,0.01,-0.1510723381404201,-0.004839530714742225,-0.0,0.001730581168639644,-0.0031089495461025813,0.5,0,0,-0.16885136125825712,-0.07838689944173742,-0.0,0.0,-0.07838689944173742,0.002,8e-05,0.0,-0.5387987752484272,-0.001632728154891057,-4.310390201987418e-05,-0.0,-0.0016758320569109312,-0.09679061429484451,0.0,0.09679061429484451,-0.10498757734229489,0.0,0.10498757734229489,-0.8163640774455284,0.0,0.8163640774455284,-0.15677379888347484,0,0.15677379888347484,-0.002453119690900997,0.0031022488949384334,0.07838689944173742,0.4,0.03343367576599121,1.0804834365844727,STABILIZE
0.03,0,0.01,-0.14860939544481921,-0.0030011820998746136,-0.0,0.0014735764939445453,-0.0015276056059300683,0.05,0,0.01,-0.15408076359326986,-0.004479576728031993,-0.0,0.0021439008907494575,-0.0023356758372825356,0.5,0,0,-0.17402191110478846,-0.07699002393996741,-0.0,0.0,-0.07699002393996741,0.002,8e-05,0.0,-0.5664157622950382,-0.0016448792155400883,-4.531326098360306e-05,-0.0,-0.0016901924765236912,-0.08959153456063985,0.0,0.08959153456063985,-0.10003940332915379,0.0,0.10003940332915379,-0.8224396077700441,0.0,0.8224396077700441,-0.15398004787993483,0,0.15398004787993483,-0.0015338771144860841,0.0023315620304401696,0.07699002393996741,0.4,0.033579349517822266,1.1140611171722412,STABILIZE
0.03,0,0.01,-0.151817188119076,-0.0028609867264723886,-0.0,0.0013893149975249498,-0.0014716717289474388,0.05,0,0.01,-0.1568812395979401,-0.004162844199930652,-0.0,0.0018832629386393276,-0.002279581261291324,0.5,0,0,-0.1790491595238479,-0.07472890997099073,-0.0,0.0,-0.07472890997099073,0.002,8e-05,0.0,-0.5945737205688857,-0.0016742467078696293,-4.7565897645510856e-05,-0.0,-0.0017218126055151403,-0.08325688399861303,0.0,0.08325688399861303,-0.0953662242157463,0.0,0.0953662242157463,-0.8371233539348146,0.0,0.8371233539348146,-0.14945781994198146,0,0.14945781994198146,-0.0014776130737629179,0.0022757346086173112,0.07472890997099073,0.4,0.03363656997680664,1.1476936340332031,STABILIZE
0.03,0,0.01,-0.15496935825089578,-0.002827128312832648,-0.0,0.0003374115673595316,-0.0024897167454731167,0.05,0,0.01,-0.15961986764364777,-0.004093715632171931,-0.0,0.0004133349892579601,-0.0036803806429139703,0.5,0,0,-0.18402095892461773,-0.07431871939986354,-0.0,0.0,-0.07431871939986354,0.002,8e-05,0.0,-0.6226657922131453,-0.0016796870682814176,-4.981326337705163e-05,-0.0,-0.0017295003316584693,-0.08187431264343861,0.0,0.08187431264343861,-0.09423761042775494,0.0,0.09423761042775494,-0.8398435341407088,0.0,0.8398435341407088,-0.14863743879972707,0,0.14863743879972707,-0.0024992560471472384,0.0036739094109984613,0.07431871939986354,0.4,0.03344917297363281,1.1811473369598389,STABILIZE
0.03,0,0.01,-0.15808862782717537,-0.002796384572493436,-0.0,0.0003062373670179537,-0.0024901472054754824,0.05,0,0.01,-0.16231770687461078,-0.004030962922592615,-0.0,0.00037504658202505557,-0.0036559163405675593,0.5,0,0,-0.18897034504201934,-0.0739510038250834,-0.0,0.0,-0.0739510038250834,0.002,8e-05,0.0,-0.6508588528784818,-0.0016849807936970239,-5.2068708230278545e-05,-0.0,-0.0017370495019273025,-0.08061925845185229,0.0,0.08061925845185229,-0.09321281908311455,0.0,0.09321281908311455,-0.8424903968485119,0.0,0.8424903968485119,-0.1479020076501668,0,0.1479020076501668,-0.002499576196811591,0.0036494761583683692,0.0739510038250834,0.4,0.03346395492553711,1.2146127223968506,STABILIZE
0.03,0,0.01,-0.16114929935506278,-0.002741313172392857,-0.0,0.0005480567586495164,-0.0021932564137433406,0.05,0,0.01,-0.16483437782737617,-0.003756791698888061,-0.0,0.0016370899440078927,-0.0021197017548801682,0.5,0,0,-0.19387755793706077,-0.07325302757005504,-0.0,0.0,-0.07325302757005504,0.002,8e-05,0.0,-0.6791669756043979,-0.0016902920161408908,-5.4333358048351835e-05,-0.0,-0.0017446253741892426,-0.07513583397776122,0.0,0.07513583397776122,-0.09137710574642857,0.0,0.09137710574642857,-0.8451460080704454,0.0,0.8451460080704454,-0.1465060551401101,0,0.1465060551401101,-0.002198669342759773,0.0021140866461137947,0.07325302757005504,0.4,0.03349494934082031,1.2481141090393066,STABILIZE
0.03,0,0.01,-0.16458396234308423,-0.002612784119940206,-0.0,0.0010863710755463483,-0.0015264130443938578,0.05,0,0.01,-0.16745770853262787,-0.0033259919201862193,-0.0,0.002184759367641919,-0.0011412325525443,0.5,0,0,-0.19926295767093974,-0.06827883333960325,-0.0,0.0,-0.06827883333960325,0.002,8e-05,0.0,-0.712946987810133,-0.0017131206131982782,-5.703575902481065e-05,-0.0,-0.0017701563722230889,-0.06651983840372439,0.0,0.06651983840372439,-0.08709280399800687,0.0,0.08709280399800687,-0.8565603065991391,0.0,0.8565603065991391,-0.1365576666792065,0,0.1365576666792065,-0.0015291286982935764,0.0011375912909026233,0.06827883333960325,0.4,0.03943681716918945,1.2875549793243408,STABILIZE
0.03,0,0.01,-0.1673456839005397,-0.002480973479021972,-0.0,0.0013156797613680798,-0.001165293717653892,0.05,0,0.01,-0.1694690787024325,-0.003011500824132627,-0.0,0.0018834726877544731,-0.0011280281363781539,0.5,0,0,-0.20376792765669494,-0.067450144326802,-0.0,0.0,-0.067450144326802,0.002,8e-05,0.0,-0.7416672175204456,-0.0017200413278533752,-5.9333377401635655e-05,-0.0,-0.0017793747052550109,-0.06023001648265253,0.0,0.06023001648265253,-0.08269911596739907,0.0,0.08269911596739907,-0.8600206639266875,0.0,0.8600206639266875,-0.134900288653604,0,0.134900288653604,-0.001167946375907357,0.0011252813816416188,0.067450144326802,0.4,0.033394813537597656,1.3209431171417236,STABILIZE
0.03,0,0.01,-0.17010425076103722,-0.0024738476706570828,-0.0,7.100371443457369e-05,-0.002402843956222509,0.05,0,0.01,-0.17130668708646654,-0.00274657303974299,-0.0,0.0015838924471731955,-0.0011626805925697946,0.5,0,0,-0.20810423687344806,-0.06481244910614466,-0.0,0.0,-0.06481244910614466,0.002,8e-05,0.0,-0.7705588027320824,-0.0017273070738503644,-6.164470421856661e-05,-0.0,-0.001788951778068931,-0.0549314607948598,0.0,0.0549314607948598,-0.08246158902190276,0.0,0.08246158902190276,-0.8636535369251822,0.0,0.8636535369251822,-0.1296248982122893,0,0.1296248982122893,-0.002405468231451613,0.0011572414725417235,0.06481244910614466,0.4,0.033452749252319336,1.354449987411499,STABILIZE
0.03,0,0.01,-0.17279373803095446,-0.0023996696809445647,-0.0,0.0007353845838431053,-0.0016642850971014594,0.05,0,0.01,-0.17301881173106826,-0.00254604514250973,-0.0,0.0011927941818913569,-0.0013532509606183731,0.5,0,0,-0.2124929698077246,-0.06526342696087209,-0.0,-0.0,-0.06526342696087209,0.002,8e-05,0.0,-0.7999184388394135,-0.0017463905827793922,-6.399347510715309e-05,-0.0,-0.0018103840578865453,-0.05092090285019459,0.0,0.05092090285019459,-0.07998898936481882,0.0,0.07998898936481882,-0.8731952913896961,0.0,0.8731952913896961,-0.13052685392174418,0,0.13052685392174418,-0.0016673636483746602,0.0013494560055545741,0.06526342696087209,0.4,0.03362321853637695,1.3880276679992676,STABILIZE
0.03,0,0.01,-0.1753181973392829,-0.0022616302597526037,-0.0,0.0013740858002808235,-0.0008875444594717802,0.05,0,0.01,-0.17466079593996445,-0.002451720493588616,-0.0,0.000563361507516338,-0.0018883589860722778,0.5,0,0,-0.21671691678431676,-0.06306965262049771,-0.0,0.0,-0.06306965262049771,0.002,8e-05,0.0,-0.8291183093388708,-0.0017439856126698914,-6.632946474710966e-05,0.0,-0.001810315077417001,-0.049034409871772315,0.0,0.049034409871772315,-0.07538767532508679,0.0,0.07538767532508679,-0.8719928063349457,0.0,0.8719928063349457,-0.12613930524099543,0,0.12613930524099543,-0.0008916996147727387,0.0018864004412725113,0.06306965262049771,0.4,0.033486366271972656,1.4215130805969238,STABILIZE
0.03,0,0.01,-0.17775954883202935,-0.002188109792174581,-0.0,0.0007321575570411676,-0.0014559522351334131,0.05,0,0.01,-0.17614907384924952,-0.0022231644210589157,-0.0,0.001365652813886278,-0.0008575116071726377,0.5,0,0,-0.22083797556011447,-0.06155968042183129,-0.0,0.0,-0.06155968042183129,0.002,8e-05,0.0,-0.858187052983229,-0.0017368959448188807,-6.865496423865832e-05,0.0,-0.001805550909057539,-0.04446328842117831,0.0,0.04446328842117831,-0.07293699307248604,0.0,0.07293699307248604,-0.8684479724094404,0.0,0.8684479724094404,-0.12311936084366258,0,0.12311936084366258,-0.001457791525998067,0.0008543810239898875,0.06155968042183129,0.4,0.03347206115722656,1.4550034999847412,STABILIZE
0.03,0,0.01,-0.18016718792306816,-0.002160834145997613,-0.0,0.0002719960434486741,-0.0018888381025489386,0.05,0,0.01,-0.1773294302162632,-0.0017655984734741414,-0.0,0.0027377417910266107,0.0009721433175524693,0.5,0,0,-0.22464732589414643,-0.05698095357177045,-0.0,0.0,-0.05698095357177045,0.002,8e-05,0.0,-0.8871779457981904,-0.0017346041425862037,-7.097423566385524e-05,0.0,-0.001805578378250059,-0.035311969469482826,0.0,0.035311969469482826,-0.0720278048665871,0.0,0.0720278048665871,-0.8673020712931019,0.0,0.8673020712931019,-0.1139619071435409,0,0.1139619071435409,-0.0018869007642820354,-0.0009758983109189537,0.05698095357177045,0.4,0.033426523208618164,1.4884240627288818,STABILIZE
0.03,0,0.01,-0.1824943875697458,-0.002086809694747571,-0.0,0.0007375337361531311,-0.0013492759585944398,0.05,0,0.01,-0.17856100671992556,-0.0018405997034067628,-0.0,-0.00044835945199868,-0.002288959155405443,0.5,0,0,-0.228321990260659,-0.05491811611385481,-0.0,0.0,-0.05491811611385481,0.002,8e-05,0.0,-0.9162641874303787,-0.001738783666697841,-7.33011349944303e-05,-0.0,-0.0018120848016922714,-0.036811994068135255,0.0,0.036811994068135255,-0.06956032315825236,0.0,0.06956032315825236,-0.8693918333489206,0.0,0.8693918333489206,-0.10983623222770962,0,0.10983623222770962,-0.001353661420283687,0.0022863683838766874,0.05491811611385481,0.4,0.033455848693847656,1.5218815803527832,STABILIZE
0.03,0,0.01,-0.18477865743791386,-0.002014166957626013,-0.0,0.000711701279066541,-0.0013024656785594721,0.05,0,0.01,-0.17987133308570935,-0.0019256452622973576,-0.0,-0.0004999291224950526,-0.0024255743847924104,0.5,0,0,-0.2319200451019517,-0.05287672933664078,-0.0,0.0,-0.05287672933664078,0.002,8e-05,0.0,-0.9459014495433987,-0.0017421874386619482,-7.56721159634719e-05,-0.0,-0.00181785955462542,-0.03851290524594715,0.0,0.03851290524594715,-0.06713889858753377,0.0,0.06713889858753377,-0.8710937193309741,0.0,0.8710937193309741,-0.10575345867328156,0,0.10575345867328156,-0.0013069404517498811,0.0024231662335808253,0.05287672933664078,0.4,0.03402304649353027,1.5559110641479492,STABILIZE
0.03,0,0.01,-0.1869766478867673,-0.001969796190672994,-0.0,0.0004418246259991655,-0.0015279715646738287,0.05,0,0.01,-0.18100457064741343,-0.0016926423507562579,-0.0,0.0013920844463747714,-0.0003005579043814865,0.5,0,0,-0.2353562074745719,-0.051323695512052195,-0.0,0.0,-0.051323695512052195,0.002,8e-05,0.0,-0.9751801902071389,-0.001749269106461091,-7.801441521657112e-05,-0.0,-0.001827283521677662,-0.033852847015125156,0.0,0.033852847015125156,-0.06565987302243313,0.0,0.06565987302243313,-0.8746345532305454,0.0,0.8746345532305454,-0.10264739102410439,0,0.10264739102410439,-0.0015285075722874066,0.00029782000906258355,0.051323695512052195,0.4,0.033475399017333984,1.5893776416778564,STABILIZE
0.03,0,0.01,-0.18909482714080383,-0.0018997051428201917,-0.0,0.0006984632035476364,-0.0012012419392725552,0.05,0,0.01,-0.18214335616079436,-0.0017022140534268288,-0.0,-5.722969465144162e-05,-0.0017594437480782704,0.5,0,0,-0.2387540270742784,-0.050789338340439846,-0.0,0.0,-0.050789338340439846,0.002,8e-05,0.0,-1.0044825054602278,-0.0017520002576663178,-8.035860043681823e-05,-0.0,-0.0018323588581031362,-0.034044281068536575,0.0,0.034044281068536575,-0.06332350476067306,0.0,0.06332350476067306,-0.8760001288331589,0.0,0.8760001288331589,-0.10157867668087969,0,0.10157867668087969,-0.001204359336600801,0.001757311323488664,0.050789338340439846,0.4,0.03345012664794922,1.6228466033935547,STABILIZE
0.03,0,0.01,-0.19113420263561373,-0.0018292119232246598,-0.0,0.0007025409827600226,-0.0011266709404646371,0.05,0,0.01,-0.18329573836384147,-0.001722709779938613,-0.0,-0.00012255721553295831,-0.0018452669954715714,0.5,0,0,-0.24211263021313514,-0.050208155410088634,-0.0,0.0,-0.050208155410088634,0.002,8e-05,0.0,-1.033668569796668,-0.001745223705723865,-8.269348558373345e-05,0.0,-0.0018279171913075983,-0.03445419559877226,0.0,0.03445419559877226,-0.06097373077415533,0.0,0.06097373077415533,-0.8726118528619324,0.0,0.8726118528619324,-0.10041631082017727,0,0.10041631082017727,-0.001129903214638658,0.0018432895643965919,0.050208155410088634,0.4,0.0334467887878418,1.656306266784668,STABILIZE
0.03,0,0.01,-0.1928917154532121,-0.0015761713057682806,-0.0,0.002521463263532947,0.0009452919577646664,0.05,0,0.01,-0.18434171135273492,-0.0015634144980285064,-0.0,0.0009523938222124327,-0.0006110206758160737,0.5,0,0,-0.24517990084601857,-0.04584645519288365,-0.0,0.0,-0.04584645519288365,0.002,8e-05,0.0,-1.0630145412057406,-0.00175453544773507,-8.504116329645926e-05,-0.0,-0.001839576611031529,-0.03126828996057013,0.0,0.03126828996057013,-0.052539043525609355,0.0,0.052539043525609355,-0.8772677238675349,0.0,0.8772677238675349,-0.0916929103857673,0,0.0916929103857673,0.0009443129049138574,0.0006125326842727983,0.04584645519288365,0.4,0.03345155715942383,1.6897337436676025,STABILIZE
0.03,0,0.01,-0.1946580294528185,-0.0015836580368966716,-0.0,-7.458357991842563e-05,-0.0016582416168150972,0.05,0,0.01,-0.18542997535949873,-0.0016262095725533188,-0.0,-0.00037534256638742223,-0.002001552138940741,0.5,0,0,-0.24811650606257055,-0.043882141505054734,-0.0,0.0,-0.043882141505054734,0.002,8e-05,0.0,-1.0923199734263742,-0.0017516622477196072,-8.738559787410994e-05,0.0,-0.0018390478455937171,-0.03252419145106637,0.0,0.03252419145106637,-0.05278860122988906,0.0,0.05278860122988906,-0.8758311238598036,0.0,0.8758311238598036,-0.08776428301010947,0,0.08776428301010947,-0.0016613055991569325,0.0019990097375564802,0.043882141505054734,0.4,0.033460140228271484,1.7231934070587158,STABILIZE
0.03,0,0.01,-0.19636052964573522,-0.0015271723477066023,-0.0,0.000562984975019699,-0.0009641873726869033,0.05,0,0.01,-0.18642418647305142,-0.001486374496673868,-0.0,0.0008362300026397918,-0.0006501444940340762,0.5,0,0,-0.25096124499239053,-0.04252967339974927,-0.0,0.0,-0.04252967339974927,0.002,8e-05,0.0,-1.121732572188508,-0.0017589075835097272,-8.973860577508065e-05,-0.0,-0.001848646189284808,-0.029727489933477357,0.0,0.029727489933477357,-0.05090574492355341,0.0,0.05090574492355341,-0.8794537917548636,0.0,0.8794537917548636,-0.08505934679949854,0,0.08505934679949854,-0.0009651514920200108,0.0006487123786573255,0.04252967339974927,0.4,0.03344416618347168,1.7566604614257812,STABILIZE
0.03,0,0.01,-0.19800256833380456,-0.0014724649595618488,-0.0,0.0005450860341246022,-0.0009273789254372466,0.05,0,0.01,-0.1873290877755018,-0.0013524198804421453,-0.0,0.0008008072729178721,-0.0005516126075242732,0.5,0,0,-0.25371628684644215,-0.04117546703469227,-0.0,0.0,-0.04117546703469227,0.002,8e-05,0.0,-1.1511176012080657,-0.001756695335758935,-9.208940809664527e-05,0.0,-0.0018487847438555802,-0.027048397608842905,0.0,0.027048397608842905,-0.04908216531872829,0.0,0.04908216531872829,-0.8783476678794675,0.0,0.8783476678794675,-0.08235093406938454,0,0.08235093406938454,-0.0009281707972774988,0.0005502791211795359,0.04117546703469227,0.4,0.03345489501953125,1.790104627609253,STABILIZE
0.03,0,0.01,-0.1997031218155676,-0.0015243937317317064,-0.0,-0.0005172165392109497,-0.002041610270942656,0.05,0,0.01,-0.1882546688276579,-0.0013828340490783268,-0.0,-0.0001817571691492638,-0.0015645912182275907,0.5,0,0,-0.2564470115875456,-0.04079749841315528,-0.0,0.0,-0.04079749841315528,0.002,8e-05,0.0,-1.1803663166843519,-0.0017479234069537474,-9.442930533474815e-05,0.0,-0.0018423527122884956,-0.027656680981566536,0.0,0.027656680981566536,-0.05081312439105688,0.0,0.05081312439105688,-0.8739617034768736,0.0,0.8739617034768736,-0.08159499682631056,0,0.08159499682631056,-0.002043836336393656,0.0015616821727260641,0.04079749841315528,0.4,0.03346681594848633,1.8235702514648438,STABILIZE
0.03,0,0.01,-0.2012865684400382,-0.0014192359412777932,-0.0,0.001047249387725471,-0.0003719865535523222,0.05,0,0.01,-0.18875099846492313,-0.000741429959433874,-0.0,0.003832583609442527,0.003091153650008653,0.5,0,0,-0.259194439353166,-0.04104178158764491,-0.0,-0.0,-0.04104178158764491,0.002,8e-05,0.0,-1.2096068601465626,-0.0017472109924740605,-9.676854881172502e-05,0.0,-0.0018439795412857857,-0.014828599188677478,0.0,0.014828599188677478,-0.047307864709259774,0.0,0.047307864709259774,-0.8736054962370302,0.0,0.8736054962370302,-0.08208356317528982,0,0.08208356317528982,-0.00036755769870125816,-0.0030916833961631626,0.04104178158764491,0.4,0.033471107482910156,1.8570425510406494,STABILIZE
0.03,0,0.01,-0.20281187099249826,-0.0013407438205365252,-0.0,0.0007666080242020798,-0.0005741357963344454,0.05,0,0.01,-0.1894256727894007,-0.0009884000062359668,-0.0,-0.0014472475797166675,-0.0024356475859526345,0.5,0,0,-0.262086101323263,-0.04236293876292615,-0.0,-0.0,-0.04236293876292615,0.002,8e-05,0.0,-1.2392855349581027,-0.0017391740758189616,-9.914284279664822e-05,0.0,-0.0018383169186156098,-0.019768000124719333,0.0,0.019768000124719333,-0.04469146068455084,0.0,0.04469146068455084,-0.8695870379094808,0.0,0.8695870379094808,-0.0847258775258523,0,0.0847258775258523,-0.0005777368702608123,0.002434795922522199,0.04236293876292615,0.4,0.03412961959838867,1.8911643028259277,STABILIZE
0.03,0,0.01,-0.20403817013613362,-0.0010984846735985873,-0.0,0.0024112111934657,0.0013127265198671126,0.05,0,0.01,-0.18966411262763325,-0.0003559796281263527,-0.0,0.003776697261460335,0.0034207176333339822,0.5,0,0,-0.264973844561454,-0.04311266823847625,-0.0,-0.0,-0.04311266823847625,0.002,8e-05,0.0,-1.2681879707418788,-0.0017259998863477658,-0.00010145503765935031,0.0,-0.001827454924007116,-0.007119592562527054,0.0,0.007119592562527054,-0.03661615578661958,0.0,0.03661615578661958,-0.8629999431738828,0.0,0.8629999431738828,-0.0862253364769525,0,0.0862253364769525,0.0013178729241778346,-0.0034187382173374178,0.04311266823847625,0.4,0.033490657806396484,1.9246740341186523,STABILIZE
0.03,0,0.01,-0.20565242447249735,-0.0014492850804899864,-0.0,-0.0034994471474452094,-0.004948732227935196,0.05,0,0.01,-0.18986414128080029,-0.0002993110979840071,-0.0,0.0003391818063961424,3.987070841213528e-05,0.5,0,0,-0.26754195360369976,-0.03842767148641337,-0.0,0.0,-0.03842767148641337,0.002,8e-05,0.0,-1.2971067197241948,-0.0017308925242811195,-0.00010376853757793559,-0.0,-0.0018346610618590552,-0.005986221959680142,0.0,0.005986221959680142,-0.04830950268299955,0.0,0.04830950268299955,-0.8654462621405598,0.0,0.8654462621405598,-0.07685534297282674,0,0.07685534297282674,-0.004948674294109969,-4.650879496330382e-05,0.03842767148641337,0.4,0.03341484069824219,1.9581060409545898,STABILIZE
0.03,0,0.01,-0.20767341754884255,-0.0018088556493719918,-0.0,-0.0035758616916432427,-0.005384717341015234,0.05,0,0.01,-0.19003074498403602,-0.00024852637492227324,-0.0,0.00030302671258407326,5.450033766180002e-05,0.5,0,0,-0.26980036593072304,-0.03368922885949876,-0.0,0.0,-0.03368922885949876,0.002,8e-05,0.0,-1.3261917886590904,-0.0017354732473206208,-0.00010609534309272724,-0.0,-0.001841568590413348,-0.004970527498445464,0.0,0.004970527498445464,-0.06029518831239973,0.0,0.06029518831239973,-0.8677366236603103,0.0,0.8677366236603103,-0.06737845771899752,0,0.06737845771899752,-0.005384649526630035,-6.0832596511769534e-05,0.03368922885949876,0.4,0.033518314361572266,1.9915995597839355,STABILIZE
0.03,0,0.01,-0.20959504140471238,-0.0017248244386394431,-0.0,0.0008380590627223169,-0.0008867653759171263,0.05,0,0.01,-0.19041069644862377,-0.0005683991082298584,-0.0,-0.00191409054371041,-0.0024824896519402683,0.5,0,0,-0.2723488635862871,-0.038124969364712005,-0.0,-0.0,-0.038124969364712005,0.002,8e-05,0.0,-1.355088756373357,-0.0017291693503177117,-0.00010840710050986856,0.0,-0.0018375764508275802,-0.011367982164597168,0.0,0.011367982164597168,-0.057494147954648106,0.0,0.057494147954648106,-0.8645846751588558,0.0,0.8645846751588558,-0.07624993872942401,0,0.07624993872942401,-0.0008900683179072465,0.0024813073355337747,0.038124969364712005,0.4,0.03342294692993164,2.025033950805664,STABILIZE
0.03,0,0.01,-0.21175539981196853,-0.0015183908599704192,-0.0,0.0016121134653153063,9.372260534488714e-05,0.05,0,0.01,-0.1900932124960119,0.00037190181824612136,-0.0,0.004405887244102249,0.00477778906234837,0.5,0,0,-0.2758672523735156,-0.0412145299471807,-0.0,-0.0,-0.0412145299471807,0.002,8e-05,0.0,-1.391615262509461,-0.001711491108062787,-0.0001113292210007569,0.0,-0.0018228203290635437,0.007438036364922427,0.0,-0.007438036364922427,-0.05061302866568064,0.0,0.05061302866568064,-0.8557455540313934,0.0,0.8557455540313934,-0.0824290598943614,0,0.0824290598943614,0.00010059611280256053,-0.00477764928318701,0.0412145299471807,0.4,0.04268383979797363,2.0677871704101562,STABILIZE
0.03,0,0.01,-0.2137452262724809,-0.0017960096442025477,-0.0,-0.002784195974358128,-0.004580205618560676,0.05,0,0.01,-0.18971200243938965,0.0005734645304899676,-0.0,0.0012128648143796817,0.0017863293448696492,0.5,0,0,-0.2782735531550287,-0.03619862917875414,-0.0,0.0,-0.03619862917875414,0.002,8e-05,0.0,-1.420173548786878,-0.0017184398939302575,-0.00011361388390295026,-0.0,-0.0018320537778332077,0.011469290609799352,0.0,-0.011469290609799352,-0.059866988140084926,0.0,0.059866988140084926,-0.8592199469651287,0.0,0.8592199469651287,-0.07239725835750828,0,0.07239725835750828,-0.00457794480964661,-0.0017921153301243965,0.03619862917875414,0.4,0.033237457275390625,2.1009576320648193,STABILIZE
0.03,0,0.01,-0.21556853562656417,-0.0016342238048270878,-0.0,0.0016111989468137098,-2.3024858013377973e-05,0.05,0,0.01,-0.18963973002470125,0.00010796238924167725,-0.0,-0.0027815162165516555,-0.0026735538273099783,0.5,0,0,-0.2800958841047015,-0.02722244775741586,-0.0,0.0,-0.02722244775741586,0.002,8e-05,0.0,-1.4493233139828827,-0.0017417867162529944,-0.00011594586511863063,-0.0,-0.001857732581371625,0.002159247784833545,0.0,-0.002159247784833545,-0.054474126827569594,0.0,0.054474126827569594,-0.8708933581264972,0.0,0.8708933581264972,-0.05444489551483172,0,0.05444489551483172,-2.5565372210178077e-05,0.0026735307410527607,0.02722244775741586,0.4,0.033471107482910156,2.1344316005706787,STABILIZE
0.03,0,0.01,-0.2170641887517692,-0.0013420287419494612,-0.0,0.002913139610524105,0.001571110868574644,0.05,0,0.01,-0.18960203965249067,5.6365077736433996e-05,-0.0,-0.0003086503319984423,-0.0002522852542620083,0.5,0,0,-0.28250496667268493,-0.036027271224402135,-0.0,-0.0,-0.036027271224402135,0.002,8e-05,0.0,-1.4783625233570812,-0.0017370985721625826,-0.0001182690018685665,0.0,-0.0018553675740311491,0.00112730155472868,0.0,-0.00112730155472868,-0.044734291398315376,0.0,0.044734291398315376,-0.8685492860812912,0.0,0.8685492860812912,-0.07205454244880427,0,0.07205454244880427,0.0015707923551165394,0.00025426086599957513,0.036027271224402135,0.4,0.033434152603149414,2.167879343032837,STABILIZE
0.03,0,0.01,-0.21896229662377126,-0.001702696536672793,-0.0,-0.003594853672867209,-0.0052975502095400015,0.05,0,0.01,-0.18878675697831007,0.0012189147292530188,-0.0,0.006952429818998528,0.008171344548251547,0.5,0,0,-0.2841807756562081,-0.02505472418488265,-0.0,0.0,-0.02505472418488265,0.002,8e-05,0.0,-1.5074537939838641,-0.0017397537998859072,-0.00012059630351870914,-0.0,-0.0018603501034046164,0.024378294585060377,0.0,-0.024378294585060377,-0.05675655122242644,0.0,0.05675655122242644,-0.8698768999429536,0.0,0.8698768999429536,-0.0501094483697653,0,0.0501094483697653,-0.005290401731935263,-0.008175974526842288,0.02505472418488265,0.4,0.03344297409057617,2.2013092041015625,STABILIZE
0.03,0,0.01,-0.22127197254576728,-0.002070741932552984,-0.0,-0.00366634906594529,-0.005737090998498274,0.05,0,0.01,-0.18718255297724906,0.0023970841260531495,-0.0,0.007041925233956129,0.009439009360009278,0.5,0,0,-0.2851133107260008,-0.013934418635719658,-0.0,0.0,-0.013934418635719658,0.002,8e-05,0.0,-1.5366084687962962,-0.0017425765836988506,-0.0001229286775037037,-0.0,-0.0018655052612025543,0.047941682521062984,0.0,-0.047941682521062984,-0.06902473108509947,0.0,0.06902473108509947,-0.8712882918494252,0.0,0.8712882918494252,-0.027868837271439316,0,0.027868837271439316,-0.005732499157838346,-0.009441798781417411,0.013934418635719658,0.4,0.033461570739746094,2.234774589538574,STABILIZE
0.03,0,0.01,-0.22349640405861157,-0.001995595686245816,-0.0,0.0007490629208818534,-0.0012465327653639626,0.05,0,0.01,-0.18397765780299022,0.004791992131990527,-0.0,0.014323564044739216,0.019115556176729744,0.5,0,0,-0.28607503312670046,-0.014379771963610382,-0.0,-0.0,-0.014379771963610382,0.002,8e-05,0.0,-1.566944549621758,-0.0018143527663385774,-0.00012535556396974065,-0.0,-0.001939708330308318,0.09583984263981053,0.0,-0.09583984263981053,-0.06651985620819387,0.0,0.06651985620819387,-0.9071763831692887,0.0,0.9071763831692887,-0.028759543927220764,0,0.028759543927220764,-0.0012369375795317137,-0.019116179464139245,0.014379771963610382,0.4,0.03344011306762695,2.268235921859741,STABILIZE
0.03,0,0.01,-0.22571991652583373,-0.001993080184500252,-0.0,2.5053437133400484e-05,-0.0019680267473668515,0.05,0,0.01,-0.18137812980724774,0.003883545976425844,-0.0,-0.005428666154811076,-0.001545120178385232,0.5,0,0,-0.28646785178585066,-0.005868485839376525,-0.0,0.0,-0.005868485839376525,0.002,8e-05,0.0,-1.5971200537353327,-0.0018032190117410003,-0.00012776960429882663,0.0,-0.001930988616039827,0.07767091952851687,0.0,-0.07767091952851687,-0.0664360061500084,0.0,0.0664360061500084,-0.9016095058705001,0.0,0.9016095058705001,-0.01173697167875305,0,0.01173697167875305,-0.0019683432220868637,0.0015447169980515078,0.005868485839376525,0.4,0.03346848487854004,2.3016881942749023,STABILIZE
0.03,0,0.01,-0.22806393686526155,-0.002001873394456885,-0.0,-8.344112780159911e-05,-0.0020853145222584843,0.05,0,0.01,-0.17925127810905223,0.003027339934553297,-0.0,-0.004874861270234758,-0.0018475213356814605,0.5,0,0,-0.2862741408051052,0.002757263180454843,-0.0,0.0,0.002757263180454843,0.002,8e-05,0.0,-1.628766567595493,-0.0018018135496620062,-0.00013030132540763946,0.0,-0.0019321148750696456,0.06054679869106594,0.0,-0.06054679869106594,-0.06672911314856284,0.0,0.06672911314856284,-0.9009067748310031,0.0,0.9009067748310031,0.005514526360909686,0,-0.005514526360909686,-0.0020851366948761887,0.0018477220316435972,-0.002757263180454843,0.4,0.03512740135192871,2.3368091583251953,STABILIZE
0.03,0,0.01,-0.2303964299468126,-0.0020911241787325906,-0.0,-0.0008890557415723881,-0.0029801799203049784,0.05,0,0.01,-0.17815749454022675,0.0016343294400044742,-0.0,-0.00832573509554923,-0.006691405655544757,0.5,0,0,-0.2854097753932743,0.012915332427180758,-0.0,0.0,0.012915332427180758,0.002,8e-05,0.0,-1.658636739340726,-0.0017852782745180775,-0.0001326909391472581,0.0,-0.0019179692136653357,0.03268658880008948,0.0,-0.03268658880008948,-0.06970413929108635,0.0,0.06970413929108635,-0.8926391372590388,0.0,0.8926391372590388,0.025830664854361515,0,-0.025830664854361515,-0.00297716293013632,0.0066927485304520045,-0.012915332427180758,0.4,0.0334627628326416,2.3702828884124756,STABILIZE
0.03,0,0.01,-0.23229699876113635,-0.0017051958801377841,-0.0,0.003847288827035805,0.002142092946898021,0.05,0,0.01,-0.17673300908450668,0.0021300875051226058,-0.0,0.0029653038739889054,0.005095391379111511,0.5,0,0,-0.28526333676423365,0.0021897527470998695,-0.0,-0.0,0.0021897527470998695,0.002,8e-05,0.0,-1.6883630898786397,-0.0017780378900870409,-0.00013506904719029118,0.0,-0.001913106937277332,0.04260175010245212,0.0,-0.04260175010245212,-0.05683986267125947,0.0,0.05683986267125947,-0.8890189450435204,0.0,0.8890189450435204,0.004379505494199739,0,-0.004379505494199739,0.0021417034652774485,-0.005095555098936005,-0.0021897527470998695,0.4,0.033437252044677734,2.403714656829834,STABILIZE
0.03,0,0.01,-0.2344680349160318,-0.0019324413317205694,-0.0,-0.0022474599006248206,-0.00417990123234539,0.05,0,0.01,-0.17565990009938232,0.0015919588684409497,-0.0,-0.0031932587179972663,-0.0016012998495563166,0.5,0,0,-0.28422270590484144,0.015437775177986394,-0.0,0.0,0.015437775177986394,0.002,8e-05,0.0,-1.7183275571133185,-0.0017780933721965478,-0.0001374662045690655,-0.0,-0.0019155595767656134,0.03183917736881899,0.0,-0.03183917736881899,-0.06441471105735232,0.0,0.06441471105735232,-0.8890466860982739,0.0,0.8890466860982739,0.030875550355972788,0,-0.030875550355972788,-0.004179037717000656,0.0016035520821718063,-0.015437775177986394,0.4,0.03370404243469238,2.437422752380371,STABILIZE
0.03,0,0.01,-0.2362297065179821,-0.0015798559432855656,-0.0,0.003513292721009409,0.0019334367777238436,0.05,0,0.01,-0.17504428386459006,0.0009201345720383898,-0.0,-0.004016585180954233,-0.0030964506089158433,0.5,0,0,-0.2837028307074415,0.0077703464469934935,-0.0,-0.0,0.0077703464469934935,0.002,8e-05,0.0,-1.747713168154484,-0.0017568553336526939,-0.00013981705345235873,0.0,-0.0018966723871050527,0.018402691440767796,0.0,-0.018402691440767796,-0.05266186477618552,0.0,0.05266186477618552,-0.8784276668263469,0.0,0.8784276668263469,0.015540692893986987,0,-0.015540692893986987,0.001934276576272405,0.003095926076862037,-0.0077703464469934935,0.4,0.033452510833740234,2.4708738327026367,STABILIZE
0.03,0,0.01,-0.23874637406741886,-0.0022556775727140673,-0.0,-0.006730398048262629,-0.008986075620976697,0.05,0,0.01,-0.17455901393318948,0.0007249086867656472,-0.0,-0.0011665337657107528,-0.0004416250789451056,0.5,0,0,-0.28196903193680634,0.02589993132913837,-0.0,0.0,0.02589993132913837,0.002,8e-05,0.0,-1.7772912731268435,-0.0017673813146136118,-0.0001421833018501475,-0.0,-0.0019095646164637593,0.014498173735312942,0.0,-0.014498173735312942,-0.07518925242380224,0.0,0.07518925242380224,-0.8836906573068058,0.0,0.8836906573068058,0.05179986265827674,0,-0.05179986265827674,-0.008985672685027254,0.0004497490120279637,-0.02589993132913837,0.4,0.033471107482910156,2.504369020462036,STABILIZE
0.03,0,0.01,-0.24060844331742826,-0.001653546194398911,-0.0,0.0059411327188596645,0.004287586524460754,0.05,0,0.01,-0.17370111640382258,0.001269710381664322,-0.0,0.0032252820146090482,0.00449499239627337,0.5,0,0,-0.2810791839593153,0.013169978656508076,-0.0,-0.0,0.013169978656508076,0.002,8e-05,0.0,-1.8071080658107075,-0.0017651847649717558,-0.0001445686452648566,0.0,-0.0019097534102366124,0.02539420763328644,0.0,-0.02539420763328644,-0.0551182064799637,0.0,0.0551182064799637,-0.8825923824858779,0.0,0.8825923824858779,0.026339957313016152,0,-0.026339957313016152,0.0042855196381416955,-0.0044969630061181,-0.013169978656508076,0.4,0.0337831974029541,2.538130044937134,STABILIZE
0.03,0,0.01,-0.24178040828696948,-0.001050030409839009,-0.0,0.0060080476718402135,0.004958017262001204,0.05,0,0.01,-0.17248986320687468,0.0018087182977091255,-0.0,0.0032195200237799273,0.005028238321489053,0.5,0,0,-0.28106922791026195,0.0001486698911599138,-0.0,-0.0,0.0001486698911599138,0.002,8e-05,0.0,-1.8364837128873832,-0.0017546214287321958,-0.00014691869703099066,0.0,-0.0019015401257631865,0.03617436595418251,0.0,-0.03617436595418251,-0.035001013661300304,0.0,0.035001013661300304,-0.8773107143660979,0.0,0.8773107143660979,0.0002973397823198276,0,-0.0002973397823198276,0.004957991167599035,-0.0050282640513404754,-0.0001486698911599138,0.4,0.03348374366760254,2.571624517440796,STABILIZE
0.03,0,0.01,-0.2427363576124941,-0.0008581455546504676,-0.0,0.001913922179393404,0.0010557766247429362,0.05,0,0.01,-0.17096542711320947,0.0022807834791340425,-0.0,0.0028251193246932355,0.005105902803827278,0.5,0,0,-0.28124329149228017,-0.002604250475541946,-0.0,-0.0,-0.002604250475541946,0.002,8e-05,0.0,-1.8657753430722401,-0.0017529856838248716,-0.00014926202744577923,0.0,-0.0019022477112706508,0.045615669582680846,0.0,-0.045615669582680846,-0.028604851821682254,0.0,0.028604851821682254,-0.8764928419124358,0.0,0.8764928419124358,-0.005208500951083892,0,0.005208500951083892,0.0010562407749797247,-0.005105806806838179,0.002604250475541946,0.4,0.033419132232666016,2.6050450801849365,STABILIZE
0.03,0,0.01,-0.2446132881457557,-0.0016834233874921515,-0.0,-0.008224373550115844,-0.009907796937607995,0.05,0,0.01,-0.17060367573365612,0.000540759431427839,-0.0,-0.01040421093481545,-0.00986345150338761,0.5,0,0,-0.28060720780393444,0.009508415809638517,-0.0,0.0,0.009508415809638517,0.002,8e-05,0.0,-1.8949251941897132,-0.0017429713120600736,-0.00015159401553517705,0.0,-0.0018945653275952506,0.01081518862855678,0.0,-0.01081518862855678,-0.05611411291640505,0.0,0.05611411291640505,-0.8714856560300368,0.0,0.8714856560300368,0.019016831619277034,0,-0.019016831619277034,-0.009904522649996856,0.009866739420510348,-0.009508415809638517,0.4,0.03344845771789551,2.638493537902832,STABILIZE
0.03,0,0.01,-0.247422289813135,-0.0025189512955206632,-0.0,-0.008325038001196374,-0.010843989296717038,0.05,0,0.01,-0.17141739950309778,-0.0012161678690774632,-0.0,-0.010503409689731312,-0.011719577558808775,0.5,0,0,-0.27915486876294254,0.021706236722973477,-0.0,0.0,0.021706236722973477,0.002,8e-05,0.0,-1.923908605914863,-0.0017327105536344908,-0.00015391268847318905,0.0,-0.0018866232421076799,-0.02432335738154926,0.0,0.02432335738154926,-0.0839650431840221,0.0,0.0839650431840221,-0.8663552768172454,0.0,0.8663552768172454,0.04341247344594695,0,-0.04341247344594695,-0.010835106371096963,0.011727790582682739,-0.021706236722973477,0.4,0.03345441818237305,2.672008514404297,STABILIZE
0.03,0,0.01,-0.2507807748260794,-0.0030173518525720834,-0.0,-0.004975291730731975,-0.007992643583304058,0.05,0,0.01,-0.1725634921899749,-0.0017161333550889026,-0.0,-0.002994548195836957,-0.00471068155092586,0.5,0,0,-0.27696197117289856,0.032835954209102805,-0.0,0.0,0.032835954209102805,0.002,8e-05,0.0,-1.9532920485501624,-0.0017599241866267795,-0.000156263363884013,-0.0,-0.0019161875505107925,-0.03432266710177805,0.0,0.03432266710177805,-0.10057839508573611,0.0,0.10057839508573611,-0.8799620933133897,0.0,0.8799620933133897,0.06567190841820561,0,-0.06567190841820561,-0.007987238993374363,0.004719839550947142,-0.032835954209102805,0.4,0.033391714096069336,2.7053356170654297,STABILIZE
0.03,0,0.01,-0.2539926158626959,-0.002878860910632629,-0.0,0.001379257962717279,-0.0014996029479153502,0.05,0,0.01,-0.17302038957135218,-0.0006825493522364522,-0.0,0.006176197285283894,0.005493647933047442,0.5,0,0,-0.2754172033694914,0.023076960090972303,-0.0,-0.0,0.023076960090972303,0.002,8e-05,0.0,-1.982212334400837,-0.0017281361792329344,-0.00015857698675206697,0.0,-0.0018867131659850013,-0.013650987044729043,0.0,0.013650987044729043,-0.09596203035442098,0.0,0.09596203035442098,-0.8640680896164672,0.0,0.8640680896164672,0.046153920181944606,0,-0.046153920181944606,-0.0015040278023510036,-0.005492438163823791,-0.023076960090972303,0.4,0.03346991539001465,2.7388219833374023,STABILIZE
0.03,0,0.01,-0.2570241064167067,-0.0027190478779331928,-0.0,0.0015926865740556984,-0.0011263613038774943,0.05,0,0.01,-0.17277941374862885,0.00036023247075723207,-0.0,0.006235378608733038,0.00659561107949027,0.5,0,0,-0.27453720158295275,0.01315506320314723,-0.0,-0.0,0.01315506320314723,0.002,8e-05,0.0,-2.0104749471052785,-0.001689980461859736,-0.0001608379957684223,0.0,-0.0018508184576281582,0.007204649415144641,0.0,-0.007204649415144641,-0.09063492926443976,0.0,0.09063492926443976,-0.844990230929868,0.0,0.844990230929868,0.02631012640629446,0,-0.02631012640629446,-0.0011293898786259324,-0.006595093160890506,-0.01315506320314723,0.4,0.033447265625,2.7722883224487305,STABILIZE
0.03,0,0.01,-0.26021386211630765,-0.00286116447601775,-0.0,-0.0014164057974822989,-0.004277570273500049,0.05,0,0.01,-0.17278796459218015,-1.2783303860360594e-05,-0.0,-0.002230598168722081,-0.0022433814725824415,0.5,0,0,-0.2734482412727811,0.016279692703144406,-0.0,0.0,0.016279692703144406,0.002,8e-05,0.0,-2.0386392871860557,-0.0016842002317958976,-0.00016309114297488446,0.0,-0.0018472913747707822,-0.00025566607720721186,0.0,0.00025566607720721186,-0.09537214920059167,0.0,0.09537214920059167,-0.8421001158979488,0.0,0.8421001158979488,0.03255938540628881,0,-0.03255938540628881,-0.00427629473991833,0.00224581191857294,-0.016279692703144406,0.4,0.03344535827636719,2.8057141304016113,STABILIZE
0.03,0,0.01,-0.26309367810444023,-0.002576559215784044,-0.0,0.002829279174385661,0.00025271995860161713,0.05,0,0.01,-0.17283223533166123,-6.601473975513998e-05,-0.0,-0.0003175062742186972,-0.00038352101397383717,0.5,0,0,-0.27231212556325984,0.016941298874806974,-0.0,0.0,0.016941298874806974,0.002,8e-05,0.0,-2.0667210354199606,-0.0016749747786099182,-0.00016533768283359687,0.0,-0.001840312461443515,-0.0013202947951027996,0.0,0.0013202947951027996,-0.08588530719280146,0.0,0.08588530719280146,-0.837487389304959,0.0,0.837487389304959,0.03388259774961395,0,-0.03388259774961395,0.0002529467144941879,0.0003833714977169261,-0.016941298874806974,0.4,0.03353095054626465,2.8392419815063477,STABILIZE
0.03,0,0.01,-0.2661451890479608,-0.0027371219165221745,-0.0,-0.0016002261586346162,-0.004337348075156791,0.05,0,0.01,-0.17214896550445835,0.0010214572679732158,-0.0,0.0065028844640125935,0.007524341731985809,0.5,0,0,-0.27154354404832237,0.011489943550948557,-0.0,-0.0,0.011489943550948557,0.002,8e-05,0.0,-2.094413512943952,-0.0016559596990175073,-0.0001675530810355162,0.0,-0.0018235127800530235,0.020429145359464315,0.0,-0.020429145359464315,-0.09123739721740581,0.0,0.09123739721740581,-0.8279798495087537,0.0,0.8279798495087537,0.022979887101897113,0,-0.022979887101897113,-0.0043403655492611475,-0.007522601526304348,-0.011489943550948557,0.4,0.03344583511352539,2.872692346572876,STABILIZE
0.03,0,0.01,-0.26909713732438717,-0.002632989210532543,-0.0,0.0010320125544949525,-0.0016009766560375904,0.05,0,0.01,-0.17105837061225676,0.0016212595407808575,-0.0,0.00356662281961861,0.005187882360399468,0.5,0,0,-0.26946236628722126,0.030938429341391245,-0.0,0.0,0.030938429341391245,0.002,8e-05,0.0,-2.1222251717616016,-0.0016537732764191615,-0.00016977801374092814,0.0,-0.0018235512901600896,0.03242519081561715,0.0,-0.03242519081561715,-0.08776630701775143,0.0,0.08776630701775143,-0.8268866382095807,0.0,0.8268866382095807,0.06187685868278249,0,-0.06187685868278249,-0.0016065784003895264,-0.005186150352807281,-0.030938429341391245,0.4,0.033634185791015625,2.906338930130005,STABILIZE
