D-kp,D-ki,D-kd,D-I-Tot,D-P,D-I,D-D,D-PID,E-kp,E-ki,E-kd,E-I-Tot,E-P,E-I,E-D,E-PID,N-kp,N-ki,N-kd,N-I-Tot,N-P,N-I,N-D,N-PID,Y-kp,Y-ki,Y-kd,Y-I-Tot,Y-P,Y-I,Y-D,Y-PID,errorN,desiredN,actualN,errorE,desiredE,actualE,errorD,desiredD,actualD,errorY,desiredY,actualY,roll,pitch,yaw-rate,thrust,dt,Time,Mode
0.03,0,0,1.3428864469003627,1.1992407426022482,0.0,0.0,1.1992407426022482,0.06,0,0,-0.33677651267328484,-0.6015044921803007,-0.0,-0.0,-0.6015044921803007,0.5,0,0,-0.0008483726796465982,-0.012627067670678156,-0.0,-0.0,-0.012627067670678156,0.002,8e-05,0.0,0.3349697444206491,0.019942582932733,2.679757955365193e-05,0.0,0.019969380512286652,-10.025074869671679,-10.0,0.025074869671679444,39.97469142007494,40.0,0.02530857992505695,9.9712914663665,10.0,0.02870853363349969,-0.025254135341356312,0,0.025254135341356312,1.198975502300233,0.6020330204516832,0.012627067670678156,0.5199693805122867,0.03359341621398926,0.033805131912231445,STABILIZE
0.03,0,0,2.678614316768227,1.1984702112446366,0.0,-0.0,1.1984702112446366,0.06,0,0,-0.6728174029904983,-0.6030195309844764,-0.0,-0.0,-0.6030195309844764,0.5,0,0,-0.002543694844561099,-0.025351884403841805,-0.0,-0.0,-0.025351884403841805,0.002,8e-05,0.0,0.6672613066530675,0.01987638089899717,5.3380904532245404e-05,-0.0,0.019929761803529417,-10.05032551640794,-10.0,0.05032551640793987,39.94900704148789,40.0,0.050992958512111164,9.938190449498585,10.0,0.06180955050141623,-0.05070376880768361,0,0.05070376880768361,1.1979361012815193,0.6040798781915645,0.025351884403841805,0.5199297618035295,0.033435821533203125,0.0672309398651123,STABILIZE
0.03,0,0,4.0138906384418975,1.1972284378645477,0.0,-0.0,1.1972284378645477,0.06,0,0,-1.0104465602668071,-0.6054465611084598,-0.0,-0.0,-0.6054465611084598,0.5,0,0,-0.005610024447092266,-0.0458219388804703,-0.0,-0.0,-0.0458219388804703,0.002,8e-05,0.0,0.99756364716843,0.019743596574455204,7.980509177347441e-05,-0.0,0.019823401666228677,-10.090776018474331,-10.0,0.09077601847433063,39.90761459548492,40.0,0.0923854045150781,9.871798287227602,10.0,0.12820171277239792,-0.0916438777609406,0,0.0916438777609406,1.1962585026575099,0.6073607376257187,0.0458219388804703,0.5198234016662286,0.03345918655395508,0.10065746307373047,STABILIZE
0.03,0,0,5.349013548447317,1.1968435662073076,0.0,-0.0,1.1968435662073076,0.06,0,0,-1.3485370669202474,-0.6061486094674182,-0.0,-0.0,-0.6061486094674182,0.5,0,0,-0.009092574540647817,-0.052031010805960176,-0.0,-0.0,-0.052031010805960176,0.002,8e-05,0.0,1.3270723752880687,0.019692089684713823,0.0001061657900230455,-0.0,0.01979825547473687,-10.102476824456971,-10.0,0.10247682445697073,39.89478554024359,40.0,0.10521445975640871,9.846044842356912,10.0,0.15395515764308698,-0.10406202161192035,0,0.10406202161192035,1.1957406906157024,0.6083213456200541,0.052031010805960176,0.5197982554747369,0.03346610069274902,0.13417363166809082,STABILIZE
0.03,0,0,6.682816091103881,1.196410012876039,0.0,-0.0,1.196410012876039,0.06,0,0,-1.6868826637045338,-0.6069864869188057,-0.0,-0.0,-0.6069864869188057,0.5,0,0,-0.013039575545593114,-0.059007129018050025,-0.0,-0.0,-0.059007129018050025,0.002,8e-05,0.0,1.6552571862750614,0.0196252734259866,0.00013242057490200492,-0.0,0.019757694000888604,-10.116441448646762,-10.0,0.11644144864676208,39.88033376253464,40.0,0.11966623746536136,9.8126367129933,10.0,0.1873632870067001,-0.11801425803610005,0,0.11801425803610005,1.1951572431170507,0.609449488011048,0.059007129018050025,0.5197576940008886,0.033445119857788086,0.16758131980895996,STABILIZE
0.03,0,0,8.017103939540245,1.1960268266816811,0.0,-0.0,1.1960268266816811,0.06,0,0,-2.025855185117921,-0.6076953029190054,-0.0,-0.0,-0.6076953029190054,0.5,0,0,-0.017358678550420666,-0.06452584509193314,-0.0,-0.0,-0.06452584509193314,0.002,8e-05,0.0,1.982593904367446,0.01956117123478912,0.0001586075123493957,-0.0,0.019719778747138518,-10.128255048650091,-10.0,0.12825504865009213,39.867560889389374,40.0,0.13243911061062322,9.78058561739456,10.0,0.2194143826054387,-0.12905169018386628,0,0.12905169018386628,1.1946550351357241,0.6103876623564203,0.06452584509193314,0.5197197787471385,0.033468008041381836,0.20103907585144043,STABILIZE
0.03,0,0,9.351310114750387,1.1958087991143216,0.0,-0.0,1.1958087991143216,0.06,0,0,-2.365094386609332,-0.6080997520252857,-0.0,-0.0,-0.6080997520252857,0.5,0,0,-0.021917292542468016,-0.06809580638960969,-0.0,-0.0,-0.06809580638960969,0.002,8e-05,0.0,2.3091123486586507,0.019509909638218373,0.00018472898789269207,-0.0,0.019694638626111066,-10.134995867088094,-10.0,0.1349958670880934,39.86029330381072,40.0,0.1397066961892764,9.754954819109185,10.0,0.24504518089081428,-0.13619161277921937,0,0.13619161277921937,1.194359973982472,0.6109404594565976,0.06809580638960969,0.5196946386261111,0.03347206115722656,0.23455524444580078,STABILIZE
0.03,0,0,10.684205920660172,1.195537019441136,0.0,-0.0,1.195537019441136,0.06,0,0,-2.7043590388450904,-0.6086048876998629,-0.0,-0.0,-0.6086048876998629,0.5,0,0,-0.026770650556052305,-0.07255342275711273,-0.0,-0.0,-0.07255342275711273,0.002,8e-05,0.0,2.634332850879322,0.019447038953939372,0.00021074662807034575,-0.0,0.01965778558200972,-10.143414794997716,-10.0,0.14341479499771512,39.8512339813712,40.0,0.14876601862880062,9.723519476969686,10.0,0.27648052303031284,-0.14510684551422545,0,0.14510684551422545,1.1939918389852084,0.6116307404170251,0.07255342275711273,0.5196577855820097,0.0334467887878418,0.26796817779541016,STABILIZE
0.03,0,0,12.014695607029944,1.195125294686534,0.0,-0.0,1.195125294686534,0.06,0,0,-3.0436005940130366,-0.6094540495029892,-0.0,-0.0,-0.6094540495029892,0.5,0,0,-0.03208059847130099,-0.07949520556220768,-0.0,-0.0,-0.07949520556220768,0.002,8e-05,0.0,2.9570465442327203,0.01932538081377108,0.00023656372353861766,-0.0,0.019561944537309698,-10.157567491716486,-10.0,0.15756749171648593,39.83750982288447,40.0,0.1624901771155329,9.66269040688554,10.0,0.33730959311445996,-0.15899041112441537,0,0.15899041112441537,1.1934295177731629,0.6127680593527073,0.07949520556220768,0.5195619445373098,0.03339791297912598,0.3013594150543213,STABILIZE
0.03,0,0,13.348892014980898,1.1949914221218294,0.0,-0.0,1.1949914221218294,0.06,0,0,-3.3840137667930517,-0.6097915104930312,-0.0,-0.0,-0.6097915104930312,0.5,0,0,-0.0375769096497168,-0.08204744909092702,-0.0,-0.0,-0.08204744909092702,0.002,8e-05,0.0,3.279617070647654,0.019260982855698563,0.00026236936565181236,-0.0,0.019523352221350376,-10.16319184155052,-10.0,0.1631918415505197,39.833047404060984,40.0,0.1669525959390168,9.630491427849282,10.0,0.36950857215071853,-0.16409489818185405,0,0.16409489818185405,1.1932400829645033,0.6132114558787939,0.08204744909092702,0.5195233522213504,0.03349471092224121,0.3348968029022217,STABILIZE
0.03,0,0,14.680368146863003,1.1949280353170237,0.0,-0.0,1.1949280353170237,0.06,0,0,-3.7238135307371123,-0.6099039323474962,-0.0,-0.0,-0.6099039323474962,0.5,0,0,-0.04316668299472316,-0.08360866961961358,-0.0,-0.0,-0.08360866961961358,0.002,8e-05,0.0,3.600803282006144,0.01921648709126099,0.00028806426256049156,-0.0,0.01950455135382148,-10.165065539124937,-10.0,0.16506553912493618,39.83093451056746,40.0,0.16906548943253918,9.608243545630494,10.0,0.3917564543695064,-0.16721733923922716,0,0.16721733923922716,1.193142948446435,0.6133887192083738,0.08360866961961358,0.5195045513538215,0.033428192138671875,0.36831188201904297,STABILIZE
0.03,0,0,16.245884002813405,1.1947976448270803,0.0,-0.0,1.1947976448270803,0.06,0,0,-4.123483353225258,-0.6100539458636093,-0.0,-0.0,-0.6100539458636093,0.5,0,0,-0.049843175304470515,-0.0849246938538086,-0.0,-0.0,-0.0849246938538086,0.002,8e-05,0.0,3.977363230872408,0.019159305150930908,0.0003181890584697927,-0.0,0.0194774942094007,-10.167565764393489,-10.0,0.1675657643934882,39.82658816090268,40.0,0.173411839097318,9.579652575465454,10.0,0.4203474245345452,-0.1698493877076172,0,0.1698493877076172,1.192983934769504,0.6135931553806394,0.0849246938538086,0.5194774942094007,0.03930830955505371,0.40759921073913574,STABILIZE
0.03,0,0,17.57762772322993,1.1947676760581616,0.0,-0.0,1.1947676760581616,0.06,0,0,-4.4634673246989625,-0.6100300730047599,-0.0,0.0,-0.6100300730047599,0.5,0,0,-0.05560502399674159,-0.08615359529923118,-0.0,-0.0,-0.08615359529923118,0.002,8e-05,0.0,4.296693273683797,0.019099030706698245,0.00034373546189470376,-0.0,0.01944276616859295,-10.167167883412665,-10.0,0.16716788341266425,39.82558920193872,40.0,0.1744107980612819,9.549515353349122,10.0,0.4504846466508782,-0.17230719059846236,0,0.17230719059846236,1.19292771567798,0.613620367076362,0.08615359529923118,0.519442766168593,0.03343939781188965,0.44106554985046387,STABILIZE
0.03,0,0,18.910882599801173,1.1947689536276167,0.0,0.0,1.1947689536276167,0.06,0,0,-4.80389875358359,-0.6101412553861486,-0.0,-0.0,-0.6101412553861486,0.5,0,0,-0.06130311570743207,-0.08510379611191168,-0.0,0.0,-0.08510379611191168,0.002,8e-05,0.0,4.614742431437084,0.0190008810312539,0.0003691793945149667,-0.0,0.019370060425768866,-10.169020923102478,-10.0,0.16902092310247793,39.82563178758723,40.0,0.17436821241277548,9.50044051562695,10.0,0.49955948437304953,-0.17020759222382337,0,0.17020759222382337,1.1929511482135353,0.6136878376280753,0.08510379611191168,0.5193700604257688,0.0334773063659668,0.4745302200317383,STABILIZE
0.03,0,0,20.242306379709092,1.1948213997995025,0.0,0.0,1.1948213997995025,0.06,0,0,-5.143812253465007,-0.6100776174617375,-0.0,0.0,-0.6100776174617375,0.5,0,0,-0.06692674025930925,-0.08411079753391817,-0.0,0.0,-0.08411079753391817,0.002,8e-05,0.0,4.931618160742834,0.01895764560039975,0.0003945294528594268,-0.0,0.019352175053259178,-10.167960291028958,-10.0,0.1679602910289587,39.827379993316754,40.0,0.17262000668324362,9.478822800199875,10.0,0.5211771998001244,-0.16822159506783635,0,0.16822159506783635,1.1930250520487211,0.6135830032935875,0.08411079753391817,0.5193521750532591,0.033429861068725586,0.5079526901245117,STABILIZE
0.03,0,0,21.57457655541023,1.1948310714006065,0.0,0.0,1.1948310714006065,0.06,0,0,-5.483895606576381,-0.6099996300671177,-0.0,0.0,-0.6099996300671177,0.5,0,0,-0.0726165649309364,-0.08504755557437997,-0.0,-0.0,-0.08504755557437997,0.002,8e-05,0.0,5.247779495165435,0.01890304198219645,0.00041982235961323484,-0.0,0.019322864341809687,-10.166660501118628,-10.0,0.16666050111862743,39.82770238002022,40.0,0.17229761997977897,9.451520991098226,10.0,0.5484790089017731,-0.17009511114875994,0,0.17009511114875994,1.1930148909263059,0.6135440553818744,0.08504755557437997,0.5193228643418097,0.03345084190368652,0.5414340496063232,STABILIZE
0.03,0,0,22.90672321499413,1.1948565575312164,0.0,0.0,1.1948565575312164,0.06,0,0,-5.823858674868204,-0.6098534249882035,-0.0,0.0,-0.6098534249882035,0.5,0,0,-0.07829435266714727,-0.08487731512235677,-0.0,0.0,-0.08487731512235677,0.002,8e-05,0.0,5.562989802714811,0.01884833026289789,0.0004450391842171849,-0.0,0.019293369447115075,-10.164223749803392,-10.0,0.1642237498033924,39.828551917707216,40.0,0.1714480822927833,9.424165131448945,10.0,0.5758348685510564,-0.16975463024471354,0,0.16975463024471354,1.1930444560898472,0.6133908369371621,0.08487731512235677,0.5192933694471151,0.0334470272064209,0.5748569965362549,STABILIZE
0.03,0,0,24.238872038028646,1.19490960366314,0.0,0.0,1.19490960366314,0.06,0,0,-6.163702657151591,-0.6096658738961668,-0.0,0.0,-0.6096658738961668,0.5,0,0,-0.08387729401606596,-0.08346302504093596,-0.0,0.0,-0.08346302504093596,0.002,8e-05,0.0,5.877565781113599,0.018811204432559646,0.000470205262489088,-0.0,0.019281409695048733,-10.161097898269446,-10.0,0.16109789826944645,39.830320122104666,40.0,0.16967987789533293,9.405602216279823,10.0,0.5943977837201775,-0.16692605008187192,0,0.16692605008187192,1.1931283288566188,0.6131445421756526,0.08346302504093596,0.5192814096950488,0.03344559669494629,0.608302116394043,STABILIZE
0.03,0,0,25.57258076580041,1.1947076974410067,0.0,-0.0,1.1947076974410067,0.06,0,0,-6.504256765637142,-0.6101221448593137,-0.0,-0.0,-0.6101221448593137,0.5,0,0,-0.08969167084784785,-0.08680656943186801,-0.0,-0.0,-0.08680656943186801,0.002,8e-05,0.0,6.190151108893042,0.018667149202267117,0.0004952120887114434,-0.0,0.01916236129097856,-10.168702414321896,-10.0,0.1687024143218953,39.82358991470022,40.0,0.17641008529977606,9.333574601133558,10.0,0.6664253988664424,-0.17361313886373603,0,0.17361313886373603,1.1928534717292723,0.6137394471238944,0.08680656943186801,0.5191623612909786,0.03349041938781738,0.6418118476867676,STABILIZE
0.03,0,0,26.903749408958014,1.1949674250744826,0.0,0.0,1.1949674250744826,0.06,0,0,-6.8437825111177855,-0.6095729611856002,-0.0,0.0,-0.6095729611856002,0.5,0,0,-0.09507426657052598,-0.08053107550781458,-0.0,0.0,-0.08053107550781458,0.002,8e-05,0.0,6.501095580787473,0.018608637196634054,0.0005200876464629978,-0.0,0.01912872484309705,-10.159549353093338,-10.0,0.1595493530933375,39.83224750248276,40.0,0.16775249751724142,9.304318598317026,10.0,0.6956814016829729,-0.16106215101562915,0,0.16106215101562915,1.193249156851071,0.6129296792226078,0.08053107550781458,0.519128724843097,0.03341937065124512,0.6753003597259521,STABILIZE
0.03,0,0,28.23820862714019,1.195082197658082,0.0,0.0,1.195082197658082,0.06,0,0,-7.183966777569593,-0.6093077333809201,-0.0,0.0,-0.6093077333809201,0.5,0,0,-0.1003376183908996,-0.07856038829357298,-0.0,0.0,-0.07856038829357298,0.002,8e-05,0.0,6.812100744615478,0.018568157528105343,0.0005449680595692383,-0.0,0.01911312558767458,-10.155128889682002,-10.0,0.15512888968200217,39.836073255269405,40.0,0.1639267447305968,9.284078764052671,10.0,0.7159212359473284,-0.15712077658714596,0,0.15712077658714596,1.193406816915085,0.6125826821398647,0.07856038829357298,0.5191131255876745,0.03349876403808594,0.7087337970733643,STABILIZE
0.03,0,0,29.569886578483953,1.1952114521169535,0.0,0.0,1.1952114521169535,0.06,0,0,-7.523264844836656,-0.6090555682318388,-0.0,0.0,-0.6090555682318388,0.5,0,0,-0.10554816626796219,-0.07794310038430187,-0.0,0.0,-0.07794310038430187,0.002,8e-05,0.0,7.121597072384226,0.01851866937067777,0.0005697277657907381,-0.0,0.01908839713646851,-10.150926137197313,-10.0,0.15092613719731282,39.84038173723178,40.0,0.1596182627682227,9.259334685338885,10.0,0.7406653146611154,-0.15588620076860374,0,0.15588620076860374,1.1935499562623042,0.6123051546181663,0.07794310038430187,0.5190883971364685,0.033425331115722656,0.7421536445617676,STABILIZE
0.03,0,0,30.901235826574336,1.1954195130470526,0.0,0.0,1.1954195130470526,0.06,0,0,-7.862199578653602,-0.6086595159539673,-0.0,0.0,-0.6086595159539673,0.5,0,0,-0.1106319855171113,-0.07607942018161905,-0.0,0.0,-0.07607942018161905,0.002,8e-05,0.0,7.430828514859576,0.01851060999022572,0.0005944662811887662,-0.0,0.019105076271414487,-10.144325265899456,-10.0,0.14432526589945613,39.84731710156842,40.0,0.15268289843157806,9.25530499511286,10.0,0.7446950048871391,-0.1521588403632381,0,0.1521588403632381,1.1937988990522483,0.6118320089343232,0.07607942018161905,0.5191050762714144,0.033411264419555664,0.7755601406097412,STABILIZE
0.03,0,0,32.2350661111124,1.1955315092978234,0.0,0.0,1.1955315092978234,0.06,0,0,-8.201604944812802,-0.6084279452518416,-0.0,0.0,-0.6084279452518416,0.5,0,0,-0.11561228471581528,-0.07439857837490071,-0.0,0.0,-0.07439857837490071,0.002,8e-05,0.0,7.7406352051410705,0.01851228322505157,0.0006192508164112857,0.0,0.019131534041462853,-10.140465754197361,-10.0,0.14046575419736174,39.851050309927444,40.0,0.14894969007255784,9.256141612525784,10.0,0.7438583874742163,-0.14879715674980143,0,0.14879715674980143,1.1939473919404335,0.6115306857108208,0.07439857837490071,0.5191315340414628,0.03347039222717285,0.8090372085571289,STABILIZE
0.03,0,0,33.90750753673565,1.1956854383652282,0.0,0.0,1.1956854383652282,0.06,0,0,-8.626811280785471,-0.6079890349925886,-0.0,0.0,-0.6079890349925886,0.5,0,0,-0.12124296691562172,-0.06709278036311428,-0.0,0.0,-0.06709278036311428,0.002,8e-05,0.0,8.127478957232858,0.01843785315735247,0.0006501983165786287,-0.0,0.019088051473931097,-10.13315058320981,-10.0,0.13315058320981044,39.85618127884094,40.0,0.1438187211590567,9.218926578676234,10.0,0.7810734213237667,-0.13418556072622856,0,0.13418556072622856,1.1942582625141234,0.6107876362588018,0.06709278036311428,0.5190880514739311,0.0419619083404541,0.851001501083374,STABILIZE
0.03,0,0,35.243317989047505,1.1958327075029678,0.0,0.0,1.1958327075029678,0.06,0,0,-8.966238026408277,-0.6077173651614498,-0.0,0.0,-0.6077173651614498,0.5,0,0,-0.1255747757505675,-0.06463140882642163,-0.0,0.0,-0.06463140882642163,0.002,8e-05,0.0,8.436385273165833,0.018435763123307667,0.0006749108218532667,-0.0,0.019110673945160934,-10.12862275269083,-10.0,0.12862275269083065,39.861090250098925,40.0,0.13890974990107122,9.217881561653833,10.0,0.782118438346167,-0.12926281765284325,0,0.12926281765284325,1.194458617470311,0.6104136887419604,0.06463140882642163,0.519110673945161,0.03351163864135742,0.8845093250274658,STABILIZE
0.03,0,0,36.57715647909329,1.1959051704022312,0.0,0.0,1.1959051704022312,0.06,0,0,-9.305053078735154,-0.6075558261538959,-0.0,0.0,-0.6075558261538959,0.5,0,0,-0.12966037066479139,-0.061051670530236364,-0.0,0.0,-0.061051670530236364,0.002,8e-05,0.0,8.744315561510382,0.018405797838490168,0.0006995452449208306,-0.0,0.019105343083410997,-10.125930435898265,-10.0,0.12593043589826597,39.863505680074375,40.0,0.13649431992562444,9.202898919245083,10.0,0.7971010807549175,-0.12210334106047273,0,0.12210334106047273,1.1946076902570195,0.6101030444663604,0.061051670530236364,0.5191053430834109,0.033460140228271484,0.917975902557373,STABILIZE
0.03,0,0,37.91403114657157,1.1959940772485365,0.0,0.0,1.1959940772485365,0.06,0,0,-9.644404492805126,-0.6071807495599765,-0.0,0.0,-0.6071807495599765,0.5,0,0,-0.1337232402406104,-0.06057870229623678,-0.0,0.0,-0.06057870229623678,0.002,8e-05,0.0,9.052292066498415,0.018368118062115836,0.0007241833653198733,-0.0,0.01909230142743571,-10.119679159332941,-10.0,0.11967915933294043,39.866469241617885,40.0,0.13353075838211212,9.184059031057918,10.0,0.815940968942082,-0.12115740459247357,0,0.12115740459247357,1.1947074624982972,0.609708434008152,0.06057870229623678,0.5190923014274357,0.03353381156921387,0.9515175819396973,STABILIZE
0.03,0,0,39.30783805047477,1.1960248516272505,0.0,0.0,1.1960248516272505,0.06,0,0,-9.998059996660361,-0.6069431430438531,-0.0,0.0,-0.6069431430438531,0.5,0,0,-0.1378973903427359,-0.059697260820752364,-0.0,0.0,-0.059697260820752364,0.002,8e-05,0.0,9.373392989848869,0.018369100393659132,0.0007498714391879095,0.0,0.019118971832847043,-10.115719050730885,-10.0,0.11571905073088529,39.86749505424169,40.0,0.13250494575831,9.184550196829566,10.0,0.8154498031704335,-0.11939452164150473,0,0.11939452164150473,1.1947574909526042,0.60943413295497,0.059697260820752364,0.519118971832847,0.03496098518371582,0.9864792823791504,STABILIZE
0.03,0,0,40.64198986688653,1.1962457619659637,0.0,0.0,1.1962457619659637,0.06,0,0,-10.336137391827338,-0.60626331457944,-0.0,0.0,-0.60626331457944,0.5,0,0,-0.14163595940327667,-0.055868796682589324,-0.0,0.0,-0.055868796682589324,0.002,8e-05,0.0,9.6797762584469,0.018314241907062385,0.000774382100675752,-0.0,0.01908862400773814,-10.104388576324002,-10.0,0.1043885763240017,39.87485873219879,40.0,0.12514126780121052,9.157120953531193,10.0,0.8428790464688078,-0.11173759336517865,0,0.11173759336517865,1.1950611599251333,0.6085950654292009,0.055868796682589324,0.5190886240077381,0.03345847129821777,1.019937515258789,STABILIZE
0.03,0,0,41.97675873990054,1.1963727798179606,0.0,0.0,1.1963727798179606,0.06,0,0,-10.674164795246696,-0.6059577691084221,-0.0,0.0,-0.6059577691084221,0.5,0,0,-0.14514716560967308,-0.05245242097201738,-0.0,0.0,-0.05245242097201738,0.002,8e-05,0.0,9.986019728187658,0.018299365460804816,0.0007988815782550128,-0.0,0.019098247039059827,-10.099296151807035,-10.0,0.09929615180703448,39.87909266059869,40.0,0.1209073394013134,9.149682730402407,10.0,0.8503172695975918,-0.10490484194403477,0,0.10490484194403477,1.195261305901389,0.6081472328697354,0.05245242097201738,0.5190982470390598,0.03347039222717285,1.0534234046936035,STABILIZE
0.03,0,0,43.31056877355311,1.1964934966968914,0.0,0.0,1.1964934966968914,0.06,0,0,-11.01189854544019,-0.6059277191294945,-0.0,0.0,-0.6059277191294945,0.5,0,0,-0.14848654217789628,-0.04992642937764622,-0.0,0.0,-0.04992642937764622,0.002,8e-05,0.0,10.291875730796853,0.01829119633803037,0.0008233500584637483,-0.0,0.01911454639649412,-10.098795318824909,-10.0,0.09879531882490807,39.883116556563046,40.0,0.11688344343695443,9.145598169015186,10.0,0.8544018309848149,-0.09985285875529244,0,0.09985285875529244,1.1954356929367294,0.6080120002930103,0.04992642937764622,0.5191145463964941,0.03344297409057617,1.086852788925171,STABILIZE
0.03,0,0,44.64436630082471,1.1965761135810307,0.0,0.0,1.1965761135810307,0.06,0,0,-11.349514537986298,-0.6057639543986957,-0.0,0.0,-0.6057639543986957,0.5,0,0,-0.1517319695329289,-0.04852561666959944,-0.0,0.0,-0.04852561666959944,0.002,8e-05,0.0,10.597547349944733,0.01828160324654284,0.0008478037879955788,-0.0,0.01912940703453842,-10.09606590664493,-10.0,0.09606590664492844,39.88587045270102,40.0,0.11412954729897785,9.14080162327142,10.0,0.8591983767285795,-0.09705123333919888,0,0.09705123333919888,1.1955483159884257,0.6077899210900658,0.04852561666959944,0.5191294070345385,0.033440351486206055,1.120300531387329,STABILIZE
0.03,0,0,46.029219792372636,1.1966658849612557,0.0,0.0,1.1966658849612557,0.06,0,0,-11.699866699981724,-0.6054856813968406,-0.0,0.0,-0.6054856813968406,0.5,0,0,-0.15497497183033673,-0.046705183831650364,-0.0,0.0,-0.046705183831650364,0.002,8e-05,0.0,10.914638992338912,0.01826680599188928,0.000873171119387113,-0.0,0.019139977111276393,-10.091428023280676,-10.0,0.09142802328067602,39.88886283204186,40.0,0.11113716795813773,9.133402995944639,10.0,0.8665970040553616,-0.09341036766330073,0,0.09341036766330073,1.1956771605764016,0.6074358223571078,0.046705183831650364,0.5191399771112764,0.03471779823303223,1.1550161838531494,STABILIZE
0.03,0,0,47.36396104552722,1.1967827989805622,0.0,0.0,1.1967827989805622,0.06,0,0,-12.037396294272277,-0.6052852740396086,-0.0,0.0,-0.6052852740396086,0.5,0,0,-0.15808798391293413,-0.04652086817908225,-0.0,0.0,-0.04652086817908225,0.002,8e-05,0.0,11.220015744830071,0.01825420688472764,0.0008976012595864058,-0.0,0.019151808144314046,-10.088087900660144,-10.0,0.08808790066014288,39.892759966018744,40.0,0.10724003398125323,9.12710344236382,10.0,0.8728965576361791,-0.0930417363581645,0,0.0930417363581645,1.1957983079939134,0.6072279123227511,0.04652086817908225,0.519151808144314,0.03345823287963867,1.1884756088256836,STABILIZE
0.03,0,0,48.74507654541759,1.1969044937467914,0.0,0.0,1.1969044937467914,0.06,0,0,-12.386502239389023,-0.6050854900073469,-0.0,0.0,-0.6050854900073469,0.5,0,0,-0.16129489883779533,-0.04631969453839674,-0.0,0.0,-0.04631969453839674,0.002,8e-05,0.0,11.535957816143583,0.01825348109065112,0.0009228766252914867,-0.0,0.01917635771594261,-10.084758166789115,-10.0,0.08475816678911487,39.89681645822638,40.0,0.10318354177361413,9.12674054532556,10.0,0.8732594546744399,-0.09263938907679348,0,0.09263938907679348,1.1959245897220658,0.6070199280639825,0.04631969453839674,0.5191763577159426,0.03461718559265137,1.223090648651123,STABILIZE
0.03,0,0,50.07991200083812,1.1969952087768907,0.0,0.0,1.1969952087768907,0.06,0,0,-12.723585973189083,-0.6045503401588651,-0.0,0.0,-0.6045503401588651,0.5,0,0,-0.16413235631012116,-0.04240751154870738,-0.0,0.0,-0.04240751154870738,0.002,8e-05,0.0,11.841174470719299,0.018246587207057446,0.000947293957657544,-0.0,0.01919388116471499,-10.075839002647752,-10.0,0.07583900264775283,39.89984029256303,40.0,0.10015970743697108,9.123293603528722,10.0,0.8767063964712781,-0.08481502309741476,0,0.08481502309741476,1.196098980900932,0.6063215908317827,0.04240751154870738,0.519193881164715,0.03345465660095215,1.256554365158081,STABILIZE
0.03,0,0,51.57782527727301,1.197100689815802,0.0,0.0,1.197100689815802,0.06,0,0,-13.10187852598018,-0.6046468550919316,-0.0,-0.0,-0.6046468550919316,0.5,0,0,-0.16704731340821735,-0.038826203623968734,-0.0,0.0,-0.038826203623968734,0.002,8e-05,0.0,12.183227968268755,0.018224129274245132,0.0009746582374615004,-0.0,0.019198787511706634,-10.077447584865528,-10.0,0.07744758486552865,39.90335632719341,40.0,0.0966436728065955,9.112064637122566,10.0,0.8879353628774336,-0.07765240724793747,0,0.07765240724793747,1.1962801186984888,0.6062687180918722,0.038826203623968734,0.5191987875117067,0.03753852844238281,1.2940831184387207,STABILIZE
0.03,0,0,52.91291269572905,1.1971614311488639,0.0,0.0,1.1971614311488639,0.06,0,0,-13.438939370538531,-0.6044791336920324,-0.0,0.0,-0.6044791336920324,0.5,0,0,-0.1696071191752743,-0.03825593107474748,-0.0,0.0,-0.03825593107474748,0.002,8e-05,0.0,12.488109431280785,0.01822563943727048,0.0009990487545024629,0.0,0.01922468819177294,-10.074652228200542,-10.0,0.07465222820054217,39.90538103829547,40.0,0.09461896170453012,9.112819718635238,10.0,0.8871802813647608,-0.07651186214949496,0,0.07651186214949496,1.1963531522598838,0.6060772643626431,0.03825593107474748,0.5192246881917729,0.03345632553100586,1.3275706768035889,STABILIZE
0.03,0,0,54.2475105837179,1.1972002409602607,0.0,0.0,1.1972002409602607,0.06,0,0,-13.775790846711809,-0.6043448323602263,-0.0,0.0,-0.6043448323602263,0.5,0,0,-0.17196002784822398,-0.03517792207381309,-0.0,0.0,-0.03517792207381309,0.002,8e-05,0.0,12.792526396191436,0.01820513714397376,0.001023402111695315,-0.0,0.019228539255669076,-10.072413872670438,-10.0,0.07241387267043878,39.90667469867536,40.0,0.09332530132463888,9.102568571986879,10.0,0.8974314280131219,-0.07035584414762618,0,0.07035584414762618,1.1964572386786245,0.6058144677781616,0.03517792207381309,0.519228539255669,0.03344297409057617,1.3610012531280518,STABILIZE
0.03,0,0,55.59956941860046,1.19733669306912,0.0,0.0,1.19733669306912,0.06,0,0,-14.116972560653572,-0.6042775278224753,-0.0,0.0,-0.6042775278224753,0.5,0,0,-0.17424023239778152,-0.03365450901557275,-0.0,0.0,-0.03365450901557275,0.002,8e-05,0.0,13.10085235464143,0.018202855968169878,0.0010480681883713145,-0.0,0.019250924156541192,-10.071292130374589,-10.0,0.07129213037458924,39.911223102304,40.0,0.08877689769600233,9.101427984084939,10.0,0.8985720159150609,-0.0673090180311455,0,0.0673090180311455,1.196625983553856,0.6056836985462843,0.03365450901557275,0.5192509241565412,0.033876657485961914,1.3948650360107422,STABILIZE
0.03,0,0,56.93448413374,1.1974332307811637,0.0,0.0,1.1974332307811637,0.06,0,0,-14.453610495809418,-0.6039358855296283,-0.0,0.0,-0.6039358855296283,0.5,0,0,-0.1761941434583485,-0.02921132972490052,-0.0,0.0,-0.02921132972490052,0.002,8e-05,0.0,13.405207076771104,0.018200636294838455,0.0010724165661416885,-0.0,0.019273052860980144,-10.065598092160473,-10.0,0.06559809216047251,39.914441026038794,40.0,0.08555897396120614,9.100318147419227,10.0,0.8996818525807739,-0.05842265944980104,0,0.05842265944980104,1.1968167944341788,0.6051565554216267,0.02921132972490052,0.5192730528609801,0.03344440460205078,1.4283437728881836,STABILIZE
0.03,0,0,58.26952285451587,1.1975615395665127,0.0,0.0,1.1975615395665127,0.06,0,0,-14.790113449797408,-0.6037023336856334,-0.0,0.0,-0.6037023336856334,0.5,0,0,-0.17795032443209297,-0.026255602901822064,-0.0,0.0,-0.026255602901822064,0.002,8e-05,0.0,13.7093901983822,0.018190633812480022,0.0010967512158705762,-0.0,0.019287385028350597,-10.061705561427225,-10.0,0.06170556142722414,39.91871798555042,40.0,0.08128201444957606,9.095316906240011,10.0,0.9046830937599882,-0.05251120580364413,0,0.05251120580364413,1.1970077474661809,0.604799637278608,0.026255602901822064,0.5192873850283506,0.03344392776489258,1.4617626667022705,STABILIZE
0.03,0,0,59.603643391969904,1.197634378512854,0.0,0.0,1.197634378512854,0.06,0,0,-15.126409162711697,-0.603782485653428,-0.0,-0.0,-0.603782485653428,0.5,0,0,-0.1796229173054268,-0.025024659443227477,-0.0,0.0,-0.025024659443227477,0.002,8e-05,0.0,14.013253973994965,0.018185148634972382,0.0011210603179195972,-0.0,0.01930620895289198,-10.063041427557133,-10.0,0.06304142755713298,39.92114595042847,40.0,0.07885404957153072,9.092574317486191,10.0,0.9074256825138085,-0.050049318886454953,0,0.050049318886454953,1.1971065023154455,0.6048284192163783,0.025024659443227477,0.5193062089528919,0.033418893814086914,1.4952318668365479,STABILIZE
0.03,0,0,60.93918958066091,1.1977008334509986,0.0,0.0,1.1977008334509986,0.06,0,0,-15.463095593508566,-0.6038722167629168,-0.0,-0.0,-0.6038722167629168,0.5,0,0,-0.1812143199596197,-0.023785827618974926,-0.0,0.0,-0.023785827618974926,0.002,8e-05,0.0,14.31716394562577,0.018169506448546015,0.0011453731156500617,-0.0,0.019314879564196075,-10.064536946048614,-10.0,0.06453694604861386,39.92336111503329,40.0,0.07663888496671413,9.084753224273006,10.0,0.9152467757269929,-0.04757165523794985,0,0.04757165523794985,1.1971990364395306,0.6048664379643123,0.023785827618974926,0.5193148795641961,0.033452749252319336,1.5286734104156494,STABILIZE
0.03,0,0,62.31225408919179,1.1977309985627131,0.0,0.0,1.1977309985627131,0.06,0,0,-15.809142773535367,-0.6037173518187849,-0.0,0.0,-0.6037173518187849,0.5,0,0,-0.18273942716755992,-0.022172643355213878,-0.0,0.0,-0.022172643355213878,0.002,8e-05,0.0,14.629595012666107,0.018169011559339036,0.0011703676010132887,-0.0,0.019339379160352325,-10.061955863646416,-10.0,0.06195586364641519,39.924366618757105,40.0,0.07563338124289132,9.084505779669518,10.0,0.9154942203304813,-0.044345286710427756,0,0.044345286710427756,1.197263379990099,0.6046441802744856,0.022172643355213878,0.5193393791603523,0.03439164161682129,1.5630269050598145,STABILIZE
0.03,0,0,63.648514376115635,1.1978631444326329,0.0,0.0,1.1978631444326329,0.06,0,0,-16.145797786485826,-0.6035749716549449,-0.0,0.0,-0.6035749716549449,0.5,0,0,-0.18421421972101817,-0.022034125920409355,-0.0,0.0,-0.022034125920409355,0.002,8e-05,0.0,14.933543506229304,0.018164559794625387,0.0011946834804983444,-0.0,0.01935924327512373,-10.059582860915748,-10.0,0.05958286091574796,39.928771481087765,40.0,0.07122851891223851,9.082279897312693,10.0,0.9177201026873067,-0.04406825184081871,0,0.04406825184081871,1.1973985588744227,0.6044961128111229,0.022034125920409355,0.5193592432751237,0.03346610069274902,1.5964996814727783,STABILIZE
0.03,0,0,65.20413634742616,1.1979054594910106,0.0,0.0,1.1979054594910106,0.06,0,0,-16.537486758434593,-0.6032395615042255,-0.0,0.0,-0.6032395615042255,0.5,0,0,-0.18564780371602957,-0.018398836884691527,-0.0,0.0,-0.018398836884691527,0.002,8e-05,0.0,15.287631050614067,0.018177655427813175,0.0012230104840491255,0.0,0.0194006659118623,-10.053992691737093,-10.0,0.05399269173709304,39.930181983033684,40.0,0.06981801696631658,9.088827713906587,10.0,0.9111722860934124,-0.03679767376938305,0,0.03679767376938305,1.197517787549439,0.6040087805196844,0.018398836884691527,0.5194006659118623,0.03895854949951172,1.6354987621307373,STABILIZE
0.03,0,0,66.54060265635447,1.1979112824351716,0.0,0.0,1.1979112824351716,0.06,0,0,-16.873943639007148,-0.6031509969211305,-0.0,0.0,-0.6031509969211305,0.5,0,0,-0.18674533011664368,-0.016395715194152345,-0.0,0.0,-0.016395715194152345,0.002,8e-05,0.0,15.591863943183547,0.018179483815501014,0.0012473491154546838,0.0,0.019426832930955696,-10.052516615352175,-10.0,0.05251661535217434,39.93037608117239,40.0,0.069623918827607,9.089741907750506,10.0,0.9102580922494942,-0.03279143038830469,0,0.03279143038830469,1.1975658918374417,0.6038364848036464,0.016395715194152345,0.5194268329309557,0.03346991539001465,1.6689338684082031,STABILIZE
0.03,0,0,67.90150218110696,1.1979404083221972,0.0,0.0,1.1979404083221972,0.06,0,0,-17.21651785456454,-0.6031062370164502,-0.0,0.0,-0.6031062370164502,0.5,0,0,-0.18787666435674188,-0.01659773525870222,-0.0,-0.0,-0.01659773525870222,0.002,8e-05,0.0,15.901600284724468,0.01817649149007952,0.0012721280227779577,-0.0,0.01944861951285748,-10.051770616940836,-10.0,0.05177061694083509,39.93134694407324,40.0,0.06865305592675795,9.08824574503976,10.0,0.9117542549602391,-0.03319547051740444,0,0.03319547051740444,1.1975907854697798,0.6038001867978934,0.01659773525870222,0.5194486195128575,0.03408098220825195,1.7030153274536133,STABILIZE
0.03,0,0,69.23785842515134,1.1979918367835247,0.0,0.0,1.1979918367835247,0.06,0,0,-17.552820597797574,-0.6029648798763019,-0.0,0.0,-0.6029648798763019,0.5,0,0,-0.18900274167254008,-0.016824748115450157,-0.0,-0.0,-0.016824748115450157,0.002,8e-05,0.0,16.205728367011353,0.01817593981345683,0.0012964582693609085,-0.0,0.019472398082817737,-10.049414664605031,-10.0,0.04941466460503048,39.933061226117495,40.0,0.0669387738825068,9.087969906728414,10.0,0.9120300932715866,-0.033649496230900314,0,0.033649496230900314,1.1976375122431444,0.6036683498679206,0.016824748115450157,0.5194723980828178,0.033464908599853516,1.736492395401001,STABILIZE
0.03,0,0,70.59330356932428,1.1980168420355748,0.0,0.0,1.1980168420355748,0.06,0,0,-17.893736663459904,-0.602640675116651,-0.0,0.0,-0.602640675116651,0.5,0,0,-0.19008883291760997,-0.01599911794260357,-0.0,0.0,-0.01599911794260357,0.002,8e-05,0.0,16.514212847861558,0.01817703481172117,0.0013211370278289247,0.0,0.019498171839550094,-10.044011251944184,-10.0,0.04401125194418448,39.933894734519164,40.0,0.06610526548083662,9.088517405860586,10.0,0.9114825941394139,-0.03199823588520714,0,0.03199823588520714,1.1976800957335154,0.6033096430438536,0.01599911794260357,0.51949817183955,0.033942222595214844,1.7704222202301025,STABILIZE
0.03,0,0,71.99842048383816,1.198066236492609,0.0,0.0,1.198066236492609,0.06,0,0,-18.24697745898417,-0.6023781595652155,-0.0,0.0,-0.6023781595652155,0.5,0,0,-0.1911156192249731,-0.014591407474567143,-0.0,0.0,-0.014591407474567143,0.002,8e-05,0.0,16.833914101590537,0.018172783294195714,0.001346713128127243,-0.0,0.01951949642232296,-10.039635992753592,-10.0,0.03963599275359221,39.9355412164203,40.0,0.06445878357969975,9.086391647097857,10.0,0.9136083529021426,-0.029182814949134286,0,0.029182814949134286,1.1977592680964,0.602988299914614,0.014591407474567143,0.519519496422323,0.035184621810913086,1.805605411529541,STABILIZE
0.03,0,0,73.33454165948523,1.1981140065779305,0.0,0.0,1.1981140065779305,0.06,0,0,-18.582736657414603,-0.6021576572679738,-0.0,0.0,-0.6021576572679738,0.5,0,0,-0.19204748825911028,-0.013926947176719691,-0.0,0.0,-0.013926947176719691,0.002,8e-05,0.0,17.137953981572664,0.018175718660070866,0.0013710363185258133,0.0,0.01954675497859668,-10.03596095446623,-10.0,0.03596095446622989,39.937133552597686,40.0,0.06286644740231188,9.087859330035434,10.0,0.9121406699645658,-0.027853894353439382,0,0.027853894353439382,1.1978211307840432,0.6027400398280441,0.013926947176719691,0.5195467549785967,0.033455610275268555,1.8390719890594482,STABILIZE
0.03,0,0,74.6705542591596,1.1981703412276072,0.0,0.0,1.1981703412276072,0.06,0,0,-18.918360215581487,-0.6019916179096663,-0.0,0.0,-0.6019916179096663,0.5,0,0,-0.1930049760209351,-0.01431165941831333,-0.0,-0.0,-0.01431165941831333,0.002,8e-05,0.0,17.442127478935284,0.018186039224290244,0.0013953701983148228,0.0,0.019581409422605067,-10.033193631827771,-10.0,0.03319363182777062,39.939011374253575,40.0,0.06098862574642883,9.093019612145122,10.0,0.906980387854878,-0.02862331883662666,0,0.02862331883662666,1.1978694540768398,0.6025901141079503,0.01431165941831333,0.5195814094226051,0.03345131874084473,1.872525691986084,STABILIZE
0.03,0,0,76.00571194790156,1.1981893050974934,0.0,0.0,1.1981893050974934,0.06,0,0,-19.253731231755456,-0.6019333419679502,-0.0,0.0,-0.6019333419679502,0.5,0,0,-0.1939241110284443,-0.013747411575730931,-0.0,0.0,-0.013747411575730931,0.002,8e-05,0.0,17.74606008511438,0.018183559952749125,0.0014196848068091506,-0.0,0.019603244759558276,-10.032222366132505,-10.0,0.03222236613250521,39.93964350324978,40.0,0.06035649675021969,9.091779976374562,10.0,0.9082200236254381,-0.027494823151461862,0,0.027494823151461862,1.1979003142713518,0.602508253961152,0.013747411575730931,0.5196032447595583,0.03342938423156738,1.9059514999389648,STABILIZE
0.03,0,0,77.53519846410303,1.1981941376260608,0.0,0.0,1.1981941376260608,0.06,0,0,-19.637816630727755,-0.6017821909791201,-0.0,0.0,-0.6017821909791201,0.5,0,0,-0.19485320520449484,-0.012130816271278273,-0.0,0.0,-0.012130816271278273,0.002,8e-05,0.0,18.094334006086193,0.01818910098154345,0.0014475467204868955,0.0,0.019636647702030347,-10.029703182985335,-10.0,0.029703182985334788,39.93980458753536,40.0,0.060195412464633495,9.094550490771725,10.0,0.9054495092282746,-0.024261632542556547,0,0.024261632542556547,1.1979392083296057,0.6022895067720566,0.012130816271278273,0.5196366477020303,0.03829479217529297,1.9442758560180664,STABILIZE
0.03,0,0,78.87150646709841,1.1981705340459088,0.0,-0.0,1.1981705340459088,0.06,0,0,-19.97346288057289,-0.6018993308817899,-0.0,-0.0,-0.6018993308817899,0.5,0,0,-0.195656873977512,-0.01200985901458259,-0.0,0.0,-0.01200985901458259,0.002,8e-05,0.0,18.39844516922718,0.018178295918465617,0.0014718756135381746,-0.0,0.019650171532003793,-10.0316555146965,-10.0,0.03165551469649988,39.93901780153029,40.0,0.060982198469706934,9.089147959232807,10.0,0.910852040767192,-0.02401971802916518,0,0.02401971802916518,1.1979180986227174,0.6024015788192612,0.01200985901458259,0.5196501715320038,0.033458709716796875,1.9777247905731201,STABILIZE
0.03,0,0,80.20852521981266,1.1981333410072346,0.0,-0.0,1.1981333410072346,0.06,0,0,-20.309310556539454,-0.6019216966979055,-0.0,-0.0,-0.6019216966979055,0.5,0,0,-0.1964963294200892,-0.012537589718418089,-0.0,-0.0,-0.012537589718418089,0.002,8e-05,0.0,18.70270546954127,0.01817697816684246,0.0014962164375633019,-0.0,0.019673194604405763,-10.032028278298426,-10.0,0.032028278298426804,39.93777803357449,40.0,0.06222196642551044,9.08848908342123,10.0,0.9115109165787694,-0.025075179436836178,0,0.025075179436836178,1.1978697985899152,0.6024459954344454,0.012537589718418089,0.5196731946044058,0.0334775447845459,2.0112478733062744,STABILIZE
0.03,0,0,81.54316659803706,1.1982045144913485,0.0,0.0,1.1982045144913485,0.06,0,0,-20.644556161465534,-0.6019486640227191,-0.0,-0.0,-0.6019486640227191,0.5,0,0,-0.19730320303959678,-0.01207315100135954,-0.0,0.0,-0.01207315100135954,0.002,8e-05,0.0,19.006562596130166,0.018186307661840827,0.0015205250076904134,0.0,0.01970683266953124,-10.032477733711985,-10.0,0.03247773371198524,39.94015048304495,40.0,0.05984951695504755,9.093153830920414,10.0,0.9068461690795856,-0.02414630200271908,0,0.02414630200271908,1.1979507273815324,0.6024535728437848,0.01207315100135954,0.5197068326695312,0.033416032791137695,2.044612407684326,STABILIZE
0.03,0,0,82.88021256645858,1.1982686685804147,0.0,0.0,1.1982686685804147,0.06,0,0,-20.980405126139917,-0.6019797392898775,-0.0,-0.0,-0.6019797392898775,0.5,0,0,-0.19808128391324123,-0.011622012936604979,-0.0,0.0,-0.011622012936604979,0.002,8e-05,0.0,19.31095023112595,0.01818626907043147,0.0015448760184900762,-0.0,0.019731145088921546,-10.032995654831291,-10.0,0.0329956548312915,39.94228895268049,40.0,0.05771104731950878,9.093134535215736,10.0,0.9068654647842633,-0.023244025873209957,0,0.023244025873209957,1.1980243559616526,0.6024658091042645,0.011622012936604979,0.5197311450889216,0.03347444534301758,2.078101873397827,STABILIZE
0.03,0,0,84.26168248205316,1.1983093007523744,0.0,0.0,1.1983093007523744,0.06,0,0,-21.327317209479073,-0.6018342800172694,-0.0,0.0,-0.6018342800172694,0.5,0,0,-0.19873272893574975,-0.009417898773240245,-0.0,0.0,-0.009417898773240245,0.002,8e-05,0.0,19.625391821971338,0.018183447384555188,0.0015700313457577071,-0.0,0.019753478730312895,-10.030571333621156,-10.0,0.030571333621154852,39.94364335841248,40.0,0.05635664158752253,9.091723692277593,10.0,0.908276307722406,-0.01883579754648049,0,0.01883579754648049,1.1981113849785407,0.6022281876982779,0.009417898773240245,0.5197534787303129,0.03458547592163086,2.1126742362976074,STABILIZE
0.03,0,0,85.60027417320187,1.198407764867189,0.0,0.0,1.198407764867189,0.06,0,0,-21.66332140279498,-0.6016323528083011,-0.0,0.0,-0.6016323528083011,0.5,0,0,-0.199276728103881,-0.0081171481874147,-0.0,0.0,-0.0081171481874147,0.002,8e-05,0.0,19.93027053848975,0.01819668754031428,0.0015944216430791801,0.0,0.019791109183393458,-10.027205880138352,-10.0,0.02720588013835162,39.94692549557296,40.0,0.05307450442703446,9.09834377015714,10.0,0.9016562298428601,-0.0162342963748294,0,0.0162342963748294,1.1982372490957216,0.6019718878146566,0.0081171481874147,0.5197911091833934,0.033509254455566406,2.146186351776123,STABILIZE
0.03,0,0,86.93365326485733,1.1984222582261699,0.0,0.0,1.1984222582261699,0.06,0,0,-21.998107130067257,-0.6018013478843511,-0.0,-0.0,-0.6018013478843511,0.5,0,0,-0.19982683335983414,-0.008240446986997484,-0.0,-0.0,-0.008240446986997484,0.002,8e-05,0.0,20.23385169032843,0.018190296208995482,0.0016187081352262744,-0.0,0.019809004344221757,-10.030022464739186,-10.0,0.030022464739186763,39.947408607538996,40.0,0.05259139246100287,9.09514810449774,10.0,0.9048518955022593,-0.016480893973994968,0,0.016480893973994968,1.1982491029813642,0.6021460441883598,0.008240446986997484,0.5198090043442217,0.03337836265563965,2.1795639991760254,STABILIZE
0.03,0,0,88.26949378646036,1.1984431021614288,0.0,0.0,1.1984431021614288,0.06,0,0,-22.33338537729676,-0.6015866358280398,-0.0,0.0,-0.6015866358280398,0.5,0,0,-0.200356574064866,-0.007920906770090112,-0.0,0.0,-0.007920906770090112,0.002,8e-05,0.0,20.537895709501143,0.018184778379269167,0.0016430316567600915,-0.0,0.019827810036029257,-10.02644393046733,-10.0,0.02644393046732978,39.94810340538096,40.0,0.05189659461903869,9.092389189634583,10.0,0.9076108103654179,-0.015841813540180223,0,0.015841813540180223,1.1982767225791648,0.6019179725262761,0.007920906770090112,0.5198278100360293,0.03343939781188965,2.2130067348480225,STABILIZE
0.03,0,0,89.60588128123749,1.1984126004647389,0.0,-0.0,1.1984126004647389,0.06,0,0,-22.668739002747017,-0.6014602978878411,-0.0,0.0,-0.6014602978878411,0.5,0,0,-0.2008077074092736,-0.006742603804919036,-0.0,0.0,-0.006742603804919036,0.002,8e-05,0.0,20.84233216136351,0.018200333929019416,0.0016673865729090812,0.0,0.019867720501928497,-10.024338298130685,-10.0,0.024338298130684242,39.947086682157966,40.0,0.052913317842030995,9.100166964509707,10.0,0.8998330354902924,-0.013485207609838071,0,0.013485207609838071,1.1982710068116216,0.6017423411416642,0.006742603804919036,0.5198677205019285,0.033453941345214844,2.24646258354187,STABILIZE
0.03,0,0,90.95137163428886,1.1984191171078544,0.0,0.0,1.1984191171078544,0.06,0,0,-23.00634641956383,-0.6014092653627794,-0.0,0.0,-0.6014092653627794,0.5,0,0,-0.20121170584392992,-0.005997311020919824,-0.0,0.0,-0.005997311020919824,0.002,8e-05,0.0,21.149088924271492,0.018215077654890055,0.0016919271139417195,0.0,0.019907004768831775,-10.023487756046324,-10.0,0.02348775604632388,39.94730390359515,40.0,0.05269609640485227,9.107538827445028,10.0,0.8924611725549719,-0.011994622041839648,0,0.011994622041839648,1.198293188436189,0.6016601360080287,0.005997311020919824,0.5199070047688318,0.033681631088256836,2.2801425457000732,STABILIZE
0.03,0,0,92.29017754112367,1.1985483807492157,0.0,0.0,1.1985483807492157,0.06,0,0,-23.342318884812872,-0.6015498619252048,-0.0,-0.0,-0.6015498619252048,0.5,0,0,-0.20158267647360983,-0.005535109623166315,-0.0,0.0,-0.005535109623166315,0.002,8e-05,0.0,21.45442431263431,0.018223166053640768,0.001716353945010745,0.0,0.01993951999865151,-10.025831032086746,-10.0,0.02583103208674618,39.95161269164052,40.0,0.04838730835948106,9.111583026820384,10.0,0.8884169731796159,-0.01107021924633263,0,0.01107021924633263,1.1984321318621272,0.6017814243553858,0.005535109623166315,0.5199395199986515,0.033510684967041016,2.3136539459228516,STABILIZE
0.03,0,0,93.62610458845415,1.1985805483842487,0.0,0.0,1.1985805483842487,0.06,0,0,-23.677498016647863,-0.6014388112651995,-0.0,0.0,-0.6014388112651995,0.5,0,0,-0.20186852063938762,-0.00427427602496464,-0.0,0.0,-0.00427427602496464,0.002,8e-05,0.0,21.759193320889327,0.01822904954651843,0.0017407354656711464,0.0,0.019969785012189576,-10.023980187753326,-10.0,0.02398018775332542,39.95268494614162,40.0,0.0473150538583733,9.114524773259214,10.0,0.8854752267407854,-0.00854855204992928,0,0.00854855204992928,1.1984908001450123,0.601617633243035,0.00427427602496464,0.5199697850121896,0.03343772888183594,2.347092866897583,STABILIZE
0.03,0,0,94.96858799488095,1.1985745804528618,0.0,-0.0,1.1985745804528618,0.06,0,0,-24.01434384044837,-0.6014746104215705,-0.0,-0.0,-0.6014746104215705,0.5,0,0,-0.20214436687023973,-0.004104610391337707,-0.0,0.0,-0.004104610391337707,0.002,8e-05,0.0,22.065238114151953,0.018215868090857706,0.0017652190491321564,-0.0,0.01998108713998986,-10.024576840359508,-10.0,0.024576840359508384,39.952486015095396,40.0,0.04751398490460537,9.107934045428854,10.0,0.8920659545711463,-0.008209220782675414,0,0.008209220782675414,1.1984883901125083,0.6016463335341299,0.004104610391337707,0.5199810871399899,0.033601999282836914,2.3807051181793213,STABILIZE
0.03,0,0,96.34850012183051,1.1985857771814599,0.0,0.0,1.1985857771814599,0.06,0,0,-24.360517130889445,-0.6013692817962268,-0.0,0.0,-0.6013692817962268,0.5,0,0,-0.20242090911711483,-0.004003390233103975,-0.0,0.0,-0.004003390233103975,0.002,8e-05,0.0,22.37997896165849,0.018225503684948834,0.0017903983169326794,0.0,0.020015902001881514,-10.022821363270447,-10.0,0.022821363270447842,39.952859239382,40.0,0.0471407606179987,9.112751842474417,10.0,0.887248157525584,-0.00800678046620795,0,0.00800678046620795,1.1985017273195762,0.6015367719115648,0.004003390233103975,0.5200159020018815,0.03453850746154785,2.415332317352295,STABILIZE
0.03,0,0,97.76077594063187,1.198622829641942,0.0,0.0,1.198622829641942,0.06,0,0,-24.71474734232404,-0.6012825720329282,-0.0,0.0,-0.6012825720329282,0.5,0,0,-0.20277525233665675,-0.005012286632416475,-0.0,-0.0,-0.005012286632416475,0.002,8e-05,0.0,22.70222522620714,0.018233063934242504,0.0018161780180965714,0.0,0.020049241952339075,-10.021376200548804,-10.0,0.021376200548803955,39.95409432139807,40.0,0.04590567860193002,9.11653196712125,10.0,0.8834680328787498,-0.01002457326483295,0,0.01002457326483295,1.1985176098097055,0.6014922760480136,0.005012286632416475,0.520049241952339,0.03534746170043945,2.450584650039673,STABILIZE
0.03,0,0,99.11863855422352,1.1986548368139776,0.0,0.0,1.1986548368139776,0.06,0,0,-25.055272728480574,-0.6011983791126406,-0.0,0.0,-0.6011983791126406,0.5,0,0,-0.20318452474208346,-0.00602142837609552,-0.0,-0.0,-0.00602142837609552,0.002,8e-05,0.0,23.01202472910904,0.018231725305095387,0.0018409619783287233,-0.0,0.02007268728342411,-10.019972985210677,-10.0,0.019972985210676707,39.955161227132585,40.0,0.04483877286741345,9.115862652547694,10.0,0.8841373474523063,-0.01204285675219104,0,0.01204285675219104,1.1985284459520356,0.601450308096195,0.00602142837609552,0.5200726872834242,0.03398466110229492,2.4845898151397705,STABILIZE
0.03,0,0,100.45544120995865,1.1989045187154395,0.0,0.0,1.1989045187154395,0.06,0,0,-25.390462862028656,-0.6012270607266854,-0.0,-0.0,-0.6012270607266854,0.5,0,0,-0.20394276448019344,-0.011333722849687361,-0.0,-0.0,-0.011333722849687361,0.002,8e-05,0.0,23.31675825522043,0.018219912011277272,0.0018653406604176347,-0.0,0.020085252671694906,-10.020451012111424,-10.0,0.020451012111424232,39.96348395718132,40.0,0.0365160428186835,9.109956005638637,10.0,0.8900439943613636,-0.022667445699374723,0,0.022667445699374723,1.1986665665095624,0.6017013261399099,0.011333722849687361,0.5200852526716949,0.03345060348510742,2.5180816650390625,STABILIZE
0.03,0,0,101.8085808237142,1.1986902946734028,0.0,-0.0,1.1986902946734028,0.06,0,0,-25.7296951643277,-0.6010236700956479,-0.0,0.0,-0.6010236700956479,0.5,0,0,-0.20456269643456965,-0.009152867025133082,-0.0,0.0,-0.009152867025133082,0.002,8e-05,0.0,23.62490964252223,0.018198569386033505,0.0018899927714017785,-0.0,0.020088562157435284,-10.017061168260799,-10.0,0.01706116826079984,39.9563431557801,40.0,0.0436568442199011,9.099284693016752,10.0,0.9007153069832474,-0.018305734050266163,0,0.018305734050266163,1.1984982092406367,0.6014066153663749,0.009152867025133082,0.5200885621574353,0.03386545181274414,2.551950454711914,STABILIZE
0.03,0,0,103.14546760933888,1.1986382392639634,0.0,-0.0,1.1986382392639634,0.06,0,0,-26.064607208649367,-0.6005570365877075,-0.0,0.0,-0.6005570365877075,0.5,0,0,-0.20510853872636278,-0.008156604964433722,-0.0,0.0,-0.008156604964433722,0.002,8e-05,0.0,23.929130754013443,0.018184090647304987,0.0019143304603210756,-0.0,0.020098421107626063,-10.009283943128459,-10.0,0.009283943128458542,39.95460797546545,40.0,0.04539202453455107,9.092045323652494,10.0,0.9079546763475058,-0.016313209928867443,0,0.016313209928867443,1.1984672005485253,0.6008982875913398,0.008156604964433722,0.520098421107626,0.033460140228271484,2.585355520248413,STABILIZE
0.03,0,0,104.48358951793533,1.1995319570227503,0.0,0.0,1.1995319570227503,0.06,0,0,-26.39903688121559,-0.5995852501071609,-0.0,0.0,-0.5995852501071609,0.5,0,0,-0.2062530065746774,-0.01709891240126764,-0.0,-0.0,-0.01709891240126764,0.002,8e-05,0.0,24.23346185835852,0.0181874253674864,0.0019386769486686819,0.0,0.02012610231615508,-9.993087501786016,-10.0,-0.006912498213982831,39.98439856742501,40.0,0.015601432574992427,9.093712683743199,10.0,0.9062873162568004,-0.03419782480253528,0,0.03419782480253528,1.1991738721445866,0.600301101473798,0.01709891240126764,0.5201261023161551,0.03346610069274902,2.6188817024230957,STABILIZE
0.03,0,0,105.81897469452794,1.1984618353959764,0.0,-0.0,1.1984618353959764,0.06,0,0,-26.733878560886712,-0.6010175655980772,-0.0,-0.0,-0.6010175655980772,0.5,0,0,-0.20573293378048954,0.0077791212900871175,-0.0,0.0,0.0077791212900871175,0.002,8e-05,0.0,24.537756605894984,0.01820626478044549,0.0019630205284715987,0.0,0.02016928530891709,-10.01695942663462,-10.0,0.016959426634618288,39.94872784653255,40.0,0.05127215346745255,9.103132390222745,10.0,0.8968676097772545,0.015558242580174235,0,-0.015558242580174235,1.198624993057138,0.600692110050488,-0.0077791212900871175,0.520169285308917,0.03342747688293457,2.652250051498413,STABILIZE
0.03,0,0,107.18062038305447,1.199025009546084,0.0,0.0,1.199025009546084,0.06,0,0,-27.074059294258063,-0.5991062293442312,-0.0,0.0,-0.5991062293442312,0.5,0,0,-0.20655680973950036,-0.012091347599226483,-0.0,-0.0,-0.012091347599226483,0.002,8e-05,0.0,24.847904310434078,0.01820712771950222,0.0019878323448347265,0.0,0.020194960064336947,-9.985103822403854,-10.0,-0.014896177596146074,39.9675003182028,40.0,0.03249968179719777,9.10356385975111,10.0,0.8964361402488892,-0.024182695198452966,0,0.024182695198452966,1.1987720393955255,0.5996122456384145,0.012091347599226483,0.520194960064337,0.03406882286071777,2.686325788497925,STABILIZE
0.03,0,0,108.51702766105622,1.1982937017398423,0.0,-0.0,1.1982937017398423,0.06,0,0,-27.40882055476342,-0.6003294304859875,-0.0,-0.0,-0.6003294304859875,0.5,0,0,-0.2054887904976146,0.015960712376074125,-0.0,0.0,0.015960712376074125,0.002,8e-05,0.0,25.152876089707377,0.01823025900996367,0.0020122300871765904,0.0,0.02024248909714026,-10.005490508099792,-10.0,0.00549050809979071,39.94312339132808,40.0,0.05687660867192156,9.115129504981835,10.0,0.8848704950181652,0.03192142475214825,0,-0.03192142475214825,1.198627979663632,0.5996617272300141,-0.015960712376074125,0.5202424890971402,0.03345775604248047,2.7198326587677,STABILIZE
0.03,0,0,109.852083249325,1.1975937451732586,0.0,-0.0,1.1975937451732586,0.06,0,0,-27.74398666007616,-0.6013125368616629,-0.0,-0.0,-0.6013125368616629,0.5,0,0,-0.2032462690059011,0.03352706478406198,-0.0,0.0,0.03352706478406198,0.002,8e-05,0.0,25.458010713241407,0.018247795312354355,0.0020366408570593126,0.0,0.020284436169413667,-10.021875614361049,-10.0,0.021875614361048765,39.91979150577529,40.0,0.0802084942247156,9.123897656177178,10.0,0.8761023438228227,0.06705412956812395,0,-0.06705412956812395,1.1982966501626,0.5999105630627052,-0.03352706478406198,0.5202844361694137,0.033443450927734375,2.7532296180725098,STABILIZE
0.03,0,0,111.18957861458475,1.1980655700007274,0.0,0.0,1.1980655700007274,0.06,0,0,-28.078728646277348,-0.599692318819242,-0.0,0.0,-0.599692318819242,0.5,0,0,-0.20269757702696606,0.00819154201168612,-0.0,-0.0,0.00819154201168612,0.002,8e-05,0.0,25.76353262396131,0.01824481248667191,0.002061082609916905,-0.0,0.020305895096588814,-9.994871980320701,-10.0,-0.0051280196792995,39.93551900002425,40.0,0.06448099997575098,9.122406243335956,10.0,0.877593756664044,0.01638308402337224,0,-0.01638308402337224,1.1982369962976163,0.5993497209273012,-0.00819154201168612,0.5203058950965889,0.03349137306213379,2.7867226600646973,STABILIZE
0.03,0,0,112.55851678915721,1.197635255138883,0.0,-0.0,1.197635255138883,0.06,0,0,-28.422947542273842,-0.6022897059746829,-0.0,-0.0,-0.6022897059746829,0.5,0,0,-0.20077289723084446,0.028063896791256253,-0.0,0.0,0.028063896791256253,0.002,8e-05,0.0,26.07700556468156,0.018283087447484966,0.002086160445174525,0.0,0.02036924789265949,-10.038161766244714,-10.0,0.03816176624471404,39.9211751712961,40.0,0.07882482870389808,9.141543723742483,10.0,0.8584562762575172,0.056127793582512506,0,-0.056127793582512506,1.1982246923019233,0.601116195949343,-0.028063896791256253,0.5203692478926595,0.03429102897644043,2.8210208415985107,STABILIZE
0.03,0,0,113.89542305577012,1.1986984120395063,0.0,0.0,1.1986984120395063,0.06,0,0,-28.76049246049829,-0.6052998143134632,-0.0,-0.0,-0.6052998143134632,0.5,0,0,-0.19858744173504914,0.03265875972778494,-0.0,0.0,0.03265875972778494,0.002,8e-05,0.0,26.38253317251554,0.018262834001703036,0.0021106026538012432,-0.0,0.020373436655504278,-10.08833023855772,-10.0,0.08833023855772046,39.95661373465021,40.0,0.04338626534978513,9.131417000851517,10.0,0.8685829991484821,0.06531751945556988,0,-0.06531751945556988,1.1993876782511654,0.603932898171002,-0.03265875972778494,0.5203734366555043,0.03345894813537598,2.854482889175415,STABILIZE
0.03,0,0,115.23197001429624,1.197207509076532,0.0,-0.0,1.197207509076532,0.06,0,0,-29.09998561056722,-0.6081997283369323,-0.0,-0.0,-0.6081997283369323,0.5,0,0,-0.19457941111539115,0.05983633576374965,-0.0,0.0,0.05983633576374965,0.002,8e-05,0.0,26.688682598914987,0.018282155612354047,0.002135094607913199,0.0,0.020417250220267247,-10.136662138948871,-10.0,0.13666213894887116,39.90691696921773,40.0,0.09308303078226554,9.141077806177023,10.0,0.8589221938229766,0.1196726715274993,0,-0.1196726715274993,1.1984752326010573,0.6056978175461709,-0.05983633576374965,0.5204172502202673,0.03349161148071289,2.887965440750122,STABILIZE
0.03,0,0,116.56719337577272,1.1963966430109458,0.0,-0.0,1.1963966430109458,0.06,0,0,-29.43993263637131,-0.6092036616612677,-0.0,-0.0,-0.6092036616612677,0.5,0,0,-0.1906682397604732,0.05840860805603433,-0.0,-0.0,0.05840860805603433,0.002,8e-05,0.0,26.994855726553,0.01828929963604114,0.00215958845812424,0.0,0.02044888809416538,-10.153394361021128,-10.0,0.1533943610211284,39.879888100364866,40.0,0.12011189963513687,9.14464981802057,10.0,0.8553501819794299,0.11681721611206866,0,-0.11681721611206866,1.1976362273736587,0.6067631297891682,-0.05840860805603433,0.5204488880941653,0.03348112106323242,2.921442985534668,STABILIZE
0.03,0,0,117.90116787338616,1.1978280119112947,0.0,0.0,1.1978280119112947,0.06,0,0,-29.77940139670735,-0.6096446236817648,-0.0,-0.0,-0.6096446236817648,0.5,0,0,-0.18803475664682953,0.039411795953386675,-0.0,-0.0,0.039411795953386675,0.002,8e-05,0.0,27.3012135925606,0.018339382760804417,0.0021840970874048484,0.0,0.020523479848209264,-10.160743728029413,-10.0,0.16074372802941328,39.92760039704316,40.0,0.07239960295684522,9.169691380402208,10.0,0.8303086195977922,0.07882359190677335,0,-0.07882359190677335,1.1986655852544836,0.6079961579072451,-0.039411795953386675,0.5205234798482092,0.033409833908081055,2.9548604488372803,STABILIZE
0.03,0,0,119.23688676206304,1.196678739824352,0.0,-0.0,1.196678739824352,0.06,0,0,-30.119338284767927,-0.6091030833996809,-0.0,0.0,-0.6091030833996809,0.5,0,0,-0.183842206236873,0.06260219351751276,-0.0,0.0,0.06260219351751276,0.002,8e-05,0.0,27.608535534134063,0.018355440748305012,0.002208682842730725,0.0,0.020564123591035738,-10.151718056661348,-10.0,0.15171805666134794,39.8892913274784,40.0,0.11070867252160667,9.177720374152505,10.0,0.8222796258474948,0.1252043870350255,0,-0.1252043870350255,1.1980069111560803,0.6064866143426955,-0.06260219351751276,0.5205641235910358,0.03348565101623535,2.988394021987915,STABILIZE
0.03,0,0,120.79618007438914,1.1975884303643256,0.0,0.0,1.1975884303643256,0.06,0,0,-30.51488948051271,-0.6075925958203001,-0.0,0.0,-0.6075925958203001,0.5,0,0,-0.17988659501296045,0.050633986983395635,-0.0,-0.0,0.050633986983395635,0.002,8e-05,0.0,27.9670539946827,0.018356929472731348,0.0022373643195746163,0.0,0.020594293792305964,-10.12654326367167,-10.0,0.12654326367167001,39.91961434547752,40.0,0.08038565452247914,9.178464736365674,10.0,0.8215352636343255,0.10126797396679127,0,-0.10126797396679127,1.1986604545741393,0.6054749587540822,-0.050633986983395635,0.5205942937923059,0.03906083106994629,3.0274641513824463,STABILIZE
0.03,0,0,122.1284551805406,1.1959862750766594,0.0,-0.0,1.1959862750766594,0.06,0,0,-30.854245898644546,-0.6092819967450622,-0.0,-0.0,-0.6092819967450622,0.5,0,0,-0.17508607899085815,0.07182389544535056,-0.0,0.0,0.07182389544535056,0.002,8e-05,0.0,28.27363082956113,0.018347646322098295,0.0022618904663648906,-0.0,0.020609536788463185,-10.154699945751037,-10.0,0.15469994575103674,39.86620916922198,40.0,0.1337908307780177,9.173823161049148,10.0,0.8261768389508526,0.14364779089070112,0,-0.14364779089070112,1.197510061974049,0.6062815956305305,-0.07182389544535056,0.5206095367884632,0.03341865539550781,3.0609097480773926,STABILIZE
0.03,0,0,123.4639160568252,1.1976584693373815,0.0,0.0,1.1976584693373815,0.06,0,0,-31.19089587028854,-0.6038240384298534,-0.0,0.0,-0.6038240384298534,0.5,0,0,-0.1727267389816885,0.035264773809647175,-0.0,-0.0,0.035264773809647175,0.002,8e-05,0.0,28.580807072732124,0.018365306726493637,0.00228646456581857,0.0,0.02065177129231221,-10.06373397383089,-10.0,0.06373397383089115,39.92194897791272,40.0,0.0780510220872773,9.182653363246818,10.0,0.8173466367531826,0.07052954761929435,0,-0.07052954761929435,1.1984008527303054,0.6023492962862776,-0.035264773809647175,0.5206517712923122,0.03345179557800293,3.0942916870117188,STABILIZE
0.03,0,0,124.80093582077663,1.1993214827954688,0.0,0.0,1.1993214827954688,0.06,0,0,-31.52442889965735,-0.5983656160200121,-0.0,0.0,-0.5983656160200121,0.5,0,0,-0.17280527665872206,-0.0011741527165466878,-0.0,-0.0,-0.0011741527165466878,0.002,8e-05,0.0,28.888080686803622,0.018375188180366504,0.00231104645494429,0.0,0.020686234635310795,-9.972760267000202,-10.0,-0.02723973299979794,39.977382759848965,40.0,0.02261724015103523,9.187594090183252,10.0,0.8124059098167478,-0.0023483054330933756,0,0.0023483054330933756,1.1992969573774697,0.5984147705019272,0.0011741527165466878,0.5206862346353108,0.03344440460205078,3.1277623176574707,STABILIZE
0.03,0,0,126.13636356369314,1.1977909565662814,0.0,-0.0,1.1977909565662814,0.06,0,0,-31.858840351700728,-0.5998902076947463,-0.0,-0.0,-0.5998902076947463,0.5,0,0,-0.17261398733053765,0.00285956601548645,-0.0,0.0,0.00285956601548645,0.002,8e-05,0.0,29.196866610577278,0.018464045894553232,0.0023357493288461823,0.0,0.020799795223399413,-9.998170128245773,-10.0,-0.0018298717542261644,39.92636521887605,40.0,0.07363478112395183,9.232022947276615,10.0,0.7679770527233845,0.0057191320309729,0,-0.0057191320309729,1.1978508302504092,0.5997706439868647,-0.00285956601548645,0.5207997952233994,0.033447265625,3.1611881256103516,STABILIZE
0.03,0,0,127.47219013072072,1.1982853413489563,0.0,0.0,1.1982853413489563,0.06,0,0,-32.19489813218418,-0.6029122674145394,-0.0,-0.0,-0.6029122674145394,0.5,0,0,-0.1719499344375892,0.009927995983179927,-0.0,0.0,0.009927995983179927,0.002,8e-05,0.0,29.50702769992361,0.018548390237391424,0.002360562215993889,0.0,0.020908952453385313,-10.048537790242325,-10.0,0.048537790242324054,39.94284471163188,40.0,0.05715528836812299,9.274195118695712,10.0,0.7258048813042891,0.019855991966359853,0,-0.019855991966359853,1.1984942101035887,0.6024969625142526,-0.009927995983179927,0.5209089524533853,0.033443450927734375,3.194640636444092,STABILIZE
