D-kp,D-ki,D-kd,D-I-Tot,D-P,D-I,D-D,D-PID,E-kp,E-ki,E-kd,E-I-Tot,E-P,E-I,E-D,E-PID,N-kp,N-ki,N-kd,N-I-Tot,N-P,N-I,N-D,N-PID,Y-kp,Y-ki,Y-kd,Y-I-Tot,Y-P,Y-I,Y-D,Y-PID,errorN,desiredN,actualN,errorE,desiredE,actualE,errorD,desiredD,actualD,errorY,desiredY,actualY,roll,pitch,yaw-rate,thrust,dt,Time,Mode
0.002,8e-05,0.0,-0.0025047931522295726,-0.0009286541092167511,-2.0038345217836582e-07,-0.0,-0.0009288544926689294,0.01,0.003,0.0,-0.003814962184698443,-0.00707200174627836,-1.144488655409533e-05,-0.0,-0.007083446632832455,0.08,0.002,0.06,0.0006594697103589512,0.009779957373065997,1.3189394207179024e-06,1.3597226972182512,1.369503973530738,0.6,0,0.4,0.019449520041861797,2.163277637487698,0.0,267.3456509627627,269.5089286002504,0.12224946716332497,-4.240039169804756,-4.362288636968081,-0.707200174627836,34.25692375480308,34.96412392943092,-0.46432705460837553,48.20379301859517,48.668120073203546,3.6054627291461636,0,-3.6054627291461636,-0.09319160666411207,-1.3663479180574916,-10.0,0.49907114550733106,0.005394458770751953,0.005627632141113281,GUIDED_NOGPS
0.002,8e-05,0.0,-0.010163578586900875,-0.0039805792297129584,-8.1308628695207e-07,-0.0,-0.0039813923159999105,0.01,0.003,0.0,-0.012553371343112359,-0.022708515791060792,-3.7660114029337075e-05,-0.0,-0.02274617590509013,0.08,0.002,0.06,0.0024208383637894433,0.03661816896435255,4.841676727578887e-06,5.230837278354068,5.2674602889951485,0.6,0,0.4,0.03484494427479543,2.4004865963528057,0.0,41.0956829823939,43.49616957874671,0.45772711205440686,-3.971657880200678,-4.429384992255085,-2.270851579106079,34.876715583191164,37.14756716229724,-1.9902896148564793,48.38400147488661,50.37429108974309,4.000810993921343,0,-4.000810993921343,-0.30177311998903433,-3.9886652369646654,-10.0,0.4960186076840001,0.0038480758666992188,0.009420394897460938,GUIDED_NOGPS
0.002,8e-05,0.0,-0.02772736902389573,-0.003671370087216829,-2.218189521911659e-06,0.0,-0.0036735882767387406,0.01,0.003,0.0,-0.0306113957066709,-0.018873400568181965,-9.18341871200127e-05,0.0,-0.018965234755301978,0.08,0.002,0.06,0.010506376846578605,0.06760500640505647,2.101275369315721e-05,2.4289492454379573,2.4965752645967068,0.6,0,0.4,0.07390287536030563,2.449291120336095,0.0,3.4005467122042994,5.849837832540395,0.8450625800632059,-3.7038049225561833,-4.548867502619389,-1.8873400568181964,35.495624760095254,37.38296481691345,-1.8356850436084144,48.56375202836423,50.39943707197264,4.082151867226825,0,-4.082151867226825,-0.19664014787978787,-2.488891396619639,-5.849837832540395,0.49632641172326125,0.009567975997924805,0.018975019454956055,GUIDED_NOGPS
0.002,8e-05,0.0,-0.059188512198575155,-0.0033956305463608916,-4.7350809758860125e-06,0.0,-0.003400365627336778,0.01,0.003,0.0,-0.05815156936643863,-0.014862183235359155,-0.00017445470809931588,0.0,-0.015036637943458471,0.08,0.002,0.06,0.03305920051116766,0.09736589229065701,6.611840102233533e-05,1.2045450713458015,1.3019770820374807,0.6,0,0.4,0.15085959013486738,2.491803015407248,0.0,1.529449504168847,4.021252519576095,1.2170736536332125,-3.436990740918308,-4.65406439455152,-1.4862183235359154,36.11279737643545,37.59901569997137,-1.6978152731804457,48.74259846780819,50.44041374098864,4.1530050256787465,0,-4.1530050256787465,-0.1092865412682448,-1.2974694117893877,-4.021252519576095,0.49659963437266325,0.01853036880493164,0.0375368595123291,GUIDED_NOGPS
0.002,8e-05,0.0,-0.08986878024225915,-0.0032699507274336383,-7.189502419380733e-06,0.0,-0.003277140229853019,0.01,0.003,0.0,-0.07962241135146557,-0.011441978809895873,-0.00023886723405439672,0.0,-0.011680846043950269,0.08,0.002,0.06,0.06217833164030784,0.12414249299568234,0.00012435666328061568,1.0702094196454899,1.1944762693044528,0.6,0,0.4,0.22980967848268613,2.524386994823339,0.0,1.157617082990958,3.6820040778142973,1.5517811624460291,-3.1717064948473777,-4.723487657293407,-1.1441978809895872,36.72741051803051,37.8716083990201,-1.6349753637168192,48.920107226420996,50.555082590137815,4.207311658038899,0,-4.207311658038899,-0.09928267611962277,-1.1904003319548901,-3.6820040778142973,0.49672285977014696,0.018764972686767578,0.05628061294555664,GUIDED_NOGPS
0.002,8e-05,0.0,-0.1662757251550653,-0.0034670383317436946,-1.3302058012405225e-05,-0.0,-0.0034803403897561,0.01,0.003,0.0,-0.12524883036456125,-0.010351712389438106,-0.0003757464910936838,0.0,-0.01072745888053179,0.08,0.002,0.06,0.14426670713141326,0.14899354750697869,0.0002885334142628265,0.42286515319340295,0.5721472341146445,0.6,0,0.4,0.42050269792783124,2.5958635387139535,0.0,1.0811055538302978,3.676969092544251,1.8624193438372334,-2.9084243119766855,-4.770843655813919,-1.0351712389438106,37.33867186910149,38.3738431080453,-1.7335191658718472,49.09585726077914,50.82937642665099,4.326439231189923,0,-4.326439231189923,-0.05385903191268536,-0.5697075921562742,-3.676969092544251,0.4965196596102439,0.04407620429992676,0.10035920143127441,GUIDED_NOGPS
0.002,8e-05,0.0,-0.2124206492371209,-0.0039687057016293895,-1.6993651938969672e-05,-0.0,-0.003985699353568359,0.01,0.003,0.0,-0.15520466615878506,-0.012881795633925535,-0.0004656139984763552,-0.0,-0.01334740963240189,0.08,0.002,0.06,0.19309861662945035,0.16799202209256478,0.0003861972332589007,0.6127382039571708,0.7811164232829945,0.6,0,0.4,0.5259239227511872,2.7200336181194706,0.0,3.559759546771632,6.279793164891103,2.0999002761570598,-2.647597540572164,-4.747497816729224,-1.2881795633925535,37.945819315775395,39.23399887916795,-1.9843528508146946,49.26943992978492,51.25379278059962,4.533389363532451,0,-4.533389363532451,-0.07504512503558879,-0.7776176755158709,-6.279793164891103,0.49601430064643165,0.02325439453125,0.12364530563354492,GUIDED_NOGPS
0.002,8e-05,0.0,-0.2823982878355014,-0.004141199146155089,-2.2591863026840114e-05,-0.0,-0.004163791009181929,0.01,0.003,0.0,-0.19777894515882483,-0.012597493383208659,-0.0005933368354764745,0.0,-0.013190830218685133,0.08,0.002,0.06,0.2736404283743439,0.1906550084903584,0.0005472808567486878,0.5029389126995308,0.694141202046638,0.6,0,0.4,0.6836009553047244,2.799345643798652,0.0,1.5645326116604046,4.363878255459056,2.38318760612948,-2.3896610020920677,-4.7728486082215476,-1.2597493383208658,38.54812054958883,39.807869887909696,-2.070599573077544,49.44045887361815,51.51105844669569,4.665576072997753,0,-4.665576072997753,-0.06960836099054135,-0.6907681828665968,-4.363878255459056,0.4958362089908181,0.033795833587646484,0.15741539001464844,GUIDED_NOGPS
0.002,8e-05,0.0,-0.36107914444278566,-0.004525353878523944,-2.8886331555422854e-05,-0.0,-0.004554240210079366,0.01,0.003,0.0,-0.2478236645268907,-0.014391687804206797,-0.0007434709935806721,-0.0,-0.015135158797787469,0.08,0.002,0.06,0.36491050545040593,0.20997707198378354,0.0007298210109008119,0.41674292868731777,0.6274498216820021,0.6,0,0.4,0.8519519155773148,2.904827313302022,0.0,2.0222703157338042,4.927097629035826,2.6247133997972942,-2.1350312437466425,-4.759744643543937,-1.4391687804206796,39.14487267099163,40.58404145141231,-2.262676939261972,49.60852989268788,51.871206831949856,4.84137885550337,0,-4.84137885550337,-0.06803634654527546,-0.6239338164496149,-4.927097629035826,0.4954457597899206,0.03477334976196289,0.19218945503234863,GUIDED_NOGPS
0.002,8e-05,0.0,-0.4406908907281157,-0.004841535557881727,-3.5255271258249255e-05,-0.0,-0.004876790829139976,0.01,0.003,0.0,-0.3004158150389642,-0.015991783791369445,-0.0009012474451168927,-0.0,-0.016893031236486337,0.08,0.002,0.06,0.45800591709520155,0.2264614290150142,0.0009160118341904032,0.3759319656304947,0.6033094064796993,0.6,0,0.4,1.0169960103409643,3.0111141535047117,0.0,2.154587901856887,5.165702055361599,2.8307678626876775,-1.8841067910578078,-4.714874653745485,-1.5991783791369443,39.73540179285048,41.334580171987426,-2.4207677789408635,49.77328082658416,52.194048605525026,5.01852358917452,0,-5.01852358917452,-0.06960445422804017,-0.5995188357365101,-5.165702055361599,0.49512320917086,0.03288698196411133,0.22509098052978516,GUIDED_NOGPS
0.002,8e-05,0.0,-0.5225694379376404,-0.0049805449810029784,-4.180555503501124e-05,-0.0,-0.00502235053603799,0.01,0.003,0.0,-0.3583506636429519,-0.01762043473373893,-0.0010750519909288557,-0.0,-0.01869548672466779,0.08,0.002,0.06,0.5549217203036718,0.23580951724246924,0.0011098434406073437,0.21323613826501844,0.45015549894809503,0.6,0,0.4,1.1888382073558952,3.135868262331645,0.0,2.529532955632779,5.665401217964424,2.9476189655308653,-1.6372684004188276,-4.584887365949693,-1.7620434733738932,40.319062643952606,42.0811061173265,-2.4902724905014892,49.93435143302976,52.42462392353125,5.226447103886075,0,-5.226447103886075,-0.059623441127519536,-0.446580944202945,-5.665401217964424,0.494977649463962,0.03287935256958008,0.25798964500427246,GUIDED_NOGPS
0.002,8e-05,0.0,-0.6138893032469296,-0.005130955684180236,-4.911114425975437e-05,-0.0,-0.005180066828439991,0.01,0.003,0.0,-0.42472328791958047,-0.01864627114005856,-0.0012741698637587415,-0.0,-0.0199204410038173,0.08,0.002,0.06,0.6666687987918337,0.2511476799127718,0.0013333375975836674,0.32317488918563136,0.5756559066959869,0.6,0,0.4,1.3802538584983015,3.2265002361001716,0.0,1.6974351250632447,4.923935361163416,3.1393459989096475,-1.3948793116539915,-4.534225310563639,-1.864627114005856,40.89523817250935,42.75986528651521,-2.565477842090118,50.09139326683191,52.656871108922026,5.377500393500286,0,-5.377500393500286,-0.07378171793436086,-0.5712554638534495,-4.923935361163416,0.49481993317156003,0.03559565544128418,0.29355669021606445,GUIDED_NOGPS
0.002,8e-05,0.0,-0.700715052756424,-0.005336111308492249,-5.605720422051392e-05,-0.0,-0.005392168512712763,0.01,0.003,0.0,-0.49080228308817,-0.02030531699207259,-0.00147240684926451,-0.0,-0.0217777238413371,0.08,0.002,0.06,0.7747536698854206,0.2657059253402001,0.0015495073397708413,0.33551863284784034,0.6027740655278113,0.6,0,0.4,1.56060202436276,3.325135317939082,0.0,2.0206285907427954,5.345763908681878,3.321324066752501,-1.1572855005782863,-4.478609567330787,-2.030531699207259,41.46333914965987,43.49387084886713,-2.6680556542461247,50.24406955883403,52.91212521308015,5.541892196565137,0,-5.541892196565137,-0.07988794334511615,-0.5978534601695663,-5.345763908681878,0.49460783148728726,0.03254270553588867,0.32611584663391113,GUIDED_NOGPS
0.002,8e-05,0.0,-0.7936812820864777,-0.005538680239541506,-6.349450256691822e-05,-0.0,-0.005602174742108425,0.01,0.003,0.0,-0.5637181080125113,-0.021720652841825016,-0.001691154324037534,-0.0,-0.02341180716586255,0.08,0.002,0.06,0.8912674677806631,0.2776632653327125,0.0017825349355613262,0.26714492137871704,0.546590721646991,0.6,0,0.4,1.7514415031743409,3.4109122995582246,0.0,1.7034546721073842,5.114366971665609,3.4707908166589063,-0.9248159315570752,-4.3956067482159815,-2.1720652841825014,42.02280377297477,44.19486905715727,-2.769340119770753,50.392055094867494,53.16139521463825,5.6848538325970415,0,-5.6848538325970415,-0.07744013768554851,-0.5415833774965709,-5.114366971665609,0.49439782525789155,0.0335698127746582,0.3597121238708496,GUIDED_NOGPS
0.002,8e-05,0.0,-0.8897007563721249,-0.005747156496552819,-7.117606050976999e-05,-0.0,-0.005818332557062589,0.01,0.003,0.0,-0.641752963504758,-0.023353519170790947,-0.0019252588905142739,-0.0,-0.02527877806130522,0.08,0.002,0.06,1.0117690473228114,0.2885004071779439,0.0020235380946456226,0.24324264930336592,0.5337665945759554,0.6,0,0.4,1.9461549780284921,3.4963182842848037,0.0,1.7039653105704002,5.200283594855204,3.6062550897242986,-0.6977828100657733,-4.304037899790072,-2.3353519170790946,42.573097269959696,44.90844918703879,-2.8735782482764094,50.53503609470333,53.40861434297974,5.827197140474673,0,-5.827197140474673,-0.07934069379121077,-0.5284419063759179,-5.200283594855204,0.4941816674429374,0.033414602279663086,0.39308714866638184,GUIDED_NOGPS
0.002,8e-05,0.0,-0.9889782003115403,-0.005974600476718067,-7.911825602492322e-05,-0.0,-0.00605371873274299,0.01,0.003,0.0,-0.7248526956486774,-0.025005060544527568,-0.002174558086946032,-0.0,-0.027179618631473598,0.08,0.002,0.06,1.1338013839927363,0.29376036606586603,0.0022676027679854726,0.11870578917128567,0.4147337580051372,0.6,0,0.4,2.143723718979888,3.5669561393818956,0.0,1.4170152721866893,4.983971411568585,3.6720045758233253,-0.4764818352495226,-4.148486411072848,-2.5005060544527566,43.11371150155903,45.61421755601179,-2.9873002383590332,50.672710091003985,53.66001032936302,5.944926898969826,0,-5.944926898969826,-0.06998844545561622,-0.4096882219453255,-4.983971411568585,0.49394628126725704,0.0332331657409668,0.42632365226745605,GUIDED_NOGPS
0.002,8e-05,0.0,-1.0929521705071286,-0.006229577228424418,-8.743617364057029e-05,-0.0,-0.006317013402064989,0.01,0.003,0.0,-0.8138956929088093,-0.026674956579945574,-0.002441687078726428,-0.0,-0.029116643658672003,0.08,0.002,0.06,1.257626287522689,0.29675765882210076,0.002515252575045378,0.06734329755576271,0.3666162089529088,0.6,0,0.4,2.3444434628189836,3.607823601896852,0.0,0.8161882997823107,4.424011901679163,3.7094707352762595,-0.2611924524828715,-3.970663187759131,-2.6674956579945572,43.64416456565951,46.311660223654066,-3.114788614212209,50.80478580827505,53.91957442248726,6.013039336494754,0,-6.013039336494754,-0.06736125140252582,-0.36154900831620973,-4.424011901679163,0.493682986597935,0.033380746841430664,0.45975732803344727,GUIDED_NOGPS
0.002,8e-05,0.0,-1.2047830000619464,-0.006522816814538985,-9.638264000495572e-05,-0.0,-0.006619199454543941,0.01,0.003,0.0,-0.910354715043636,-0.02813108576587183,-0.002731064145130908,-0.0,-0.03086214991100274,0.08,0.002,0.06,1.3869386187977437,0.30169878990469284,0.0027738772375954877,0.10807650170130707,0.4125491688435954,0.6,0,0.4,2.5525917261180266,3.64223263969947,0.0,0.668998138362214,4.3112307780616845,3.7712348738086607,-0.05217810592944527,-3.823412979738106,-2.813108576587183,44.16400040059385,46.97710897718103,-3.261408407269492,50.930983041816994,54.192391449086486,6.070387732832451,0,-6.070387732832451,-0.07431623484983582,-0.4069722180301926,-4.3112307780616845,0.4933808005454561,0.03428912162780762,0.49401235580444336,GUIDED_NOGPS
0.002,8e-05,0.0,-1.3191519985337279,-0.006864601427678693,-0.00010553215988269825,-0.0,-0.006970133587561392,0.01,0.003,0.0,-1.011538190686474,-0.030365931355370534,-0.003034614572059422,-0.0,-0.033400545927429956,0.08,0.002,0.06,1.5106146942239542,0.2969290543013489,0.0030212293884479087,-0.10735754751027403,0.19259273617952277,0.6,0,0.4,2.7559377522428776,3.6615414314234402,0.0,0.3863143596785601,4.047855791102,3.7116131787668616,0.15031350889837292,-3.5612996698684887,-3.0365931355370535,44.672788388644435,47.70938152418149,-3.4323007138393464,51.05103253667692,54.48333325051627,6.1025690523724005,0,-6.1025690523724005,-0.053685545888134525,-0.18795058036637882,-4.047855791102,0.4930298664124386,0.033321380615234375,0.52732253074646,GUIDED_NOGPS
0.002,8e-05,0.0,-1.4378043646329397,-0.007209023064735064,-0.00011502434917063518,-0.0,-0.007324047413905699,0.01,0.003,0.0,-1.1196774685914899,-0.032851369688203534,-0.0033590324057744697,-0.0,-0.036210402093978,0.08,0.002,0.06,1.6294990217509195,0.2889246585983099,0.003258998043501839,-0.18237270083459195,0.10981095580721978,0.6,0,0.4,2.957567956281277,3.675165121219731,0.0,0.2759138515230088,3.9510789727427396,3.6115582324788735,0.3460501925797672,-3.2655080398991063,-3.2851369688203533,45.1701229595469,48.455259928367255,-3.604511532367532,51.16467586660027,54.7691873989678,6.125275202032885,0,-6.125275202032885,-0.04772080117757131,-0.10532029419857054,-3.9510789727427396,0.4926759525860943,0.03291773796081543,0.5602407455444336,GUIDED_NOGPS
0.002,8e-05,0.0,-1.5728604232256858,-0.00763853567038106,-0.00012582883385805487,-0.0,-0.007764364504239115,0.01,0.003,0.0,-1.24516758164327,-0.03548751217880053,-0.0037355027449298096,-0.0,-0.039223014923730336,0.08,0.002,0.06,1.7523745434150406,0.27798502785523527,0.0035047490868300815,-0.2320224297667888,0.04946734717527654,0.6,0,0.4,3.1751717298357085,3.692187237561646,0.0,0.3209137603498797,4.0131009979115255,3.474812848190441,0.5348149892258114,-2.9399978589646296,-3.548751217880053,45.65562319399383,49.204374411873886,-3.81926783519053,51.27166531298259,55.09093314817312,6.153645395936077,0,-6.153645395936077,-0.044299665357177345,-0.04497780547679726,-4.0131009979115255,0.4922356354957609,0.03536176681518555,0.5956668853759766,GUIDED_NOGPS
0.002,8e-05,0.0,-1.7049564153225876,-0.008140562411912982,-0.000136396513225807,-0.0,-0.00827695892513879,0.01,0.003,0.0,-1.3710030276013594,-0.038773746469964156,-0.004113009082804079,-0.0,-0.04288675555276823,0.08,0.002,0.06,1.85905052285146,0.26296103452316194,0.00371810104570292,-0.347201361263261,-0.08052222569439615,0.6,0,0.4,3.375656561735319,3.70653021521674,0.0,0.29463398275882363,4.001164197975563,3.2870129315395245,0.7164059339197992,-2.570606997619725,-3.877374646996415,46.12893242713834,50.00630707413475,-4.070281205956491,51.37176374382125,55.44204494977774,6.177550358694567,0,-6.177550358694567,-0.03397273877583107,0.08466968555918532,-4.001164197975563,0.4917230410748612,0.03245377540588379,0.6280591487884521,GUIDED_NOGPS
0.002,8e-05,0.0,-1.8448047028719483,-0.008549593438930643,-0.00014758437622975587,-0.0,-0.0086971778151604,0.01,0.003,0.0,-1.5061214433488495,-0.04130216897885511,-0.004518364330046549,-0.0,-0.04582053330890166,0.08,0.002,0.06,1.961104929227061,0.24956292235036073,0.003922209858454122,-0.30715895936392984,-0.053673827155114984,0.6,0,0.4,3.5763233617991532,3.6803158350396386,0.0,-0.5342034016414003,3.146112433398238,3.119536529379509,0.8906358001575576,-2.2289007292219516,-4.130216897885511,46.58971785209775,50.71993474998326,-4.274796719465321,51.464744492667194,55.739541212132515,6.133859725066064,0,-6.133859725066064,-0.03982307140013836,0.05826254352882997,-3.146112433398238,0.4913028221848396,0.0327146053314209,0.6607694625854492,GUIDED_NOGPS
0.002,8e-05,0.0,-2.033415638756229,-0.008887521307057868,-0.00016267325110049834,-0.0,-0.009050194558158366,0.01,0.003,0.0,-1.6935024461716386,-0.044147828632459606,-0.0050805073385149155,-0.0,-0.04922833597097452,0.08,0.002,0.06,2.0845847525962315,0.2327393278740862,0.004169169505192463,-0.297278734796415,-0.06037023741713632,0.6,0,0.4,3.8351059250668045,3.6582219384363674,0.0,-0.34702826375875034,3.311193674677617,2.9092415984260773,1.0573318472877808,-1.8519097511382967,-4.414782863245961,47.03767012345723,51.45245298670319,-4.443760653528933,51.55039123757667,55.9941518911056,6.097036564060613,0,-6.097036564060613,-0.04253779044958559,0.06525742112541451,-3.311193674677617,0.49094980544184164,0.04244399070739746,0.703223466873169,GUIDED_NOGPS
0.002,8e-05,0.0,-2.1749031365350935,-0.009397928259650384,-0.0001739922509228075,-0.0,-0.009571920510573192,0.01,0.003,0.0,-1.8393425649653568,-0.0484351972901662,-0.00551802769489607,-0.0,-0.053953224985062276,0.08,0.002,0.06,2.1642707932696306,0.21171727687619155,0.004328541586539262,-0.5236250470457761,-0.30757922858304526,0.6,0,0.4,4.017356259371096,3.631647164541655,0.0,-0.5883860706177575,3.0432610939238973,2.646465960952394,1.2163355679523455,-1.4301303930000484,-4.84351972901662,47.472502960773454,52.316022689790074,-4.6989641298251925,51.62849788006296,56.32746200988815,6.052745274236092,0,-6.052745274236092,-0.02122007890803425,0.3115535918476415,-3.0432610939238973,0.4904280794894268,0.03011035919189453,0.7333376407623291,GUIDED_NOGPS
0.002,8e-05,0.0,-2.387059711493894,-0.009856220672507519,-0.00019096477691951154,-0.0,-0.01004718544942703,0.01,0.003,0.0,-2.0605373432967515,-0.051380555782067676,-0.006181612029890255,-0.0,-0.05756216781195793,0.08,0.002,0.06,2.266568844212054,0.1900996308319439,0.004533137688424108,-0.3766115129951322,-0.18197874447476417,0.6,0,0.4,4.274022318651511,3.57720328003306,0.0,-0.8431052083261807,2.7340980717068795,2.3762453853992986,1.3675024355266459,-1.0087429498726528,-5.138055578206767,47.89395275207818,53.032008330284945,-4.928110336253759,51.69886842404813,56.62697876030189,5.9620054667217675,0,-5.9620054667217675,-0.038348873725833676,0.18697334165004265,-2.7340980717068795,0.489952814550573,0.043050289154052734,0.776383638381958,GUIDED_NOGPS
0.002,8e-05,0.0,-2.5128444122358258,-0.010530524420373014,-0.0002010275529788661,-0.0,-0.010731551973351879,0.01,0.003,0.0,-2.193489686954896,-0.055652948783905316,-0.0065804690608646885,-0.0,-0.06223341784477,0.08,0.002,0.06,2.317959380320822,0.1720938372560083,0.0046359187606416444,-0.5652827246910251,-0.38855296867437517,0.6,0,0.4,4.411933672860651,3.4637254167952936,0.0,-3.166737562805176,0.2969878539901174,2.1511729657001037,1.5107016515599003,-0.6404713141402032,-5.565294878390532,48.30177815738195,53.867073035772485,-5.265262210186506,51.76131685481476,57.026579065001265,5.772875694658823,0,-5.772875694658823,-0.022835079931381334,0.3928421653626799,-0.2969878539901174,0.4892684480266481,0.023889541625976562,0.8002827167510986,GUIDED_NOGPS
0.002,8e-05,0.0,-2.739922423001544,-0.010958352036112643,-0.00021919379384012353,-0.0,-0.011177545829952767,0.01,0.003,0.0,-2.429364433049389,-0.05691432859166049,-0.007288093299148167,-0.0,-0.06420242189080866,0.08,0.002,0.06,2.4001407708998563,0.15863669154852178,0.004800281541799713,-0.2435310769963419,-0.08009410390602043,0.6,0,0.4,4.643977045580766,3.3593912823255274,0.0,-1.6783221634530596,1.6810691188724678,1.9829586443565224,1.6458158932154952,-0.3371427511410272,-5.691432859166049,48.695759712177725,54.387192571343775,-5.479176018056322,51.81566701795768,57.294843036014,5.598985470542546,0,-5.598985470542546,-0.05608171687206669,0.08597591226521026,-1.6810691188724678,0.4888224541700472,0.041443824768066406,0.8417477607727051,GUIDED_NOGPS
0.002,8e-05,0.0,-2.8960504181670266,-0.011631201481937524,-0.00023168403345336214,-0.0,-0.011862885515390886,0.01,0.003,0.0,-2.592437715484581,-0.06074305259329805,-0.0077773131464537425,-0.0,-0.06852036573975179,0.08,0.002,0.06,2.444069194033271,0.1309029401695695,0.004888138388066542,-0.7747894198842723,-0.6389983413266362,0.6,0,0.4,4.78910597544799,3.2435383974946346,0.0,-2.876930654030737,0.3666077434638977,1.6362867521196187,1.7727410607112901,0.13645430859167135,-6.074305259329805,49.07569943094448,55.15000469027429,-5.815600740968762,51.86175249833571,57.67735323930447,5.405897329157725,0,-5.405897329157725,-0.008015071252078017,0.6426116084946846,-0.3666077434638977,0.4881371144846091,0.02684640884399414,0.86859130859375,GUIDED_NOGPS
0.002,8e-05,0.0,-3.0928782018108083,-0.012175886733501685,-0.0002474302561448647,-0.0,-0.012423316989646549,0.01,0.003,0.0,-2.7973393423892943,-0.06337669800766549,-0.008392018027167884,-0.0,-0.07176871603483337,0.08,0.002,0.06,2.4867346376493735,0.10557241448075995,0.004973469275298747,-0.5876106626894839,-0.47706477893342525,0.6,0,0.4,4.956827575192692,3.112608134046392,0.0,-2.6998086486585655,0.4127994853878265,1.3196551810094994,1.8913860247599583,0.5717308437504588,-6.337669800766548,49.44142041065091,55.77909021141746,-6.087943366750842,51.89941649902341,57.98735986577425,5.187680223410654,0,-5.187680223410654,-0.028339287350432132,0.4815998719814573,-0.4127994853878265,0.48757668301035345,0.03233075141906738,0.9009068012237549,GUIDED_NOGPS
0.002,8e-05,0.0,-3.3114017771703406,-0.012746562264967978,-0.00026491214217362727,-0.0,-0.013011474407141605,0.01,0.003,0.0,-3.0283548592811353,-0.0673761095431199,-0.009085064577843405,-0.0,-0.0764611741209633,0.08,0.002,0.06,2.5191516286396194,0.0756358106296293,0.005038303257279239,-0.6548300069494167,-0.5741558930625081,0.6,0,0.4,5.1268670509947665,2.9755399556971955,0.0,-2.6650794496646055,0.31046050603259,0.9454476328703663,2.0016723740092974,1.0562247411389312,-6.7376109543119895,49.79276643425902,56.53037738857101,-6.373281132483989,51.92851172026278,58.30179285274677,4.959233259495326,0,-4.959233259495326,-0.026540933184443893,0.5786163491918124,-0.31046050603259,0.4869885255928584,0.034287452697753906,0.935218334197998,GUIDED_NOGPS
0.002,8e-05,0.0,-3.5308043906783704,-0.01334011654244064,-0.00028246435125426966,-0.0,-0.01362258089369491,0.01,0.003,0.0,-3.2640805480530757,-0.07166296039016168,-0.009792241644159228,-0.0,-0.08145520203432091,0.08,0.002,0.06,2.537203308181523,0.043903124949233215,0.005074406616363046,-0.7235289698912849,-0.6745514383256886,0.6,0,0.4,5.2822889597496445,2.8349886214497153,0.0,-2.848600493066132,-0.01361187161641686,0.5487890618654152,2.103534162482558,1.5547451006171427,-7.166296039016167,50.12960157422778,57.295897613243945,-6.67005827122032,51.94890023841503,58.61895850963535,4.724981035749526,0,-4.724981035749526,-0.02561353202483769,0.6789687326106556,0.01361187161641686,0.4863774191063051,0.03289365768432617,0.9681422710418701,GUIDED_NOGPS
0.002,8e-05,0.0,-3.802921360990105,-0.013685393586771809,-0.0003042337088792084,-0.0,-0.013989627295651017,0.01,0.003,0.0,-3.5645198021052167,-0.07554893463479033,-0.01069355940631565,-0.0,-0.08624249404110598,0.08,0.002,0.06,2.545792728830615,0.01727927547194277,0.00509158545766123,-0.5021156781506737,-0.4797448172210697,0.6,0,0.4,5.460945288928745,2.695512351305652,0.0,-2.338195042558019,0.3573173087476329,0.2159909433992846,2.1969176570187745,1.98092671361949,-7.554893463479033,50.451809796016775,58.00670325949581,-6.842696793385905,51.960453384912306,58.80315017829821,4.49252058550942,0,-4.49252058550942,-0.0483996085947075,0.48502611818002844,-0.3573173087476329,0.486010372704349,0.03976750373840332,1.0079059600830078,GUIDED_NOGPS
0.002,8e-05,0.0,-3.999228305058693,-0.014171008144824313,-0.0003199382644046955,-0.0,-0.014490946409229008,0.01,0.003,0.0,-3.786315412876552,-0.08005492168500965,-0.011358946238629656,-0.0,-0.0914138679236393,0.08,0.002,0.06,2.540104900166675,-0.01642372188217692,0.0050802098003333495,-0.9123571486664104,-0.923700660748254,0.6,0,0.4,5.578928338623967,2.5550885621214428,0.0,-3.3789714193048805,-0.8238828571834378,-0.2052965235272115,2.2817810847130744,2.487077608240286,-8.005492168500965,50.759294561589854,58.76478673009082,-7.0855040724121565,51.96305162520943,59.04855569762159,4.258480936869072,0,-4.258480936869072,-0.02257108187817497,0.9279385497856905,0.8238828571834378,0.485509053590771,0.02770543098449707,1.0356509685516357,GUIDED_NOGPS
0.002,8e-05,0.0,-4.245740054288722,-0.014523436306897666,-0.00033965920434309775,-0.0,-0.014863095511240763,0.01,0.003,0.0,-4.068834077123608,-0.08322406210896546,-0.012206502231370823,-0.0,-0.09543056434033628,0.08,0.002,0.06,2.5206280548703197,-0.04589975496169323,0.005041256109740639,-0.6512264988598406,-0.6920849977117932,0.6,0,0.4,5.715948330305765,2.4217926263286977,0.0,-2.6177454550016743,-0.1959528286729766,-0.5737469370211654,2.3580943803570147,2.93184131737818,-8.322406210896546,51.05197843291874,59.37438464381528,-7.261718153448832,51.956584437735636,59.21830259118447,4.036321043881163,0,-4.036321043881163,-0.04647880290728139,0.6970856170861324,0.1959528286729766,0.48513690448875924,0.03394675254821777,1.0695617198944092,GUIDED_NOGPS
0.002,8e-05,0.0,-4.508020688729339,-0.015042042198660255,-0.00036064165509834713,-0.0,-0.015402683853758602,0.01,0.003,0.0,-4.376223157798883,-0.08814527105263131,-0.013128669473396649,-0.0,-0.10127394052602796,0.08,0.002,0.06,2.4839172493643646,-0.08421597526559403,0.004967834498728729,-0.8240517889363991,-0.9032999297032643,0.6,0,0.4,5.848176353594672,2.2750206210220507,0.0,-2.8058377268470194,-0.5308171058249687,-1.0526996908199253,2.4258389338788984,3.4785386246988237,-8.814527105263132,51.32980267548669,60.14432978074982,-7.521021099330127,51.940950192846294,59.46197129217642,3.7917010350367515,0,-3.7917010350367515,-0.04131759888170743,0.9080198401214822,0.5308171058249687,0.4845973161462414,0.034873008728027344,1.1044328212738037,GUIDED_NOGPS
0.002,8e-05,0.0,-4.756134720974085,-0.015603236768601633,-0.00038049077767792687,-0.0,-0.01598372754627956,0.01,0.003,0.0,-4.674898648768866,-0.09391456743538662,-0.014024695946306598,-0.0,-0.10793926338169321,0.08,0.002,0.06,2.432866975706427,-0.1284166799886541,0.0048657339514128544,-1.0423746314748548,-1.165925577512096,0.6,0,0.4,5.960297182455172,2.1152949193254713,0.0,-3.348242632705204,-1.2329477133797329,-1.6052084998581764,2.485007337784105,4.0902158376422815,-9.391456743538662,51.592726861792144,60.984183605330806,-7.8016183843008164,51.91605603177467,59.71767441607549,3.525491532209119,0,-3.525491532209119,-0.03603918005633752,1.1703565757397034,1.2329477133797329,0.4840162724537204,0.03180289268493652,1.1362576484680176,GUIDED_NOGPS
0.002,8e-05,0.0,-5.026336010012018,-0.01612019810417624,-0.00040210688080096147,-0.0,-0.016522304984977202,0.01,0.003,0.0,-5.006436987632143,-0.09889782022570699,-0.01501931096289643,-0.0,-0.11391713118860342,0.08,0.002,0.06,2.361928053595239,-0.16928853031023708,0.004723856107190478,-0.9144048587084036,-1.0789695329114501,0.6,0,0.4,6.069289115882921,1.9507363175819692,0.0,-3.2725198675607823,-1.321783549978813,-2.1161066288779633,2.535603134595407,4.65170976347337,-9.8897820225707,51.840728474852355,61.730510497423055,-8.06009905208812,51.88181774558365,59.94191679767177,3.251227195969949,0,-3.251227195969949,-0.05254091319700248,1.0836935997641675,1.321783549978813,0.4834776950150228,0.0335233211517334,1.169790506362915,GUIDED_NOGPS
0.002,8e-05,0.0,-5.303741316496546,-0.01663909772490287,-0.0004242993053197237,-0.0,-0.017063397030222593,0.01,0.003,0.0,-5.354612192417326,-0.10441979879955618,-0.016063836577251977,-0.0,-0.12048363537680816,0.08,0.002,0.06,2.2735055225549696,-0.2121475113374389,0.004547011045109939,-0.964024601861495,-1.171625102153824,0.6,0,0.4,6.168502762008121,1.7852854811339376,0.0,-3.3079788213295047,-1.5226933401955671,-2.651843891717986,2.577640564293298,5.229484456011284,-10.441979879955618,52.07380251170701,62.515782391662626,-8.319548862451434,51.838159654117476,60.15770851656891,2.975475801889896,0,-2.975475801889896,-0.05950389130788865,1.1762996953624485,1.5226933401955671,0.4829366029697774,0.03334379196166992,1.2031095027923584,GUIDED_NOGPS
0.002,8e-05,0.0,-5.5980103332643445,-0.017170314456898622,-0.0004478408266611476,-0.0,-0.01761815528355977,0.01,0.003,0.0,-5.730730562850661,-0.10973072809857798,-0.017192191688551982,-0.0,-0.12692291978712997,0.08,0.002,0.06,2.1659343207404773,-0.25106705176764055,0.004331868641480954,-0.8515941744113166,-1.0983293575374762,0.6,0,0.4,6.262172708326317,1.6396654168114642,0.0,-2.832263624074344,-1.1925982072628798,-3.1383381470955065,2.6111443117563136,5.74948245885182,-10.973072809857797,52.291961086921916,63.26503389677971,-8.585157228449312,51.785014484953486,60.3701717134028,2.7327756946857735,0,-2.7327756946857735,-0.0744125943005717,1.1031317106336096,1.1925982072628798,0.48238184471644024,0.034276485443115234,1.2373921871185303,GUIDED_NOGPS
0.002,8e-05,0.0,-5.89331844608783,-0.01773308992946056,-0.0004714654756870264,-0.0,-0.018204555405147586,0.01,0.003,0.0,-6.114775135855524,-0.11530832805272852,-0.018344325407566572,-0.0,-0.1336526534602951,0.08,0.002,0.06,2.0440181540581355,-0.2928399530866036,0.004088036308116271,-0.9406649151386881,-1.2294168319171754,0.6,0,0.4,6.344773493433835,1.4880395291725685,0.0,-3.0350170825840594,-1.546977553411491,-3.660499413582545,2.6361492542013636,6.296648667783908,-11.530832805272851,52.495233036092614,64.02606584136547,-8.86654496473028,51.722323252353846,60.588868217084126,2.480065881954281,0,-2.480065881954281,-0.08032838684750909,1.234048673531445,1.546977553411491,0.4817954445948524,0.03330588340759277,1.2707018852233887,GUIDED_NOGPS
0.002,8e-05,0.0,-6.232952703542232,-0.018253133843881317,-0.0004986362162833786,-0.0,-0.018751770060164694,0.01,0.003,0.0,-6.5643447620934365,-0.12080722688826562,-0.01969303428628031,-0.0,-0.14050026117454592,0.08,0.002,0.06,1.888524769733731,-0.33427035036858493,0.0037770495394674622,-0.8349804644942695,-1.165473765323387,0.6,0,0.4,6.427979017322876,1.341526831374622,0.0,-2.6247017431617525,-1.2831749117871305,-4.178379379607311,2.6527002086240428,6.831079588231354,-12.080722688826562,52.68366351934801,64.76438620817457,-9.126566921940658,51.6500351362173,60.776602058157955,2.235878052291037,0,-2.235878052291037,-0.09492405002431437,1.1700678808403258,1.2831749117871305,0.4812482299398353,0.037213802337646484,1.3079078197479248,GUIDED_NOGPS
0.002,8e-05,0.0,-6.5210770218798855,-0.018712639644801014,-0.0005216861617503909,-0.0,-0.019234325806551406,0.01,0.003,0.0,-6.954569629641998,-0.12671851805162532,-0.020863708888925997,-0.0,-0.14758222694055131,0.08,0.002,0.06,1.742246557957706,-0.38000977920133105,0.003484493115915412,-1.1139793591240206,-1.4905046452094362,0.6,0,0.4,6.488368952656729,1.1766328207856112,0.0,-3.5697579173933036,-2.3931250966076925,-4.750122240016638,2.6608516792389656,7.4109739192556034,-12.671851805162532,52.85731362485403,65.52916543001656,-9.356319822400508,51.56810736103088,60.92442718343139,1.961054701309352,0,-1.961054701309352,-0.09649045484430929,1.494681973940804,2.3931250966076925,0.4807656741934486,0.030794620513916016,1.338714838027954,GUIDED_NOGPS
0.002,8e-05,0.0,-6.897542914184312,-0.01922670528159199,-0.000551803433134745,-0.0,-0.019778508714726733,0.01,0.003,0.0,-7.4727423670514765,-0.1323194837936539,-0.02241822710115443,-0.0,-0.15473771089480834,0.08,0.002,0.06,1.5351950893376864,-0.42297776735203096,0.0030703901786753728,-0.8229160279894608,-1.2428234051628164,0.6,0,0.4,6.5561489187491215,1.0384888448281369,0.0,-2.351743381853649,-1.3132545370255122,-5.287222091900387,2.6606676049200804,7.947889696820467,-13.231948379365392,53.01625997231727,66.24820835168266,-9.613352640795995,51.476505074821695,61.08985771561769,1.7308147413802282,0,-1.7308147413802282,-0.11712909684433676,1.2469300502698188,1.3132545370255122,0.48022149128527325,0.039160728454589844,1.377899169921875,GUIDED_NOGPS
0.002,8e-05,0.0,-7.238636753597715,-0.01971191345899578,-0.0005790909402878173,-0.0,-0.020291004399283597,0.01,0.003,0.0,-7.951525380809071,-0.13834505702385932,-0.02385457614242721,-0.0,-0.16219963316628655,0.08,0.002,0.06,1.3342694552497372,-0.46446206330161877,0.0026685389104994742,-0.8990211312581297,-1.360814655649249,0.6,0,0.4,6.607090863801058,0.8831850033031305,0.0,-2.9916849170258213,-2.1084999137226905,-5.805775791270235,2.652221106641007,8.457996897911242,-13.834505702385933,53.16059431648862,66.99510001887455,-9.85595672949789,51.375201228108594,61.231157957606484,1.4719750055052176,0,-1.4719750055052176,-0.12718952317275398,1.364532181087771,2.1084999137226905,0.4797089956007164,0.034607887268066406,1.4125580787658691,GUIDED_NOGPS
0.002,8e-05,0.0,-7.599467465654956,-0.020193520696824195,-0.0006079573972523966,-0.0,-0.020801478094076592,0.01,0.003,0.0,-8.467907275434811,-0.14449391540340925,-0.025403721826304435,-0.0,-0.16989763722971368,0.08,0.002,0.06,1.1087476702563015,-0.5048438151935618,0.0022174953405126032,-0.8474712469263957,-1.350097566779445,0.6,0,0.4,6.65115012010423,0.7397193262504071,0.0,-2.6763031545833638,-1.9365838283329566,-6.310547689919523,2.635594234915346,8.946141924834869,-14.449391540340926,53.29042315066691,67.73981469100784,-10.096760348412097,51.26417645285397,61.360936801266064,1.2328655437506786,0,-1.2328655437506786,-0.1408097392919219,1.3534405285348,1.9365838283329566,0.4791985219059234,0.03573727607727051,1.4482214450836182,GUIDED_NOGPS
0.002,8e-05,0.0,-7.89416918123735,-0.02040946419005006,-0.000631533534498988,-0.0,-0.021040997724549048,0.01,0.003,0.0,-8.903402894368382,-0.15080048349877018,-0.026710208683105145,-0.0,-0.17751069218187532,0.08,0.002,0.06,0.9129990231743433,-0.5422601622762525,0.0018259980463486867,-0.9717210091535196,-1.5121551733834235,0.6,0,0.4,6.679842530002406,0.5961248422179724,0.0,-3.3148619149332377,-2.7187370727152653,-6.778252028453156,2.6108777172370115,9.389129745690168,-15.080048349877018,53.40586731020254,68.48591566007956,-10.20473209502503,51.14341894141545,61.34815103644048,0.9935414036966206,0,-0.9935414036966206,-0.1512636878897572,1.5150058121852636,2.7187370727152653,0.47895900227545096,0.02887892723083496,1.477107286453247,GUIDED_NOGPS
0.002,8e-05,0.0,-8.202683598932454,-0.02046663908574533,-0.0006562146879145964,-0.0,-0.021122853773659925,0.01,0.003,0.0,-9.373547628374899,-0.15594542810774775,-0.028120642885124697,-0.0,-0.18406607099287245,0.08,0.002,0.06,0.6966311538713831,-0.574147960261848,0.001393262307742766,-0.7932806562406595,-1.3660353541947647,0.6,0,0.4,6.704311986423886,0.486986187171718,0.0,-2.413395004165677,-1.926408816993959,-7.1768495032731,2.5781707055205487,9.755020208793649,-15.594542810774776,53.507061576001156,69.10160438677593,-10.233319542872664,51.01292432549768,61.24624386837034,0.8116436452861967,0,-0.8116436452861967,-0.164697192760122,1.3685056602359031,1.926408816993959,0.4788771462263401,0.030148029327392578,1.5072860717773438,GUIDED_NOGPS
0.002,8e-05,0.0,-8.559910989814952,-0.020703896343572878,-0.0006847928791851963,-0.0,-0.021388689222758075,0.01,0.003,0.0,-9.931225867863104,-0.16160732292821073,-0.02979367760358931,-0.0,-0.19140100053180004,0.08,0.002,0.06,0.43321477697151894,-0.6106749372226272,0.0008664295539430379,-0.7938753760648749,-1.4036838837335592,0.6,0,0.4,6.7258482800952475,0.3744549296976489,0.0,-2.173998550707799,-1.79954362101015,-7.63343671528284,2.5375805235414672,10.171017238824307,-16.160732292821073,53.594154278027254,69.75488657084833,-10.35194817178644,50.872695555104,61.22464372689044,0.6240915494960815,0,-0.6240915494960815,-0.1761003886966768,1.4056853992123493,1.79954362101015,0.47861131077724195,0.03450822830200195,1.5417649745941162,GUIDED_NOGPS
0.002,8e-05,0.0,-8.90725639456052,-0.021072098651324582,-0.0007125805115648416,-0.0,-0.021784679162889422,0.01,0.003,0.0,-10.484907594042884,-0.16794861535655456,-0.03145472278212865,-0.0,-0.19940333813868322,0.08,0.002,0.06,0.16670737102058825,-0.6467188306257023,0.0003334147420411765,-0.819991211043708,-1.466376626927369,0.6,0,0.4,6.7399937108690855,0.257444528120482,0.0,-2.3661890936019634,-2.1087445654814814,-8.083985382821279,2.489222414376556,10.573207797197835,-16.794861535655457,53.66730689880784,70.4621684344633,-10.53604932566229,50.722742777488236,61.258792103150526,0.4290742135341367,0,-0.4290742135341367,-0.1884165100414442,1.467828778163019,2.1087445654814814,0.4782153208371106,0.032967329025268555,1.574732780456543,GUIDED_NOGPS
0.002,8e-05,0.0,-9.28019795339104,-0.021459413135358076,-0.0007424158362712833,-0.0,-0.02220182897162936,0.01,0.003,0.0,-11.090333049018742,-0.17418379171430978,-0.033270999147056224,-0.0,-0.207454790861366,0.08,0.002,0.06,-0.12950353032106277,-0.6817703156516197,-0.00025900706064212555,-0.7563359597188257,-1.4383652824310875,0.6,0,0.4,6.747894790977798,0.136390706468958,0.0,-2.321850800234472,-2.185460093765514,-8.522128945645246,2.433219287844209,10.955348233489454,-17.418379171430978,53.726693676936044,71.14507284836702,-10.729706567679038,50.56308321610642,61.29278978378546,0.22731784411493003,0,-0.22731784411493003,-0.20174653820008764,1.439177025344233,2.185460093765514,0.47779817102837063,0.03475785255432129,1.6094956398010254,GUIDED_NOGPS
0.002,8e-05,0.0,-9.672734262282521,-0.02187594733733418,-0.0007738187409826018,-0.0,-0.022649766078316782,0.01,0.003,0.0,-11.739187769821163,-0.18080253189748227,-0.03521756330946349,-0.0,-0.21602009520694576,0.08,0.002,0.06,-0.4515231896496547,-0.7178429051775744,-0.0009030463792993094,-0.7538685443706444,-1.4726144959275183,0.6,0,0.4,6.750149869684122,0.03770248654987544,0.0,-1.833289687996686,-1.7955872014468106,-8.97303631471968,2.369701467944747,11.342737782664427,-18.080253189748227,53.77250121057481,71.85275440032304,-10.937973668667091,50.3937410495685,61.33171471823559,0.06283747758312573,0,-0.06283747758312573,-0.21440491855443988,1.4728505240005656,1.7955872014468106,0.47735023392168324,0.03588747978210449,1.6453845500946045,GUIDED_NOGPS
0.002,8e-05,0.0,-10.164219767123331,-0.02234889383987064,-0.0008131375813698665,-0.0,-0.023162031421240507,0.01,0.003,0.0,-12.562029022003076,-0.1870817309051273,-0.037686087066009226,-0.0,-0.22476781797113654,0.08,0.002,0.06,-0.863984966587905,-0.7502206575783393,-0.00172796993317581,-0.5521070388022056,-1.3040556663137206,0.6,0,0.4,6.74601802149929,-0.056365184040480326,0.0,-1.4258191835984473,-1.4821843676389277,-9.377758219729241,2.2988064403007566,11.676564660029998,-18.70817309051273,53.80492806096049,72.51310115147322,-11.17444691993532,50.21474729059011,61.38919421052543,-0.09394197340080054,0,0.09394197340080054,-0.2269056403155318,1.3036853850655172,1.4821843676389277,0.4768379685787595,0.04398298263549805,1.6893689632415771,GUIDED_NOGPS
0.002,8e-05,0.0,-10.407992012761811,-0.02272854375233041,-0.0008326393610209449,-0.0,-0.023561183113351356,0.01,0.003,0.0,-12.981802447782632,-0.19569165162562357,-0.0389454073433479,-0.0,-0.23463705896897147,0.08,0.002,0.06,-1.0751830895489858,-0.7876574735665074,-0.0021503661790979716,-1.3089333261253953,-2.0987411658710005,0.6,0,0.4,6.740123118570818,-0.16488656299809215,0.0,-3.3727286484713748,-3.537615211469467,-9.845718419581342,2.220678599597389,12.06639701917873,-19.569165162562356,53.824184355906525,73.39334951846888,-11.364271876165205,50.02613966494431,61.390411541109515,-0.2748109383301536,0,0.2748109383301536,-0.2447006306040919,2.0975916266387826,3.537615211469467,0.47643881688664863,0.02145075798034668,1.7109487056732178,GUIDED_NOGPS
0.002,8e-05,0.0,-10.766906846888965,-0.022908851808086026,-0.0008613525477511173,-0.0,-0.023770204355837144,0.01,0.003,0.0,-13.607997433389198,-0.19984417979148256,-0.040823992300167596,-0.0,-0.24066817209165015,0.08,0.002,0.06,-1.3926726283877595,-0.8105901572514354,-0.002785345256775519,-0.5489061075352581,-1.362281610043469,0.6,0,0.4,6.729326963814805,-0.20672941256729452,0.0,-0.890249857685645,-1.0969792702529395,-10.132376965642942,2.135468997022704,12.267845962665646,-19.984417979148255,53.830491393307035,73.81490937245529,-11.454425904043013,49.82796249041328,61.28238839445629,-0.3445490209454909,0,0.3445490209454909,-0.248855871857835,1.3608097255540317,1.0969792702529395,0.47622979564416285,0.03133416175842285,1.7421796321868896,GUIDED_NOGPS
0.002,8e-05,0.0,-11.15944927458254,-0.023169095643872595,-0.0008927559419666033,-0.0,-0.0240618515858392,0.01,0.003,0.0,-14.307239717267935,-0.20635745604132466,-0.0429217191518038,-0.0,-0.24927917519312848,0.08,0.002,0.06,-1.748383305869913,-0.8398067700915292,-0.003496766611739826,-0.6466713368343306,-1.4899748735375997,0.6,0,0.4,6.713485514944577,-0.28050372503811305,0.0,-1.4514644202414981,-1.7319681452796112,-10.497584626144114,2.0433350877079803,12.540919713852094,-20.635745604132467,53.82408124464051,74.45982684877298,-11.584547821936297,49.620266555740116,61.20481437767641,-0.4675062083968551,0,0.4675062083968551,-0.2614282257748492,1.4878912976849374,1.7319681452796112,0.4759381484141608,0.03388500213623047,1.7760541439056396,GUIDED_NOGPS
0.002,8e-05,0.0,-11.555636125493534,-0.023508089740383868,-0.0009244508900394828,-0.0,-0.02443254063042335,0.01,0.003,0.0,-15.027236175666996,-0.21360806546058442,-0.04508170852700099,-0.0,-0.2586897739875854,0.08,0.002,0.06,-2.115523988461707,-0.8713844080254606,-0.0042310479769234145,-0.7026324302219649,-1.5782478862243488,0.6,0,0.4,6.693350047628755,-0.3584266147676269,0.0,-1.5412073708649985,-1.8996339856326254,-10.892305100318257,1.9444404781680582,12.836745578486315,-21.36080654605844,53.805196358473424,75.16600290453187,-11.754044870191933,49.403108999580525,61.15715386977246,-0.5973776912793781,0,0.5973776912793781,-0.27513055553983823,1.5754650002287303,1.8996339856326254,0.4755674593695767,0.0337064266204834,1.8097665309906006,GUIDED_NOGPS
0.002,8e-05,0.0,-12.004809388694294,-0.023871431923316252,-0.0009603847510955436,-0.0,-0.024831816674411797,0.01,0.003,0.0,-15.857211805849076,-0.2205463723811141,-0.04757163541754723,-0.0,-0.26811800779866135,0.08,0.002,0.06,-2.539576919487784,-0.9014562089237522,-0.005079153838975568,-0.5993151808834165,-1.5058505436461442,0.6,0,0.4,6.667978253967863,-0.40451720623297244,0.0,-0.8164988929736711,-1.2210160992066434,-11.268202611546903,1.8389546737416342,13.107157285288537,-22.05463723811141,53.77408916396388,75.82872640207529,-11.935715961658126,49.17655318945456,61.112269151112685,-0.6741953437216207,0,0.6741953437216207,-0.28581827297525086,1.502591441722851,1.2210160992066434,0.4751681833255882,0.03763270378112793,1.8474488258361816,GUIDED_NOGPS
0.002,8e-05,0.0,-12.38205996413765,-0.024291372960451484,-0.000990564797131012,-0.0,-0.025281937757582498,0.01,0.003,0.0,-16.565798793351245,-0.22813153787915774,-0.049697396380053736,-0.0,-0.27782893425921146,0.08,0.002,0.06,-2.9015667807344574,-0.932349085708984,-0.005803133561468915,-0.7459535259781357,-1.6841057452485886,0.6,0,0.4,6.643046251775732,-0.48161561836302386,0.0,-1.6548031163890444,-2.1364187347520684,-11.6543635713623,1.7270528260316205,13.38141639739392,-22.813153787915773,53.731021674365245,76.54417546228102,-12.145686480225741,48.94066860069839,61.08635508092413,-0.8026926972717064,0,0.8026926972717064,-0.3013945973455621,1.680048325073365,2.1364187347520684,0.4747180622424175,0.031060457229614258,1.8784534931182861,GUIDED_NOGPS
0.002,8e-05,0.0,-12.783705861638463,-0.024662191756035214,-0.0010226964689310772,-0.0,-0.02568488822496629,0.01,0.003,0.0,-17.32989646039565,-0.23458876714843116,-0.05198968938118695,-0.0,-0.2865784565296181,0.08,0.002,0.06,-3.290660344661051,-0.955657721819739,-0.006581320689322103,-0.5367060172704011,-1.4989450597794622,0.6,0,0.4,6.614930423009853,-0.5179173730282332,0.0,-0.7430100661674859,-1.260927439195719,-11.945721522746737,1.6089154803454306,13.554637003092168,-23.458876714843115,53.676265090529824,77.13514180537294,-12.331095878017607,48.695530695416025,61.02662657343363,-0.8631956217137219,0,0.8631956217137219,-0.30912759539365403,1.4944576386603574,1.260927439195719,0.4743151117750337,0.03257179260253906,1.911034345626831,GUIDED_NOGPS
0.002,8e-05,0.0,-13.24432240078705,-0.025048662849881383,-0.001059545792062964,-0.0,-0.026108208641944346,0.01,0.003,0.0,-18.21801164016388,-0.24148175129573454,-0.05465403492049164,-0.0,-0.29613578621622616,0.08,0.002,0.06,-3.7413625770421564,-0.980380625104857,-0.007482725154084313,-0.5041685570527612,-1.4920319073117025,0.6,0,0.4,6.580638709075209,-0.5594425131680317,0.0,-0.752722454038468,-1.3121649672064999,-12.254757813810713,1.4847283231353376,13.73948613694605,-24.148175129573453,53.61009940441246,77.75827453398591,-12.52433142494069,48.441220801431,60.96555222637169,-0.9324041886133863,0,0.9324041886133863,-0.32037611857805426,1.4870153862549504,1.3121649672064999,0.47389179135805565,0.03677773475646973,1.9478116035461426,GUIDED_NOGPS
0.002,8e-05,0.0,-13.639835963607757,-0.0254343424649762,-0.0010911868770886205,-0.0,-0.02652552934206482,0.01,0.003,0.0,-18.994512198101663,-0.2496726151940787,-0.05698353659430499,-0.0,-0.3066561517883837,0.08,0.002,0.06,-4.132511048724931,-1.0061454391076443,-0.008265022097449861,-0.6213229752032283,-1.6357334364083225,0.6,0,0.4,6.54979309108802,-0.5950779582638147,0.0,-0.76387107772321,-1.3589490359870247,-12.576817988845555,1.3546819294387706,13.931499918284326,-24.96726151940787,53.53281300257417,78.50007452198204,-12.717171232488099,48.17782599123822,60.89499722372632,-0.9917965971063578,0,0.9917965971063578,-0.3349235314164323,1.6301803883366361,1.3589490359870247,0.4734744706579352,0.031100749969482422,1.9789164066314697,GUIDED_NOGPS
0.002,8e-05,0.0,-14.064032091879708,-0.025618538770274483,-0.0011251225673503768,-0.0,-0.02674366133762486,0.01,0.003,0.0,-19.84594600918375,-0.2571038329414569,-0.05953783802755125,-0.0,-0.31664167096900814,0.08,0.002,0.06,-4.55872321999259,-1.02961175798222,-0.00911744643998518,-0.5314518095081394,-1.5701810139303447,0.6,0,0.4,6.514905907015178,-0.6320840419242245,0.0,-0.7449712729598842,-1.3770553148841087,-12.870146974777748,1.2189715103186618,14.08911848509641,-25.710383294145686,53.44470226968585,79.15508556383153,-12.809269385137242,47.90543896095559,60.714708346092834,-1.053473403207041,0,1.053473403207041,-0.34545678087967174,1.5640939795439484,1.3770553148841087,0.47325633866237515,0.03311634063720703,2.0120365619659424,GUIDED_NOGPS
0.002,8e-05,0.0,-14.49771976373101,-0.026077988571052074,-0.0011598175810984808,-0.0,-0.027237806152150556,0.01,0.003,0.0,-20.72616692546726,-0.26464195877249735,-0.06217850077640179,-0.0,-0.32682045954889916,0.08,0.002,0.06,-4.995954603205155,-1.0516429914320509,-0.009991909206410311,-0.4967834210547927,-1.558418321693254,0.6,0,0.4,6.477499820281182,-0.674777425541888,0.0,-0.8557291666360833,-1.5305065921779715,-13.145537392900636,1.0777966603037559,14.223334053204391,-26.464195877249736,53.34607119203183,79.81026706928156,-13.038994285526037,47.62415790927582,60.66315219480186,-1.1246290425698133,0,1.1246290425698133,-0.3573449214615822,1.5517035429728798,1.5305065921779715,0.47276219384784945,0.03326082229614258,2.0452935695648193,GUIDED_NOGPS
0.002,8e-05,0.0,-14.968672880285723,-0.026478117752579067,-0.0011974938304228579,-0.0,-0.027675611583001924,0.01,0.003,0.0,-21.69433296834235,-0.27216312607538384,-0.06508299890502706,-0.0,-0.3372461249804109,0.08,0.002,0.06,-5.471918347141634,-1.0703930913636364,-0.010943836694283268,-0.39531590545552936,-1.476652833513449,0.6,0,0.4,6.435220219701274,-0.7131182722877837,0.0,-0.7185382289558696,-1.4316565012436533,-13.379913642045455,0.9313611048289303,14.311274746874385,-27.216312607538384,53.23723096101358,80.45354356855196,-13.239058876289533,47.33408641641812,60.57314529270765,-1.1885304538129728,0,1.1885304538129728,-0.36780271793077424,1.4693398858740396,1.4316565012436533,0.4723243884169981,0.03557300567626953,2.0808889865875244,GUIDED_NOGPS
0.002,8e-05,0.0,-15.454414456779862,-0.02690598165972021,-0.001236353156542389,-0.0,-0.0281423348162626,0.01,0.003,0.0,-22.70412712565074,-0.279670347273227,-0.06811238137695222,-0.0,-0.34778272865017923,0.08,0.002,0.06,-5.961819344793298,-1.0854551387616989,-0.011923638689586596,-0.3128663398357943,-1.4102451172870798,0.6,0,0.4,6.391136965550279,-0.7325520102159288,0.0,-0.35882165989606835,-1.0913736701119972,-13.568189234521236,0.7798724476755403,14.348061682196777,-27.967034727322698,53.11849957665332,81.08553430397602,-13.452990829860106,47.03533332307996,60.488324152940066,-1.220920017026548,0,1.220920017026548,-0.3777525152836946,1.40251458258952,1.0913736701119972,0.4718576651837374,0.03610658645629883,2.1169755458831787,GUIDED_NOGPS
0.002,8e-05,0.0,-15.852819568535567,-0.027363914288525807,-0.0012682255654828454,-0.0,-0.028632139854008653,0.01,0.003,0.0,-23.54092918573218,-0.2873730679260342,-0.07062278755719653,-0.0,-0.3579958554832307,0.08,0.002,0.06,-6.362337226993551,-1.1003610823417227,-0.012724674453987103,-0.38392293780684494,-1.4970086946025547,0.6,0,0.4,6.354986957314899,-0.7448742732164193,0.0,-0.28211263580444224,-1.0269869090208616,-13.754513529271534,0.6235419184117088,14.378055447683243,-28.73730679260342,52.990201451097676,81.7275082437011,-13.681957144262903,46.72801260938881,60.409969753651716,-1.2414571220273656,0,1.2414571220273656,-0.3903457419219855,1.4889010262680962,1.0269869090208616,0.47136786014599136,0.029119014739990234,2.1461119651794434,GUIDED_NOGPS
0.002,8e-05,0.0,-16.314035428950625,-0.027829632912573003,-0.0013051228343160502,-0.0,-0.029134755746889052,0.01,0.003,0.0,-24.517997611304406,-0.2947801446991722,-0.07355399283391321,-0.0,-0.3683341375330854,0.08,0.002,0.06,-6.824086005341124,-1.1144715611191474,-0.013648172010682249,-0.31928334292563054,-1.4474030760554601,0.6,0,0.4,6.313527308417956,-0.7504990017783052,0.0,-0.11313150344922292,-0.8636305052275282,-13.93089451398934,0.46258411983268743,14.393478633822028,-29.47801446991722,52.85266701212131,82.33068148203853,-13.914816456286502,46.41224327385389,60.32705973014039,-1.2508316696305086,0,1.2508316696305086,-0.3998423036063687,1.4390176627455975,0.8636305052275282,0.47086524425311094,0.03314566612243652,2.179257392883301,GUIDED_NOGPS
0.002,8e-05,0.0,-17.089878880842395,-0.02817349587147915,-0.0013671903104673917,-0.0,-0.02954068618194654,0.01,0.003,0.0,-26.18614134766281,-0.3028796631248974,-0.07855842404298843,-0.0,-0.38143808716788585,0.08,0.002,0.06,-7.599692210967078,-1.126595226334124,-0.015199384421934156,-0.16509421023427015,-1.3068888209903282,0.6,0,0.4,6.244442719850332,-0.7526084158009894,0.0,-0.02553331565125454,-0.7781417314522439,-14.082440329176547,0.29721677540116787,14.379657104577715,-30.287966312489736,52.70623230663056,82.9941986191203,-14.086747935739574,46.08814921231782,60.1748971480574,-1.2543473596683157,0,1.2543473596683157,-0.4099554496299484,1.2982256868859485,0.7781417314522439,0.47045931381805345,0.05507612228393555,2.234344720840454,GUIDED_NOGPS
0.002,8e-05,0.0,-17.396606495520896,-0.028506417193616244,-0.0013917285196416718,-0.0,-0.029898145713257916,0.01,0.003,0.0,-26.857349444493767,-0.3119011317590612,-0.0805720483334813,-0.0,-0.3924731800925425,0.08,0.002,0.06,-7.906805636424992,-1.141690935267131,-0.015813611272849984,-0.5261075577537406,-1.6836121042937215,0.6,0,0.4,6.217309395159947,-0.7565088728166929,0.0,-0.12083256676226593,-0.8773414395789588,-14.271136690839135,0.1276604766875682,14.398797167526704,-31.19011317590612,52.55123860416708,83.7413517800732,-14.253208596808122,45.7558590969085,60.009067693716624,-1.2608481213611549,0,1.2608481213611549,-0.4294246494373444,1.674568417614491,0.8773414395789588,0.47010185428674206,0.021519899368286133,2.255845546722412,GUIDED_NOGPS
0.002,8e-05,0.0,-17.836900409867454,-0.028888052405390822,-0.0014269520327893964,-0.0,-0.030315004438180217,0.01,0.003,0.0,-27.82571724643246,-0.31767711179491187,-0.08347715173929739,-0.0,-0.40115426353420924,0.08,0.002,0.06,-8.346708070232117,-1.1544946815755206,-0.016693416140464233,-0.3150241937459751,-1.48621229146196,0.6,0,0.4,6.17987321926148,-0.7368656544917316,0.0,0.4296026675909421,-0.30726298690078946,-14.431183519694006,-0.045861569189575846,14.38532195050443,-31.767711179491187,52.3880320004115,84.15574317990269,-14.444026202695412,45.41550625499071,59.85953245768612,-1.228109424152886,0,1.228109424152886,-0.4329159707747548,1.4772729878707034,0.30726298690078946,0.4696849955618198,0.030482769012451172,2.2863333225250244,GUIDED_NOGPS
0.002,8e-05,0.0,-18.320958936799414,-0.029359583756839287,-0.0014656767149439532,-0.0,-0.03082526047178324,0.01,0.003,0.0,-28.898218960394857,-0.3252520320219316,-0.08669465688118458,-0.0,-0.41194668890311614,0.08,0.002,0.06,-8.827795852267037,-1.1671759711016636,-0.017655591704534075,-0.2884341675174066,-1.4732657303236043,0.6,0,0.4,6.14023280879879,-0.7212925006267408,0.0,0.3148526399312948,-0.40643986069544596,-14.589699638770794,-0.2231237921233422,14.366575846647452,-32.52520320219316,52.216963020687054,84.74216622288021,-14.679791878419643,45.067228548117946,59.74702042653759,-1.2021541677112346,0,1.2021541677112346,-0.4427651457337392,1.4642988125268575,0.40643986069544596,0.46917473952821676,0.0329744815826416,2.3193044662475586,GUIDED_NOGPS
0.002,8e-05,0.0,-18.83022445184941,-0.029755098616540125,-0.001506417956147953,-0.0,-0.03126151657268808,0.01,0.003,0.0,-30.038963992345238,-0.3332542644152873,-0.09011689197703572,-0.0,-0.42337115639232303,0.08,0.002,0.06,-9.331967205446118,-1.1782983838601568,-0.018663934410892237,-0.2436954388495717,-1.440657757120621,0.6,0,0.4,6.100281799089414,-0.7002709973103909,0.0,0.4094111262599495,-0.29085987105044137,-14.72872979825196,-0.40389851157806334,14.324831286673897,-33.325426441528734,52.038386223463206,85.36381266499194,-14.877549308270062,44.7111682509841,59.588717559254164,-1.1671183288506515,0,1.1671183288506515,-0.45262757482270616,1.4317353762923184,0.29085987105044137,0.46873848342731195,0.03423047065734863,2.35361647605896,GUIDED_NOGPS
0.002,8e-05,0.0,-19.427005233996677,-0.030141974900755188,-0.0015541604187197344,-0.0,-0.03169613531947492,0.01,0.003,0.0,-31.393328518298595,-0.3420286206341455,-0.09417998555489579,-0.0,-0.43620860618904134,0.08,0.002,0.06,-9.91941064657797,-1.1868147224513061,-0.019838821293155944,-0.16130248644472617,-1.3679560301891882,0.6,0,0.4,6.056100221707297,-0.6694518505116248,0.0,0.5188672161597062,-0.1505846343519186,-14.835184030641326,-0.5879561891490361,14.24722784149229,-34.20286206341455,51.852659803859304,86.05552186727385,-15.070987450377594,44.347471930375214,59.41845938075281,-1.1157530841860415,0,1.1157530841860415,-0.4627631963221218,1.3592026606706162,0.1505846343519186,0.4683038646805251,0.03959798812866211,2.393139123916626,GUIDED_NOGPS
0.002,8e-05,0.0,-19.838908625972884,-0.030687011218305457,-0.001587112690077831,-0.0,-0.03227412390838329,0.01,0.003,0.0,-32.33666575381549,-0.35139550793774704,-0.09700999726144646,-0.0,-0.44840550519919353,0.08,0.002,0.06,-10.320553075013516,-1.195412559481996,-0.020641106150027032,-0.24020370421213438,-1.4562573698441574,0.6,0,0.4,6.027886469595729,-0.6305816444513527,0.0,0.9652833428623602,0.3347016984110075,-14.942656993524949,-0.7750656811221646,14.167591312402784,-35.1395507937747,51.66014519714821,86.79969599092291,-15.343505609152729,43.97629032412122,59.31979593327395,-1.050969407418921,0,1.050969407418921,-0.47504052299175786,1.4477878041460648,-0.3347016984110075,0.4677258760916167,0.026845455169677734,2.4200165271759033,GUIDED_NOGPS
0.002,8e-05,0.0,-20.363523304970478,-0.031320989090548694,-0.0016290818643976384,-0.0,-0.032950070954946335,0.01,0.003,0.0,-33.536477690548466,-0.3581609330197199,-0.1006094330716454,-0.0,-0.4587703660913653,0.08,0.002,0.06,-10.825189497187127,-1.205129212456957,-0.021650378994374254,-0.2175419364982149,-1.4443215279495463,0.6,0,0.4,5.9935237587587205,-0.6154654840982309,0.0,0.30082592835295285,-0.314639555745278,-15.064115155711962,-0.9649944910336501,14.099120664678312,-35.81609330197199,51.46120668226003,87.27729998423202,-15.660494545274346,43.5977782200477,59.25827276532205,-1.0257758068303848,0,1.0257758068303848,-0.4845533903716175,1.4358770618620136,0.314639555745278,0.46704992904505366,0.03349924087524414,2.4534919261932373,GUIDED_NOGPS
0.002,8e-05,0.0,-20.90240602162412,-0.03177570867823084,-0.0016721924817299297,-0.0,-0.03344790115996077,0.01,0.003,0.0,-34.778225600690696,-0.36610396497316117,-0.10433467680207209,-0.0,-0.47043864177523326,0.08,0.002,0.06,-11.339891010455528,-1.2139936825899864,-0.022679782020911057,-0.196013073783827,-1.4326865383947245,0.6,0,0.4,5.9610189222666135,-0.5750031591775328,0.0,0.7952992425439636,0.2202960833664308,-15.174921032374831,-1.157509022229675,14.017412010145156,-36.61039649731612,51.25621098528555,87.86660748260167,-15.887854339115421,43.21209433492754,59.09994867404296,-0.9583385986292212,0,0.9583385986292212,-0.4943350697975975,1.4246178686725046,-0.2202960833664308,0.46655209884003923,0.033917903900146484,2.487410306930542,GUIDED_NOGPS
0.002,8e-05,0.0,-21.576502643998978,-0.03234954216066669,-0.0017261202115199184,-0.0,-0.03407566237218661,0.01,0.003,0.0,-36.33658189909189,-0.3739234933329519,-0.10900974569727567,-0.0,-0.48293323903022756,0.08,0.002,0.06,-11.977357227464955,-1.2236667313653862,-0.02395471445492991,-0.17407669508836138,-1.4216981409086775,0.6,0,0.4,5.923767375714762,-0.5363046345568327,0.0,0.6190406104110789,0.08273597585424619,-15.295834142067328,-1.3523748304260899,13.943459311641238,-37.392349333295186,51.045526882980084,88.43787621627527,-16.174771080333343,42.819401193432775,58.99417227376612,-0.8938410575947212,0,0.8938410575947212,-0.5050527321455607,1.413991462129712,-0.08273597585424619,0.4659243376278134,0.04167580604553223,2.529123544692993,GUIDED_NOGPS
