D-kp,D-ki,D-kd,D-I-Tot,D-P,D-I,D-D,D-PID,E-kp,E-ki,E-kd,E-I-Tot,E-P,E-I,E-D,E-PID,N-kp,N-ki,N-kd,N-I-Tot,N-P,N-I,N-D,N-PID,Y-kp,Y-ki,Y-kd,Y-I-Tot,Y-P,Y-I,Y-D,Y-PID,errorN,desiredN,actualN,errorE,desiredE,actualE,errorD,desiredD,actualD,errorY,desiredY,actualY,roll,pitch,yaw-rate,thrust,dt,Time,Mode
0.002,8e-05,0.0,-0.012322498195074208,-0.001423986540193482,-9.857998556059366e-07,-0.0,-0.001424972340049088,0.05,0.004,0.04,0.0028977430106068374,0.008371571613809081,1.159097204242735e-05,0.38696715908127327,0.3953503216671248,0.08,0.002,0.06,0.002063712663663053,0.009539296364621067,4.127425327326106e-06,0.413385015697355,0.42292843948730335,0.5,0,0,0.010438649249634717,0.30157229065820756,0.0,0.0,0.30157229065820756,0.11924120455776333,-16.197224346298718,-16.31646555085648,0.16743143227618162,34.4984235005592,34.33099206828302,-0.7119932700967411,51.94209097709268,52.654084247189424,0.6031445813164151,0,-0.6031445813164151,0.3908763908016852,-0.4270667264998679,-0.30157229065820756,0.49857502765995093,0.017307043075561523,0.017591238021850586,GUIDED_NOGPS
0.002,8e-05,0.0,-0.05869544398814275,-0.002738176100454723,-4.69563551905142e-06,-0.0,-0.002742871735973774,0.05,0.004,0.04,0.015216564362001753,0.018184688094153145,6.0866257448007014e-05,0.23177342355915465,0.2500189779107558,0.08,0.002,0.06,0.00883093090194794,0.015983315210829404,1.766186180389588e-05,0.14268711605823492,0.1586880931308682,0.5,0,0,0.03231727212571469,0.3229659084925906,0.0,0.0,0.3229659084925906,0.19979144013536754,-16.197224346298718,-16.397015786434086,0.3636937618830629,34.4984235005592,34.134729738676135,-1.3690880502273615,51.94209097709268,53.311179027320044,0.6459318169851812,0,-0.6459318169851812,0.2482141359566102,-0.16149657249726232,-0.3229659084925906,0.49725712826402624,0.03387141227722168,0.05135202407836914,GUIDED_NOGPS
0.002,8e-05,0.0,-0.12853647124509227,-0.004017286422347312,-1.0282917699607382e-05,-0.0,-0.004027569340046919,0.05,0.004,0.04,0.03429763868328385,0.027438793430354026,0.0001371905547331354,0.21292007393486534,0.2404960579199525,0.08,0.002,0.06,0.019349305290467987,0.024200859738621718,3.869861058093598e-05,0.1772537827322494,0.20149334108145206,0.5,0,0,0.05426034102384135,0.31554372913488427,0.0,-0.0,0.31554372913488427,0.30251074673277145,-16.197224346298718,-16.49973509303149,0.5487758686070805,34.4984235005592,33.94964763195212,-2.0086432111736556,51.94209097709268,53.95073418826634,0.6310874582697685,0,-0.6310874582697685,0.2382621551147987,-0.20413002183719842,-0.31554372913488427,0.49597243065995306,0.03477025032043457,0.08611607551574707,GUIDED_NOGPS
0.002,8e-05,0.0,-0.2247945532564844,-0.005322395834379748,-1.7983564260518752e-05,-0.0,-0.005340379398640267,0.05,0.004,0.04,0.060127766341129,0.0357056158233398,0.000240511065364516,0.18283888541547036,0.2187850123041747,0.08,0.002,0.06,0.0362055627768989,0.03728130573737985,7.241112555379781e-05,0.27122129581563376,0.3085750126785674,0.5,0,0,0.07705119573728852,0.31504354661473827,0.0,-0.0,0.31504354661473827,0.46601632171724816,-16.197224346298718,-16.663240668015966,0.714112316466796,34.4984235005592,33.7843111840924,-2.661197917189874,51.94209097709268,54.60328889428256,0.6300870932294765,0,-0.6300870932294765,0.215378422804908,-0.31096230486762566,-0.31504354661473827,0.4946596206013597,0.03617095947265625,0.12228727340698242,GUIDED_NOGPS
0.002,8e-05,0.0,-0.33250406695227075,-0.00662244210257326,-2.6600325356181662e-05,-0.0,-0.006649042427929442,0.05,0.004,0.04,0.08812414235989469,0.04303342687763881,0.00035249656943957876,0.1802180802069295,0.2236040036540079,0.08,0.002,0.06,0.05798794745642703,0.05357097119705856,0.00011597589491285407,0.37558439364638224,0.42927134073835366,0.5,0,0,0.0992593823096667,0.3413636008842016,0.0,0.0,0.3413636008842016,0.6696371399632319,-16.197224346298718,-16.86686148626195,0.8606685375527761,34.4984235005592,33.63775496300642,-3.31122105128663,51.94209097709268,55.25331202837931,0.6827272017684032,0,-0.6827272017684032,0.21847312286954568,-0.4319052315184822,-0.3413636008842016,0.49335095757207054,0.03252863883972168,0.15483784675598145,GUIDED_NOGPS
0.002,8e-05,0.0,-0.4572957979994822,-0.00799130441690194,-3.658366383995858e-05,-0.0,-0.008027888080741898,0.05,0.004,0.04,0.12152300260603144,0.05346917964129148,0.0004860920104241258,0.26731026632629673,0.3212655379780123,0.08,0.002,0.06,0.08277155754118176,0.0634828513315992,0.00016554311508236352,0.23802313713295256,0.3016715315796341,0.5,0,0,0.1211490012840243,0.3504370989290663,0.0,0.0,0.3504370989290663,0.7935356416449899,-16.197224346298718,-16.990759987943708,1.0693835928258295,34.4984235005592,33.42903990773337,-3.99565220845097,51.94209097709268,55.93774318554365,0.7008741978581327,0,-0.7008741978581327,0.31755137809750505,-0.3055787641939133,-0.3504370989290663,0.4919721119192581,0.03123188018798828,0.18606042861938477,GUIDED_NOGPS
0.002,8e-05,0.0,-0.6257996383500574,-0.009731383607881129,-5.006397106800459e-05,-0.0,-0.009781447578949134,0.05,0.004,0.04,0.16650980570490181,0.06495161139005888,0.0006660392228196073,0.26525199156551443,0.33086964217839293,0.08,0.002,0.06,0.11485863603542476,0.07412333606973619,0.00022971727207084952,0.23043978970713305,0.3047928430489401,0.5,0,0,0.1458104393960879,0.35606000743248256,0.0,0.0,0.35606000743248256,0.9265417008717023,-16.197224346298718,-17.12376604717042,1.2990322278011774,34.4984235005592,33.19939127275802,-4.865691803940564,51.94209097709268,56.80778278103325,0.7121200148649651,0,-0.7121200148649651,0.3270559631697296,-0.30888152137062863,-0.35606000743248256,0.4902185524210509,0.03463101387023926,0.22069907188415527,GUIDED_NOGPS
0.002,8e-05,0.0,-0.8834298569618286,-0.011660509943285064,-7.06743885569463e-05,-0.0,-0.011731184331842011,0.05,0.004,0.04,0.23380349018607444,0.07614388960670126,0.0009352139607442978,0.20262789378731438,0.27970699735475996,0.08,0.002,0.06,0.1629873879086344,0.08713353469162001,0.0003259747758172688,0.22081874441794205,0.3082782538853793,0.5,0,0,0.17979376307225473,0.38452678976001187,0.0,0.0,0.38452678976001187,1.0891691836452502,-16.197224346298718,-17.286393529943968,1.5228777921340253,34.4984235005592,32.97554570842517,-5.830254971642532,51.94209097709268,57.772345948735214,0.7690535795200237,0,-0.7690535795200237,0.2755440552899915,-0.31200474320461896,-0.38452678976001187,0.488268815668158,0.044188499450683594,0.26488351821899414,GUIDED_NOGPS
0.002,8e-05,0.0,-1.0532003983336633,-0.013529721846058365,-8.425603186669307e-05,-0.0,-0.013613977877925058,0.05,0.004,0.04,0.2775594537467624,0.0871773764898574,0.0011102378149870497,0.3517218177310985,0.44000943203594295,0.08,0.002,0.06,0.19517967425671207,0.10262149754808092,0.00039035934851342413,0.46286261087335234,0.5658744677699467,0.5,0,0,0.19950526357566425,0.3927229023724712,0.0,0.0,0.3927229023724712,1.2827687193510116,-16.197224346298718,-17.47999306564973,1.7435475297971479,34.4984235005592,32.75487597076205,-6.7648609230291825,51.94209097709268,58.706951900121865,0.7854458047449424,0,-0.7854458047449424,0.4322109755762969,-0.5718530284486558,-0.3927229023724712,0.48638602212207493,0.02509593963623047,0.28998327255249023,GUIDED_NOGPS
0.002,8e-05,0.0,-1.303943239518675,-0.015217208324945873,-0.000104315459161494,-0.0,-0.015321523784107368,0.05,0.004,0.04,0.34278729101550753,0.09896449920695645,0.0013711491640620301,0.28613714527618606,0.38647279364720455,0.08,0.002,0.06,0.2402415082771395,0.1093894146771703,0.000480483016554279,0.15402554125662724,0.26389543895035183,0.5,0,0,0.22556510214673692,0.39538316485561237,0.0,0.0,0.39538316485561237,1.3673676834646287,-16.197224346298718,-17.564592029763347,1.979289984139129,34.4984235005592,32.51913351642007,-7.608604162472936,51.94209097709268,59.55069513956562,0.7907663297112247,0,-0.7907663297112247,0.3827939554596879,-0.26920403152961886,-0.39538316485561237,0.4846784762158926,0.032955169677734375,0.3229396343231201,GUIDED_NOGPS
0.002,8e-05,0.0,-1.6492889922318215,-0.01733716033882034,-0.00013194311937854574,-0.0,-0.017469103458198885,0.05,0.004,0.04,0.433297361412461,0.11359540333288153,0.001733189445649844,0.2938021721596401,0.40913076493817147,0.08,0.002,0.06,0.30008592805814494,0.12017316477481217,0.0006001718561162899,0.20301350497411527,0.32378684160504373,0.5,0,0,0.25900378120207146,0.41967487347544463,0.0,0.0,0.41967487347544463,1.502164559685152,-16.197224346298718,-17.69938890598387,2.2719080666576303,34.4984235005592,32.22651543390157,-8.66858016941017,51.94209097709268,60.61067114650285,0.8393497469508893,0,-0.8393497469508893,0.40434374618816005,-0.32974541169512545,-0.41967487347544463,0.4825308965418011,0.03983879089355469,0.36278271675109863,GUIDED_NOGPS
0.002,8e-05,0.0,-1.9306655915045061,-0.019850454486881646,-0.00015445324732036051,-0.0,-0.020004907734202007,0.05,0.004,0.04,0.5068459592809256,0.12971699657467273,0.002027383837123702,0.4549361300540277,0.5866805104658241,0.08,0.002,0.06,0.34824314490962976,0.13589511619605246,0.0006964862898192596,0.41592995198293975,0.5525215544688115,0.5,0,0,0.28459385620591937,0.4513298373894693,0.0,0.0,0.4513298373894693,1.6986889524506559,-16.197224346298718,-17.895913298749374,2.5943399314934545,34.4984235005592,31.904083569065744,-9.925227243440823,51.94209097709268,61.867318220533505,0.9026596747789386,0,-0.9026596747789386,0.5779034284459189,-0.561695395124016,-0.4513298373894693,0.479995092265798,0.028349637985229492,0.3911263942718506,GUIDED_NOGPS
0.002,8e-05,0.0,-2.319702384589741,-0.021859692111895767,-0.00018557619076717927,-0.0,-0.022045268302662947,0.05,0.004,0.04,0.6093572960332109,0.1440009209419987,0.0024374291841328436,0.3210412941594877,0.4674796442856192,0.08,0.002,0.06,0.41260357650953833,0.14465461817175623,0.0008252071530190767,0.18457124716010653,0.33005107248488186,0.5,0,0,0.31737975933760093,0.46055396353731104,0.0,0.0,0.46055396353731104,1.8081827271469528,-16.197224346298718,-18.00540707344567,2.880018418839974,34.4984235005592,31.618405081719224,-10.929846055947884,51.94209097709268,62.87193703304057,0.9211079270746221,0,-0.9211079270746221,0.4621134423182501,-0.33752347281131007,-0.46055396353731104,0.47795473169733704,0.03559398651123047,0.4267308712005615,GUIDED_NOGPS
0.002,8e-05,0.0,-2.6598878311555794,-0.024246831659875838,-0.00021279102649244636,-0.0,-0.024459622686368285,0.05,0.004,0.04,0.7000659456107373,0.16163223460937248,0.0028002637824429493,0.5026711151237231,0.6671036135155385,0.08,0.002,0.06,0.4680617491953767,0.15811199342622076,0.0009361234983907534,0.35969209846359745,0.518740215388209,0.5,0,0,0.34464486965571256,0.485832467809032,0.0,0.0,0.485832467809032,1.9763999178277594,-16.197224346298718,-18.173624264126477,3.232644692187449,34.4984235005592,31.26577880837175,-12.123415829937919,51.94209097709268,64.0655068070306,0.971664935618064,0,-0.971664935618064,0.6582109213779054,-0.5299783252222144,-0.485832467809032,0.4755403773136317,0.028060197830200195,0.4547896385192871,GUIDED_NOGPS
0.002,8e-05,0.0,-3.23205590655701,-0.026449693850919134,-0.0002585644725245608,-0.0,-0.026708258323443694,0.05,0.004,0.04,0.8529784927396336,0.1767177439376514,0.0034119139709585344,0.27894398200264603,0.45907363991125594,0.08,0.002,0.06,0.5622179045308785,0.17410279181035093,0.001124435809061757,0.27720332967411393,0.45243055729352666,0.5,0,0,0.38866832209759744,0.5087695772485258,0.0,0.0,0.5087695772485258,2.1762848976293867,-16.197224346298718,-18.373509243928105,3.534354878753028,34.4984235005592,30.96406862180617,-13.224846925459566,51.94209097709268,65.16693790255225,1.0175391544970516,0,-1.0175391544970516,0.45096676994900586,-0.46051165939209504,-0.5087695772485258,0.4732917416765563,0.04326462745666504,0.49805712699890137,GUIDED_NOGPS
0.002,8e-05,0.0,-3.622777000578785,-0.029586355919154175,-0.00028982216004630283,-0.0,-0.029876178079200476,0.05,0.004,0.04,0.9574702595666345,0.19780929742896217,0.0038298810382665378,0.6388415860107323,0.8404807644779609,0.08,0.002,0.06,0.6258063982021341,0.19260304446381382,0.0012516127964042683,0.5253316252703308,0.719186282530549,0.5,0,0,0.41776094424514804,0.5507411083306707,0.0,0.0,0.5507411083306707,2.407538055797673,-16.197224346298718,-18.60476240209639,3.956185948579243,34.4984235005592,30.542237551979955,-14.793177959577086,51.94209097709268,66.73526893666977,1.1014822166613414,0,-1.1014822166613414,0.8265003175388191,-0.7352102077268781,-0.5507411083306707,0.47012382192079955,0.026412248611450195,0.524463415145874,GUIDED_NOGPS
0.002,8e-05,0.0,-4.123500346874189,-0.03180895015918513,-0.0003298800277499351,-0.0,-0.032138830186935065,0.05,0.004,0.04,1.0936445217073028,0.21626514668445795,0.004374578086829211,0.4689704951501579,0.689610219921445,0.08,0.002,0.06,0.7030408719723047,0.196255880210297,0.0014060817439446095,0.08701876324962504,0.28468072520386667,0.5,0,0,0.4526243159271417,0.5536826175663488,0.0,0.0,0.5536826175663488,2.4531985026287124,-16.197224346298718,-18.65042284892743,4.325302933689159,34.4984235005592,30.17312056687004,-15.904475079592565,51.94209097709268,67.84656605668525,1.1073652351326977,0,-1.1073652351326977,0.6839796955505052,-0.2979549408842575,-0.5536826175663488,0.4678611698130649,0.03148317337036133,0.5559515953063965,GUIDED_NOGPS
0.002,8e-05,0.0,-4.708212583095186,-0.03441905423253302,-0.00037665700664761494,-0.0,-0.034795711239180634,0.05,0.004,0.04,1.253603921680026,0.23540003618907052,0.005014415686720105,0.45054969524794486,0.6909641471237354,0.08,0.002,0.06,0.7932422562701754,0.21238798476757267,0.0015864845125403509,0.35610579908740486,0.5700802683675179,0.5,0,0,0.49304073947102983,0.5947776477335139,0.0,0.0,0.5947776477335139,2.6548498095946584,-16.197224346298718,-18.852074155893376,4.70800072378141,34.4984235005592,29.79042277677779,-17.209527116266507,51.94209097709268,69.15161809335919,1.1895552954670279,0,-1.1895552954670279,0.6789802732215243,-0.5843019369884346,-0.5947776477335139,0.4652042887608194,0.033976078033447266,0.5899324417114258,GUIDED_NOGPS
0.002,8e-05,0.0,-5.314910158390458,-0.037351643122839694,-0.0004251928126712367,-0.0,-0.03777683593551093,0.05,0.004,0.04,1.4202653341036933,0.2565148540509476,0.005681061336414773,0.5199777770641375,0.7821736924514999,0.08,0.002,0.06,0.8876015229177335,0.2323710393229868,0.001775203045835467,0.4613500733220342,0.6954963156908565,0.5,0,0,0.5318911492307737,0.5979612823637044,0.0,0.0,0.5979612823637044,2.904637991537335,-16.197224346298718,-19.101862337836053,5.130297081018952,34.4984235005592,29.368126419540246,-18.675821561419845,51.94209097709268,70.61791253851253,1.1959225647274088,0,-1.1959225647274088,0.7674874206531849,-0.7116697755573792,-0.5979612823637044,0.46222316406448904,0.0324857234954834,0.6224238872528076,GUIDED_NOGPS
0.002,8e-05,0.0,-6.025013519863773,-0.04015760770473547,-0.00048200108158910187,-0.0,-0.04063960878632457,0.05,0.004,0.04,1.6158459561097167,0.27651079826148645,0.006463383824438867,0.4523224797170726,0.7352966618029979,0.08,0.002,0.06,0.9998044100584886,0.2538109108954825,0.0019996088201169773,0.4546735721306753,0.7104840918462747,0.5,0,0,0.5756344482503346,0.6184403345499725,0.0,0.0,0.6184403345499725,3.172636386193531,-16.197224346298718,-19.36986073249225,5.530215965229729,34.4984235005592,28.96820753532947,-20.078803852367734,51.94209097709268,72.02089482946042,1.236880669099945,0,-1.236880669099945,0.7197888510721984,-0.7261906330278727,-0.6184403345499725,0.45936039121367545,0.03536581993103027,0.6577887535095215,GUIDED_NOGPS
0.002,8e-05,0.0,-6.727108838485057,-0.043295712821608545,-0.0005381687070788046,-0.0,-0.04383388152868735,0.05,0.004,0.04,1.8094094239889826,0.2984092079730786,0.007237637695955931,0.5401587123439765,0.845805558013011,0.08,0.002,0.06,1.1107006772299206,0.2735430822054846,0.0022214013544598413,0.45630472087942786,0.7320692044393724,0.5,0,0,0.6172170763463277,0.6410630710183497,0.0,0.0,0.6410630710183497,3.4192885275685576,-16.197224346298718,-19.616512873867276,5.968184159461572,34.4984235005592,28.530239341097626,-21.647856410804273,51.94209097709268,73.58994738789696,1.2821261420366994,0,-1.2821261420366994,0.8292134189685392,-0.7508112065337746,-0.6410630710183497,0.45616611847131266,0.03243255615234375,0.6902437210083008,GUIDED_NOGPS
0.002,8e-05,0.0,-7.537730317561575,-0.04620685646185963,-0.0006030184254049261,-0.0,-0.046809874887264555,0.05,0.004,0.04,2.0350097803583886,0.3214904722356098,0.008140039121433554,0.5262691365898803,0.8558996479469236,0.08,0.002,0.06,1.2393701531476693,0.2933754980944889,0.0024787403062953386,0.4239310291218342,0.7197852675226184,0.5,0,0,0.6629636099291277,0.6519083090717579,0.0,0.0,0.6519083090717579,3.667193726181111,-16.197224346298718,-19.86441807247983,6.429809444712195,34.4984235005592,28.068614055847004,-23.103428230929815,51.94209097709268,75.0455192080225,1.3038166181435158,0,-1.3038166181435158,0.8393001091485199,-0.7390739918854932,-0.6519083090717579,0.45319012511273543,0.035086631774902344,0.7253193855285645,GUIDED_NOGPS
0.002,8e-05,0.0,-8.439271983549192,-0.04916961166933485,-0.0006751417586839354,-0.0,-0.049844753428018786,0.05,0.004,0.04,2.287974414781328,0.3449139765222462,0.009151897659125312,0.5110022767266018,0.8650681509079734,0.08,0.002,0.06,1.3830937018371787,0.3135442916688879,0.0027661874036743576,0.41249830095448325,0.7288087800270455,0.5,0,0,0.7107092785416396,0.6510059582210712,0.0,-0.0,0.6510059582210712,3.919303645861099,-16.197224346298718,-20.116527992159817,6.898279530444924,34.4984235005592,27.600143970114274,-24.584805834667428,51.94209097709268,76.52689681176011,1.3020119164421424,0,-1.3020119164421424,0.848284487625781,-0.7482770687474771,-0.6510059582210712,0.4501552465719812,0.036670684814453125,0.7619788646697998,GUIDED_NOGPS
0.002,8e-05,0.0,-9.179056422240368,-0.05186032157542685,-0.0007343245137792295,-0.0,-0.05259464608920608,0.05,0.004,0.04,2.4974933001612274,0.36719198876196196,0.00998997320064491,0.6246927177094923,1.0018746796720992,0.08,0.002,0.06,1.4988288985274927,0.32453045530797026,0.0029976577970549853,0.28880675373376263,0.6163348668387878,0.5,0,0,0.7460567885655852,0.6194822237595392,0.0,-0.0,0.6194822237595392,4.056630691349628,-16.197224346298718,-20.253855037648346,7.343839775239239,34.4984235005592,27.15458372531996,-25.930160787713426,51.94209097709268,77.87225176480611,1.2389644475190784,0,-1.2389644475190784,0.988313859596877,-0.6378536327230426,-0.6194822237595392,0.44740535391079395,0.028529882431030273,0.7905173301696777,GUIDED_NOGPS
0.002,8e-05,0.0,-10.158203516538709,-0.05423719722931729,-0.0008126562813230968,-0.0,-0.05504985351064039,0.05,0.004,0.04,2.7773797697752327,0.3875887939275952,0.01110951907910093,0.4519302773028849,0.8506285903095809,0.08,0.002,0.06,1.6486034356405759,0.33185416804625106,0.003297206871281152,0.15212895024277967,0.4872803251603119,0.5,0,0,0.7902622712454319,0.6121607000330557,0.0,-0.0,0.6121607000330557,4.148177100578138,-16.197224346298718,-20.345401446876856,7.7517758785519035,34.4984235005592,26.746647622007295,-27.118598614658644,51.94209097709268,79.06068959175133,1.2243214000661113,0,-1.2243214000661113,0.8400227670708397,-0.5053443031667162,-0.6121607000330557,0.4449501464893596,0.036106109619140625,0.8266217708587646,GUIDED_NOGPS
0.002,8e-05,0.0,-11.15876175433571,-0.05715982019797077,-0.0008927009403468569,-0.0,-0.05805252113831763,0.05,0.004,0.04,3.065791231134846,0.41190873883180573,0.012263164924539384,0.5557392365325827,0.9799111402889278,0.08,0.002,0.06,1.7987482069975997,0.3430983948852011,0.0035974964139951996,0.24088477315724488,0.5875806644564412,0.5,0,0,0.8326624440759146,0.6055585181851717,0.0,-0.0,0.6055585181851717,4.288729936065014,-16.197224346298718,-20.485954282363732,8.238174776636114,34.4984235005592,26.260248723923084,-28.579910098985387,51.94209097709268,80.52200107607807,1.2111170363703434,0,-1.2111170363703434,0.9672728859595574,-0.6081611991839735,-0.6055585181851717,0.4419474788616824,0.035009145736694336,0.8616366386413574,GUIDED_NOGPS
0.002,8e-05,0.0,-12.066195717830004,-0.060204272494344555,-0.0009652956574264003,-0.0,-0.06116956815177096,0.05,0.004,0.04,3.3298528783794663,0.4379833686410338,0.013319411513517865,0.6919750335017294,1.1432778136562811,0.08,0.002,0.06,1.9313656449993375,0.3519434667934894,0.003862731289998675,0.22006193046327735,0.5758681285467655,0.5,0,0,0.867873264927168,0.5840209697230874,0.0,-0.0,0.5840209697230874,4.399293334918617,-16.197224346298718,-20.596517681217335,8.759667372820676,34.4984235005592,25.738756127738522,-30.102136247172275,51.94209097709268,82.04422722426496,1.1680419394461747,0,-1.1680419394461747,1.1313013140848525,-0.5990539186288042,-0.5840209697230874,0.43883043184822906,0.03014516830444336,0.8917853832244873,GUIDED_NOGPS
0.002,8e-05,0.0,-13.11160754713766,-0.06259940063262796,-0.001048928603771013,-0.0,-0.06364832923639897,0.05,0.004,0.04,3.6364075828891558,0.4589134211377719,0.014545630331556623,0.5013177409224264,0.974776792391755,0.08,0.002,0.06,2.0840613659850726,0.36573761057226223,0.004168122731970146,0.3097481927397492,0.6796539260439816,0.5,0,0,0.9061585024002679,0.5731312894366939,0.0,-0.0,0.5731312894366939,4.571720132153278,-16.197224346298718,-20.768944478451996,9.178268422755437,34.4984235005592,25.32015507780376,-31.29970031631398,51.94209097709268,83.24179129340666,1.1462625788733878,0,-1.1462625788733878,0.9609854378966827,-0.6990180557918927,-0.5731312894366939,0.43635167076360104,0.03340005874633789,0.9252109527587891,GUIDED_NOGPS
0.002,8e-05,0.0,-14.190454053566663,-0.06514274098874491,-0.0011352363242853331,-0.0,-0.06627797731303024,0.05,0.004,0.04,3.955813341319236,0.4821577135332186,0.015823253365276943,0.5614132909398779,1.0593942578383735,0.08,0.002,0.06,2.238176597154078,0.37223047121666725,0.004476353194308156,0.14701908591050586,0.5237259103214813,0.5,0,0,0.9423602350626042,0.5464818396576887,0.0,-0.0,0.5464818396576887,4.6528808902083405,-16.197224346298718,-20.85010523650706,9.643154270664372,34.4984235005592,24.855269229894827,-32.57137049437245,51.94209097709268,84.51346147146513,1.0929636793153774,0,-1.0929636793153774,1.0492116213520952,-0.5438382078363839,-0.5464818396576887,0.43372202268696974,0.03312253952026367,0.9583051204681396,GUIDED_NOGPS
0.002,8e-05,0.0,-15.387042856129254,-0.06763274872409777,-0.0012309634284903405,-0.0,-0.06886371215258812,0.05,0.004,0.04,4.313377904887498,0.5052503046297935,0.017253511619549994,0.5220892616338142,1.0445930778831576,0.08,0.002,0.06,2.4060704873766667,0.379583204035261,0.004812140974753334,0.1558447428088089,0.5402400878188233,0.5,0,0,0.9790387338897543,0.5182790632507178,0.0,-0.0,0.5182790632507178,4.744790050440763,-16.197224346298718,-20.94201439673948,10.105006092595868,34.4984235005592,24.39341740796333,-33.81637436204888,51.94209097709268,85.75846533914157,1.0365581265014356,0,-1.0365581265014356,1.0346489958839695,-0.5590487511516254,-0.5182790632507178,0.43113628784741187,0.0353848934173584,0.993701696395874,GUIDED_NOGPS
0.002,8e-05,0.0,-16.777214763018023,-0.07016273091248551,-0.001342177181041442,-0.0,-0.07150490809352696,0.05,0.004,0.04,4.7333347774747505,0.5298862842102076,0.018933339109899004,0.49735650605529985,1.0461761293754064,0.08,0.002,0.06,2.595105472822447,0.3816279339599439,0.005190210945644895,0.03869948604467088,0.42551763095025963,0.5,0,0,1.019357876118726,0.508732249733904,0.0,-0.0,0.508732249733904,4.770349174499298,-16.197224346298718,-20.967573520798016,10.59772568420415,34.4984235005592,23.90069781635505,-35.08136545624276,51.94209097709268,87.02345643333544,1.017464499467808,0,-1.017464499467808,1.0384551878723134,-0.44402766885128525,-0.508732249733904,0.42849509190647306,0.0396270751953125,1.0333530902862549,GUIDED_NOGPS
0.002,8e-05,0.0,-18.144994194134707,-0.07312928531521236,-0.0014515995355307767,-0.0,-0.07458088485074313,0.05,0.004,0.04,5.150007099680811,0.5569419388892609,0.020600028398723245,0.5786198111778927,1.1561617784658769,0.08,0.002,0.06,2.779711342023265,0.39480328399521597,0.00555942268404653,0.264160994255827,0.6645237009350895,0.5,0,0,1.0536232080417578,0.45800499291286534,0.0,-0.0,0.45800499291286534,4.9350410499401995,-16.197224346298718,-21.132265396238918,11.138838777785217,34.4984235005592,23.35958472277398,-36.56464265760618,51.94209097709268,88.50673363469886,0.9160099858257307,0,-0.9160099858257307,1.1453904789205196,-0.6829219998565506,-0.45800499291286534,0.4254191151492569,0.03740715980529785,1.0707335472106934,GUIDED_NOGPS
0.002,8e-05,0.0,-19.011659496401265,-0.07484008449399507,-0.0015209327597121014,-0.0,-0.07636101725370717,0.05,0.004,0.04,5.4157716512805205,0.5737463310580745,0.021663086605122082,0.5804511275553209,1.1758605452185176,0.08,0.002,0.06,2.8960778216741843,0.4019488098377795,0.005792155643348369,0.2313919902583402,0.639132955739468,0.5,0,0,1.072643451833913,0.41061891158516234,0.0,-0.0,0.41061891158516234,5.024360122972244,-16.197224346298718,-21.22158446927096,11.47492662116149,34.4984235005592,23.023496879397708,-37.42004224699753,51.94209097709268,89.36213322409021,0.8212378231703247,0,-0.8212378231703247,1.1665791875212843,-0.6559206934958206,-0.41061891158516234,0.42363898274629286,0.023160457611083984,1.0939013957977295,GUIDED_NOGPS
0.002,8e-05,0.0,-20.276663375310736,-0.07608260733931554,-0.001622133070024859,-0.0,-0.0777047404093404,0.05,0.004,0.04,5.80693291819315,0.5881517356001821,0.0232277316727726,0.3465604353042759,0.9579399025772306,0.08,0.002,0.06,3.0659010440935033,0.4085550649714941,0.006131802088187007,0.14899789746742903,0.5636847645271101,0.5,0,0,1.097879873505912,0.3794559037983608,0.0,-0.0,0.3794559037983608,5.106938312143676,-16.197224346298718,-21.304162658442394,11.763034712003641,34.4984235005592,22.735388788555557,-38.04130366965777,51.94209097709268,89.98339464675045,0.7589118075967216,0,-0.7589118075967216,0.9503897978855591,-0.5763233491580086,-0.3794559037983608,0.4222952595906596,0.03325343132019043,1.1271567344665527,GUIDED_NOGPS
0.002,8e-05,0.0,-21.671537839994055,-0.07804865990820584,-0.0017337230271995245,-0.0,-0.07978238293540536,0.05,0.004,0.04,6.242587961777793,0.6094149185990005,0.02497035184711117,0.47590316704736596,1.1102884374934776,0.08,0.002,0.06,3.2502986116830104,0.41271048843700103,0.006500597223366021,0.08719204874134354,0.5064031344017106,0.5,0,0,1.1211457595270606,0.3254542382672332,0.0,-0.0,0.3254542382672332,5.1588811054625126,-16.197224346298718,-21.35610545176123,12.18829837198001,34.4984235005592,22.310125128579188,-39.02432995410292,51.94209097709268,90.9664209311956,0.6509084765344664,0,-0.6509084765344664,1.1044639238094798,-0.5189836124262045,-0.3254542382672332,0.42021761706459465,0.03574371337890625,1.1628987789154053,GUIDED_NOGPS
0.002,8e-05,0.0,-23.089633693914116,-0.080111590769546,-0.0018471706955131295,-0.0,-0.08195876146505914,0.05,0.004,0.04,6.6900562003474064,0.6319634937152703,0.026760224801389627,0.5095289481758253,1.168252666692485,0.08,0.002,0.06,3.4349883783227315,0.41734247973334393,0.006869976756645463,0.0981270562974333,0.5223395127874227,0.5,0,0,1.14017361828326,0.2687321928351277,0.0,-0.0,0.2687321928351277,5.216780996666799,-16.197224346298718,-21.414005342965517,12.639269874305405,34.4984235005592,21.859153626253793,-40.055795384773,51.94209097709268,91.99788636186568,0.5374643856702555,0,-0.5374643856702555,1.163301521302756,-0.5332751919860871,-0.2687321928351277,0.41804123853494085,0.03540301322937012,1.1983113288879395,GUIDED_NOGPS
0.002,8e-05,0.0,-24.35274892179632,-0.08207673750956254,-0.0019482199137437056,-0.0,-0.08402495742330625,0.05,0.004,0.04,7.093224482662024,0.6549429646097984,0.028372897930648098,0.5972788417351607,1.2805947042756072,0.08,0.002,0.06,3.59194526263249,0.40795989817683365,0.00718389052526498,-0.22862869116469878,0.18651509753739984,0.5,0,0,1.1537415108598283,0.22040909906376083,0.0,-0.0,0.22040909906376083,5.09949872721042,-16.197224346298718,-21.29672307350914,13.098859292195968,34.4984235005592,21.39956420836323,-41.03836875478127,51.94209097709268,92.98045973187395,0.44081819812752165,0,-0.44081819812752165,1.2791218205930857,-0.19636202868870908,-0.22040909906376083,0.41597504257669377,0.030778884887695312,1.229100227355957,GUIDED_NOGPS
0.002,8e-05,0.0,-25.691177685226307,-0.08359868530367087,-0.0020552942148181048,-0.0,-0.08565397951848898,0.05,0.004,0.04,7.5246145682572,0.6736190411130756,0.030098458273028803,0.4666054660402292,1.1703229654263336,0.08,0.002,0.06,3.7519375752139115,0.3997268246454695,0.007503875150427823,-0.1928401445512837,0.21439055524461362,0.5,0,0,1.1655504684376006,0.18439780944684772,0.0,-0.0,0.18439780944684772,4.996585308068369,-16.197224346298718,-21.193809654367087,13.47238082226151,34.4984235005592,21.02604267829769,-41.79934265183544,51.94209097709268,93.74143362892812,0.36879561889369544,0,-0.36879561889369544,1.168918763948601,-0.22191907730354388,-0.18439780944684772,0.41434602048151103,0.03202033042907715,1.261216163635254,GUIDED_NOGPS
0.002,8e-05,0.0,-27.15802396567063,-0.08488585196234401,-0.0021726419172536505,-0.0,-0.08705849387959766,0.05,0.004,0.04,8.003279262028045,0.6925037217043077,0.03201311704811218,0.43713979369069406,1.161656632443114,0.08,0.002,0.06,3.9207288362705834,0.39071551503689733,0.007841457672541166,-0.19555543335164557,0.20300153935779294,0.5,0,0,1.1764799633710847,0.15812145780297773,0.0,-0.0,0.15812145780297773,4.883943937961217,-16.197224346298718,-21.081168284259935,13.850074434086153,34.4984235005592,20.648349066473045,-42.442925981172,51.94209097709268,94.38501695826469,0.31624291560595547,0,-0.31624291560595547,1.1605184804800417,-0.20941015530533502,-0.15812145780297773,0.41294150612040237,0.034560441970825195,1.295663595199585,GUIDED_NOGPS
0.002,8e-05,0.0,-28.597698197807503,-0.08625036802406227,-0.0022878158558246003,-0.0,-0.08853818387988688,0.05,0.004,0.04,8.478752158157958,0.7121352761833157,0.03391500863263183,0.47044776127878624,1.2164980460947339,0.08,0.002,0.06,4.079639401918035,0.3808110047135037,0.00815927880383607,-0.22251587583711346,0.1664544076802263,0.5,0,0,1.1848483428692982,0.12533665522626933,0.0,-0.0,0.12533665522626933,4.760137558918796,-16.197224346298718,-20.957361905217514,14.242705523666313,34.4984235005592,20.255717976892885,-43.125184012031134,51.94209097709268,95.06727498912382,0.25067331045253866,0,-0.25067331045253866,1.2157581553195311,-0.17177506734835282,-0.12533665522626933,0.4114618161201131,0.03338360786437988,1.3290536403656006,GUIDED_NOGPS
0.002,8e-05,0.0,-30.20282030065347,-0.08735169784688684,-0.002416225624052278,-0.0,-0.08976792347093912,0.05,0.004,0.04,9.01517590321994,0.7298124674357931,0.03606070361287977,0.3848012973792358,1.1506744684279087,0.08,0.002,0.06,4.253704473460764,0.3789089816441532,0.008507408946921528,-0.038815959271212515,0.34860043131986224,0.5,0,0,1.1921801009294337,0.09974965668030826,0.0,-0.0,0.09974965668030826,4.736362270551915,-16.197224346298718,-20.933586616850633,14.596249348715862,34.4984235005592,19.902174151843337,-43.67584892344342,51.94209097709268,95.6179399005361,0.19949931336061652,0,-0.19949931336061652,1.1494536968638256,-0.35260486635088967,-0.09974965668030826,0.4102320765290609,0.03675079345703125,1.3658065795898438,GUIDED_NOGPS
0.002,8e-05,0.0,-31.535778931898207,-0.0884786585987058,-0.0025228623145518566,-0.0,-0.09100152091325765,0.05,0.004,0.04,9.467517085309952,0.7506335921112477,0.03787006834123981,0.5528229124651349,1.3413265729176225,0.08,0.002,0.06,4.392842498507376,0.36942619306051117,0.008785684997014752,-0.23604195039954365,0.14216992765798228,0.5,0,0,1.1964519557307591,0.07088891839740936,0.0,-0.0,0.07088891839740936,4.617827413256389,-16.197224346298718,-20.815051759555107,15.012671842224954,34.4984235005592,19.485751658334244,-44.239329299352896,51.94209097709268,96.18142027644558,0.14177783679481873,0,-0.14177783679481873,1.340970668667064,-0.1454885882803777,-0.07088891839740936,0.40899847908674236,0.030130624771118164,1.3959455490112305,GUIDED_NOGPS
0.002,8e-05,0.0,-33.023757739076686,-0.08914300454730907,-0.002641900619126135,-0.0,-0.0917849051664352,0.05,0.004,0.04,9.978870219834516,0.7658636429547001,0.039915480879338064,0.36496554521983077,1.170744669053869,0.08,0.002,0.06,4.544398448699314,0.36318132199073005,0.009088796897398629,-0.14029599266263618,0.2319741262254925,0.5,0,0,1.1994013755529054,0.04417404054229276,0.0,-0.0,0.04417404054229276,4.539766524884126,-16.197224346298718,-20.736990871182844,15.317272859094,34.4984235005592,19.181150641465198,-44.57150227365454,51.94209097709268,96.51359325074722,0.08834808108458551,0,-0.08834808108458551,1.1703855814210027,-0.2337790969226191,-0.04417404054229276,0.4082150948335648,0.033384084701538086,1.4293248653411865,GUIDED_NOGPS
0.002,8e-05,0.0,-34.50071497653214,-0.0899780334779273,-0.002760057198122571,-0.0,-0.09273809067604986,0.05,0.004,0.04,10.492367229515446,0.7820715785835338,0.04196946891806179,0.3949628703216363,1.219003917823232,0.08,0.002,0.06,4.688127485477783,0.3502459178922146,0.009376254970955566,-0.2955152136882321,0.06410695917493808,0.5,0,0,1.1989527392575745,-0.006832867360167541,0.0,-0.0,-0.006832867360167541,4.378073973652683,-16.197224346298718,-20.5752983199514,15.641431571670676,34.4984235005592,18.856991928888522,-44.98901673896365,51.94209097709268,96.93110771605633,-0.013665734720335082,0,0.013665734720335082,1.2190191734329867,-0.06381621021185348,0.006832867360167541,0.4072619093239501,0.03282928466796875,1.4621615409851074,GUIDED_NOGPS
0.002,8e-05,0.0,-36.06494224306397,-0.09070522083633718,-0.002885195379445118,-0.0,-0.0935904162157823,0.05,0.004,0.04,11.043374230770013,0.7987843710520425,0.04417349692308005,0.3876514785499303,1.230609346525053,0.08,0.002,0.06,4.830484152270087,0.33019480417446345,0.009660968304540175,-0.43601577357799776,-0.09616000109899414,0.5,0,0,1.1968898138306814,-0.02990583760090637,0.0,-0.0,-0.02990583760090637,4.127435052180793,-16.197224346298718,-20.32465939847951,15.975687421040849,34.4984235005592,18.52273607951835,-45.35261041816859,51.94209097709268,97.29470139526127,-0.05981167520181274,0,0.05981167520181274,1.230508293564862,0.09744459468984334,0.02990583760090637,0.4064095837842177,0.034490346908569336,1.4966509342193604,GUIDED_NOGPS
0.002,8e-05,0.0,-37.91270939671833,-0.0912946856986147,-0.0030330167517374665,-0.0,-0.09432770245035216,0.05,0.004,0.04,11.703048880179491,0.8148319670862553,0.04681219552071796,0.3171525661692414,1.1787967287762147,0.08,0.002,0.06,4.994960276020139,0.3250581869688597,0.009989920552040277,-0.09517145851120601,0.23987664900969397,0.5,0,0,1.1924289641378123,-0.05510053983991135,0.0,-0.0,-0.05510053983991135,4.063227337110746,-16.197224346298718,-20.260451683409464,16.296639341725104,34.4984235005592,18.201784158834094,-45.64734284930734,51.94209097709268,97.58943382640003,-0.1102010796798227,0,0.1102010796798227,1.1792559200498232,-0.23760894246864947,0.05510053983991135,0.40567229754964784,0.040479183197021484,1.5371391773223877,GUIDED_NOGPS
0.002,8e-05,0.0,-39.16838956358377,-0.09212195600224589,-0.003133471165086702,-0.0,-0.0952554271673326,0.05,0.004,0.04,12.157346212265841,0.8332288735368913,0.048629384849063366,0.5398696423958202,1.421727900781775,0.08,0.002,0.06,5.097921818487729,0.3021475989001289,0.010195843636975458,-0.6303062600293196,-0.3179628174922152,0.5,0,0,1.187438454717036,-0.09153116801175434,0.0,-0.0,-0.09153116801175434,3.7768449862516107,-16.197224346298718,-19.97406933255033,16.664577470737825,34.4984235005592,17.833846029821373,-46.06097800112294,51.94209097709268,98.00306897821562,-0.1830623360235087,0,0.1830623360235087,1.4207047417360579,0.3225036650607576,0.09153116801175434,0.4047445728326674,0.02726125717163086,1.564399003982544,GUIDED_NOGPS
0.002,8e-05,0.0,-40.86268083921565,-0.09214396154880707,-0.0032690144671372523,-0.0,-0.09541297601594431,0.05,0.004,0.04,12.777894564246516,0.8437124169036118,0.05111157825698606,0.22805883044356282,1.1228828256041608,0.08,0.002,0.06,5.225586022649202,0.27772050033195855,0.010451172045298406,-0.4981750327378734,-0.21000336036061645,0.5,0,0,1.1780594596859446,-0.12751906504226154,0.0,-0.0,-0.12751906504226154,3.4715062541494817,-16.197224346298718,-19.6687306004482,16.874248338072235,34.4984235005592,17.624175162486964,-46.071980774403535,51.94209097709268,98.01407175149622,-0.2550381300845231,0,0.2550381300845231,1.1219369259671785,0.21499950128047365,0.12751906504226154,0.40458702398405566,0.03677487373352051,1.6012184619903564,GUIDED_NOGPS
0.002,8e-05,0.0,-42.24596280708015,-0.09237378545975805,-0.003379677024566412,-0.0,-0.09575346248432447,0.05,0.004,0.04,13.291330261690335,0.8571643393189682,0.053165321046761346,0.3593208106762986,1.269650471042028,0.08,0.002,0.06,5.321684419449377,0.25669307907628536,0.010643368838898755,-0.5265690252333763,-0.2592325773181922,0.5,0,0,1.1687408403704422,-0.15557134435148212,0.0,-0.0,-0.15557134435148212,3.208663488453567,-16.197224346298718,-19.405887834752285,17.143286786379363,34.4984235005592,17.355136714179835,-46.18689272987903,51.94209097709268,98.12898370697171,-0.31114268870296424,0,0.31114268870296424,1.2682240037745598,0.26612351269720835,0.15557134435148212,0.4042465375156755,0.029949665069580078,1.6311464309692383,GUIDED_NOGPS
0.002,8e-05,0.0,-43.767272128607786,-0.09227925683718245,-0.0035013817702886233,0.0,-0.09578063860747107,0.05,0.004,0.04,13.86332027018218,0.8673912030085831,0.05545328108072872,0.24813556788179633,1.170980051971108,0.08,0.002,0.06,5.4176926061919355,0.2329457657958028,0.01083538521238387,-0.5401723018437953,-0.29639115083560863,0.5,0,0,1.1572136541425557,-0.17480340182643164,0.0,-0.0,-0.17480340182643164,2.911822072447535,-16.197224346298718,-19.109046418746253,17.34782406017166,34.4984235005592,17.150599440387538,-46.13962841859122,51.94209097709268,98.0817193956839,-0.3496068036528633,0,0.3496068036528633,1.1691497478865225,0.30353066307178306,0.17480340182643164,0.4042193613925289,0.032971858978271484,1.6641082763671875,GUIDED_NOGPS
0.002,8e-05,0.0,-45.32244982480784,-0.09222301913462808,-0.0036257959859846275,0.0,-0.0958488151206127,0.05,0.004,0.04,14.456077711235773,0.8787722612350027,0.05782431084494309,0.2699615749768059,1.2065581470567517,0.08,0.002,0.06,5.506442892908647,0.21051792113731865,0.011012885785817295,-0.49874450492258576,-0.27721369799944984,0.5,0,0,1.14399902602098,-0.19590894742942314,0.0,-0.0,-0.19590894742942314,2.631474014216483,-16.197224346298718,-18.8286983605152,17.575445224700054,34.4984235005592,16.922978275859144,-46.11150956731404,51.94209097709268,98.05360054440672,-0.39181789485884627,0,0.39181789485884627,1.2046342201523257,0.2854582145000392,0.19590894742942314,0.4041511848793873,0.03372645378112793,1.6978402137756348,GUIDED_NOGPS
0.002,8e-05,0.0,-46.90675596112538,-0.09216515460968787,-0.0037525404768900305,0.0,-0.0959176950865779,0.05,0.004,0.04,15.06607932111845,0.8871532369632752,0.060264317284473796,0.1950213802924896,1.1424389345402386,0.08,0.002,0.06,5.586949082168622,0.18733413221332626,0.011173898164337243,-0.5057586665947247,-0.30725063621706117,0.5,0,0,1.1300049085108446,-0.20352285053721372,0.0,-0.0,-0.20352285053721372,2.341676652666578,-16.197224346298718,-18.538900998965296,17.743064739265503,34.4984235005592,16.755358761293696,-46.08257730484393,51.94209097709268,98.02466828193661,-0.40704570107442745,0,0.40704570107442745,1.14022732614751,0.31535902922815556,0.20352285053721372,0.4040823049134221,0.03437972068786621,1.7322282791137695,GUIDED_NOGPS
0.002,8e-05,0.0,-49.31513592821007,-0.09203576778912477,-0.003945210874256806,0.0,-0.09598097866338158,0.05,0.004,0.04,16.002897357465212,0.8950079351291426,0.06401158942986085,0.12006629955862157,1.0790858241176249,0.08,0.002,0.06,5.693245078040373,0.16248322485107736,0.011386490156080746,-0.3561272054139752,-0.18225749040681707,0.5,0,0,1.1093835239340992,-0.19701054114531616,0.0,0.0,-0.19701054114531616,2.031040310638467,-16.197224346298718,-18.228264656937185,17.90015870258285,34.4984235005592,16.59826479797635,-46.01788389456238,51.94209097709268,97.95997487165506,-0.3940210822906323,0,0.3940210822906323,1.0778069392626017,0.18967395788137897,0.19701054114531616,0.40401902133661843,0.05233573913574219,1.7845549583435059,GUIDED_NOGPS
0.002,8e-05,0.0,-49.97078096939098,-0.09180046130342057,-0.003997662477551279,0.0,-0.09579812378097184,0.05,0.004,0.04,16.260188464710044,0.9006185073786761,0.06504075385884017,0.3142268076980563,1.2798860689355727,0.08,0.002,0.06,5.718545132082166,0.14169597792456698,0.011437090264164333,-1.0914512067638802,-0.9383181385751489,0.5,0,0,1.103246366129104,-0.2148242883739662,0.0,-0.0,-0.2148242883739662,1.7711997240570874,-16.197224346298718,-17.968424070355805,18.01237014757352,34.4984235005592,16.486053352985678,-45.90023065171028,51.94209097709268,97.84232162880296,-0.4296485767479324,0,0.4296485767479324,1.2728139064990613,0.9478892541099326,0.2148242883739662,0.40420187621902814,0.014284133911132812,1.7988359928131104,GUIDED_NOGPS
0.002,8e-05,0.0,-51.50734033226208,-0.09107001210905728,-0.004120587226580967,0.0,-0.09519059933563825,0.05,0.004,0.04,16.867250008205186,0.8994950578047312,0.06746900003282075,-0.026634198137820787,0.9403298596997312,0.08,0.002,0.06,5.769398829897943,0.12056148269389383,0.011538797659795886,-0.4697309740558522,-0.3376306937021625,0.5,0,0,1.0884017692084162,-0.21995531933030313,0.0,-0.0,-0.21995531933030313,1.5070185336736728,-16.197224346298718,-17.70424287997239,17.98990115609462,34.4984235005592,16.508522344464577,-45.535006054528644,51.94209097709268,97.47709703162133,-0.43991063866060626,0,0.43991063866060626,0.9377098780824419,0.34484041949767374,0.21995531933030313,0.4048094006643618,0.03374457359313965,1.832594871520996,GUIDED_NOGPS
0.002,8e-05,0.0,-53.03290529462409,-0.09037815822108841,-0.004242632423569928,0.0,-0.09462079064465834,0.05,0.004,0.04,17.47911038373295,0.9062022134908738,0.0699164415349318,0.15893925011941365,1.1350579051452192,0.08,0.002,0.06,5.8130142041684385,0.10335521053361589,0.011626028408336877,-0.3822529422040338,-0.267271703262081,0.5,0,0,1.072808001047992,-0.2309531355327778,0.0,-0.0,-0.2309531355327778,1.2919401316701986,-16.197224346298718,-17.489164477968917,18.124044269817475,34.4984235005592,16.374379230741724,-45.189079110544206,51.94209097709268,97.13117008763689,-0.4619062710655556,0,0.4619062710655556,1.1328663565470287,0.27641351197278224,0.2309531355327778,0.40537920935534166,0.03375959396362305,1.8663477897644043,GUIDED_NOGPS
0.002,8e-05,0.0,-54.536606979837146,-0.08962918951356601,-0.004362928558386972,0.0,-0.09399211807195298,0.05,0.004,0.04,18.092835154643904,0.9145373437776283,0.07237134061857561,0.19872850564397174,1.1856371900401756,0.08,0.002,0.06,5.846625556978728,0.08013712667786052,0.011693251113957456,-0.518973791106673,-0.427143413314855,0.5,0,0,1.0567303234274332,-0.2395803018247772,0.0,-0.0,-0.2395803018247772,1.0017140834732565,-16.197224346298718,-17.198938429771975,18.290746875552564,34.4984235005592,16.207676625006634,-44.814594756783,51.94209097709268,96.75668573387568,-0.4791606036495544,0,0.4791606036495544,1.1820236004749498,0.4370437619562425,0.2395803018247772,0.40600788192804704,0.0335538387298584,1.8999056816101074,GUIDED_NOGPS
0.002,8e-05,0.0,-56.01972005197984,-0.08878682734616074,-0.004481577604158388,0.0,-0.09326840495031913,0.05,0.004,0.04,18.7079362893256,0.920578465512922,0.0748317451573024,0.14466113004148912,1.1400713407117136,0.08,0.002,0.06,5.872367147203389,0.06164099473792902,0.011744734294406778,-0.41522783325699797,-0.34184210422466216,0.5,0,0,1.0415434606685676,-0.22729105875811187,0.0,0.0,-0.22729105875811187,0.7705124342241128,-16.197224346298718,-16.96773678052283,18.41156931025844,34.4984235005592,16.08685419030076,-44.39341367308037,51.94209097709268,96.33550465017305,-0.45458211751622374,0,0.45458211751622374,1.1373233271958825,0.3508765246479683,0.22729105875811187,0.40673159504968087,0.033408403396606445,1.9333324432373047,GUIDED_NOGPS
0.002,8e-05,0.0,-57.51033762810114,-0.08791230375077702,-0.0046008270102480915,0.0,-0.09251313076102512,0.05,0.004,0.04,19.335777746371466,0.9257067299375378,0.07734311098548587,0.12098006813638545,1.1240299090594092,0.08,0.002,0.06,5.890092228983329,0.041814957730478566,0.011780184457966658,-0.4384808221842239,-0.38488567999577866,0.5,0,0,1.0273476343254844,-0.2093071719833361,0.0,0.0,-0.2093071719833361,0.5226869716309821,-16.197224346298718,-16.7199113179297,18.514134598750754,34.4984235005592,15.984288901808444,-43.95615187538851,51.94209097709268,95.89824285248119,-0.4186143439666722,0,0.4186143439666722,1.1211878823346288,0.3930877200217613,0.2093071719833361,0.40748686923897487,0.03391146659851074,1.967237949371338,GUIDED_NOGPS
0.002,8e-05,0.0,-59.00130479784767,-0.08699529191386919,-0.004720104383827814,0.0,-0.09171539629769701,0.05,0.004,0.04,19.975809054866364,0.9336173130826686,0.07990323621946546,0.18462740263733068,1.1981479519394647,0.08,0.002,0.06,5.8956676592989155,0.013012659103212343,0.01179133531859783,-0.6302111544721559,-0.6054071600503458,0.5,0,0,1.0134575282516334,-0.2026157679941901,0.0,0.0,-0.2026157679941901,0.16265823879015429,-16.197224346298718,-16.359882585088872,18.67234626165337,34.4984235005592,15.826077238905828,-43.4976459569346,51.94209097709268,95.43973693402728,-0.4052315359883802,0,0.4052315359883802,1.1938362033383243,0.6138659982241188,0.2026157679941901,0.408284603702303,0.03427696228027344,2.001549243927002,GUIDED_NOGPS
0.002,8e-05,0.0,-60.40459717494125,-0.08589888909761446,-0.004832367773995301,0.0,-0.09073125687160977,0.05,0.004,0.04,22.22527391739282,3.442378365144066,0.08890109566957127,61.426910286441725,64.95818974725536,0.08,0.002,0.06,5.886635671858113,-0.022114783780566968,0.011773271343716227,-0.806338107923215,-0.8166796203600658,0.5,0,0,0.9999678900935518,-0.20643326918584295,0.0,-0.0,-0.20643326918584295,-0.2764347972570871,-16.197224346298718,-15.920789549041631,68.84756730288132,84.4984235005592,15.650856197677884,-42.94944454880723,51.94209097709268,94.89153552589991,-0.4128665383716859,0,0.4128665383716859,3.99401130622799,0.8454816899462965,0.20643326918584295,0.40926874312839023,0.03267312049865723,2.0342445373535156,GUIDED_NOGPS
0.002,8e-05,0.0,-61.877976500190236,-0.08482852962449287,-0.004950238120015219,0.0,-0.08977876774450809,0.05,0.004,0.04,24.62075721434569,3.447946539262813,0.09848302885738276,0.12823310741289176,3.6746626755330873,0.08,0.002,0.06,5.863971418375493,-0.05219498509367455,0.011727942836750986,-0.6494405084129778,-0.6899075506699014,0.5,0,0,0.9854767089399212,-0.20857927906259147,0.0,-0.0,-0.20857927906259147,-0.6524373136709318,-16.197224346298718,-15.544787032627786,68.95893078525626,84.4984235005592,15.539492715302941,-42.41426481224644,51.94209097709268,94.35635578933912,-0.41715855812518293,0,0.41715855812518293,3.6695422513448936,0.716643476926971,0.20857927906259147,0.4102212322554919,0.03473782539367676,2.068925380706787,GUIDED_NOGPS
0.002,8e-05,0.0,-63.361316853893726,-0.08347697088976926,-0.005068905348311499,0.0,-0.08854587623808076,0.05,0.004,0.04,27.07525394536082,3.4532525130261025,0.10830101578144329,0.11944032029442578,3.6809938491019714,0.08,0.002,0.06,5.833633600414583,-0.06829205827129357,0.011667267200829166,-0.33970665575090153,-0.39633144682136595,0.5,0,0,0.9712307078533275,-0.20042821174386397,0.0,0.0,-0.20042821174386397,-0.8536507283911696,-16.197224346298718,-15.343573617907548,69.06505026052204,84.4984235005592,15.433373240037156,-41.738485444884624,51.94209097709268,93.6805764219773,-0.40085642348772793,0,0.40085642348772793,3.6781309443706967,0.4220747432964825,0.20042821174386397,0.41145412376191925,0.03553891181945801,2.1044623851776123,GUIDED_NOGPS
0.002,8e-05,0.0,-64.64144714842523,-0.0822836592168123,-0.005171315771874019,0.0,-0.08745497498868632,0.05,0.004,0.04,29.228293588329606,3.4598036820768976,0.11691317435331842,0.16843727984569148,3.7451541362759073,0.08,0.002,0.06,5.797114640438697,-0.09389399408621657,0.011594229280877395,-0.6171112925628407,-0.6994110573681799,0.5,0,0,0.9612686717185879,-0.16008385824438376,0.0,0.0,-0.16008385824438376,-1.173674926077707,-16.197224346298718,-15.023549420221011,69.19607364153795,84.4984235005592,15.302349859021252,-41.14182960840615,51.94209097709268,93.08392058549883,-0.3201677164887675,0,0.3201677164887675,3.7411873889894234,0.7203278781915302,0.16008385824438376,0.4125450250113137,0.031115055084228516,2.1355838775634766,GUIDED_NOGPS
0.002,8e-05,0.0,-66.0571104509665,-0.0810948210859413,-0.005284568836077321,0.0,-0.08637938992201862,0.05,0.004,0.04,31.648346230594772,3.465755870247458,0.1265933849223791,0.1363859990987768,3.7287352542686136,0.08,0.002,0.06,5.745633272483604,-0.11796229558492898,0.011491266544967208,-0.5170229920782139,-0.6234940211181756,0.5,0,0,0.9529791536912572,-0.1187141356472834,0.0,0.0,-0.1187141356472834,-1.474528694811612,-16.197224346298718,-14.722695651487106,69.31511740494915,84.4984235005592,15.183306095610051,-40.547410542970646,51.94209097709268,92.48950152006333,-0.2374282712945668,0,0.2374282712945668,3.726119546846584,0.6389401485300028,0.1187141356472834,0.4136206100779814,0.03491377830505371,2.1706106662750244,GUIDED_NOGPS
0.002,8e-05,0.0,-67.40206968571216,-0.079851765478773,-0.005392165574856974,0.0,-0.08524393105362997,0.05,0.004,0.04,33.98666094739866,3.4707103672383273,0.13594664378959465,0.11766165741224446,3.7243186684401666,0.08,0.002,0.06,5.689914608685198,-0.13232322763335816,0.011379829217370397,-0.3197343500353247,-0.44067774845131247,0.5,0,0,0.9470042195374504,-0.08868466576444428,0.0,0.0,-0.08868466576444428,-1.654040345416977,-16.197224346298718,-14.543184000881741,69.41420734476654,84.4984235005592,15.084216155792655,-39.9258827393865,51.94209097709268,91.86797371647918,-0.17736933152888856,0,0.17736933152888856,3.7229366283614445,0.4522049129286155,0.08868466576444428,0.41475606894637,0.03368639945983887,2.2042269706726074,GUIDED_NOGPS
0.002,8e-05,0.0,-68.70295607378276,-0.07857650157374473,-0.005496236485902621,0.0,-0.08407273805964735,0.05,0.004,0.04,36.28728787696261,3.474077698276115,0.14514915150785043,0.08135778651123736,3.7005846362952024,0.08,0.002,0.06,5.627829551332254,-0.15000315635664577,0.011255659102664508,-0.40046549026742784,-0.5392129875214091,0.5,0,0,0.9436845480752095,-0.05012892983374957,0.0,0.0,-0.05012892983374957,-1.8750394544580722,-16.197224346298718,-14.322184891840646,69.4815539655223,84.4984235005592,15.01686953503691,-39.28825078687236,51.94209097709268,91.23034176396504,-0.10025785966749914,0,0.10025785966749914,3.6996354404320613,0.5456875518049942,0.05012892983374957,0.4159272619403527,0.0331113338470459,2.2372946739196777,GUIDED_NOGPS
0.002,8e-05,0.0,-69.94030192021087,-0.07724647812840384,-0.00559522415361687,0.0,-0.0828417022820207,0.05,0.004,0.04,38.515921792121425,3.4782943160252557,0.1540636871684857,0.10529598387552619,3.7376539870692675,0.08,0.002,0.06,5.56247491662084,-0.1632014323367548,0.011124949833241679,-0.3089840463076313,-0.46106052881114445,0.5,0,0,0.9426717343393198,-0.015807281028865052,0.0,0.0,-0.015807281028865052,-2.040017904209435,-16.197224346298718,-14.157206442089283,69.56588632050511,84.4984235005592,14.932537180054076,-38.62323906420192,51.94209097709268,90.5653300412946,-0.031614562057730104,0,0.031614562057730104,3.737399014952214,0.4631228145067174,0.015807281028865052,0.4171582977179793,0.03203630447387695,2.269353151321411,GUIDED_NOGPS
0.002,8e-05,0.0,-71.2156177345121,-0.07599988947802228,-0.005697249418760968,0.0,-0.08169713889678325,0.05,0.004,0.04,40.85291455462123,3.481709974682616,0.1634116582184849,0.08141973228686293,3.726541365187964,0.08,0.002,0.06,5.4880595518227535,-0.1773853797373333,0.010976119103645507,-0.316973967168877,-0.48338322780256476,0.5,0,0,0.9436916209177822,0.015194524049271387,0.0,0.0,0.015194524049271387,-2.217317246716666,-16.197224346298718,-13.979907099582052,69.63419949365232,84.4984235005592,14.864224006906877,-37.999944739011134,51.94209097709268,89.94203571610382,0.030389048098542773,0,-0.030389048098542773,3.7267972221353887,0.48140664355797,-0.015194524049271387,0.41830286110321674,0.033560991287231445,2.3028995990753174,GUIDED_NOGPS
0.002,8e-05,0.0,-72.65679752377197,-0.0746721287059608,-0.005812543801901758,0.0,-0.08048467250786255,0.05,0.004,0.04,43.5440057512938,3.4858507886203824,0.1741760230051752,0.08581951915024615,3.745846330775804,0.08,0.002,0.06,5.394563025228785,-0.19377414863611123,0.01078912605045757,-0.31843292635879267,-0.5014179489444464,0.5,0,0,0.9480822942055246,0.05687370224232939,0.0,0.0,0.05687370224232939,-2.4221768579513903,-16.197224346298718,-13.775047488347328,69.71701577240765,84.4984235005592,14.781407728151542,-37.336064352980394,51.94209097709268,89.27815533007308,0.11374740448465878,0,-0.11374740448465878,3.7468343967710815,0.4939804616412409,-0.05687370224232939,0.41951532749213744,0.03860020637512207,2.3417656421661377,GUIDED_NOGPS
0.002,8e-05,0.0,-73.8673613262716,-0.07315083486881695,-0.005909388906101729,0.0,-0.07906022377491867,0.05,0.004,0.04,45.85243628835756,3.487292876967867,0.18340974515343025,0.03485647476167189,3.705559096882969,0.08,0.002,0.06,5.3073735689110215,-0.2107441675765638,0.010614747137822043,-0.38454325497048014,-0.584672675409222,0.5,0,0,0.953484334524722,0.08160737966234066,0.0,0.0,0.08160737966234066,-2.6343020947070475,-16.197224346298718,-13.56292225159167,69.74585753935733,84.4984235005592,14.752565961201864,-36.57541743440847,51.94209097709268,88.51750841150115,0.16321475932468132,0,-0.16321475932468132,3.707209578861973,0.5741145323507587,-0.08160737966234066,0.42093977622508133,0.03309774398803711,2.3746209144592285,GUIDED_NOGPS
0.002,8e-05,0.0,-75.09623703916563,-0.07170022630249408,-0.006007698963133251,0.0,-0.07770792526562732,0.05,0.004,0.04,48.24266538559003,3.486519535461642,0.19297066154236012,-0.01804861481877441,3.661441582185228,0.08,0.002,0.06,5.210024474265564,-0.22719798408202976,0.010420048948531128,-0.36000661659773703,-0.5767845517312357,0.5,0,0,0.9634296549457432,0.14506790991065951,0.0,0.0,0.14506790991065951,-2.839974801025372,-16.197224346298718,-13.357249545273346,69.73039070923284,84.4984235005592,14.768032791326357,-35.85011315124704,51.94209097709268,87.79220412833972,0.29013581982131903,0,-0.29013581982131903,3.664315362087185,0.5582363352942306,-0.14506790991065951,0.4222920747343727,0.034278154373168945,2.4088821411132812,GUIDED_NOGPS
0.002,8e-05,0.0,-76.41159811867534,-0.07027653494044186,-0.006112927849494028,0.0,-0.07638946278993589,0.05,0.004,0.04,50.85117847215361,3.4841623324223443,0.20340471388861445,-0.05037584411868561,3.637191202192273,0.08,0.002,0.06,5.0947717922567,-0.2463067901384045,0.0101895435845134,-0.3828513413760203,-0.6189685879299114,0.5,0,0,0.9757638679828471,0.1647467313287046,0.0,0.0,0.1647467313287046,-3.078834876730056,-16.197224346298718,-13.118389469568662,69.68324664844688,84.4984235005592,14.81517685211232,-35.13826747022093,51.94209097709268,87.08035844731361,0.3294934626574092,0,-0.3294934626574092,3.6406905708225414,0.5980419062847157,-0.1647467313287046,0.42361053721006414,0.03743386268615723,2.4463722705841064,GUIDED_NOGPS
0.002,8e-05,0.0,-77.41252523415532,-0.06862875645373591,-0.006193002018732427,0.0,-0.07482175847246833,0.05,0.004,0.04,52.882253206357234,3.481525555588368,0.21152901282542894,-0.07231644037338997,3.620738128040407,0.08,0.002,0.06,5.0015181431550095,-0.2557581615541737,0.010003036286310019,-0.2430131488903091,-0.48876827415817276,0.5,0,0,0.986826969732278,0.18963591450425127,0.0,0.0,0.18963591450425127,-3.1969770194271714,-16.197224346298718,-13.000247326871547,69.63051111176736,84.4984235005592,14.867912388791833,-34.31437822686795,51.94209097709268,86.25646920396063,0.37927182900850254,0,-0.37927182900850254,3.6238941995421805,0.4647901119792107,-0.18963591450425127,0.4251782415275317,0.029169321060180664,2.475484848022461,GUIDED_NOGPS
0.002,8e-05,0.0,-78.54872021409635,-0.06718946450782592,-0.006283897617127708,0.0,-0.07347336212495363,0.05,0.004,0.04,55.23276702675426,3.4749705750089945,0.22093106810701704,-0.15505283609338735,3.5408488070226243,0.08,0.002,0.06,4.891851274040415,-0.25940822975443356,0.00978370254808083,-0.08094323557648664,-0.3305677627828394,0.5,0,0,1.0007507763020556,0.20584783506578552,0.0,0.0,0.20584783506578552,-3.242602871930419,-16.197224346298718,-12.954621474368299,69.49941150017989,84.4984235005592,14.999012000379304,-33.59473225391296,51.94209097709268,85.53682323100564,0.41169567013157105,0,-0.41169567013157105,3.5431326553331624,0.3051168738312718,-0.20584783506578552,0.42652663787504635,0.03382062911987305,2.509333848953247,GUIDED_NOGPS
0.002,8e-05,0.0,-79.64352889385593,-0.0657577228722043,-0.006371482311508475,0.0,-0.07212920518371277,0.05,0.004,0.04,57.541905911514185,3.4673573032600205,0.23016762364605675,-0.18291101379640626,3.514613913109671,0.08,0.002,0.06,4.780871486928819,-0.2666320872393203,0.009561742973857638,-0.16270802401651024,-0.4197783682819729,0.5,0,0,1.017268583881742,0.24802813344518232,0.0,0.0,0.24802813344518232,-3.3329010904915037,-16.197224346298718,-12.864323255807214,69.3471460652004,84.4984235005592,15.151277435358788,-32.87886143610215,51.94209097709268,84.82095241319483,0.49605626689036464,0,-0.49605626689036464,3.5181165082397174,0.3893341381804694,-0.24802813344518232,0.4278707948162872,0.03329825401306152,2.542616605758667,GUIDED_NOGPS
0.002,8e-05,0.0,-80.79245238119111,-0.06447468111589824,-0.006463396190495289,0.0,-0.07093807730639354,0.05,0.004,0.04,60.006298117311665,3.4573864875421245,0.24002519246924667,-0.22381478695950055,3.4735968930518704,0.08,0.002,0.06,4.6585055193731755,-0.27467474812922194,0.009317011038746352,-0.16925017263413508,-0.4346079097246107,0.5,0,0,1.0365534232531,0.2705541062015226,0.0,0.0,0.2705541062015226,-3.433434351615274,-16.197224346298718,-12.763789994683444,69.14772975084249,84.4984235005592,15.350693749716713,-32.23734055794912,51.94209097709268,84.1794315350418,0.5411082124030452,0,-0.5411082124030452,3.4775464149185242,0.40178395027940217,-0.2705541062015226,0.42906192269360643,0.03563952445983887,2.578251361846924,GUIDED_NOGPS
0.002,8e-05,0.0,-81.78478733717418,-0.06309927648069469,-0.006542782986973935,0.0,-0.06964205946766862,0.05,0.004,0.04,62.174276661091746,3.446363466121016,0.24869710664436698,-0.2803668951131949,3.414693677652188,0.08,0.002,0.06,4.54578047587381,-0.28671241069073744,0.00909156095174762,-0.28703808385366675,-0.5646589335926566,0.5,0,0,1.0567138059114938,0.3204829054062638,0.0,0.0,0.3204829054062638,-3.583905133634218,-16.197224346298718,-12.6133192126645,68.92726932242032,84.4984235005592,15.571154178138878,-31.549638240347342,51.94209097709268,83.49172921744002,0.6409658108125276,0,-0.6409658108125276,3.4207966958561618,0.5264243431903464,-0.3204829054062638,0.4303579405323314,0.03145313262939453,2.6097328662872314,GUIDED_NOGPS
0.002,8e-05,0.0,-82.89154446141339,-0.061881968049390355,-0.006631323556913072,0.0,-0.06851329160630343,0.05,0.004,0.04,64.62968943581906,3.4322294283442853,0.25851875774327626,-0.3161098510062926,3.374638335081269,0.08,0.002,0.06,4.4147975153884005,-0.29294533365102854,0.0088295950307768,-0.13068773097400843,-0.4148034695942602,0.5,0,0,1.0805707449594533,0.33347748742455613,0.0,0.0,0.33347748742455613,-3.6618166706378563,-16.197224346298718,-12.535407675660862,68.6445885668857,84.4984235005592,15.853834933673495,-30.940984024695176,51.94209097709268,82.88307500178786,0.6669549748491123,0,-0.6669549748491123,3.3792381371989024,0.3754935726320854,-0.33347748742455613,0.43148670839369657,0.03576993942260742,2.6455278396606445,GUIDED_NOGPS
