D-kp,D-ki,D-kd,D-I-Tot,D-P,D-I,D-D,D-PID,E-kp,E-ki,E-kd,E-I-Tot,E-P,E-I,E-D,E-PID,N-kp,N-ki,N-kd,N-I-Tot,N-P,N-I,N-D,N-PID,Y-kp,Y-ki,Y-kd,Y-I-Tot,Y-P,Y-I,Y-D,Y-PID,errorN,desiredN,actualN,errorE,desiredE,actualE,errorD,desiredD,actualD,errorY,desiredY,actualY,roll,pitch,yaw-rate,thrust,dt,Time,Mode
0.002,8e-05,0.0,-0.0038107861836781495,-0.0004087510256970859,-3.04862894694252e-07,-0.0,-0.00040905588859178015,0.05,0.004,0.1,-0.007169001206093423,-0.0192239636060215,-2.8676004824373693e-05,-2.0619931067191017,-2.0812457463299476,0.08,0.002,0.06,0.0019147011048811474,0.008214956209042583,3.829402209762295e-06,0.3304310070141945,0.3386497926254468,0.6,0,0.4,-0.27203860130440155,-8.753788742226067,-0.0,-312.981797338463,-321.7355860806891,0.10268695261303229,-9.389632082790653,-9.492319035403685,-0.38447927212043,43.29794541167891,43.68242468379934,-0.20437551284854294,44.81128516849404,45.01566068134258,-14.589647903710112,0,14.589647903710112,-1.928831325296699,-0.8519843057333503,10.0,0.4995909441114082,0.0186460018157959,0.01889944076538086,GUIDED_NOGPS
0.002,8e-05,0.0,-0.02640648725777203,-0.002099563340264652,-2.1125189806217623e-06,-0.0,-0.002101675859245274,0.05,0.004,0.1,-0.03547956594828589,-0.06576452715495122,-0.00014191826379314357,-4.324489014178938,-4.390395459597682,0.08,0.002,0.06,0.01746289676737187,0.057788729835259574,3.492579353474374e-05,1.7273741153718176,1.785197771000612,0.6,0,0.4,-0.580784726439949,-8.606487273721648,-0.0,4.562354025143995,-4.044133248577652,0.7223591229407447,-9.354637388310223,-10.076996511250968,-1.3152905430990245,43.82947664602471,45.14476718912373,-1.049781670132326,45.11679188148077,46.1665735516131,-14.344145456202746,0,14.344145456202746,-3.4330257368053476,-2.7205266718078054,4.044133248577652,0.49789832414075474,0.02152419090270996,0.04033493995666504,GUIDED_NOGPS
0.002,8e-05,0.0,-0.03746222727196839,-0.0013716227039711271,-2.9969781817574717e-06,0.0,-0.0013746196821528846,0.05,0.004,0.1,-0.051480094336257436,-0.049627360955248535,-0.00020592037734502974,2.0020463133943003,1.9522130320617068,0.08,0.002,0.06,0.02969405755467866,0.060698018622902056,5.938811510935732e-05,0.1353520845873402,0.1961094913253516,0.6,0,0.4,-0.8124573256838983,-8.622690021734467,-0.0,-0.6700608918254373,-9.292750913559905,0.7587252327862757,-9.28396825555619,-10.042693488342465,-0.9925472191049707,44.389256432922025,45.381803652026996,-0.6858113519855635,45.436427196621615,46.12223854860718,-14.371150036224114,0,14.371150036224114,1.9397996871621506,0.29457058377420137,9.292750913559905,0.4986253803178471,0.01612067222595215,0.05645346641540527,GUIDED_NOGPS
0.002,8e-05,0.0,-0.038769395674918834,-0.0005496127172741864,-3.101551653993507e-06,0.0,-0.0005527142689281799,0.05,0.004,0.1,-0.05424256429986851,-0.029037739507427676,-0.00021697025719947404,8.657123111330844,8.627868401566216,0.08,0.002,0.06,0.03409893264989186,0.07408304438415357,6.819786529978373e-05,2.1104531260533403,2.184604368302794,0.6,0,0.4,-0.8807750338517795,-8.617469900437376,-0.0,0.7316183194453111,-7.885851580992065,0.9260380548019196,-9.179862204595223,-10.105900259397142,-0.5807547901485535,44.974639525673474,45.55539431582203,-0.27480635863709324,45.76903230290055,46.04383866153764,-14.362449834062293,0,14.362449834062293,4.41688589683173,-1.1241064097213451,7.885851580992065,0.49944728573107183,0.0047566890716552734,0.06120753288269043,GUIDED_NOGPS
0.002,8e-05,0.0,-0.03529992887132157,0.00025799128609511966,-2.823994309705726e-06,0.0,0.0002551672917854139,0.05,0.004,0.1,-0.057170966498983254,-0.005443936289936957,-0.000228683865995933,1.7544470031084867,1.7487743829525537,0.08,0.002,0.06,0.06388278557346802,0.08858968776013981,0.00012776557114693604,0.4045204702938964,0.49323792362518315,0.6,0,0.4,-1.266909404999752,-8.613943466590333,-0.0,0.08740912797555424,-8.526534338614779,1.1073710970017476,-9.04449520278292,-10.151866299784668,-0.10887872579873914,45.58306133977414,45.69194006557288,0.12899564304755984,46.113475256574176,45.98447961352662,-14.356572444317223,0,14.356572444317223,1.8164637114123965,-0.04421625148143177,8.526534338614779,0.5002551672917854,0.026895999908447266,0.0881342887878418,GUIDED_NOGPS
0.002,8e-05,0.0,-0.03277015755082507,0.0008868798034640407,-2.6216126040660055e-06,0.0,0.0008842581908599747,0.05,0.004,0.1,-0.05543105803410552,0.015249300054059134,-0.00022172423213642208,7.254574053039801,7.269601628861723,0.08,0.002,0.06,0.07097273493333708,0.09942294536909473,0.00014194546986667417,1.4242093694292255,1.523774260268187,0.6,0,0.4,-1.348765397340062,-8.609050052581022,-0.0,0.5718395729664126,-8.03721047961461,1.242786817113684,-8.879982371409469,-10.122769188523153,0.3049860010811827,46.21203698161491,45.907050980533725,0.4434399017320203,46.468650743393965,46.025210841661945,-14.348416754301704,0,14.348416754301704,4.2528449982911125,-0.48497156284274034,8.03721047961461,0.50088425819086,0.0057048797607421875,0.09383440017700195,GUIDED_NOGPS
0.002,8e-05,0.0,-0.01986513845012579,0.0015647877550270125,-1.5892110760100633e-06,0.0,0.0015631985439510023,0.05,0.004,0.1,-0.042008378699751554,0.04068890580121867,-0.0001680335147990062,3.084659019506063,3.1251798917924827,0.08,0.002,0.06,0.09393349653448224,0.1113635503185563,0.00018786699306896448,0.5429431835804089,0.6544946008920343,0.6,0,0.4,-1.5847528226245746,-8.58433987297736,-0.0,0.9987376788987178,-7.585602194078642,1.3920443789819537,-8.68837869234529,-10.080423071327244,0.8137781160243733,46.859160277185865,46.04538216116149,0.7823938775135062,46.83347984082848,46.051085963314975,-14.307233121628935,0,14.307233121628935,3.1899905898634553,0.13810349468243943,7.585602194078642,0.501563198543951,0.016494274139404297,0.11032414436340332,GUIDED_NOGPS
0.002,8e-05,0.0,-0.010041594573734592,0.0023158772096182503,-8.033275658987674e-07,0.0,0.0023150738820523517,0.05,0.004,0.1,-0.030688653714415107,0.06671495908846446,-0.00012275461485766043,6.135580440486084,6.202172644959691,0.08,0.002,0.06,0.10738714725617357,0.12686665213521692,0.00021477429451234714,1.370557329947453,1.4976387563771822,0.6,0,0.4,-1.7062819277443553,-8.595059636123713,-0.0,-0.8423862601765942,-9.437445896300307,1.5858331516902116,-8.471679714686726,-10.057512866376937,1.334299181769289,47.52210280077965,46.18780361901036,1.1579386048091251,47.2069097802856,46.048971175476474,-14.32509939353952,0,14.32509939353952,4.246180742402955,-0.46137939642910175,9.437445896300307,0.5023150738820523,0.008483648300170898,0.11887741088867188,GUIDED_NOGPS
0.002,8e-05,0.0,0.010448791286682892,0.003087196054955996,8.359033029346314e-07,0.0,0.0030880319582589303,0.05,0.004,0.1,-0.006065456153452973,0.09274671410343026,-2.4261824613811893e-05,3.9220897026165598,4.014812154895377,0.08,0.002,0.06,0.13093442674767153,0.14191058937846207,0.00026186885349534304,0.849976374738565,0.9921488329705225,0.6,0,0.4,-1.8963091398804992,-8.58916855403284,-0.0,0.29586111773349755,-8.293307436299342,1.773882367230776,-8.231822261401675,-10.00570462863245,1.854934282068605,48.19861290369486,46.34367862162625,1.543598027477998,47.58791370933474,46.044315681856745,-14.315280923388068,0,14.315280923388068,4.121115470133397,0.02768733631040321,8.293307436299342,0.5030880319582589,0.013274431228637695,0.1320796012878418,GUIDED_NOGPS
0.002,8e-05,0.0,0.04806012603374807,0.0037909181341380673,3.844810082699846e-06,0.0,0.0037947629442207672,0.05,0.004,0.1,0.03855390646998183,0.11243176561027256,0.0001542156258799273,1.9840938703871265,2.096679851623279,0.08,0.002,0.06,0.17192969514552575,0.16527965032712325,0.0003438593902910515,0.8832795770592472,1.0489030867766616,0.6,0,0.4,-2.1797001407047403,-8.569055775081045,-0.0,0.6757351116715092,-7.893320663409536,2.0659956290890404,-7.970685135975271,-10.036680765064311,2.248635312205451,48.88651474293941,46.63787943073396,1.8954590670690337,47.97549045392909,46.08003138686006,-14.281759625135077,0,14.281759625135077,2.2906349627784026,-0.4992549979217117,7.893320663409536,0.5037947629442208,0.019842863082885742,0.15194177627563477,GUIDED_NOGPS
0.002,8e-05,0.0,0.14968769583064098,0.004389400966006633,1.197501566645128e-05,0.0,0.004401375981673085,0.05,0.004,0.1,0.15744706430273328,0.1283779940043921,0.0006297882572109332,0.6887342721782833,0.8177420544398863,0.08,0.002,0.06,0.28244977210800887,0.19093910581617876,0.0005648995442160177,0.4155970136940685,0.6071010190544632,0.6,0,0.4,-2.838655272047311,-8.53828826916967,-0.0,0.4429602467090207,-8.095328022460649,2.3867388227022346,-7.690089829055541,-10.076828651757776,2.567559880087842,49.58370730993391,47.016147429846065,2.1947004830033165,48.368664280627854,46.17396379762454,-14.230480448616117,0,14.230480448616117,0.9418888476887853,-0.38745207901884565,8.095328022460649,0.5044013759816731,0.04630589485168457,0.19823074340820312,GUIDED_NOGPS
0.002,8e-05,0.0,0.19609577257348554,0.004807408881680928,1.5687661805878844e-05,0.0,0.004823096543486807,0.05,0.004,0.1,0.20601196777947572,0.12577085967480137,0.0008240478711179029,-0.27007283239209373,-0.14347792484617447,0.08,0.002,0.06,0.3361389698996478,0.2224663846718407,0.0006722779397992957,1.2247155912034442,1.4478542538150843,0.6,0,0.4,-3.1113127707125754,-8.473370409229894,-0.0,2.2416119373898797,-6.231758471840013,2.7808298083980088,-7.39180122509906,-10.172631033497069,2.5154171934960274,50.288163459215035,47.77274626571901,2.403704440840464,48.76648465881845,46.362780217977985,-14.122284015383157,0,14.122284015383157,0.21412353289716918,-1.4391035292390306,6.231758471840013,0.5048230965434868,0.01930689811706543,0.21753501892089844,GUIDED_NOGPS
0.002,8e-05,0.0,0.28783571010035985,0.005418097917144394,2.302685680802879e-05,0.0,0.005441124773952422,0.05,0.004,0.1,0.30276160146398556,0.14284917858074805,0.0012110464058559423,1.0086338249961322,1.1526940499827363,0.08,0.002,0.06,0.44107627144576234,0.24790100811708185,0.0008821525428915247,0.5633067942941035,0.8120899549540769,0.6,0,0.4,-3.586821717886958,-8.424969884618658,-0.0,0.9528339516182467,-7.472135933000412,3.0987626014635232,-7.077528309016621,-10.176290910480144,2.856983571614961,50.99792893713894,48.140945365523976,2.709048958572197,49.16802602293875,46.45897706436655,-14.041616474364432,0,14.041616474364432,1.315285890777945,-0.5081502664796944,7.472135933000412,0.5054411247739524,0.03386425971984863,0.2514004707336426,GUIDED_NOGPS
0.002,8e-05,0.0,0.41461936225749296,0.0059363152008536845,3.316954898059944e-05,0.0,0.005969484749834284,0.05,0.004,0.1,0.42802479287889494,0.14662808939715788,0.0017120991715155799,0.17693768352974437,0.32527787209841785,0.08,0.002,0.06,0.5883837621560519,0.2758916252765182,0.001176767524312104,0.49147047932952725,0.7685388721303577,0.6,0,0.4,-4.1825185240186435,-8.36758670027133,-0.0,0.8956061861252258,-7.471980514146104,3.448645315956478,-6.748924872818888,-10.197570188775366,2.9325617879431576,51.71112141058458,48.778559622641424,2.968157600426842,49.57238753469931,46.60422993427247,-13.945977833785552,0,13.945977833785552,0.5009129792547392,-0.6674907334685765,7.471980514146104,0.5059694847498343,0.042714595794677734,0.29412317276000977,GUIDED_NOGPS
0.002,8e-05,0.0,0.49374920305661174,0.0064701218949266915,3.949993624452894e-05,0.0,0.0065096218311712205,0.05,0.004,0.1,0.49738855292137846,0.14178974013881493,0.001989554211685514,-0.39561193546664675,-0.25183264111614634,0.08,0.002,0.06,0.6814217651516414,0.304293406463531,0.001362843530303283,0.8708613485311787,1.176517598525013,0.6,0,0.4,-4.519775357425136,-8.272831589197212,-0.0,2.582578677548635,-5.690252911648577,3.803667580794137,-6.407590222262064,-10.211257803056201,2.8357948027762987,52.42592949565713,49.59013469288083,3.235060947463346,49.9786928453056,46.743631897842256,-13.78805264866202,0,13.78805264866202,0.03582472676573259,-1.20263457780107,5.690252911648577,0.5065096218311712,0.0244600772857666,0.3185770511627197,GUIDED_NOGPS
0.002,8e-05,0.0,0.6110689384408668,0.007144926135299187,4.888551507526935e-05,0.0,0.007193811650374456,0.05,0.004,0.1,0.5963177199655826,0.15062290859300198,0.0023852708798623302,0.537951572590159,0.6909597520630233,0.08,0.002,0.06,0.8183216905568178,0.3334954180536704,0.0016366433811136356,0.6669153375932083,1.0020473990279923,0.6,0,0.4,-4.969020293736296,-8.207882184750995,-0.0,1.318501375123767,-6.8893808096272275,4.16869272567088,-6.055069883493548,-10.223762609164428,3.0124581718600396,53.14061178639135,50.12815361453131,3.5724630676495934,50.38608985768024,46.813626790030646,-13.67980364125166,0,13.67980364125166,0.9083388494310228,-0.8102128754124343,6.8893808096272275,0.5071938116503745,0.03284001350402832,0.35141706466674805,GUIDED_NOGPS
0.002,8e-05,0.0,0.799776192577142,0.00774700092840024,6.398209540617136e-05,0.0,0.007810983023806411,0.05,0.004,0.1,0.7409809219428871,0.14847149956596403,0.0029639236877715487,-0.08832181786607697,0.0631136053876586,0.08,0.002,0.06,1.0401460258750035,0.36426227269689415,0.002080292051750007,0.47365200514407113,0.8399945698927154,0.6,0,0.4,-5.62710257819405,-8.104877725012614,-0.0,1.4095477302042925,-6.695329994808321,4.553278408711177,-5.692856309697601,-10.246134718408777,2.9694299913192808,53.853495883454926,50.884065892135645,3.87350046420012,50.793750488685184,46.920250024485064,-13.508129541687689,0,13.508129541687689,0.2575764078105678,-0.8020153357471919,6.695329994808321,0.5078109830238065,0.048717498779296875,0.4001433849334717,GUIDED_NOGPS
0.002,8e-05,0.0,0.8833108916143948,0.008466313606967561,7.066487132915158e-05,0.0,0.008536978478296712,0.05,0.004,0.1,0.7972113687228757,0.14247510381493633,0.003188845474891503,-0.6077398676811935,-0.46207591839136564,0.08,0.002,0.06,1.1404484829582984,0.4066296123664138,0.002280896965916597,1.6102373705286916,2.019147879861022,0.6,0,0.4,-5.891216024774046,-8.030437503220538,-0.0,2.514860171591152,-5.515577331629386,5.082870154580172,-5.322389587741,-10.405259742321173,2.8495020762987266,54.562977422851915,51.71347534655319,4.23315680348378,51.200870431344,46.96771362786022,-13.384062505367565,0,13.384062505367565,0.0178608336983348,-2.0712685257407077,5.515577331629386,0.5085369784782967,0.019733428955078125,0.41988611221313477,GUIDED_NOGPS
0.002,8e-05,0.0,1.0978354672469157,0.00919133644559996,8.782683737975326e-05,0.0,0.009279163282979713,0.05,0.004,0.1,0.9370949360170655,0.14983329140970378,0.003748379744068262,0.31526261088706115,0.46884428204083317,0.08,0.002,0.06,1.3943413448798878,0.4351230544429647,0.0027886826897597756,0.45780211634251256,0.895713853475237,0.6,0,0.4,-6.510872595504379,-7.964782597307879,-0.0,0.937664644043982,-7.027117953263897,5.439038180537058,-4.945058144818707,-10.384096325355765,2.9966658281940752,55.267519104626075,52.270853276432,4.595668222799979,51.60666891706407,47.01100069426409,-13.2746376621798,0,13.2746376621798,0.6619899064354478,-0.7641254032470257,7.027117953263897,0.5092791632829797,0.04667973518371582,0.46656274795532227,GUIDED_NOGPS
0.002,8e-05,0.0,1.210948811186593,0.00986088336585219,9.687590489492745e-05,0.0,0.009957759270747117,0.05,0.004,0.1,1.0025905185936137,0.1427427300509983,0.0040103620743744545,-0.6181339541504557,-0.47138086202508295,0.08,0.002,0.06,1.5279261798323003,0.46582107151384256,0.0030558523596646006,1.003560528390113,1.47243745226362,0.6,0,0.4,-6.8115883660756005,-7.864650720935032,-0.0,2.909732603087491,-4.954918117847541,5.822763393923032,-4.562199455099525,-10.384962849022557,2.854854601019966,55.96564972156424,53.110795120544275,4.930441682926094,52.010388477858825,47.07994679493273,-13.107751201558386,0,13.107751201558386,-0.12517528931227323,-1.5409747288186393,4.954918117847541,0.5099577592707472,0.02294182777404785,0.48952436447143555,GUIDED_NOGPS
0.002,8e-05,0.0,1.4179480791435628,0.010521429702116976,0.00011343584633148504,0.0,0.01063486554844846,0.05,0.004,0.1,1.1174554872164204,0.145959899342731,0.004469821948865682,0.16352338284506163,0.31395310413665833,0.08,0.002,0.06,1.770972363201549,0.4941453866820362,0.0035419447264030983,0.5398792478423841,1.0375665792508233,0.6,0,0.4,-7.321699804159034,-7.778435676144032,-0.0,1.4607226102556832,-6.317713065888349,6.176817333525452,-4.175100746371763,-10.351918079897215,2.91919798685462,56.65596318789973,53.73676520104511,5.260714851058488,52.41129470856998,47.150579857511495,-12.964059460240055,0,12.964059460240055,0.5387182330170056,-0.940687845882115,6.317713065888349,0.5106348655484485,0.03934812545776367,0.5288586616516113,GUIDED_NOGPS
0.002,8e-05,0.0,1.5622374159854324,0.011085243800624625,0.0001249789932788346,0.0,0.01121022279390346,0.05,0.004,0.1,1.186345187863735,0.13231385349432365,0.00474538075145494,-1.0483778528269019,-0.9113186185811233,0.08,0.002,0.06,1.9419856216036278,0.5255339594786085,0.0038839712432072555,0.904302744106234,1.4337206748280498,0.6,0,0.4,-7.6537954739498515,-7.65412374608964,-0.0,3.1834832292316277,-4.470640516858012,6.569174493482605,-3.7849997066888923,-10.354174200171498,2.646277069886473,57.33711756801567,54.6908404981292,5.542621900312312,52.80867602908973,47.26605412877742,-12.7568729101494,0,12.7568729101494,-0.5722372694030688,-1.599562785734941,4.470640516858012,0.5112102227939035,0.026032686233520508,0.5549461841583252,GUIDED_NOGPS
0.002,8e-05,0.0,1.7506764889431472,0.011708329123218064,0.0001400541191154518,0.0,0.011848383242333517,0.05,0.004,0.1,1.2723806292753757,0.1336415065752945,0.005089522517101503,0.08249138031447079,0.2212224094068668,0.08,0.002,0.06,2.164181063174511,0.5522288597067015,0.004328362126349022,0.6219901866877932,1.1785474085208438,0.6,0,0.4,-8.061400744038474,-7.597750158153277,-0.0,1.1675577876988972,-6.43019237045438,6.9028607463337694,-3.393085191015216,-10.295945937348986,2.67283013150589,58.00783410514845,55.33500397364256,5.854164561609032,53.20184344658303,47.347678884973995,-12.662916930255461,0,12.662916930255461,0.4741965352115233,-1.1013859425961285,6.43019237045438,0.5118483832423335,0.03218889236450195,0.5870897769927979,GUIDED_NOGPS
0.002,8e-05,0.0,1.9611622582033168,0.012228481054234778,0.00015689298065626537,0.0,0.012385374034891043,0.05,0.004,0.1,1.3567137174105999,0.1224863768856519,0.0054268548696424,-0.6480737037320434,-0.5201604719767492,0.08,0.002,0.06,2.410905551884412,0.5733529152891204,0.004821811103768824,0.4602124309629491,1.0383871573558383,0.6,0,0.4,-8.489883501295498,-7.468001230107834,-0.0,2.512651748362479,-4.955349481745355,7.166911441114005,-3.000497927871521,-10.167409368985526,2.449727537713038,58.66689625009102,56.21716871237798,6.1142405271173885,53.59013031770976,47.47588979059237,-12.446668716846391,0,12.446668716846391,-0.28413077361098904,-1.1260925844067324,4.955349481745355,0.512385374034891,0.03442549705505371,0.6215150356292725,GUIDED_NOGPS
0.002,8e-05,0.0,2.170981554486385,0.012755028025932773,0.0001736785243589108,0.0,0.012928706550291684,0.05,0.004,0.1,1.4271361384545396,0.1070254225876429,0.005708544553818158,-0.9398797387668321,-0.827145771625371,0.08,0.002,0.06,2.656854464683279,0.598054674907496,0.005313708929366558,0.5631124766710642,1.1664808605079267,0.6,0,0.4,-8.89148236491039,-7.3240233639141215,-0.0,2.9174973432650857,-4.406526020649036,7.4756834363437,-2.6083312259807494,-10.08401466232445,2.140508451752858,59.31314868989631,57.17264023814345,6.377514012966387,53.972892110847,47.59537809788061,-12.206705606523537,0,12.206705606523537,-0.5618051967053724,-1.3149991050962282,4.406526020649036,0.5129287065502917,0.03289985656738281,0.654412031173706,GUIDED_NOGPS
0.002,8e-05,0.0,2.4646815856311353,0.013276505654768797,0.00019717452685049083,0.0,0.013473680181619289,0.05,0.004,0.1,1.506180487651124,0.08932862085472167,0.006024721950604496,-0.7999716151295024,-0.7046182723241763,0.08,0.002,0.06,3.001646382748438,0.6234431548500006,0.0060032927654968754,0.4303757172865109,1.0598221649020083,0.6,0,0.4,-9.421061088670294,-7.181771373914227,-0.0,2.1434674263561937,-5.038303947558033,7.7930394356250074,-2.21763168091364,-10.010671116538647,1.7865724170944333,59.94549637658059,58.15892395948616,6.638252827384399,54.349506168311265,47.711253340926866,-11.969618956523712,0,11.969618956523712,-0.4694985584501402,-1.1829120992381164,5.038303947558033,0.5134736801816193,0.044243574142456055,0.6986649036407471,GUIDED_NOGPS
0.002,8e-05,0.0,2.619195019959897,0.01359234714413661,0.00020953560159679176,0.0,0.013801882745733402,0.05,0.004,0.1,1.5321207492194773,0.05704828220576488,0.006128482996877909,-2.8396596758916104,-2.7764829106889675,0.08,0.002,0.06,3.184613275014091,0.6438144427667226,0.006369226550028182,0.6720134522771203,1.322197121593871,0.6,0,0.4,-9.685979479036185,-6.991358535965449,-0.0,5.583457096235708,-1.4079014397297405,8.047680534584032,-1.8293998817344264,-9.877080416318458,1.1409656441152976,60.562903555826885,59.42193791171159,6.796173572068305,54.719371468580675,47.92319789651237,-11.652264226609082,0,11.652264226609082,-2.452217557462206,-1.8557186296885342,1.4079014397297405,0.5138018827457334,0.0227353572845459,0.7214150428771973,GUIDED_NOGPS
0.002,8e-05,0.0,2.8545577658361507,0.014076370573142299,0.00022836462126689207,0.0,0.01430473519440919,0.05,0.004,0.1,1.5649802104987731,0.04913075262603144,0.006259920841995093,-0.47352472870426254,-0.41813405523623604,0.08,0.002,0.06,3.460938082910679,0.6610477592829881,0.006921876165821358,0.3865032068649082,1.0544728423137177,0.6,0,0.4,-10.068705699425372,-6.866927159010364,-0.0,2.4806278870021874,-4.386299272008177,8.26309699103735,-1.4445911176464543,-9.707688108683804,0.9826150525206288,61.16439279568828,60.18177774316765,7.038185286571149,55.08190838851724,48.04372310194609,-11.444878598350607,0,11.444878598350607,-0.20058601456261016,-1.116474054372675,4.386299272008177,0.5143047351944092,0.03344082832336426,0.7548694610595703,GUIDED_NOGPS
0.002,8e-05,0.0,3.128081544737902,0.014328075983273663,0.00025024652357903216,0.0,0.014578322506852695,0.05,0.004,0.1,1.5838590854928078,0.02472344054320921,0.0063354363419712316,-1.2785353561372261,-1.2474764792520456,0.08,0.002,0.06,3.7847936273657417,0.6785847822354567,0.007569587254731483,0.34449262289775373,1.030646992387942,0.6,0,0.4,-10.494144313996012,-6.685762554461157,-0.0,3.1633327942980993,-3.522429760163058,8.48230977794321,-1.0641160846378757,-9.546425862581085,0.49446881086418415,61.74904401529136,61.25457520442718,7.164037991636832,55.436558465589044,48.27252047395221,-11.142937590768597,0,11.142937590768597,-1.0247791421719015,-1.2523012812318017,3.522429760163058,0.5145783225068526,0.03818011283874512,0.7930238246917725,GUIDED_NOGPS
0.002,8e-05,0.0,3.361636452595638,0.014648447591699849,0.00026893091620765105,0.0,0.0149173785079075,0.05,0.004,0.1,1.5807879709668509,-0.004815469368020331,0.006323151883867404,-1.8526657295258202,-1.851158047009973,0.08,0.002,0.06,4.0622557466362545,0.6960914416393758,0.008124511493272509,0.4117533620941713,1.1159693152268195,0.6,0,0.4,-10.839624763350573,-6.500508556313226,-0.0,3.8730128572532636,-2.627495699059962,8.701143020492196,-0.6888415921272966,-9.389984612619493,-0.09630938736040662,62.31599351353957,62.412302900899974,7.324223795849925,55.78278416009253,48.45856036424261,-10.83418092718871,0,10.83418092718871,-1.6083959702589108,-1.4440346361471015,2.627495699059962,0.5149173785079075,0.03188800811767578,0.8249356746673584,GUIDED_NOGPS
0.002,8e-05,0.0,3.611401372771435,0.015013399884675835,0.0002889121098217148,0.0,0.01530231199449755,0.05,0.004,0.1,1.5603172228310889,-0.03076247932299303,0.006241268891324356,-1.5596779403267813,-1.58419915075845,0.08,0.002,0.06,4.356007185693191,0.7062973964729133,0.00871201437138638,0.2300554472576532,0.945064858101953,0.6,0,0.4,-11.19114069258358,-6.338899643345454,-0.0,3.2381105048768632,-3.1007891384685906,8.828717455911416,-0.3195912696094325,-9.148308725520849,-0.6152495864598606,62.864432997816564,63.479682584276425,7.506699942337917,56.12006861737465,48.61336867503673,-10.56483273890909,0,10.56483273890909,-1.3840681615824988,-1.219503939877482,3.1007891384685906,0.5153023119944975,0.03327226638793945,0.8584463596343994,GUIDED_NOGPS
0.002,8e-05,0.0,3.8719981997066024,0.015350682390633608,0.0003097598559765282,0.0,0.015660442246610135,0.05,0.004,0.1,1.5193938953786998,-0.06026560352611341,0.0060775755815148,-1.737907151441216,-1.7920951793858146,0.08,0.002,0.06,4.659337752717767,0.7147180184083369,0.009318675505435534,0.18600901781286205,0.9100457117266345,0.6,0,0.4,-11.538052967094583,-6.130550635701605,-0.0,4.090993074575579,-2.039557561126026,8.933975230104211,0.04285372669920129,-8.89112150340501,-1.2053120705222682,63.39360861268962,64.59892068321189,7.675341195316804,56.44791543005516,48.77257423473836,-10.217584392836008,0,10.217584392836008,-1.60224463935054,-1.2135074969205464,2.039557561126026,0.5156604422466101,0.03395247459411621,0.892230749130249,GUIDED_NOGPS
0.002,8e-05,0.0,4.167083195543931,0.015656778621014326,0.0003333666556435145,0.0,0.01599014527665784,0.05,0.004,0.1,1.450633173646132,-0.0912085850835215,0.005802532694584528,-1.641789379171074,-1.727195431560011,0.08,0.002,0.06,4.999034643944149,0.7209528236549426,0.009998069287888298,0.12405362039958183,0.8550045133424127,0.6,0,0.4,-11.909735437548392,-5.916278603756942,-0.0,3.789653620886334,-2.1266249828706085,9.011910295686782,0.39775400721467946,-8.614156288472103,-1.82417170167043,63.90281996861301,65.72699167028344,7.828389310507163,56.765848400248814,48.93745908974165,-9.860464339594904,0,9.860464339594904,-1.5552618995131295,-1.1381551742009877,2.1266249828706085,0.5159901452766579,0.03769421577453613,0.9298338890075684,GUIDED_NOGPS
0.002,8e-05,0.0,4.395378463695103,0.015939602756438534,0.00035163027709560825,0.0,0.016291233033534143,0.05,0.004,0.1,1.3810143848324192,-0.12151980273854762,0.005524057539329677,-2.116332819325598,-2.2323285645248157,0.08,0.002,0.06,5.258700216817212,0.725195246426037,0.010517400433634425,0.11107742329223881,0.8467900701519103,0.6,0,0.4,-12.182076126702192,-5.704457785763378,-0.0,4.929784896119056,-0.7746728896443216,9.064940580325462,0.7444112423399485,-8.320529337985514,-2.430396054770952,64.39141917063134,66.82181522540229,7.969801378219266,57.0734113017876,49.103609923568335,-9.507429642938963,0,9.507429642938963,-2.06179675486633,-1.2038847056607924,0.7746728896443216,0.5162912330335342,0.028645038604736328,0.9584782123565674,GUIDED_NOGPS
0.002,8e-05,0.0,4.67739619266429,0.0162266787662834,0.0003741916954131432,0.0,0.016600870461696542,0.05,0.004,0.1,1.2796071617416047,-0.14586870475218136,0.005118428646966419,-1.4009821748834586,-1.5417324509886736,0.08,0.002,0.06,5.574239562369061,0.7262175491034555,0.011148479124738122,0.02205789137222083,0.7594239196004144,0.6,0,0.4,-12.503690797015166,-5.551499858644996,-0.0,2.9336207067295654,-2.6178791519154303,9.077719363793193,1.08216745581921,-7.995551907973984,-2.917374095043627,64.85880984708295,67.77618394212658,8.1133393831417,57.370167642442965,49.256828259301265,-9.252499764408327,0,9.252499764408327,-1.3995690623797816,-0.99743174188622,2.6178791519154303,0.5166008704616966,0.0347597599029541,0.9932441711425781,GUIDED_NOGPS
0.002,8e-05,0.0,4.951251563200176,0.016456173411846096,0.00039610012505601413,0.0,0.01685227353690211,0.05,0.004,0.1,1.1609082726865567,-0.17831761873621732,0.004643633090746227,-1.9498794363698586,-2.1235534220153296,0.08,0.002,0.06,5.8760770719271305,0.7255056404068506,0.011752154143854261,-0.01604217165132516,0.7212156228993797,0.6,0,0.4,-12.801939346256972,-5.376593312613001,-0.0,3.503421589209964,-1.8731717234030372,9.068820505085633,1.4104043180922314,-7.658416186993402,-3.566352374724346,65.30444617830334,68.87079855302768,8.228086705923047,57.655700426148044,49.427613720225,-8.960988854355001,0,8.960988854355001,-1.9852967097292937,-1.0431817124572293,1.8731717234030372,0.5168522735369021,0.03328299522399902,1.0265343189239502,GUIDED_NOGPS
0.002,8e-05,0.0,5.250339127344494,0.01660947961180466,0.0004200271301875596,0.0,0.017029506741992217,0.05,0.004,0.1,1.0110310509605775,-0.20808142472035202,0.00404412420384231,-1.652898307816809,-1.8569356083333186,0.08,0.002,0.06,6.200002193702512,0.7195521781418412,0.012400004387405026,-0.12398197296320107,0.6079702095660453,0.6,0,0.4,-13.117486897320306,-5.257069745714036,-0.0,2.212534037446189,-3.044535708267847,8.994402226773015,1.7285424396486988,-7.265859787124318,-4.16162849440704,65.72783192532846,69.8894604197355,8.30473980590233,57.92961191521989,49.62487210931756,-8.761782909523394,0,8.761782909523394,-1.7426554917370567,-0.8837360840967683,3.044535708267847,0.5170295067419922,0.03601408004760742,1.0625755786895752,GUIDED_NOGPS
0.002,8e-05,0.0,5.5307538701321235,0.016713129096353314,0.0004424603096105699,0.0,0.017155589405963883,0.05,0.004,0.1,0.8486111854934206,-0.24201154265102076,0.0033944447419736825,-2.0222846901428215,-2.2609017880518687,0.08,0.002,0.06,6.496286468655586,0.7063590576277815,0.012992572937311172,-0.2948734847309111,0.4244781458341816,0.6,0,0.4,-13.402108545237379,-5.089160039838732,-0.0,3.3358880765053165,-1.7532719633334155,8.829488220347269,2.036040664382554,-6.793447555964716,-4.840230853020415,66.12851945859813,70.96875031161855,8.356564548176657,58.19152339258169,49.83495884440504,-8.48193339973122,0,8.48193339973122,-2.173563513022909,-0.753312847602157,1.7532719633334155,0.5171555894059638,0.033556222915649414,1.0961024761199951,GUIDED_NOGPS
0.002,8e-05,0.0,5.825733145299377,0.016601914211639396,0.00046605865162395015,-0.0,0.017067972863263347,0.05,0.004,0.1,0.6503968938522143,-0.2788955820271049,0.0026015875754088575,-2.075893830687866,-2.352187825139562,0.08,0.002,0.06,6.801193993150684,0.6864276903902186,0.013602387986301367,-0.42066368325081605,0.2793663951257038,0.6,0,0.4,-13.694384172463751,-4.934924550154322,-0.0,2.893541550988528,-2.0413829991657937,8.580346129877732,2.3323953629463254,-6.247950766931406,-5.577911640542098,66.50610878665945,72.08402042720155,8.300957105819698,58.44107492398503,50.14011781816533,-8.224874250257203,0,8.224874250257203,-2.2880279609658634,-0.6129936356102789,2.0413829991657937,0.5170679728632633,0.035535573959350586,1.1316392421722412,GUIDED_NOGPS
0.002,8e-05,0.0,6.065074118017875,0.016475907388655515,0.00048520592944143,-0.0,0.016961113318096945,0.05,0.004,0.1,0.46438709623086244,-0.32011654379341153,0.0018575483849234498,-2.837595004394702,-3.15585399980319,0.08,0.002,0.06,7.042574641069583,0.6646526343323543,0.014085149282139166,-0.5621119781287643,0.1166258054857292,0.6,0,0.4,-13.924786969620541,-4.758184657969854,-0.0,4.05551135191154,-0.7026733060583137,8.30815792915443,2.617139726105478,-5.691018203048951,-6.4023308758682305,66.86024658487008,73.26257746073831,8.237953694327757,58.67792512023205,50.43997142590429,-7.93030776328309,0,7.93030776328309,-3.109582685891302,-0.5509188381095949,0.7026733060583137,0.5169611133180969,0.029053449630737305,1.1606988906860352,GUIDED_NOGPS
0.002,8e-05,0.0,6.342064439133767,0.0163113156358,0.0005073651551307014,-0.0,0.016818680790930702,0.05,0.004,0.1,0.2246677868123098,-0.3529128115532615,0.0008986711472492393,-1.9312959129835474,-2.2833100533895596,0.08,0.002,0.06,7.313669965732659,0.6385669203392808,0.01462733993146532,-0.576047629767454,0.07714663050329207,0.6,0,0.4,-14.185378987136811,-4.603697305473024,-0.0,3.032466932614781,-1.5712303728582433,7.982086504241009,2.8898430580927386,-5.09224344614827,-7.058256231065229,67.19062522410174,74.24888145516697,8.1556578179,58.90175089939774,50.74609308149774,-7.672828842455041,0,7.672828842455041,-2.252566402664257,-0.38131483592440335,1.5712303728582433,0.5168186807909307,0.03396296501159668,1.1946558952331543,GUIDED_NOGPS
0.002,8e-05,0.0,6.624402610172771,0.016185389563955384,0.0005299522088138217,-0.0,0.016715341772769204,0.05,0.004,0.1,-0.049404252033688145,-0.3927880793611486,-0.00019761700813475258,-2.2858997104877603,-2.678885406857044,0.08,0.002,0.06,7.577145881982364,0.6041634865775826,0.015154291763964729,-0.7395824868299892,-0.12026470848844184,0.6,0,0.4,-14.443917993317886,-4.446321781910755,-0.0,3.007249719149595,-1.4390720627611602,7.552043582219782,3.150110069962464,-4.401933512257318,-7.855761587222972,67.49698179944347,75.35274338666645,8.092694781977691,59.11224724905215,51.01955246707446,-7.4105363031845926,0,7.4105363031845926,-2.672021408251441,-0.22625697121950467,1.4390720627611602,0.5167153417727692,0.03488802909851074,1.2295506000518799,GUIDED_NOGPS
0.002,8e-05,0.0,6.881388071266145,0.016160410615018123,0.0005505110457012917,-0.0,0.016710921660719413,0.05,0.004,0.1,-0.3252422389540496,-0.4336485722662502,-0.0013009689558161983,-2.56949299960028,-3.0044425408223465,0.08,0.002,0.06,7.798271007929607,0.5562140079678106,0.015596542015859215,-1.1307302071872734,-0.5589196572036035,0.6,0,0.4,-14.671742239871511,-4.2979863802792755,-0.0,3.109334134973171,-1.1886522453061046,6.9526750995976325,3.3975801729449184,-3.555094926652714,-8.672971445325004,67.7790971589051,76.4520686042301,8.080205307509061,59.30912698848261,51.22892168097355,-7.163310633798792,0,7.163310633798792,-3.0506882423539663,0.1799094557684468,1.1886522453061046,0.5167109216607194,0.03180432319641113,1.2613604068756104,GUIDED_NOGPS
0.002,8e-05,0.0,7.146616508809174,0.016027095273776694,0.000571729320704734,-0.0,0.016598824594481427,0.05,0.004,0.1,-0.6360036385675002,-0.46946347506655856,-0.002544014554270001,-2.1642055607572988,-2.636213050378127,0.08,0.002,0.06,8.013280342027597,0.5196991867481363,0.016026560684055197,-0.827437459215275,-0.2917117117830835,0.6,0,0.4,-14.902289224469271,-4.1794143811944355,-0.0,2.388337067396331,-1.7910773137981044,6.496239834351703,3.631926771800684,-2.864313062551019,-9.38926950133117,68.03679493212056,77.42606443345173,8.013547636888347,59.49212053091594,51.47857289402759,-6.9656906353240595,0,6.9656906353240595,-2.652132361353563,-0.03014809507317301,1.7910773137981044,0.5165988245944815,0.03309750556945801,1.2944965362548828,GUIDED_NOGPS
0.002,8e-05,0.0,7.470686159709023,0.01586098349482583,0.0005976548927767219,-0.0,0.016458638387602552,0.05,0.004,0.1,-1.0518945253231302,-0.5088750575812263,-0.004207578101292521,-1.9289262602479766,-2.4420088959304955,0.08,0.002,0.06,8.258959993008702,0.48097325724958157,0.016517919986017406,-0.7107630954790373,-0.21327191824343827,0.6,0,0.4,-15.177892893414,-4.0466719720046225,-0.0,2.165609723482681,-1.8810622485219413,6.012165715619769,3.8528565581749668,-2.159309157444802,-10.177501151624526,68.26994055905132,78.44744171067585,7.9304917474129155,59.660975645740706,51.73048389832779,-6.7444532866743705,0,6.7444532866743705,-2.4501567041520813,-0.0749965600112677,1.8810622485219413,0.5164586383876025,0.040863752365112305,1.3353331089019775,GUIDED_NOGPS
0.002,8e-05,0.0,7.679781034971894,0.01561289382066802,0.0006143824827977516,-0.0,0.016227276303465772,0.05,0.004,0.1,-1.3473386483273186,-0.551512527101118,-0.005389354593309275,-3.1836948828092204,-3.7405967645036475,0.08,0.002,0.06,8.402523753039926,0.428790182264477,0.01680504750607985,-1.4611706909736433,-1.0155754612030865,0.6,0,0.4,-15.352015420255569,-3.9004636339547822,-0.0,3.6390741360808256,-0.2613894978739566,5.359877278305962,4.060108803951923,-1.2997684743540392,-11.030250542022358,68.47844031868968,79.50869086071204,7.80644691033401,59.81545722072944,52.00901031039543,-6.50077272325797,0,6.50077272325797,-3.8315259720566677,0.5855479463444688,0.2613894978739566,0.5162272763034658,0.026784896850585938,1.3621268272399902,GUIDED_NOGPS
0.002,8e-05,0.0,7.943850222048266,0.015460339439718822,0.0006355080177638614,-0.0,0.016095847457482684,0.05,0.004,0.1,-1.7452430516681177,-0.5823982351288471,-0.006980972206672471,-1.808251599633402,-2.397630806968922,0.08,0.002,0.06,8.566668681107279,0.38440475896880016,0.01713333736221456,-0.9744799998119976,-0.5729419034809828,0.6,0,0.4,-15.569256265486324,-3.815610497336312,-0.0,1.6559527563849796,-2.1596577409513324,4.805059487110002,4.253454654609005,-0.5516048325009972,-11.647964702576942,68.66224035776226,80.3102050603392,7.730169719859411,59.95534702426087,52.225177304401456,-6.359350828893854,0,6.359350828893854,-2.446338848970347,0.30384559781127884,2.1596577409513324,0.5160958474574827,0.03416085243225098,1.3963561058044434,GUIDED_NOGPS
0.002,8e-05,0.0,8.233779472885935,0.015171343050052515,0.0006587023578308749,-0.0,0.015830045407883388,0.05,0.004,0.1,-2.2246256712841044,-0.6271252515410275,-0.008898502685136417,-2.3404637774008172,-2.976487531626981,0.08,0.002,0.06,8.722336731785278,0.32583030404078733,0.017444673463570558,-1.149400863031944,-0.8061258855275862,0.6,0,0.4,-15.80459789773941,-3.694468867720392,-0.0,2.113022648612253,-1.5814462191081389,4.072878800509842,4.432696422571311,0.3598176220614696,-12.54250503082055,68.82132571943323,81.36383075025378,7.585671525026257,60.08044346754211,52.494771942515854,-6.15744811286732,0,6.15744811286732,-3.0457817387677246,0.48221423562310073,1.5814462191081389,0.5158300454078834,0.03822064399719238,1.4345929622650146,GUIDED_NOGPS
0.002,8e-05,0.0,8.451179520885649,0.01486246399343777,0.0006760943616708519,-0.0,0.015538558355108622,0.05,0.004,0.1,-2.6210016025988523,-0.6774518981521269,-0.01048400641039541,-3.4405602944895097,-4.128496199052032,0.08,0.002,0.06,8.818784818106309,0.26374533462553246,0.01763756963621262,-1.5916549311245838,-1.3102720268628387,0.6,0,0.4,-15.978023787169949,-3.5568566717078784,-0.0,3.135933542965569,-0.4209231287423094,3.2968166828191556,4.59766688056594,1.3008501977467846,-13.549037963042537,68.95571937200785,82.50475733505039,7.431231996718886,60.19056136683096,52.75932937011208,-5.928094452846464,0,5.928094452846464,-4.113934422377342,0.8901440067528713,0.4209231287423094,0.5155385583551086,0.029254913330078125,1.46402907371521,GUIDED_NOGPS
0.002,8e-05,0.0,8.814157083547464,0.014494097335574139,0.0007051325666837971,-0.0,0.015199229902257937,0.05,0.004,0.1,-3.3344684647733933,-0.7122381112368622,-0.013337873859093574,-1.3890521350377036,-2.114628120133659,0.08,0.002,0.06,8.951011371429052,0.21119812697545987,0.017902022742858105,-0.7868506425103537,-0.5577504927920358,0.6,0,0.4,-16.2690265331695,-3.486018883238748,-0.0,0.9428771974949763,-2.5431416857437714,2.639976587193248,4.748228554976281,2.108251967783033,-14.244762224737244,69.06548123763574,83.31024346237298,7.24704866778707,60.28553170565811,53.03848303787104,-5.81003147206458,0,5.81003147206458,-2.1602266273401827,0.34082050583882506,2.5431416857437714,0.515199229902258,0.050086259841918945,1.513936996459961,GUIDED_NOGPS
0.002,8e-05,0.0,8.986125780136462,0.013837678503175412,0.000718890062410917,-0.0,0.014556568565586328,0.05,0.004,0.1,-3.722040132194416,-0.7796611006957633,-0.014888160528777665,-5.425276055240803,-6.219825316465344,0.08,0.002,0.06,8.991980342204858,0.1318648003843413,0.017983960684409717,-2.3938711442765097,-2.2440223832077586,0.6,0,0.4,-16.40696472135982,-3.3298111912483486,-0.0,4.189816449855157,0.8600052586068085,1.6483100048042663,4.884273019196408,3.235963014392142,-15.593222013915266,69.15070722101424,84.74392923492951,6.9188392515877055,60.36520139704926,53.446362145461556,-5.5496853187472475,0,5.5496853187472475,-4.198267765664791,1.8466684120646555,-0.8600052586068085,0.5145565685655863,0.02485513687133789,1.5387065410614014,GUIDED_NOGPS
0.002,8e-05,0.0,9.174453577364469,0.013676215785389318,0.0007339562861891576,-0.0,0.014410172071578476,0.05,0.004,0.1,-4.165365548645254,-0.8048485337494761,-0.016661462194581016,-1.829091480879878,-2.650601476823935,0.08,0.002,0.06,9.01913200022632,0.07886927782265162,0.01803826400045264,-1.4431848608140845,-1.3462773189909802,0.6,0,0.4,-16.5583422239783,-3.2978743786141966,-0.0,0.7730753638267657,-2.524799014787431,0.9858659727831451,5.005720186985338,4.0198542142021925,-16.09697067498952,69.21152823809194,85.30849891308146,6.838107892694659,60.42943304574754,53.59132515305288,-5.496457297690328,0,5.496457297690328,-2.7673664396285385,1.0862015454732314,2.524799014787431,0.5144101720715785,0.027540922164916992,1.5662562847137451,GUIDED_NOGPS
0.002,8e-05,0.0,9.381530608335636,0.013335237470509484,0.000750522448666851,-0.0,0.014085759919176334,0.05,0.004,0.1,-4.682951315370673,-0.8332803834241084,-0.01873180526148269,-1.8309392662184807,-2.682951454904072,0.08,0.002,0.06,9.02870474370442,0.024658419512014904,0.01805740948740884,-1.3091408526734576,-1.2664250236740338,0.6,0,0.4,-16.727288480159753,-3.263913581386375,-0.0,0.7289965053051193,-2.534917076081256,0.3082302439001863,5.112517605821473,4.804287361921287,-16.665607668482167,69.24810924477181,85.91371691325398,6.667618735254742,60.47810471043556,53.81048597518082,-5.439855968977292,0,5.439855968977292,-2.790926272196762,1.0063753738648116,2.534917076081256,0.5140857599191764,0.031057119369506836,1.5973055362701416,GUIDED_NOGPS
0.002,8e-05,0.0,9.592898273213569,0.012842174339533344,0.0007674318618570855,-0.0,0.013609606201390428,0.05,0.004,0.1,-5.25450040923352,-0.8681475843558979,-0.02101800163693408,-2.1184445281929536,-3.007610114185786,0.08,0.002,0.06,9.014028507044912,-0.0356676675097846,0.018028057014089827,-1.3744737053380698,-1.3921133158337646,0.6,0,0.4,-16.90415466384001,-3.223785010211718,-0.0,0.8127041054567654,-2.411080904754953,-0.4458458438723074,5.204639750256881,5.650485594129188,-17.362951687117956,69.26064826561482,86.62359995273277,6.421087169766672,60.51110966595777,54.0900224961911,-5.37297501701953,0,5.37297501701953,-3.1247511150770584,1.1043679422633546,2.411080904754953,0.5136096062013904,0.03291773796081543,1.6302618980407715,GUIDED_NOGPS
0.002,8e-05,0.0,9.813326981677163,0.012260406763432584,0.000785066158534173,-0.0,0.013045472921966757,0.05,0.004,0.1,-5.908070174062782,-0.908800766122888,-0.023632280696251128,-2.261159846941527,-3.193592893760666,0.08,0.002,0.06,8.967096460739292,-0.10441579628312156,0.017934192921478583,-1.4339330426732335,-1.5204146460348764,0.6,0,0.4,-17.094653413252562,-3.1787041334166664,-0.0,0.8358104994761549,-2.3428936339405113,-1.3051974535390194,5.282087315271596,6.5872847688106155,-18.176015322457758,69.24937542254314,87.4253907450009,6.130203381716292,60.52835616554261,54.39815278382632,-5.297840222361111,0,5.297840222361111,-3.3203349644373197,1.2190455245358995,2.3428936339405113,0.5130454729219668,0.03595781326293945,1.6662037372589111,GUIDED_NOGPS
0.002,8e-05,0.0,10.018103825148449,0.01166471552693112,0.000801448306011876,-0.0,0.012466163832942995,0.05,0.004,0.1,-6.576564546890454,-0.9519871190272554,-0.026306258187561816,-2.460026791778032,-3.438320168992849,0.08,0.002,0.06,8.888234733507398,-0.1796882105473951,0.017776469467014794,-1.6079051307768675,-1.7698168718572478,0.6,0,0.4,-17.27623469623267,-3.1030276300871855,-0.0,1.4369217216285222,-1.6661059084586634,-2.2461026318424384,5.344886509628068,7.590989141470507,-19.039742380545107,69.21455196354364,88.25429434408875,5.832357763465559,60.52976720302474,54.69740943955918,-5.171712716811976,0,5.171712716811976,-3.5838557235875506,1.4526787314896368,1.6661059084586634,0.512466163832943,0.0351104736328125,1.7012999057769775,GUIDED_NOGPS
0.002,8e-05,0.0,10.201923794321884,0.011109384399017515,0.0008161539035457507,-0.0,0.011925538302563266,0.05,0.004,0.1,-7.23227671151569,-0.9907191428506587,-0.028929106846062758,-2.3408171763978,-3.360465426094521,0.08,0.002,0.06,8.785239697489082,-0.24898523298925399,0.017570479394978165,-1.570518827760491,-1.8019335813547668,0.6,0,0.4,-17.44492241422426,-3.0584544937989655,-0.0,0.8979439813172695,-2.160510512481696,-3.1123154123656747,5.393088349225399,8.505403761591074,-19.81438285701317,69.15646929137121,88.97085214838438,5.554692199508757,60.515280275067305,54.96058807555855,-5.097424156331609,0,5.097424156331609,-3.5072759195413847,1.4962313109261487,2.160510512481696,0.5119255383025633,0.03309273719787598,1.734405279159546,GUIDED_NOGPS
0.002,8e-05,0.0,10.382820644080477,0.010556111949383563,0.0008306256515264383,-0.0,0.011386737600910002,0.05,0.004,0.1,-7.93603384137393,-1.0266816500500633,-0.03174413536549572,-2.0985675122813627,-3.1569932976969217,0.08,0.002,0.06,8.650231382351409,-0.31513271581961005,0.017300462764702818,-1.4474966704623238,-1.745328923517231,0.6,0,0.4,-17.617625485165963,-3.023390877114553,-0.0,0.6820377903482452,-2.3413530867663077,-3.939158947745126,5.4267679504536925,9.365926898198818,-20.533633001001263,69.0754479922521,89.60908099325336,5.278055974691782,60.48484714338416,55.20679116869238,-5.038984795190922,0,5.038984795190922,-3.2980904703250307,1.4612935990143525,2.3413530867663077,0.51138673760091,0.034273386001586914,1.7686665058135986,GUIDED_NOGPS
0.002,8e-05,0.0,10.551926096060239,0.009913825292797128,0.0008441540876848192,-0.0,0.010757979380481947,0.05,0.004,0.1,-8.660797210012284,-1.062233259067196,-0.03464318884004913,-2.0842168986714023,-3.1810933465786473,0.08,0.002,0.06,8.487562022331174,-0.38146034840431453,0.016975124044662348,-1.4581742202085222,-1.8226594445681743,0.6,0,0.4,-17.789100639110906,-3.015824797539537,-0.0,0.1478540760217239,-2.867970721517813,-4.768254355053932,5.446023823548506,10.214278178602438,-21.24466518134392,68.97183686458735,90.21650204593126,4.956912646398564,60.43843359696203,55.481520950563464,-5.026374662565895,0,5.026374662565895,-3.328551408235436,1.5369410701957316,2.867970721517813,0.510757979380482,0.03411507606506348,1.802992343902588,GUIDED_NOGPS
0.002,8e-05,0.0,10.724505842405245,0.009330874502601873,0.0008579604673924196,-0.0,0.010188834969994292,0.05,0.004,0.1,-9.472854572251796,-1.097638265272326,-0.03789141828900718,-1.9142435694828508,-3.049773253044184,0.08,0.002,0.06,8.280607699689122,-0.4475762314503713,0.016561215399378246,-1.3405085628461508,-1.7715235788971437,0.6,0,0.4,-17.97508230384418,-3.016642932030854,-0.0,-0.014744700979121776,-3.0313876330099756,-5.594702893129641,5.450977165944989,11.04568005907463,-21.95276530544652,68.84601194765618,90.7987772531027,4.665437251300936,60.37601921428285,55.71058196298191,-5.027738220051424,0,5.027738220051424,-3.1932917139349497,1.4974313724797672,3.0313876330099756,0.5101888349699943,0.036991119384765625,1.8397963047027588,GUIDED_NOGPS
0.002,8e-05,0.0,10.868339102878673,0.008685855256052364,0.000869467128230294,-0.0,0.009555322384282658,0.05,0.004,0.1,-10.22527512286673,-1.1359361480107475,-0.04090110049146692,-2.3127464745238586,-3.4895837230260733,0.08,0.002,0.06,8.06579950975545,-0.518876604600967,0.0161315990195109,-1.6146423265996,-2.117387332181056,0.6,0,0.4,-18.138625603291366,-2.9628336778708735,-0.0,1.0831509381797093,-1.8796827396911642,-6.485957557512087,5.441771155632436,11.927728713144523,-22.718722960214947,68.69837555031931,91.41709851053426,4.342927628026182,60.29759712554587,55.95466949751969,-4.93805612978479,0,4.93805612978479,-3.658893491862678,1.8091495487367149,1.8796827396911642,0.5095553223842827,0.03311896324157715,1.8728928565979004,GUIDED_NOGPS
0.002,8e-05,0.0,11.002753984694975,0.008010982180753856,0.0008802203187755981,-0.0,0.008891202499529453,0.05,0.004,0.1,-11.011689582928105,-1.1717363697214445,-0.04404675833171242,-2.133654654276899,-3.349437782330056,0.08,0.002,0.06,7.819600346755853,-0.586928197549354,0.015639200693511705,-1.5209256160335884,-2.092214612889431,0.6,0,0.4,-18.302529539973104,-2.9305494266042604,-0.0,0.6413688675962578,-2.2891805590080025,-7.336602469366925,5.4185702445084125,12.755172713875337,-23.43472739442889,68.52935527972238,91.96408267415127,4.005491090376928,60.203173774890004,56.197682684513076,-4.884249044340434,0,4.884249044340434,-3.515412571109245,1.7994359946870133,2.2891805590080025,0.5088912024995295,0.03355765342712402,1.906470775604248,GUIDED_NOGPS
0.002,8e-05,0.0,11.127194059778159,0.007325620955973804,0.0008901755247822528,-0.0,0.008215796480756057,0.05,0.004,0.1,-11.831818088100174,-1.2069967331793778,-0.047327272352400696,-2.0757304854567162,-3.330054490988495,0.08,0.002,0.06,7.542171470747455,-0.6532746903345497,0.01508434294149491,-1.4646485193104963,-2.102838866703551,0.6,0,0.4,-18.46677745718577,-2.9007166304838,-0.0,0.5854056160210738,-2.315311014462726,-8.16593362918187,5.381559451733327,13.547493080915197,-24.139934663587553,68.3394030699993,92.47933773358686,3.662810477986902,60.09276868261594,56.42995820462904,-4.834527717473,0,4.834527717473,-3.495430759471077,1.8147060417641112,2.315311014462726,0.5082157964807561,0.03397393226623535,1.9404349327087402,GUIDED_NOGPS
0.002,8e-05,0.0,11.236610874400837,0.006623284503379381,0.000898928869952067,-0.0,0.007522213373331448,0.05,0.004,0.1,-12.652287629958845,-1.2416289079578555,-0.05060915051983538,-2.0963756559686604,-3.3886137144463513,0.08,0.002,0.06,7.2457093697510695,-0.7178248959778,0.014491418739502139,-1.4652719678000488,-2.1686054450383465,0.6,0,0.4,-18.62685601730415,-2.9069915356563185,-0.0,-0.12661211268925524,-3.033603648345574,-8.9728111997225,5.3309436570845925,14.303754856807092,-24.83257815915711,68.12899421097572,92.96157237013283,3.3116422516896904,59.96641420740849,56.6547719557188,-4.844985892760531,0,4.844985892760531,-3.5596665808935772,1.8746536519723558,3.033603648345574,0.5075222133733315,0.03304004669189453,1.9734876155853271,GUIDED_NOGPS
0.002,8e-05,0.0,11.336778329713562,0.005857427289606861,0.000906942266377085,-0.0,0.0067643695559839465,0.05,0.004,0.1,-13.522819230323574,-1.2726377885217381,-0.0540912769212943,-1.813286188293246,-3.140015253736278,0.08,0.002,0.06,6.910756576435001,-0.7834726862828991,0.013821513152870002,-1.439566214027443,-2.209217387157472,0.6,0,0.4,-18.792479979448974,-2.9055254902436896,-0.0,0.028576328778391058,-2.8769491614652987,-9.793408578536239,5.266946894310964,15.060355472847203,-25.452755770434763,67.8986263768722,93.35138214730696,2.9287136448034303,59.82415530855869,56.89544166375526,-4.842542483739483,0,4.842542483739483,-3.315303922837855,1.9362585459156336,2.8769491614652987,0.5067643695559839,0.034201860427856445,2.007689952850342,GUIDED_NOGPS
0.002,8e-05,0.0,11.418635175057114,0.004999781472878652,0.0009134908140045691,-0.0,0.005913272286883221,0.05,0.004,0.1,-14.376938716731349,-1.3042314194504394,-0.057507754866925394,-1.9297256071294342,-3.291464781446799,0.08,0.002,0.06,6.559727163569174,-0.8576291194785399,0.013119454327138349,-1.6985413340977933,-2.543050999249195,0.6,0,0.4,-18.95212415692704,-2.9252996403336744,-0.0,-0.4025989064481432,-3.3278985467818174,-10.72036399348175,5.1898116444870315,15.91017563796878,-26.084628389008785,67.64881865500779,93.73344704401657,2.499890736439326,59.66604930818612,57.16615857174679,-4.875499400556124,0,4.875499400556124,-3.4956914722337395,2.254105126927151,3.3278985467818174,0.5059132722868832,0.03274416923522949,2.0404293537139893,GUIDED_NOGPS
0.002,8e-05,0.0,11.491709541509598,0.00417521278202284,0.0009193367633207679,-0.0,0.005094549545343607,0.05,0.004,0.1,-15.311007409582366,-1.334235154886625,-0.061244029638329464,-1.714308119018024,-3.109787303542978,0.08,0.002,0.06,6.15300665484038,-0.9295432853924099,0.01230601330968076,-1.5408461234864241,-2.4580833955691532,0.6,0,0.4,-19.124309402896422,-2.9514181569314863,-0.0,-0.49744011769877033,-3.4488582746302567,-11.619291067405124,5.0997981293673735,16.719089196772497,-26.684703097732495,67.38011057450325,94.06481367223574,2.0876063910114198,59.492165653461086,57.404559262449666,-4.919030261552478,0,4.919030261552478,-3.309108909759259,2.182372396315939,3.4488582746302567,0.5050945495453436,0.0350039005279541,2.075476884841919,GUIDED_NOGPS
0.002,8e-05,0.0,11.563348011888458,0.0033102734699122466,0.0009250678409510767,-0.0,0.004235341310863323,0.05,0.004,0.1,-16.49171247317546,-1.3639517381978536,-0.06596684989270185,-1.3731451387971827,-2.8030637268877383,0.08,0.002,0.06,5.613598333080385,-0.9970001020562889,0.01122719666616077,-1.168892789305005,-2.154665694695133,0.6,0,0.4,-19.339581674753912,-2.9841930735076496,-0.0,-0.504821577228403,-3.4890146507360527,-12.46250127570361,4.997183604741062,17.459684880444673,-27.27903476395707,67.09306113498472,94.3720958989418,1.6551367349561232,59.30258567882688,57.64744894387076,-4.973655122512749,0,4.973655122512749,-2.979313773145906,1.9035335442363344,3.4890146507360527,0.5042353413108633,0.043282508850097656,2.118711233139038,GUIDED_NOGPS
0.002,8e-05,0.0,11.591424922738476,0.002438942092925757,0.0009273139938190782,-0.0,0.003366256086744835,0.05,0.004,0.1,-17.133337310048287,-1.393392092594432,-0.06853334924019315,-2.557379618862925,-4.01930506069755,0.08,0.002,0.06,5.3075704846109515,-1.0633423388016783,0.010615140969221903,-2.161093432805558,-3.213820630638015,0.6,0,0.4,-19.45532565495306,-3.016281244241188,-0.0,-0.9291286911283706,-3.9454099353695584,-13.291779235020977,4.882261653785891,18.174040888806868,-27.86784185188864,66.78824783528661,94.65608968717525,1.2194710464628784,59.09740236822198,57.8779313217591,-5.027135407068647,0,5.027135407068647,-4.266232410094678,2.8509479246335387,3.9454099353695584,0.5033662560867448,0.02302384376525879,2.1417436599731445,GUIDED_NOGPS
0.002,8e-05,0.0,11.620071015255538,0.0016795680586649269,0.0009296056812204431,-0.0,0.00260917373988537,0.05,0.004,0.1,-18.095549206519603,-1.410402104595984,-0.07238219682607841,-0.9973253007647443,-2.4801096021868068,0.08,0.002,0.06,4.834348232684355,-1.1098323144938502,0.00966869646536871,-1.0221692300726544,-2.122332848101136,0.6,0,0.4,-19.62786559600043,-3.034891132057369,-0.0,-0.36370956042001734,-3.3986006924773866,-13.872903931173127,4.755341480422722,18.62824541159585,-28.20804209191968,66.4662657021554,94.67430779407508,0.8397840293324634,58.87672011730231,58.03693608796985,-5.058151886762282,0,5.058151886762282,-2.657570626140989,1.8954046333331764,3.3986006924773866,0.5026091737398853,0.03411126136779785,2.1758475303649902,GUIDED_NOGPS
0.002,8e-05,0.0,11.634689766654105,0.0008579432398557856,0.0009307751813323285,-0.0,0.0017887184211881142,0.05,0.004,0.1,-19.076023502438282,-1.438548462692709,-0.07630409400975313,-1.6518495319657085,-3.1667020886681705,0.08,0.002,0.06,4.335267444082042,-1.1715993440184886,0.008670534888164085,-1.3593655499837811,-2.5222943591141056,0.6,0,0.4,-19.802041768033856,-3.0666080556241684,-0.0,-0.6204661264898113,-3.68707418211398,-14.644991800231107,4.616747202669842,19.26173900290095,-28.770969253854176,66.12772631895285,94.89869557280703,0.4289716199278928,58.6406544956634,58.211682875735505,-5.111013426040281,0,5.111013426040281,-3.3788116503043466,2.2301575693573326,3.68707418211398,0.5017887184211881,0.03407859802246094,2.209934711456299,GUIDED_NOGPS
0.002,8e-05,0.0,11.634066443554055,-3.985892336410757e-05,0.0009307253154843244,-0.0,0.0008908663921202169,0.05,0.004,0.1,-19.99262844417159,-1.4653269758778884,-0.07997051377668636,-1.7123746974326126,-3.2576721870871874,0.08,0.002,0.06,3.854642962761066,-1.2293575749921837,0.007709285925522133,-1.3850246175527314,-2.606672906619393,0.6,0,0.4,-19.963107199865338,-3.089839620953201,-0.0,-0.4951873712590884,-3.5850269922122893,-15.366969687402296,4.466817145997332,19.83378683339963,-29.306539517557766,65.7732568543594,95.07979637191717,-0.019929461682053784,58.3893320090627,58.40926147074475,-5.149732701588668,0,5.149732701588668,-3.4784945917129986,2.30374631764186,3.5850269922122893,0.5008908663921202,0.03127646446228027,2.241203784942627,GUIDED_NOGPS
0.002,8e-05,0.0,11.617534960092225,-0.000915076177660751,0.0009294027968073781,-0.0,1.4326619146627032e-05,0.05,0.004,0.1,-21.06782823507753,-1.4879029416137535,-0.08427131294031012,-1.2496596860333098,-2.821833940587373,0.08,0.002,0.06,3.276486482308148,-1.2801203798659666,0.0065529729646162955,-1.053712909941504,-2.327280316842854,0.6,0,0.4,-20.151166902476408,-3.1229312402851357,-0.0,-0.6105794558765946,-3.7335106961617304,-16.00150474832458,4.305903136681451,20.307407885006032,-29.75805883227507,65.40349909107752,95.16155792335259,-0.4575380888303755,58.12288986164174,58.580427950472114,-5.204885400475226,0,5.204885400475226,-3.021323620964561,2.0616944581621777,3.7335106961617304,0.5000143266191466,0.03613138198852539,2.277346134185791,GUIDED_NOGPS
0.002,8e-05,0.0,11.588177276283627,-0.0017730667141242122,0.0009270541821026902,-0.0,-0.000846012532021522,0.05,0.004,0.1,-22.069208286935826,-1.5119667219948327,-0.0882768331477433,-1.4533397214799941,-3.05358327662257,0.08,0.002,0.06,2.725021091256656,-1.33223715500131,0.005450042182513312,-1.180353495899446,-2.5071406087182426,0.6,0,0.4,-20.324271385522895,-3.136410204801351,-0.0,-0.27135545933364413,-3.4077656641349954,-16.652964437516374,4.134369795158753,20.78733423267513,-30.239334439896652,65.01910845453509,95.25844289443174,-0.8865333570621061,57.84147571814841,58.728009075210515,-5.227350341335585,0,5.227350341335585,-3.2693039522366543,2.218507725261037,3.4077656641349954,0.49915398746797845,0.03311514854431152,2.3104844093322754,GUIDED_NOGPS
0.002,8e-05,0.0,11.547356675011923,-0.0025538320932596576,0.0009237885340009538,-0.0,-0.0016300435592587039,0.05,0.004,0.1,-23.050140007817024,-1.5342344502770247,-0.0922005600312681,-1.393121055531024,-3.019556065839317,0.08,0.002,0.06,2.171417105940241,-1.3853902986358286,0.004342834211880482,-1.2470192731357017,-2.62806673755965,0.6,0,0.4,-20.492177241559286,-3.151374676755742,-0.0,-0.31207076447693943,-3.463445441232681,-17.31737873294786,3.9525938293806444,21.269972562328505,-30.68468900554049,64.6207530415888,95.30544204712929,-1.2769160466298288,57.54524746615914,58.82216351278897,-5.252291127926236,0,5.252291127926236,-3.2474547684675943,2.3406176831280066,3.463445441232681,0.4983699564407413,0.031968116760253906,2.342430830001831,GUIDED_NOGPS
0.002,8e-05,0.0,11.485707937644515,-0.0033586868572421055,0.0009188566350115613,-0.0,-0.0024398302222305443,0.05,0.004,0.1,-24.191583661405275,-1.5546757165281648,-0.09676633464562111,-1.1136612886963593,-2.7651033398701452,0.08,0.002,0.06,1.5115101248433382,-1.438096544429303,0.0030230202496866767,-1.0768090065622848,-2.511882530741901,0.6,0,0.4,-20.68503336299326,-3.1521001794665016,-0.0,-0.013175378894358873,-3.1652755583608605,-17.97620680536629,3.76096332816771,21.737170133533997,-31.093514330563295,64.2091126492276,95.3026269797909,-1.6793434286210527,57.23437297830115,58.913716406922205,-5.253500299110836,0,5.253500299110836,-2.983482197603294,2.2481513082956828,3.1652755583608605,0.49756016977776946,0.03671002388000488,2.379145383834839,GUIDED_NOGPS
0.002,8e-05,0.0,11.416398752817072,-0.0042382824195725845,0.0009133119002253658,-0.0,-0.003324970519347219,0.05,0.004,0.1,-25.22328469367685,-1.5772225420836845,-0.1008931387747074,-1.378746765050562,-3.056862445908954,0.08,0.002,0.06,0.9008584884681142,-1.493662983557456,0.0018017169769362284,-1.2742156540729384,-2.7660769206534583,0.6,0,0.4,-20.85675896759698,-3.1503253694058135,-0.0,0.03617676501328682,-3.114148604392527,-18.670787294468198,3.5598770545639677,22.230664349032164,-31.544450841673687,63.78487780327587,95.32932864494956,-2.1191412097862923,56.909029874474705,59.028171084261,-5.250542282343023,0,5.250542282343023,-3.297162624686642,2.4747339595499316,3.114148604392527,0.4966750294806528,0.032706260681152344,2.4119069576263428,GUIDED_NOGPS
0.002,8e-05,0.0,11.313950538997368,-0.005091732615451094,0.0009051160431197895,-0.0,-0.0041866165723313045,0.05,0.004,0.1,-26.50749749837888,-1.5956520809598527,-0.10602998999351551,-0.9159582259643232,-2.6176402969176915,0.08,0.002,0.06,0.125545333174076,-1.5413396223564724,0.00025109066634815204,-0.888583196269485,-2.429671727959609,0.6,0,0.4,-21.0682085517902,-3.1527482155665614,-0.0,-0.040138929250014554,-3.192887144816576,-19.266745279455904,3.349743739191158,22.616489018647062,-31.913041619197053,63.34874878709696,95.26179040629401,-2.5458663077255466,56.569405284075245,59.11527159180079,-5.254580359277602,0,5.254580359277602,-2.829152264364119,2.179734592728424,3.192887144816576,0.4958133834276687,0.04024100303649902,2.4521048069000244,GUIDED_NOGPS
