D-kp,D-ki,D-kd,D-I-Tot,D-P,D-I,D-D,D-PID,E-kp,E-ki,E-kd,E-I-Tot,E-P,E-I,E-D,E-PID,N-kp,N-ki,N-kd,N-I-Tot,N-P,N-I,N-D,N-PID,Y-kp,Y-ki,Y-kd,Y-I-Tot,Y-P,Y-I,Y-D,Y-PID,errorN,desiredN,actualN,errorE,desiredE,actualE,errorD,desiredD,actualD,errorY,desiredY,actualY,roll,pitch,yaw-rate,thrust,dt,Time,Mode
0.002,8e-05,0.0,0.0005089082709406112,0.00023457508615190825,4.07126616752489e-08,0.0,0.0002346157988135835,0.05,0.003,0.1,-9.382799711919733e-05,-0.0010812218902935267,-2.81483991357592e-07,-0.4983760975158745,-0.4994576008901594,0.08,0.002,0.06,0.00043431009957014275,0.008007598605934163,8.686201991402855e-07,1.3841269931011628,1.3921354603272962,0.6,0,0.4,-0.0004375902388595756,-0.06051057165370646,-0.0,-9.297204341975847,-9.357714913629554,0.10009498257417704,5.9468073080608574,5.84671232548668,-0.021624437805870533,-1.3688680162332854,-1.3472435784274148,0.11728754307595413,1.887687616435745,1.7704000733597909,-0.10085095275617745,0,0.10085095275617745,-0.49700641780007976,-1.3930124391595284,9.357714913629554,0.5002346157988136,0.004338979721069336,0.004586458206176758,GUIDED_NOGPS
0.002,8e-05,0.0,0.0024247341805898356,0.00046752327424845854,1.9397873444718687e-07,0.0,0.0004677172529829057,0.05,0.003,0.1,-0.00029744400465841564,-0.001242221723470216,-8.923320139752469e-07,-0.039289148758825936,-0.040532262814310126,0.08,0.002,0.06,0.00030775727280948396,-0.0012353187548940524,6.15514545618968e-07,-0.8458386601787177,-0.8470733634190661,0.6,0,0.4,-0.00211049585755572,-0.12247286798172591,-0.0,-5.040265839278493,-5.162738707260218,-0.015441484436175656,6.155488764701815,6.1709302491379905,-0.02484443446940432,-1.434547063670444,-1.4097026292010397,0.23376163712422926,1.8449135384652278,1.6111519013409985,-0.20412144663620985,0,0.20412144663620985,-0.04354977542206409,0.846923588290954,5.162738707260218,0.5004677172529829,0.008195638656616211,0.01270151138305664,GUIDED_NOGPS
0.002,8e-05,0.0,0.004131927476036406,0.0006799114720471664,3.305541980829125e-07,0.0,0.0006802420262452493,0.05,0.003,0.1,-0.0010164282950207314,-0.0071586162583768265,-3.049284885062194e-06,-2.356279472376863,-2.363441137920125,0.08,0.002,0.06,0.002301729827518902,0.03176499857421234,4.603459655037805e-06,4.928548745717856,4.960318347751723,0.6,0,0.4,-0.0026383689335550383,-0.0630696525895526,-0.0,7.886029021894761,7.822959369305209,0.3970624821776543,6.3368006882365515,5.939738206058897,-0.14317232516753653,-1.4946551513921107,-1.3514828262245742,0.3399557360235832,1.781493735255644,1.4415379992320607,-0.10511608764925436,0,0.10511608764925436,-2.35609867725365,-4.004329286591798,-7.822959369305209,0.5006802420262453,0.005021810531616211,0.017745256423950195,GUIDED_NOGPS
0.002,8e-05,0.0,0.01521016203033674,0.0007263636627175254,1.2168129624269393e-06,0.0,0.0007275804756799524,0.05,0.003,0.1,-0.008983621725010011,-0.013059571389783399,-2.6950865175030035e-05,-0.3869063578471019,-0.39999288010206036,0.08,0.002,0.06,0.025657063473946664,0.0612533183270574,5.131412694789333e-05,0.7250448110010769,0.7863494434550822,0.6,0,0.4,-0.0067723969054244715,-0.08131641421849546,-0.0,-0.3987935245027436,-0.480109938721239,0.7656664790882175,6.491777515629289,5.726111036541072,-0.26119142779566795,-1.5486735275025445,-1.2874820997068765,0.3631818313587627,1.6983445325221525,1.3351627011633898,-0.13552735703082577,0,0.13552735703082577,-0.3981317329569595,-0.7872933853190607,0.480109938721239,0.50072758047568,0.030503273010253906,0.04829597473144531,GUIDED_NOGPS
0.002,8e-05,0.0,0.029139741620443395,0.0007934229817156262,2.3311793296354717e-06,0.0,0.0007957541610452617,0.05,0.003,0.1,-0.021136258801654727,-0.01730522712958901,-6.340877640496418e-05,-0.24183076126770864,-0.2591993971737026,0.08,0.002,0.06,0.05799603647138431,0.0736805708033623,0.00011599207294276862,0.2654441484710817,0.33924071134738676,0.6,0,0.4,-0.010180934918238044,-0.05824466652256427,-0.0,0.43805234110816865,0.3798076745856044,0.9210071350420286,6.62143256120012,5.700425426158091,-0.34610454259178014,-1.5961087363143682,-1.250004193722588,0.3967114908578131,1.5963644410518762,1.1996529501940632,-0.09707444420427379,0,0.09707444420427379,-0.2586242605177016,-0.33967937765246187,-0.3798076745856044,0.5007957541610453,0.035112619400024414,0.08334541320800781,GUIDED_NOGPS
0.002,8e-05,0.0,0.04100243883224526,0.0007828463732250231,3.280195106579621e-06,-0.0,0.0007861265683316026,0.05,0.003,0.1,-0.03427849015330771,-0.021682143542132527,-0.00010283547045992312,-0.2888426702874866,-0.3106276493000791,0.08,0.002,0.06,0.09043749316462656,0.08563542088615364,0.0001808749863292531,0.2958479065510686,0.3816642024235515,0.6,0,0.4,-0.012622397732814436,-0.0483353054275059,-0.0,0.2179804265347531,0.16964512110724722,1.0704427610769205,6.726758213161501,5.656315452084581,-0.4336428708426505,-1.6364922541065483,-1.2028493832638978,0.3914231866125115,1.4764343011787133,1.0850111145662018,-0.0805588423791765,0,0.0805588423791765,-0.3100907160669453,-0.38210057279515786,-0.16964512110724722,0.5007861265683317,0.030306577682495117,0.11365580558776855,GUIDED_NOGPS
0.002,8e-05,0.0,0.055873934985729866,0.0008066885118599266,4.46991479885839e-06,0.0,0.000811158426658785,0.05,0.003,0.1,-0.05342609932229229,-0.025966043003992568,-0.00016027829796687687,-0.23237557581156212,-0.25850189711352156,0.08,0.002,0.06,0.13432481702304194,0.09522485056640179,0.0002686496340460839,0.19506316005061647,0.29055666025106436,0.6,0,0.4,-0.012759921630480026,-0.0022379513239568186,-0.0,0.8335006690804907,0.8312627177565339,1.1903106320800223,6.808726130154749,5.618415498074727,-0.5193208600798513,-1.669380124882376,-1.1500592648025247,0.40334425592996326,1.339417427258146,0.9360731713281828,-0.0037299188732613647,0,0.0037299188732613647,-0.25848298151165033,-0.29057348794477095,-0.8312627177565339,0.5008111584266588,0.036870479583740234,0.15059542655944824,GUIDED_NOGPS
0.002,8e-05,0.0,0.06821690945456799,0.0008065650949824824,5.4573527563654394e-06,-0.0,0.0008120224477388478,0.05,0.003,0.1,-0.07160848470528174,-0.02970369385123476,-0.00021482545411584522,-0.24424086092280733,-0.27415938022815795,0.08,0.002,0.06,0.17301642038131085,0.10113379661109946,0.0003460328407626217,0.1447974404332309,0.24627726988509296,0.6,0,0.4,-0.010513945599397972,0.04402972416604048,-0.0,1.0078038636587296,1.0518335878247702,1.2641724576387432,6.868287437786526,5.6041149801477825,-0.5940738770246952,-1.6943525961274468,-1.1002787191027517,0.40328254749124115,1.1861597521420517,0.7828772046508106,0.07338287361006747,0,-0.07338287361006747,-0.2744745804977738,-0.24592593212126634,-1.0518335878247702,0.5008120224477388,0.03060626983642578,0.18113183975219727,STABILIZE
0.002,8e-05,0.0,0.0764902432809347,0.0004327521111566817,6.119219462474777e-06,-0.0,0.0004388713306191565,0.05,0.003,0.1,-0.09591957761006117,-0.0317909231026694,-0.0002877587328301835,-0.10917640747768419,-0.14125508931318376,0.08,0.002,0.06,0.22267714364155028,0.10390385923481646,0.0004453542872831006,0.054334978813017264,0.15868419233511682,0.6,0,0.4,-0.00402677938458445,0.10179698778519035,-0.0,1.0072080498456921,1.1090050376308824,1.2987982404352056,6.906372925165334,5.607574684730128,-0.635818462053388,-1.7110137545676405,-1.0751952925142525,0.21637605557834083,1.017489971653513,0.8011139160751722,0.16966164630865058,0,-0.16966164630865058,-0.14172435771911132,-0.15826521911977134,-1.1090050376308824,0.5004388713306192,0.03823590278625488,0.2193737030029297,STABILIZE
0.002,8e-05,0.0,0.07463440330249717,-0.00012896206905275065,5.970752264199774e-06,-0.0,-0.00012299131678855088,0.05,0.003,0.1,-0.11504558545760922,-0.033226592451354064,-0.00034513675637282766,-0.09976446882983317,-0.13333619803756006,0.08,0.002,0.06,0.25978531167786234,0.10314566308133963,0.0005195706233557247,-0.019757605552526696,0.08390762815216865,0.6,0,0.4,0.004912238343516455,0.18635133980985877,0.0,1.9585568280329195,2.1449081678427784,1.2893207885167453,6.923893241438008,5.634572452921263,-0.6645318490270813,-1.7189911619271032,-1.054459312900022,-0.06448103452637532,0.8342196890616269,0.8987007235880022,0.31058556634976464,0,-0.31058556634976464,-0.1337890783092026,-0.0831836179449301,-2.1449081678427784,0.4,0.02878117561340332,0.24815011024475098,STABILIZE
0.002,8e-05,0.0,0.06207685174209497,-0.0007350422677794066,4.966148139367598e-06,-0.0,-0.000730076119640039,0.05,0.003,0.1,-0.1384944271951775,-0.03431379462126325,-0.00041548328158553247,-0.06363816582084926,-0.09836744372369804,0.08,0.002,0.06,0.3037673653368026,0.1029776172769386,0.0006075347306736052,-0.003688640115180903,0.09989651189243132,0.6,0,0.4,0.020294319528950715,0.27011188725741736,0.0,1.6342767258451714,1.9043886131025887,1.2872202159617325,6.921739092326208,5.634518876364475,-0.686275892425265,-1.717935490686226,-1.031659598260961,-0.3675211338897033,0.6371435595563157,1.004664693446019,0.4501864787623623,0,-0.4501864787623623,-0.09914930974860202,-0.09912053999744627,-1.9043886131025887,0.4,0.034168243408203125,0.28235530853271484,STABILIZE
0.002,8e-05,0.0,0.042510405853142405,-0.0011808036122647329,3.4008324682513928e-06,-0.0,-0.0011774027797964814,0.05,0.003,0.1,-0.16190962516043056,-0.035326740605041894,-0.0004857288754812917,-0.061129664705750375,-0.09694213418627357,0.08,0.002,0.06,0.343290382977893,0.09540602777441982,0.000686580765955786,-0.17134997879599279,-0.07525737025561717,0.6,0,0.4,0.03590631885389301,0.2826477322788837,0.0,0.25217271050224943,0.5348204427811332,1.1925753471802478,6.900781436662905,5.708206089482657,-0.7065348121008379,-1.7075201598396261,-1.0009853477387882,-0.5904018061323664,0.4270394347231379,1.0174412408555042,0.4710795537981395,0,-0.4710795537981395,-0.09632010679420551,0.07605186510226668,-0.5348204427811332,0.4,0.03314089775085449,0.3154733180999756,STABILIZE
0.002,8e-05,0.0,0.014659821218020817,-0.0016564754222226337,1.1727856974416653e-06,-0.0,-0.0016553026365251921,0.05,0.003,0.1,-0.18602360527257591,-0.035855814079896936,-0.0005580708158177277,-0.03146782084215567,-0.06788170573787033,0.08,0.002,0.06,0.37971231005301936,0.08665100258448277,0.0007594246201060388,-0.19527171832394102,-0.1078612911193522,0.6,0,0.4,0.052406346183359,0.29441273957453684,0.0,0.23324998598584884,0.5276627255603856,1.0831375323060346,6.86187168292888,5.778734150622846,-0.7171162815979387,-1.6874409706541265,-0.9703246890561877,-0.8282377111113168,0.20466850701809558,1.0329062181294124,0.49068789929089474,0,-0.49068789929089474,-0.06695549070175116,0.10843867557612542,-0.5276627255603856,0.4,0.03362631797790527,0.3491213321685791,STABILIZE
0.002,8e-05,0.0,-0.038060516860926374,-0.0023269103266446794,-3.04484134887411e-06,-0.0,-0.0023299551679935534,0.05,0.003,0.1,-0.21660424162843717,-0.03374333375160722,-0.0006498127248853115,0.09323825434067184,0.05884510786417931,0.08,0.002,0.06,0.4222011710815668,0.07501300112806263,0.0008444023421631336,-0.19262432742201957,-0.1167669239517938,0.6,0,0.4,0.08640040011008085,0.4501172678833366,0.0,2.2907697992157248,2.7408870670990613,0.9376625141007828,6.805841885789213,5.86817937168843,-0.6748666750321444,-1.6574157424267373,-0.9825490673945929,-1.1634551633223396,-0.029224545757553955,1.1342306175647856,0.7501954464722277,0,-0.7501954464722277,0.06036889392321506,0.11598645565409137,-2.7408870670990613,0.4,0.04531359672546387,0.3944094181060791,STABILIZE
0.002,8e-05,0.0,-0.09284601527423991,-0.0030706029322966634,-7.427681221939194e-06,-0.0,-0.0030780306135186025,0.05,0.003,0.1,-0.23858871366847004,-0.030804494923931492,-0.0007157661410054101,0.16471525099086137,0.13319498992592446,0.08,0.002,0.06,0.4464765941917786,0.054423296342116956,0.0008929531883835572,-0.43275234588915074,-0.3774360963586502,0.6,0,0.4,0.118969017161702,0.5476191359897487,0.0,1.8215861908887672,2.369205326878516,0.680291204276462,6.73350494262977,6.053213738353308,-0.6160898984786298,-1.6171839482426353,-1.0010940497640055,-1.5353014661483317,-0.27391141598248603,1.2613900501658457,0.9126985599829144,0,-0.9126985599829144,0.13919024089715099,0.37526655728270875,-2.369205326878516,0.4,0.03568387031555176,0.4300987720489502,STABILIZE
0.002,8e-05,0.0,-0.12997731302948856,-0.003707034911454596,-1.0398185042359086e-05,-0.0,-0.003717433096496955,0.05,0.003,0.1,-0.24985423852414002,-0.02811758305022141,-0.0007495627155724201,0.26825014804221897,0.23938300227642514,0.08,0.002,0.06,0.4560574768855888,0.03826062516060055,0.0009121149537711776,-0.6051052948025472,-0.5659325546881754,0.6,0,0.4,0.13970623452598666,0.6210953566116011,0.0,2.4451871374775322,3.0662824940891333,0.47825781450750693,6.645654790093704,6.167396975586197,-0.5623516610044281,-1.5665063507331443,-1.0041546897287161,-1.853517455727298,-0.528680021740503,1.324837433986795,1.0351589276860018,0,-1.0351589276860018,0.24956804285748174,0.5615155120021581,-3.0662824940891333,0.4,0.020032882690429688,0.4501368999481201,STABILIZE
0.002,8e-05,0.0,-0.20884275275743175,-0.004315505173647542,-1.6707420220594542e-05,-0.0,-0.004332212593868137,0.05,0.003,0.1,-0.26914916660153065,-0.026395390119670438,-0.000807447499804592,0.09423814192186164,0.0670353043023866,0.08,0.002,0.06,0.4684908154419194,0.02721401772469676,0.0009369816308838388,-0.22667577064814168,-0.19852477129256108,0.6,0,0.4,0.18313035988538034,0.7128485111959079,0.0,1.6735730068539512,2.386421518049859,0.3401752215587095,6.543066600617939,6.2028913790592295,-0.5279078023934087,-1.5051646378337165,-0.9772568354403077,-2.1577525868237712,-0.7928343623457186,1.3649182244780527,1.1880808519931798,0,-1.1880808519931798,0.07113719224896618,0.1970921528590392,-2.386421518049859,0.4,0.03654980659484863,0.4866926670074463,STABILIZE
0.002,8e-05,0.0,-0.2960577814587649,-0.005055820986436265,-2.368462251670119e-05,-0.0,-0.005079505608952966,0.05,0.003,0.1,-0.28577635625451,-0.024096791471818868,-0.0008573290687635299,0.1332488615350802,0.1082947409944978,0.08,0.002,0.06,0.4690587742692371,0.0013169740130076946,0.0009381175485384742,-0.562965547769522,-0.5607104562079759,0.6,0,0.4,0.22805093318053152,0.7812084014766905,0.0,1.3209320039539563,2.1021404054306467,0.016462175162596182,6.426496978969665,6.4100348038070685,-0.48193582943637736,-1.4329610585419115,-0.9510252291055341,-2.5279104932181324,-1.065694373867754,1.4622161193503787,1.3020140024611508,0,-1.3020140024611508,0.1210075101033309,0.5581049624637054,-2.1021404054306467,0.4,0.034500837326049805,0.5212118625640869,STABILIZE
0.002,8e-05,0.0,-0.3826181480932326,-0.005809200240272242,-3.060945184745861e-05,-0.0,-0.005839809692119701,0.05,0.003,0.1,-0.2984962252082857,-0.02134125254302069,-0.0008954886756248572,0.18492848435879705,0.1626917431401515,0.08,0.002,0.06,0.4600544121660605,-0.02417186734624707,0.0009201088243321211,-0.641473354545108,-0.664725113067023,0.6,0,0.4,0.26999242943247076,0.8444276274834692,0.0,1.4142467166267239,2.258674344110193,-0.30214834182808836,6.296684158782828,6.598832500610916,-0.4268250508604138,-1.3497180586753768,-0.922893007814963,-2.904600120136121,-1.3465957846569243,1.5580043354791964,1.4073793791391154,0,-1.4073793791391154,0.17896893430400695,0.6605287274464567,-2.258674344110193,0.4,0.029801130294799805,0.5510003566741943,STABILIZE
0.002,8e-05,0.0,-0.49265835266389213,-0.0065243466733322835,-3.941266821311137e-05,-0.0,-0.006563759341545395,0.05,0.003,0.1,-0.31093514552819684,-0.018437767524538073,-0.0009328054365845905,0.17214928757464443,0.15277871461352177,0.08,0.002,0.06,0.4408520327011809,-0.045540802498710134,0.0008817040654023618,-0.47511614568031024,-0.519775244113618,0.6,0,0.4,0.32270004625557724,0.9375194252523176,0.0,1.8398219797858961,2.7773414050382135,-0.5692600312338767,6.154348199094627,6.723608230328503,-0.36875535049076147,-1.2552779166298298,-0.8865225661390683,-3.262173336666142,-1.6348899708694267,1.627283365796715,1.5625323754205294,0,-1.5625323754205294,0.16689511303414467,0.515416007975743,-2.7773414050382135,0.4,0.03373217582702637,0.5847318172454834,STABILIZE
0.002,8e-05,0.0,-0.6431033709661166,-0.007196023925978095,-5.144826967728933e-05,-0.0,-0.007247472195655384,0.05,0.003,0.1,-0.3229651222431044,-0.014385321834906218,-0.0009688953667293133,0.19383490706708542,0.1784806898654499,0.08,0.002,0.06,0.40195499864500345,-0.0744202741643587,0.0008039099972900069,-0.5180066065517758,-0.5916229707188445,0.6,0,0.4,0.39314535017397884,1.010853197115376,0.0,1.1692235539247184,2.1800767510400947,-0.9302534270544838,6.000191180881995,6.9304446079364785,-0.28770643669812435,-1.1495023791370345,-0.8617959424389101,-3.5980119629890472,-1.929943811992535,1.668068150996512,1.684755328525627,0,-1.684755328525627,0.195797423048161,0.5861198386548071,-2.1800767510400947,0.4,0.04181337356567383,0.6266119480133057,STABILIZE
0.002,8e-05,0.0,-0.765299697517505,-0.00800400632850977,-6.122397580140041e-05,-0.0,-0.008065230304311171,0.05,0.003,0.1,-0.32902934676160145,-0.009930349952693141,-0.0009870880402848045,0.29180601532707373,0.2808885773340958,0.08,0.002,0.06,0.3595973261452995,-0.110979139329855,0.000719194652290599,-0.8979936112012861,-1.0082535558788503,0.6,0,0.4,0.4511121475952005,1.1390684806088318,0.0,2.7994184153092387,3.9384868959180706,-1.3872392416231873,5.834897403598102,7.22213664522129,-0.1986069990538628,-1.0322722970227876,-0.8336652979689247,-4.0020031642548854,-2.231139546369784,1.7708636178851016,1.8984474676813865,0,-1.8984474676813865,0.3141359225876062,0.9983948357033664,-3.9384868959180706,0.4,0.030533790588378906,0.65708327293396,STABILIZE
0.002,8e-05,0.0,-0.8871426757759221,-0.008771523309896532,-7.097141406207377e-05,-0.0,-0.008842494723958606,0.05,0.003,0.1,-0.33186200065373156,-0.005098096336538811,-0.0009955860019611948,0.34787581393104555,0.34178213159254556,0.08,0.002,0.06,0.3109861959576878,-0.13998136541170617,0.0006219723919153756,-0.7829555683636807,-0.9223149613834716,0.6,0,0.4,0.5085312589128554,1.2400872349528964,0.0,2.424126448458841,3.664213683411737,-1.749767067646327,5.659133581708841,7.408900649355168,-0.1019619267307762,-0.9034872609648921,-0.8015253342341159,-4.385761654948266,-2.5378746267261674,1.8478870282220985,2.0668120582548273,0,-2.0668120582548273,0.3748229390482113,0.9093886286022053,-3.664213683411737,0.4,0.02778148651123047,0.6848666667938232,STABILIZE
0.002,8e-05,0.0,-1.0475722899716735,-0.009446464686372662,-8.380578319773388e-05,-0.0,-0.009530270469570395,0.05,0.003,0.1,-0.3316228532630421,0.00035203871060701664,-0.0009948685597891262,0.32091648737623446,0.32027365752705234,0.08,0.002,0.06,0.23710885153838981,-0.17400271855752422,0.00047421770307677966,-0.7512208220230229,-0.9247493228774704,0.6,0,0.4,0.58268479618167,1.309899250255803,0.0,1.3702306783142504,2.6801299285700533,-2.1750339819690527,5.473549041229319,7.648583023198372,0.007040774212140333,-0.7630652372511431,-0.7701060114632834,-4.72323234318633,-2.8495615756933166,1.8736707674930138,2.183165417093005,0,-2.183165417093005,0.3552687780179978,0.9118775253473977,-2.6801299285700533,0.4,0.033966064453125,0.7188360691070557,STABILIZE
0.002,8e-05,0.0,-1.2175256667184033,-0.010228231356123508,-9.740205333747227e-05,-0.0,-0.01032563340946098,0.05,0.003,0.1,-0.32711451215928433,0.006783089092468259,-0.000981343536477853,0.38703715352821855,0.39283889908420894,0.08,0.002,0.06,0.14685049958285268,-0.21727919110413801,0.00029370099916570534,-0.9766835365898605,-1.1936690266948329,0.6,0,0.4,0.6571024555997171,1.3435938468759523,0.0,0.6759424972487869,2.019536344124739,-2.715989888801725,5.278775916260354,7.994765805062079,0.13566178184936517,-0.6109422035373047,-0.7466039853866698,-5.114115678061754,-3.165627841334701,1.9484878367270535,2.239323078126587,0,-2.239323078126587,0.4391798612862133,1.1774078288192693,-2.019536344124739,0.4,0.03323221206665039,0.7520923614501953,STABILIZE
0.002,8e-05,0.0,-1.4221554883870744,-0.01091660270465704,-0.00011377243907096597,-0.0,-0.011030375143728005,0.05,0.003,0.1,-0.3161470499941098,0.014627318999650269,-0.0009484411499823295,0.41847439792694285,0.4321532757766108,0.08,0.002,0.06,0.027061791541476213,-0.255619776927572,5.412358308295243e-05,-0.7670233610474186,-1.0225890143919076,0.6,0,0.4,0.742978117683859,1.374389828413975,0.0,0.5476352250926063,1.9220250535065815,-3.1952472115946495,5.075429345524958,8.270676557119607,0.29254637999300537,-0.4470717846050929,-0.7396181645980983,-5.45830135232852,-3.4855156526708164,1.9727856996577033,2.2906497140232918,0,-2.2906497140232918,0.47267953992478123,1.0044992775786181,-1.9220250535065815,0.4,0.03748965263366699,0.7895607948303223,STABILIZE
0.002,8e-05,0.0,-1.5952418734491065,-0.01151247886475137,-0.00012761934987592853,-0.0,-0.0116400982146273,0.05,0.003,0.1,-0.3022533542714245,0.02310275275310887,-0.0009067600628142736,0.5637257483962325,0.5859217410865271,0.08,0.002,0.06,-0.08436008656636088,-0.2964397266319147,-0.00016872017313272175,-1.018145089942457,-1.3147535367475043,0.6,0,0.4,0.8144780962121142,1.4267014554756168,0.0,1.1597994853110907,2.5865009407867072,-3.7054965828989337,4.864107668904837,8.56960425180377,0.46205505506217737,-0.2714248881201533,-0.7334799431823307,-5.756239432375685,-3.808681875204364,1.947557557171321,2.377835759126028,0,-2.377835759126028,0.6399652437422828,1.2893120785402652,-2.5865009407867072,0.4,0.030069351196289062,0.819622278213501,STABILIZE
0.002,8e-05,0.0,-1.8010966770898869,-0.01221664687663673,-0.00014408773416719095,-0.0,-0.012360734610803921,0.05,0.003,0.1,-0.280755628154319,0.031895069240359196,-0.0008422668844629569,0.5217882888941713,0.5528410912500675,0.08,0.002,0.06,-0.22478770808987547,-0.333352369444327,-0.00044957541617975094,-0.8214808105284304,-1.155282755388937,0.6,0,0.4,0.8937270930544051,1.4109318693957942,0.0,-0.31195363774313223,1.098978231652662,-4.166904618054088,4.645392623976879,8.812297242030967,0.637901384807184,-0.0839893403900438,-0.7218907251972277,-6.108323438318365,-4.134597866445458,1.973725571872907,2.351553115659657,0,-2.351553115659657,0.5997777355271862,1.1316263451508635,-1.098978231652662,0.4,0.03370070457458496,0.8533475399017334,STABILIZE
0.002,8e-05,0.0,-2.014618363119369,-0.012826818223876957,-0.00016116946904954951,-0.0,-0.012987987692926507,0.05,0.003,0.1,-0.25379558816098663,0.04048904103529546,-0.0007613867644829599,0.5162628493836097,0.5559905036544222,0.08,0.002,0.06,-0.3804795246573654,-0.3741129376021594,-0.0007609590493147309,-0.9182235915669594,-1.2930974882184336,0.6,0,0.4,0.9715889032088523,1.403210096367278,0.0,-0.15462251297063043,1.2485875833966475,-4.676411720026993,4.419849542549649,9.096261262576641,0.8097808207059091,0.11523047787778506,-0.694550342828124,-6.413409111938479,-4.462749331436795,1.9506597805016834,2.3386834939454633,0,-2.3386834939454633,0.6082940490014489,1.2693324639904797,-1.2485875833966475,0.4,0.03329300880432129,0.8866703510284424,STABILIZE
0.002,8e-05,0.0,-2.2427799750737565,-0.013533858883704362,-0.00017942239800590053,-0.0,-0.013713281281710264,0.05,0.003,0.1,-0.22080456238527355,0.04892320441775438,-0.0006624136871558207,0.5002891417296137,0.5485499324602122,0.08,0.002,0.06,-0.5558371897228238,-0.4160675186054094,-0.0011116743794456476,-0.9332322174387749,-1.35041141042363,0.6,0,0.4,1.0472826681618217,1.346977773089941,0.0,-1.1118439563071079,0.23513381678283318,-5.200843982567617,4.188027547199869,9.388871529767487,0.9784640883550875,0.3262139958180146,-0.6522500925370729,-6.766929441852181,-4.79263617827887,1.9742932635733106,2.244962955149902,0,-2.244962955149902,0.6010271872697547,1.3278871661278484,-0.23513381678283318,0.4,0.03371715545654297,0.9203495979309082,STABILIZE
0.002,8e-05,0.0,-2.4968215145935435,-0.014314294384239243,-0.00019974572116748348,-0.0,-0.014514040105406726,0.05,0.003,0.1,-0.17940320927620418,0.05832030043485251,-0.0005382096278286126,0.5294913540516772,0.5872734448587011,0.08,0.002,0.06,-0.7604678011609818,-0.46120690619173643,-0.0015209356023219635,-0.9537886256559915,-1.4165164674500499,0.6,0,0.4,1.1247939102423383,1.3102409227945904,0.0,-0.6899948867567225,0.6202460360378679,-5.7650863273967055,3.950459747808928,9.715546075205634,1.16640600869705,0.548924816649468,-0.6174811920475819,-7.157147192119622,-5.123772373655139,2.0333748184644826,2.1837348713243174,0,-2.1837348713243174,0.6408220885946797,1.3931102082615454,-0.6202460360378679,0.4,0.03549480438232422,0.9558324813842773,STABILIZE
0.002,8e-05,0.0,-2.8073350559681565,-0.015056162731979673,-0.00022458680447745254,-0.0,-0.015280749536457125,0.05,0.003,0.1,-0.12267571971884139,0.06876498126066592,-0.00036802715915652416,0.5064410830551033,0.5748380371566126,0.08,0.002,0.06,-1.0196143039877748,-0.5026192288698201,-0.0020392286079755494,-0.7529993699190937,-1.2576578273968892,0.6,0,0.4,1.213040785015676,1.283672816290869,0.0,-0.4294109399435255,0.8542618763473435,-6.282740360872752,3.707663438099366,9.990403798972117,1.3752996252133185,0.7833110819171414,-0.591988543296177,-7.528081365989836,-5.455685798357221,2.0723955676326145,2.139454693818115,0,-2.139454693818115,0.6213880266744081,1.2353213752220173,-0.8542618763473435,0.4,0.04124736785888672,0.9970924854278564,STABILIZE
0.002,8e-05,0.0,-3.020027655795163,-0.015736554780423382,-0.00024160221246361305,-0.0,-0.015978156992886995,0.05,0.003,0.1,-0.07878478120788755,0.08118431938906134,-0.00023635434362366265,0.918873505486579,0.9998214705320166,0.08,0.002,0.06,-1.204164130141616,-0.5461738586767289,-0.002408328260283232,-1.2084338238406354,-1.7570160107776474,0.6,0,0.4,1.26764013198648,1.2118977556533321,0.0,-1.7701480517101265,-0.5582502960567943,-6.827173233459111,3.4601402921713484,10.28731352563046,1.6236863877812269,1.0293058357342142,-0.5943805520470127,-7.868277390211691,-5.7879181028101,2.0803592874015915,2.0198295927555536,0,-2.0198295927555536,1.061126959181715,1.720685273826556,0.5582502960567943,0.4,0.027031660079956055,1.0241291522979736,STABILIZE
0.002,8e-05,0.0,-3.290839610594759,-0.016458749297433316,-0.00026326716884758075,-0.0,-0.016722016466280895,0.05,0.003,0.1,-0.015772651485130157,0.0957399431066177,-4.731795445539047e-05,0.8846262411580637,0.9803188663102259,0.08,0.002,0.06,-1.4417039730194405,-0.5774647171644944,-0.002883407946038881,-0.7131448400229068,-1.2934929651334401,0.6,0,0.4,1.3295461163093552,1.1287113341082347,0.0,-1.6852338961852062,-0.5565225620769716,-7.21830896455618,3.208376561039194,10.426685525595374,1.9147988621323537,1.2868273890240731,-0.6279714731082806,-8.229374648716657,-6.120024562597294,2.1093500861193624,1.8811855568470577,0,-1.8811855568470577,1.0222519946105033,1.260614925347274,0.5565225620769716,0.4,0.032907962799072266,1.057037115097046,STABILIZE
0.002,8e-05,0.0,-3.5881814920825286,-0.017050506437871576,-0.0002870545193666023,-0.0,-0.01733756095723818,0.05,0.003,0.1,0.06289298176251149,0.11277328974116685,0.00018867894528753446,0.9767449677714657,1.0897069364579202,0.08,0.002,0.06,-1.7101826589869105,-0.6158160485989843,-0.003420365317973821,-0.8246941453212505,-1.4439305592382086,0.6,0,0.4,1.3885951253721383,1.0158160405832366,0.0,-2.157922186431665,-1.1421061458484283,-7.697700607487304,2.952843269167831,10.650543876655135,2.255465794823337,1.555779683762334,-0.6996861110610029,-8.525253218935788,-6.451573933986051,2.073679284949736,1.6930267343053944,0,-1.6930267343053944,1.1318915771636573,1.4111052848077779,1.1421061458484283,0.4,0.034877777099609375,1.091928243637085,STABILIZE
0.002,8e-05,0.0,-3.8748272368205328,-0.017641922753636748,-0.00030998617894564264,-0.0,-0.01795190893258239,0.05,0.003,0.1,0.14767366262461945,0.13044797020596888,0.00044302098787385837,1.0878073481964667,1.2186983393903095,0.08,0.002,0.06,-1.9762383343676315,-0.6549873855651939,-0.003952476668735263,-0.9040658813191704,-1.5630057435530995,0.6,0,0.4,1.4374746184277052,0.9025023987480509,0.0,-2.324670262727683,-1.422167863979632,-8.187342319564923,2.693996411009307,10.88133873057423,2.6089594041193775,1.8360526572188545,-0.7729067469005231,-8.820961376818374,-6.782148309452552,2.038813067365823,1.504170664580085,0,-1.504170664580085,1.259306851993394,1.530476673894497,1.422167863979632,0.4,0.032495975494384766,1.1244072914123535,STABILIZE
0.002,8e-05,0.0,-4.196289353191217,-0.018084282368416457,-0.0003357031482552974,-0.0,-0.018419985516671754,0.05,0.003,0.1,0.25358797389340393,0.14895878972192683,0.0007607639216802118,1.0413509709223878,1.191070524565995,0.08,0.002,0.06,-2.2802259059708376,-0.684049136915709,-0.0045604518119416754,-0.6130904204323755,-1.3017000091600262,0.6,0,0.4,1.4836366050282737,0.7790713348714853,0.0,-2.314593331016247,-1.535521996144762,-8.550614211446362,2.4322771475392786,10.98289135898564,2.9791757944385364,2.1275226061997614,-0.8516531882387749,-9.042141184208228,-7.111342973207085,1.9307982110011426,1.2984522247858088,0,-1.2984522247858088,1.22026163118474,1.2743757137498675,1.535521996144762,0.4,0.03555154800415039,1.1599814891815186,STABILIZE
0.002,8e-05,0.0,-4.481965361380126,-0.018597257837648477,-0.00035855722891041007,-0.0,-0.018955815066558888,0.05,0.003,0.1,0.358370017872501,0.17053048145248015,0.001075110053617503,1.4042982315899808,1.5759038230960785,0.08,0.002,0.06,-2.5549670137681146,-0.7154162161112845,-0.005109934027536229,-0.7657385149949897,-1.4862646651338105,0.6,0,0.4,1.5179781213561696,0.6706807873729863,0.0,-2.3520432252055556,-1.6813624378325693,-8.942702701391056,2.168112002793511,11.110814704184566,3.4106096290496026,2.4300525512894646,-0.9805570777601379,-9.298628918824239,-7.438766256719241,1.8598626621049972,1.1178013122883106,0,-1.1178013122883106,1.6045980912576894,1.4552389769403284,1.6813624378325693,0.4,0.030722379684448242,1.1906962394714355,STABILIZE
0.002,8e-05,0.0,-4.921840515702816,-0.019055966775732718,-0.0003937472412562253,-0.0,-0.019449714016988945,0.05,0.003,0.1,0.537550828958608,0.1940586749076114,0.001612652486875824,1.019272101113225,1.2149434285077123,0.08,0.002,0.06,-2.9790671009960574,-0.7349028097979245,-0.005958134201992115,-0.3165692681909294,-1.057430212190846,0.6,0,0.4,1.5585212857376898,0.5269148660784886,0.0,-2.076042556430149,-1.5491276903516602,-9.186285122474057,1.901913060404346,11.088198182878404,3.8811734981522275,2.7434926010926763,-1.1376808970595513,-9.527983387866358,-7.7640393942431025,1.7639439936232564,0.8781914434641477,0,-0.8781914434641477,1.2310076692231862,1.0386848927570629,1.5491276903516602,0.4,0.04616665840148926,1.2370812892913818,STABILIZE
0.002,8e-05,0.0,-5.349359324719877,-0.019417456449429847,-0.00042794874597759024,-0.0,-0.019845405195407437,0.05,0.003,0.1,0.7306616935968706,0.2192723293652538,0.002191985080790612,1.14517777238359,1.3666420868296345,0.08,0.002,0.06,-3.4006856671735357,-0.7659789440230705,-0.006801371334347071,-0.5292920482733589,-1.3020723636307765,0.6,0,0.4,1.5894344774318376,0.42121343489944846,0.0,-1.6002827581476131,-1.1790693232481646,-9.574736800288381,1.634078160137217,11.208814960425597,4.385446587305076,3.067680316476442,-1.3177662708286337,-9.708728224714923,-8.08679637834244,1.6219318463724832,0.7020223914990807,0,-0.7020223914990807,1.3824928791513873,1.285230124421616,1.1790693232481646,0.4,0.044034481048583984,1.2808928489685059,STABILIZE
0.002,8e-05,0.0,-5.468201687536009,-0.019737902816550024,-0.00043745613500288075,-0.0,-0.020175358951552903,0.05,0.003,0.1,0.7898184954601898,0.24562605001438104,0.0023694554863805694,4.376950817039558,4.624946322540319,0.08,0.002,0.06,-3.5171428286565622,-0.7736702910222613,-0.007034285657313124,-0.47903075974242554,-1.2597353364219999,0.6,0,0.4,1.595445457499737,0.2994996168057841,0.0,-6.738269239005423,-6.438769622199639,-9.670878637778266,1.3649910944271264,11.035869732205391,4.9125210002876205,3.402441074812144,-1.5100799254754764,-9.868951408275011,-8.406683815415894,1.4622675928591171,0.4991660280096401,0,-0.4991660280096401,4.010822989590557,1.2248396074597336,6.438769622199639,0.4,0.012042045593261719,1.2929425239562988,STABILIZE
0.002,8e-05,0.0,-5.802233272773731,-0.02004793678222365,-0.0004641786618218985,-0.0,-0.020512115444045548,0.05,0.003,0.1,0.9697060050150567,0.2699126054876711,0.00290911801504517,1.4576326021384352,1.7304543256411513,0.08,0.002,0.06,-3.8331943903726713,-0.7587524065663803,-0.007666388780745343,0.3357535833211437,-0.43066521202598196,0.6,0,0.4,1.6066237418986034,0.20126977405687826,0.0,-1.9651890864914554,-1.7639193124345771,-9.484405082079753,1.095021804915148,10.5794268869949,5.398252109753422,3.7475884342175276,-1.6506636755358937,-10.023968391111824,-8.723360781222155,1.3006076098896693,0.33544962342813045,0,-0.33544962342813045,1.732946069273203,0.42052659722080704,1.7639193124345771,0.4,0.03332328796386719,1.32627534866333,STABILIZE
0.002,8e-05,0.0,-6.133428036193565,-0.020356558045000937,-0.0004906742428954853,-0.0,-0.020847232287896422,0.05,0.003,0.1,1.1663647677554039,0.30218590093672665,0.0034990943032662115,1.9836461341611284,2.289331129401121,0.08,0.002,0.06,-4.143986171944984,-0.7641003590948882,-0.00828797234388997,-0.12326497663832012,-0.8956533080770983,0.6,0,0.4,1.611745100242181,0.09443376517834749,0.0,-2.1888564838963323,-2.094422718717985,-9.551254488686101,0.8245265789849148,10.375781067671017,6.043718018734532,4.10292449779873,-1.9407935209358023,-10.178279022500469,-9.036498676405197,1.1417803460952731,0.15738960863057916,0,-0.15738960863057916,2.2917828188363667,0.8893612199780809,2.094422718717985,0.4,0.03253936767578125,1.3588223457336426,STABILIZE
0.002,8e-05,0.0,-6.481805701538191,-0.020564232681011686,-0.0005185444561230552,-0.0,-0.02108277713713474,0.05,0.003,0.1,1.3939253718782127,0.3358143817560618,0.004181776115634638,1.9850408710720613,2.3250370289437576,0.08,0.002,0.06,-4.468443475937041,-0.7660899257414817,-0.008936886951874081,-0.04404047194133943,-0.8190672846346952,0.6,0,0.4,1.6093818899192527,-0.04184907224760602,0.0,-2.6815266477003963,-2.7233757199480024,-9.576124071768522,0.553848246299105,10.129972318067626,6.716287635121236,4.468240277892283,-2.2480473572289528,-10.282116340505842,-9.345781082019405,0.9363352584864366,-0.06974845374601003,0,0.06974845374601003,2.3240382229299166,0.8218970380036812,2.7233757199480024,0.4,0.03388190269470215,1.3926899433135986,STABILIZE
0.002,8e-05,0.0,-6.823474373271709,-0.02070944133943051,-0.0005458779498617367,-0.0,-0.021255319289292248,0.05,0.003,0.1,1.6391616450454323,0.3716104689734465,0.004917484935136297,2.1696954673905564,2.546223421299139,0.08,0.002,0.06,-4.7834032585632835,-0.7636217988010605,-0.009566806517126568,0.05609988673191833,-0.7170887185862688,0.6,0,0.4,1.598331803956794,-0.2009324757878453,0.0,-3.214155199907704,-3.4150876756955495,-9.545272485013257,0.2833163753359349,9.828588860349193,7.4322093794689295,4.8433160603071475,-2.5888933191617816,-10.354720669715254,-9.650903615054808,0.7038170546604455,-0.3348874596464088,0,0.3348874596464088,2.541988648506116,0.731958777775116,3.4150876756955495,0.4,0.032996416091918945,1.4256813526153564,STABILIZE
0.002,8e-05,0.0,-7.179337247531155,-0.020980238069211204,-0.0005743469798024925,-0.0,-0.021554585049013697,0.05,0.003,0.1,1.9160543065445257,0.40811183029120707,0.005748162919633577,2.1519728684554837,2.5658328616663244,0.08,0.002,0.06,-5.105978060321189,-0.7607083093557435,-0.01021195612064238,0.06441283981444644,-0.7065074256619395,0.6,0,0.4,1.578336718178834,-0.35364885480865765,0.0,-3.0011803428423947,-3.3548291976510525,-9.508853866946794,0.013247469925670607,9.522101336872465,8.162236605824141,5.227921768566718,-2.934314837257422,-10.490119034605602,-9.95157378396226,0.538545250643342,-0.5894147580144294,0,0.5894147580144294,2.5584292206721897,0.7328648847727348,3.3548291976510525,0.4,0.03392362594604492,1.459615707397461,STABILIZE
0.002,8e-05,0.0,-7.54324805212492,-0.021259280239436844,-0.0006034598441699937,-0.0,-0.02186274008360684,0.05,0.003,0.1,2.2200844699844158,0.4440279296616103,0.006660253409953247,2.0981801364079233,2.548868319479487,0.08,0.002,0.06,-5.4294530669463255,-0.755882565671455,-0.010858906133892652,0.10571804552063253,-0.661023426284715,0.6,0,0.4,1.5488082259016829,-0.5175068872182289,0.0,-3.190803704739727,-3.7083105919579555,-9.448532070893187,-0.25605483421292075,9.192477236680267,8.880558593232205,5.621817328150865,-3.2587412650813397,-10.629640119718422,-10.247510844178628,0.38212927553979387,-0.8625114786970483,0,0.8625114786970483,2.538629072314335,0.6993168905037442,3.7083105919579555,0.4,0.034235477447509766,1.493842601776123,STABILIZE
0.002,8e-05,0.0,-7.922761134464033,-0.021527446858129934,-0.0006338208907571227,-0.0,-0.022161267748887055,0.05,0.003,0.1,2.5582288081465716,0.47952130037897095,0.007674686424439715,2.0133209828354293,2.50051696963884,0.08,0.002,0.06,-5.759864040951963,-0.749687430052131,-0.011519728081903926,0.13177950151472184,-0.6294276566193131,0.6,0,0.4,1.5107945492128212,-0.646884739591438,0.0,-2.446270384512111,-3.093155124103549,-9.371092875651637,-0.5242995729360329,8.846793302715605,9.590426007579419,6.024753030737928,-3.565672976841491,-10.763723429064967,-10.53844565365197,0.22527777541299876,-1.0781412326523967,0,1.0781412326523967,2.488230973221728,0.6763659617907612,3.093155124103549,0.4,0.03525853157043457,1.529129981994629,STABILIZE
0.002,8e-05,0.0,-8.279557860712654,-0.021839426417090378,-0.0006623646288570124,-0.0,-0.022501791045947392,0.05,0.003,0.1,2.8942678066359675,0.5142212947091392,0.008682803419907903,2.1239768111524073,2.6468809092814545,0.08,0.002,0.06,-6.06159213037908,-0.7387476310442483,-0.01212318426075816,0.25110824792566655,-0.49976256737934,0.6,0,0.4,1.4660632093436488,-0.8213977879353639,0.0,-3.5606313976038466,-4.382029185539211,-9.234345388053104,-0.791208257138357,8.443137130914746,10.284425894182784,6.436469898446756,-3.847955995736027,-10.919713208545188,-10.82412052836675,0.09559268017843797,-1.3689963132256064,0,1.3689963132256064,2.6341854570732113,0.5628571305546409,4.382029185539211,0.4,0.032674551010131836,1.5618040561676025,STABILIZE
0.002,8e-05,0.0,-8.737965448046568,-0.022157056987934298,-0.0006990372358437255,-0.0,-0.022856094223778024,0.05,0.003,0.1,3.3479113254710002,0.5481696625863874,0.010043733976413002,1.640888899937929,2.1991022965007296,0.08,0.002,0.06,-6.437252749244407,-0.7262998231535513,-0.012874505498488814,0.22562354695069078,-0.5135507817013494,0.6,0,0.4,1.3980234956814037,-0.986606584213639,0.0,-2.661780196771591,-3.6483867809852297,-9.078747789419392,-1.0565146762166,8.022233113202791,10.963393251727748,6.856700048078714,-4.106693203649034,-11.078528493967148,-11.104289097869016,-0.02576060390186636,-1.6443443070227317,0,1.6443443070227317,2.183460233606237,0.5764431664275742,3.6483867809852297,0.4,0.041378021240234375,1.6031653881072998,STABILIZE
0.002,8e-05,0.0,-9.234377472040038,-0.02243766299783294,-0.0007387501977632031,-0.0,-0.02317641319559614,0.05,0.003,0.1,3.864788597039003,0.5840671392981197,0.01159436579111701,1.6225543419572799,2.2182158470465168,0.08,0.002,0.06,-6.834776189206077,-0.7187172387844151,-0.013669552378412156,0.12852388578239438,-0.6038629053804329,0.6,0,0.4,1.317229216917532,-1.0955625839638632,0.0,-1.641591987989167,-2.73715457195303,-8.983965484805188,-1.319964701532963,7.664000783272225,11.681342785962395,7.285167055359716,-4.396175730602678,-11.218831498916469,-11.378716160791562,-0.1598846618750937,-1.825937639939772,0,1.825937639939772,2.1978484997373284,0.6742358079968527,2.73715457195303,0.4,0.044248104095458984,1.647416591644287,STABILIZE
0.002,8e-05,0.0,-9.540450260163912,-0.022724473505671007,-0.000763236020813113,-0.0,-0.02348770952648412,0.05,0.003,0.1,4.199008676308836,0.6203569568357648,0.012597026028926508,2.6943492827793865,3.327303265644078,0.08,0.002,0.06,-7.07264521058232,-0.7064265081803515,-0.014145290421164641,0.3421984812290079,-0.3783733173725082,0.6,0,0.4,1.2617889395636999,-1.2348544164249464,0.0,-3.447255771762338,-4.682110188187284,-8.830331352254394,-1.5813160898786576,7.249015262375735,12.407139136715294,7.721586319182229,-4.685552817533065,-11.362236752835503,-11.647177540379174,-0.28494078754366914,-2.0580906940415775,0,2.0580906940415775,3.3115685004440203,0.49762179989643196,4.682110188187284,0.4,0.02693772315979004,1.6744039058685303,STABILIZE
0.002,8e-05,0.0,-10.004415231749581,-0.02311024976018976,-0.0008003532185399666,-0.0,-0.02391060297872973,0.05,0.003,0.1,4.717642815117577,0.6458334796842415,0.01415292844535273,1.2689940881469453,1.9289804962765396,0.08,0.002,0.06,-7.418044522301044,-0.6881781901367932,-0.01483608904460209,0.3408580497860996,-0.3621562293952956,0.6,0,0.4,1.1794457544415848,-1.2304624427041964,0.0,0.07292189126536347,-1.1575405514388328,-8.602227376709914,-1.840338286937432,6.761889089772482,12.91666959368483,8.165665425847298,-4.751004167837533,-11.55512488009488,-11.90945994001377,-0.35433505991889014,-2.0507707378403275,0,2.0507707378403275,1.9147852206009903,0.43095295389766036,1.1575405514388328,0.4,0.04015231132507324,1.7145569324493408,STABILIZE
0.002,8e-05,0.0,-10.291514099289124,-0.02347466574100973,-0.00082332112794313,-0.0,-0.02429798686895286,0.05,0.003,0.1,5.049570493724728,0.6785024417084285,0.015148711481174184,2.6711807336471094,3.364831886836712,0.08,0.002,0.06,-7.62094664236071,-0.663612432520217,-0.015241893284721421,0.7532330504286502,0.07437872462371176,0.6,0,0.4,1.1233762500144115,-1.3753584811796615,0.0,-3.949146043380036,-5.324504524559697,-8.295155406502712,-2.0968122307490704,6.1983431757536405,13.57004883416857,8.617104513306579,-4.952944320861992,-11.737332870504865,-12.16536079873962,-0.42802792823475433,-2.292264135299436,0,2.292264135299436,3.365114280613968,0.060263585669103684,5.324504524559697,0.4,0.024460315704345703,1.7389678955078125,STABILIZE
0.002,8e-05,0.0,-10.689084044384098,-0.02392352083485713,-0.0008551267235507279,-0.0,-0.02477864755840786,0.05,0.003,0.1,5.517379247175302,0.7037524213022333,0.016552137741525905,1.5194016055408799,2.2397061645846392,0.08,0.002,0.06,-7.886617836103245,-0.6394638646241309,-0.01577323567220649,0.54492181909271,-0.11031528120362732,0.6,0,0.4,1.0426512442992004,-1.457272899987802,0.0,-1.6430495054680425,-3.1003224054558443,-7.993298307801635,-2.3505301551728808,5.642768152628754,14.075048426044663,9.075596635404336,-4.999451790640328,-11.961760417428566,-12.414688146788526,-0.4529277293599595,-2.4287881666463367,0,2.4287881666463367,2.2330192520480776,0.20512967832109286,3.1003224054558443,0.4,0.03323674201965332,1.772217035293579,STABILIZE
0.002,8e-05,0.0,-11.105430895923602,-0.024252446233215295,-0.0008884344716738882,-0.0,-0.025140880704889183,0.05,0.003,0.1,6.0213281613114855,0.7338829331351004,0.018063984483934457,1.7551198369913323,2.507066754610367,0.08,0.002,0.06,-8.152788217664186,-0.6201831808081891,-0.016305576435328373,0.42116664193872966,-0.21532211530478784,0.6,0,0.4,0.9554502296197269,-1.5238529453333096,0.0,-1.2927754539084084,-2.816628399241718,-7.752289760102364,-2.6012953933512337,5.150994366751131,14.677658662702008,9.540828126119479,-5.136830536582529,-12.126223116607648,-12.657260461104999,-0.5310373444973503,-2.5397549088888494,0,2.5397549088888494,2.4950626256595743,0.32620517998437626,2.816628399241718,0.4,0.034334421157836914,1.8072843551635742,STABILIZE
0.002,8e-05,0.0,-11.52452444704019,-0.024822155414348568,-0.0009219619557632152,-0.0,-0.025744117370111782,0.05,0.003,0.1,6.537746533351573,0.7646632270677627,0.01961323960005472,1.8230613133040692,2.6073377799718864,0.08,0.002,0.06,-8.407627953624374,-0.6037479235747628,-0.01681525590724875,0.3650364950462592,-0.2555266844357524,0.6,0,0.4,0.8677729747000051,-1.5578897185048948,0.0,-0.6719789024169308,-2.2298686209218257,-7.546849044684535,-2.8489221811730543,4.697926863511481,15.293264541355253,10.012478963807567,-5.280785577547687,-12.411077707174284,-12.892906520871474,-0.48182881369718955,-2.5964828641748245,0,2.5964828641748245,2.593085178850776,0.3733810929223571,2.2298686209218257,0.4,0.0337677001953125,1.8410558700561523,STABILIZE
0.002,8e-05,0.0,-11.94477292494381,-0.025546020549067,-0.000955581833995505,-0.0,-0.026501602383062504,0.05,0.003,0.1,7.060539521443474,0.7944871379026548,0.021181618564330422,1.8129327745392179,2.628601531006203,0.08,0.002,0.06,-8.649421987487454,-0.5879260182947871,-0.017298843974974908,0.36066762165080335,-0.24455724061895867,0.6,0,0.4,0.7793832869476777,-1.6119069300932096,0.0,-1.0945308706585897,-2.7064378007517993,-7.349075228684838,-3.0932354607373496,4.255839767947489,15.889742758053096,10.490223135442864,-5.399519622610232,-12.7730102745335,-13.121465263033501,-0.3484549885000013,-2.6865115501553496,0,2.6865115501553496,2.6142498182204665,0.3674944090480461,2.7064378007517993,0.4,0.03290128707885742,1.873215675354004,STABILIZE
0.002,8e-05,0.0,-12.410044363155027,-0.026054082419912212,-0.0009928035490524023,-0.0,-0.027046885968964613,0.05,0.003,0.1,7.64901410796155,0.8238290662173366,0.022947042323884653,1.6430774723868435,2.489853580928065,0.08,0.002,0.06,-8.90552798035298,-0.5736528055111576,-0.017811055960705962,0.2997246056715896,-0.291739255800274,0.6,0,0.4,0.6792081106872673,-1.6828707401977703,0.0,-1.3246009429130206,-3.007471683110791,-7.17066006888947,-3.334070683816676,3.8365893850727946,16.476581324346732,10.9737290008603,-5.5028523234864295,-13.027041209956106,-13.342785637824873,-0.31574442786876583,-2.804784566996284,0,2.804784566996284,2.472595143794491,0.41322621252663244,3.007471683110791,0.4,0.03571581840515137,1.9089632034301758,STABILIZE
0.002,8e-05,0.0,-12.867109966953791,-0.026570461608382053,-0.0010293687973563033,-0.0,-0.027599830405738355,0.05,0.003,0.1,8.235974954084789,0.853040597341005,0.024707924862254368,1.6981454298740362,2.5758939520772954,0.08,0.002,0.06,-9.145763870092987,-0.5586225200269267,-0.018291527740185973,0.32765670297322025,-0.2492573447938924,0.6,0,0.4,0.5806586591831762,-1.7186839674350773,0.0,-0.6939733023533963,-2.4126572697884736,-6.982781500336584,-3.5712736153206732,3.4115078850159106,17.0608119468201,11.462659656997532,-5.598152289822567,-13.285230804191027,-13.556726464292915,-0.2714956601018875,-2.8644732790584624,0,2.8644732790584624,2.5602191613546763,0.377672771211331,2.4126572697884736,0.4,0.03440403938293457,1.943347692489624,STABILIZE
0.002,8e-05,0.0,-13.313768467934459,-0.027081958154522044,-0.0010651014774347568,-0.0,-0.0281470596319568,0.05,0.003,0.1,8.817315637629084,0.881201411744164,0.026451946912887252,1.7074565816819076,2.615109940338959,0.08,0.002,0.06,-9.370421400339582,-0.5448606324409724,-0.018740842800679166,0.31290588579846285,-0.25069558944318865,0.6,0,0.4,0.4848153561057814,-1.7433616404709547,0.0,-0.49875516906187106,-2.242116809532826,-6.810757905512155,-3.8047001367596094,3.0060577687525454,17.62402823488328,11.956673302136968,-5.667354932746312,-13.540979077261023,-13.763156285823593,-0.22217720856257003,-2.9056027341182578,0,2.9056027341182578,2.5990400583516284,0.382934790414066,2.242116809532826,0.4,0.032985687255859375,1.9763374328613281,STABILIZE
0.002,8e-05,0.0,-13.946782907009919,-0.027783585461501,-0.0011157426325607935,-0.0,-0.028899328094061795,0.05,0.003,0.1,9.643063604646706,0.9060709280503437,0.028929190813940117,1.091545925379069,2.0265460442433527,0.08,0.002,0.06,-9.67498296143858,-0.5346994721599685,-0.01934996592287716,0.16724349850590134,-0.3868059395769443,0.6,0,0.4,0.35377363154810215,-1.7254625148464005,0.0,0.26186969089376466,-1.4635928239526357,-6.683743401999606,-4.034216049707784,2.6495273522918215,18.121418561006873,12.455423600147757,-5.665994960859116,-13.891792730750499,-13.961953225666745,-0.07016049491624679,-2.8757708580773342,0,2.8757708580773342,2.0045876532828637,0.487991848944514,1.4635928239526357,0.4,0.04556751251220703,2.021909475326538,STABILIZE
0.002,8e-05,0.0,-14.266252825998288,-0.028422275325702767,-0.0011413002260798632,-0.0,-0.02956357555178263,0.05,0.003,0.1,10.063731224981181,0.9356382412791384,0.030191193674943544,2.6305146972560194,3.5963441322101013,0.08,0.002,0.06,-9.820138728610134,-0.5165628354278563,-0.01964027745722027,0.6050857045258062,0.06888259164072963,0.6,0,0.4,0.28949249374131236,-1.715669696958731,0.0,0.290412492355233,-1.4252572046034981,-6.457035442848204,-4.259696879267186,2.197338563581018,18.712764825582767,12.95856004472785,-5.754204780854915,-14.211137662851383,-14.153004842461268,0.05813282039011461,-2.8594494949312184,0,2.8594494949312184,3.5953026568165045,0.11061073456655937,1.4252572046034981,0.4,0.022480249404907227,2.044398784637451,STABILIZE
0.002,8e-05,0.0,-14.94699826098701,-0.02904366132251307,-0.001195759860878961,-0.0,-0.03023942118339203,0.05,0.003,0.1,10.959079646638983,0.9549897431448301,0.03287723893991695,0.825622086291981,1.813489068376728,0.08,0.002,0.06,-10.1196336347037,-0.5111119765668926,-0.0202392672694074,0.08720930608073382,-0.4441419377555661,0.6,0,0.4,0.16205914112050068,-1.6310639533436844,0.0,1.2032204880108097,-0.42784346533287465,-6.388899707086157,-4.481027677530865,1.907872029555292,19.0997948628966,13.465728323645955,-5.634066539250647,-14.521830661256535,-14.33620798576029,0.18562267549624656,-2.718439922239474,0,2.718439922239474,1.7903835493324851,0.5296521578118742,0.42784346533287465,0.4,0.046877384185791016,2.0913007259368896,STABILIZE
0.002,8e-05,0.0,-15.279025610203051,-0.029790334005588278,-0.0012223220488162443,-0.0,-0.031012656054404522,0.05,0.003,0.1,11.396697787131894,0.9816051752189834,0.03419009336139568,2.388003919147538,3.403799187727917,0.08,0.002,0.06,-10.25673751017519,-0.4920522665858732,-0.02051347502035038,0.6412820296183972,0.1287162880121736,0.6,0,0.4,0.10383402774109918,-1.567231355351691,0.0,1.9090740758914722,0.34184272053978115,-6.150653332323415,-4.698102827046509,1.452550505276906,19.632103504379668,13.976570682983628,-5.655532821396041,-14.895167002794139,-14.51146865155636,0.38369835123777885,-2.6120522589194852,0,2.6120522589194852,3.406128662255764,0.026539203767702024,-0.34184272053978115,0.4,0.022290945053100586,2.1136064529418945,STABILIZE
0.002,8e-05,0.0,-15.875406888396803,-0.030498422661665674,-0.0012700325510717444,-0.0,-0.03176845521273742,0.05,0.003,0.1,12.176715612293265,0.9972359204272392,0.036530146836879794,0.7993427884289104,1.8331088556930293,0.08,0.002,0.06,-10.49591388616207,-0.48925091864895626,-0.02099182777232414,0.05372194131070718,-0.45652080511057325,0.6,0,0.4,0.005282647683225047,-1.511949697011961,0.0,0.9423520618606329,-0.5695976351513281,-6.115636483111953,-4.910825844279931,1.204810638832022,19.944718408544784,14.490726291377246,-5.453992117167538,-15.249211330832837,-14.678701837806674,0.5705094930261632,-2.5199161616866017,0,2.5199161616866017,1.8112645442079274,0.536675016387257,0.5695976351513281,0.4,0.039108991622924805,2.152683734893799,STABILIZE
0.002,8e-05,0.0,-16.264625184877833,-0.031434125193583615,-0.0013011700147902267,-0.0,-0.032735295208373844,0.05,0.003,0.1,12.681086072866092,1.0183516772550039,0.038043258218598275,1.7053549375307147,2.761749873004317,0.08,0.002,0.06,-10.645526197830778,-0.4833207665739637,-0.021291052395661557,0.17959954390728813,-0.3250122750623371,0.6,0,0.4,-0.05425011704938416,-1.442399082965158,-0.0,1.8723534916044855,0.42995440863932743,-6.041509582174546,-5.119109183078597,0.9224003990959495,20.367033545100075,15.007831604260048,-5.359201940840026,-15.717062596791806,-14.837831399958198,0.8792311968336087,-2.4039984716085967,0,2.4039984716085967,2.7456865085813122,0.44056887835515696,-0.42995440863932743,0.4,0.024764060974121094,2.177429437637329,STABILIZE
0.002,8e-05,0.0,-16.812898584940953,-0.03218735131889346,-0.0013450318867952763,-0.0,-0.03353238320568874,0.05,0.003,0.1,13.385955777999115,1.0345152997824403,0.040157867333997344,0.948913802523853,2.0235869696402906,0.08,0.002,0.06,-10.851585423307553,-0.48388272581937714,-0.021703170846615105,-0.012371551075343722,-0.517957447741336,0.6,0,0.4,-0.13105915756538225,-1.3527628212152547,-0.0,1.7540846394786969,0.40132181826344215,-6.048534072742214,-5.322874038135116,0.7256600346070978,20.690305995648803,15.527520728104157,-5.1627852675446455,-16.09367565944673,-14.988789906472942,1.1048857529737897,-2.2546047020254245,0,2.2546047020254245,2.001643957460854,0.597164641392257,-0.40132181826344215,0.4,0.034067630767822266,2.21151065826416,STABILIZE
0.002,8e-05,0.0,-17.356866666868225,-0.03304919210985484,-0.001388549333349458,-0.0,-0.034437741443204294,0.05,0.003,0.1,14.07949013496568,1.0534051059101066,0.04223847040489704,1.1476644538026899,2.2433080301176935,0.08,0.002,0.06,-11.049269647481292,-0.48041818032103095,-0.022098539294962586,0.0789341554810318,-0.42358256413496176,0.6,0,0.4,-0.20015280827403764,-1.259351097081572,-0.0,1.8917666426732223,0.6324155455916503,-6.005227254012887,-5.522050148450766,0.483177105562121,21.06810211820213,16.049425784662557,-5.018676333539573,-16.524596054927418,-15.131518494353084,1.3930775605743333,-2.0989184951359534,0,2.0989184951359534,2.2262893157485504,0.505459186496326,-0.6324155455916503,0.4,0.032918691635131836,2.244426727294922,STABILIZE
0.002,8e-05,0.0,-17.92157013776009,-0.03393588358360088,-0.0014337256110208071,-0.0,-0.03536960919462169,0.05,0.003,0.1,14.792641120803346,1.0714211121588613,0.04437792336241004,1.0826728047794119,2.198471840300683,0.08,0.002,0.06,-11.247923386297211,-0.47752425840463686,-0.022495846772594422,0.06521639385778615,-0.4348037113194451,0.6,0,0.4,-0.2652322614311529,-1.173285906603104,-0.0,1.7240306551595521,0.5507447485564481,-5.969053230057961,-5.716575600798975,0.252477629258986,21.428422243177224,16.573177275211187,-4.855244967966035,-16.967941791800442,-15.265966724666193,1.7019750671342497,-1.9554765110051735,0,1.9554765110051735,2.1823547952294517,0.5095686879226901,-0.5507447485564481,0.4,0.03328061103820801,2.2777137756347656,STABILIZE
0.002,8e-05,0.0,-18.51096111345432,-0.03480731219788549,-0.0014808768890763459,-0.0,-0.03628818908696184,0.05,0.003,0.1,15.530640674813984,1.0895900148492856,0.046591922024441956,1.0729900767376035,2.2091720136113313,0.08,0.002,0.06,-11.448872987229132,-0.4746944411518469,-0.022897745974458265,0.06266956271989388,-0.4349226244064113,0.6,0,0.4,-0.3266117168045988,-1.0874549936245055,-0.0,1.6896217211088946,0.6021667274843892,-5.933680514398086,-5.906396633188861,0.027283881209224817,21.791800296985713,17.098404444790894,-4.6933958521948185,-17.403656098942747,-15.392092438070389,2.0115636608723584,-1.812424989374176,0,1.812424989374176,2.194311301656158,0.5045756497970956,-0.6021667274843892,0.4,0.033865928649902344,2.311572790145874,STABILIZE
0.002,8e-05,0.0,-19.162689614887682,-0.03571863923266637,-0.0015330151691910147,-0.0,-0.03725165440185738,0.05,0.003,0.1,16.337617340680595,1.1056792949010155,0.04901285202204179,0.8817892549077518,2.0364814018308093,0.08,0.002,0.06,-11.664654272398256,-0.47304445708088194,-0.02332930854479651,0.0339108917521775,-0.462462873873501,0.6,0,0.4,-0.38877684083505815,-1.0221067361091805,-0.0,1.1938257671917663,0.1717190310825858,-5.913055713511024,-6.091467438328698,-0.17841172481767426,22.113585898020307,17.624735646449494,-4.488850251570813,-17.859319616333185,-15.509861610339573,2.34945800599361,-1.7035112268486343,0,1.7035112268486343,2.021833494098269,0.5227979837915412,-0.1717190310825858,0.4,0.036492347717285156,2.348071813583374,STABILIZE
0.002,8e-05,0.0,-19.717958181987882,-0.03654453858986242,-0.0015774366545590307,-0.0,-0.03812197524442145,0.05,0.003,0.1,17.01936536943452,1.1217169772219728,0.051058096108303565,1.0555067136808096,2.228281787011086,0.08,0.002,0.06,-11.844579043898039,-0.47366396334547006,-0.023689158087796078,-0.015289608444207032,-0.5126427298774732,0.6,0,0.4,-0.4360443813693832,-0.9332621517505166,-0.0,1.9490774578694936,1.015815306118977,-5.920799541818376,-6.271749967089485,-0.35095042527110887,22.434339544439457,18.151798705483767,-4.28254083895569,-18.27226929493121,-15.619248207888582,2.6530210870426294,-1.5554369195841944,0,1.5554369195841944,2.213545473767452,0.5729386759376381,-1.015815306118977,0.4,0.030388593673706055,2.3785104751586914,STABILIZE
0.002,8e-05,0.0,-20.346253617682894,-0.037484613763626266,-0.0016277002894146317,-0.0,-0.0391123140530409,0.05,0.003,0.1,17.78166518651477,1.1369855879872517,0.053344995559544306,0.9109376651932948,2.101268248740091,0.08,0.002,0.06,-12.04391923179423,-0.47571187223996453,-0.024087838463588463,-0.04581746275637667,-0.5456171734599297,0.6,0,0.4,-0.48123278146190424,-0.8087929473133724,-0.0,2.4753111295119035,1.666518182198531,-5.946398402999557,-6.447213731968362,-0.5008153289688053,22.73971175974503,18.679221283681485,-4.0604904760635465,-18.742306881813132,-15.720234043298415,3.022072838514718,-1.3479882455222874,0,1.3479882455222874,2.087851277058128,0.5948978046895061,-1.666518182198531,0.4,0.033522844314575195,2.412003755569458,STABILIZE
0.002,8e-05,0.0,-21.00285262451194,-0.03849856839341993,-0.0016802282099609555,-0.0,-0.04017879660338089,0.05,0.003,0.1,18.568739172174478,1.1537186834144586,0.05570621751652344,0.981116651164353,2.1905415520953353,0.08,0.002,0.06,-12.248952626497019,-0.48087140472666046,-0.02449790525299404,-0.11344516149766129,-0.6188144714773157,0.6,0,0.4,-0.5233056143523105,-0.7400607453056749,-0.0,1.343332004416021,0.6032712591103462,-6.010892559083255,-6.617835610552256,-0.6069430514690006,23.074373668289173,19.20663124356345,-3.867742424725722,-19.249284196709965,-15.812808630841356,3.436475565868609,-1.2334345755094582,0,1.2334345755094582,2.1767134908717183,0.6658243163350598,-0.6032712591103462,0.4,0.034110307693481445,2.4460954666137695,STABILIZE
0.002,8e-05,0.0,-21.738757526975096,-0.03947044937079459,-0.0017391006021580079,-0.0,-0.04120954997295259,0.05,0.003,0.1,19.442289023252613,1.171326792851846,0.05832686706975784,0.9444154940911084,2.174069154012712,0.08,0.002,0.06,-12.475167462338469,-0.4853236441348265,-0.024950334924676937,-0.0895488786450939,-0.5998228577045973,0.6,0,0.4,-0.5642586522715344,-0.6589580274681847,-0.0,1.449988400912427,0.7910303734442424,-6.066545551685331,-6.7835996489812525,-0.7170540972959217,23.42653585703692,19.73365701262546,-3.692878844411461,-19.73522468539729,-15.896969042006269,3.838255643391021,-1.0982633791136411,0,1.0982633791136411,2.1621728758237846,0.6413833503501342,-0.7910303734442424,0.4,0.03728890419006348,2.4834060668945312,STABILIZE
0.002,8e-05,0.0,-22.55890903652173,-0.040416206090661155,-0.0018047127229217385,-0.0,-0.04222091881358289,0.05,0.003,0.1,20.407393221509455,1.1889830635461656,0.061222179664528364,0.8700824992306364,2.1202877424413304,0.08,0.002,0.06,-12.723758640629839,-0.4900125002366069,-0.025447517281259678,-0.08664821636603773,-0.6021082338839043,0.6,0,0.4,-0.6034075238061046,-0.5787645971776544,-0.0,1.3172827085452257,0.7385181113675713,-6.125156252957586,-6.944496865412206,-0.8193406124546199,23.77966127092331,20.259927947580405,-3.5197333233429045,-20.208103045330578,-15.972719761023672,4.235383284306905,-0.9646076619627574,0,0.9646076619627574,2.1098509035098645,0.637717493108316,-0.7385181113675713,0.4,0.04058527946472168,2.523970127105713,STABILIZE
0.002,8e-05,0.0,-23.03766660645941,-0.041492164447886046,-0.001843013328516753,-0.0,-0.0433351777764028,0.05,0.003,0.1,20.96496215740529,1.208061419385711,0.06289488647221586,1.6534511986781837,2.9244075045361106,0.08,0.002,0.06,-12.867177503937643,-0.4971834961958681,-0.025734355007875288,-0.233056479636074,-0.7559743308398174,0.6,0,0.4,-0.6213355259698399,-0.46612627812647883,-0.0,3.25398347073878,2.787857192612301,-6.214793702448351,-7.100525053482117,-0.8857313510337658,24.16122838771422,20.785074698600244,-3.3761536891139783,-20.746082223943024,-16.04007254039102,4.706009683552003,-0.7768771302107981,0,0.7768771302107981,2.9138886950034477,0.7955558526005154,-2.787857192612301,0.4,0.023077011108398438,2.547051191329956,STABILIZE
