D-kp,D-ki,D-kd,D-I-Tot,D-P,D-I,D-D,D-PID,E-kp,E-ki,E-kd,E-I-Tot,E-P,E-I,E-D,E-PID,N-kp,N-ki,N-kd,N-I-Tot,N-P,N-I,N-D,N-PID,Y-kp,Y-ki,Y-kd,Y-I-Tot,Y-P,Y-I,Y-D,Y-PID,errorN,desiredN,actualN,errorE,desiredE,actualE,errorD,desiredD,actualD,errorY,desiredY,actualY,roll,pitch,yaw-rate,thrust,dt,Time,Mode
0.002,8e-05,0.0,-0.006431371148013871,-0.0003342331968106951,-5.145096918411098e-07,-0.0,-0.0003347477065025362,0.05,0.004,0.04,0.0021187282577673533,0.0027527151771727047,8.474913031069414e-06,0.05722255938283893,0.059983749473042705,0.08,0.002,0.06,0.0006357465837399094,0.0013215695885347145,1.2714931674798187e-06,0.025755341564304,0.027078182646006196,0.5,0,0,0.020439283062862516,0.2655532841052458,0.0,0.0,0.2655532841052458,0.01651961985668393,2.063679223944631,2.047159604087947,0.055054303543454086,3.34047218554061,3.285417881997156,-0.16711659840534754,6.856524800685045,7.023641399090392,0.5311065682104916,0,-0.5311065682104916,0.05973017325032946,-0.027633034211625197,-0.2655532841052458,0.4,0.03848433494567871,0.03871488571166992,GUIDED_NOGPS
0.002,8e-05,0.0,-0.016121531561442776,-0.0005555993107916546,-1.2897225249154223e-06,-0.0,-0.0005568890333165701,0.05,0.004,0.04,0.006042825785796005,0.005624844659512896,2.417130314318402e-05,0.06587107303945808,0.07152008900211415,0.08,0.002,0.06,0.003279873545686621,0.006064193181641606,6.5597470913732416e-06,0.1019719341806292,0.10804268710936218,0.5,0,0,0.035675637818416636,0.2183995888610767,0.0,-0.0,0.2183995888610767,0.07580241477052008,2.063679223944631,1.9878768091741108,0.11249689319025791,3.34047218554061,3.227975292350352,-0.2777996553958273,6.856524800685045,7.134324456080872,0.4367991777221534,0,-0.4367991777221534,0.07069434617010346,-0.10858478156842903,-0.2183995888610767,0.4,0.0348818302154541,0.07353782653808594,GUIDED_NOGPS
0.002,8e-05,0.0,-0.02999255707931748,-0.0007149002569853398,-2.3994045663453985e-06,-0.0,-0.0007172996615516852,0.05,0.004,0.04,0.01328559965313948,0.009332152284591678,5.314239861255792e-05,0.07642852853171347,0.0858138232149177,0.08,0.002,0.06,0.007048488162875662,0.007769241156208189,1.4096976325751324e-05,0.0329537432259212,0.04073708135845514,0.5,0,0,0.05150067233206703,0.20390203352361702,0.0,-0.0,0.20390203352361702,0.09711551445260236,2.063679223944631,1.9665637094920285,0.18664304569183354,3.34047218554061,3.1538291398487766,-0.3574501284926699,6.856524800685045,7.213974929177715,0.40780406704723404,0,-0.40780406704723404,0.08552170490384806,-0.04134682627125901,-0.20390203352361702,0.4,0.038805484771728516,0.11233806610107422,GUIDED_NOGPS
0.002,8e-05,0.0,-0.039389673016045616,-0.0008133044645677554,-3.1511738412836496e-06,-0.0,-0.0008164556384090391,0.05,0.004,0.04,0.019781041938784886,0.014054238145583998,7.912416775513954e-05,0.1634754126127979,0.17760877492613705,0.08,0.002,0.06,0.0097357223044693,0.009303022499296567,1.9471444608938598e-05,0.049779816318256766,0.05910231026216227,0.5,0,0,0.05951325427888745,0.17336884832382418,0.0,-0.0,0.17336884832382418,0.11628778124120709,2.063679223944631,1.9473914427034238,0.28108476291167994,3.34047218554061,3.05938742262893,-0.4066522322838777,6.856524800685045,7.2631770329689225,0.34673769664764836,0,-0.34673769664764836,0.17724785450926878,-0.06017605903471237,-0.17336884832382418,0.4,0.023108482360839844,0.13547968864440918,GUIDED_NOGPS
0.002,8e-05,0.0,-0.05336204723052608,-0.0008101522040061138,-4.268963778442087e-06,0.0,-0.000814421167784556,0.05,0.004,0.04,0.03352878797095904,0.019928192906076437,0.00013411515188383616,0.1362344673108829,0.15629677536884318,0.08,0.002,0.06,0.01673739168412589,0.01623895207092927,3.3474783368251775e-05,0.15081076799386897,0.1670831948481665,0.5,0,0,0.06919563137122497,0.1403519369894579,0.0,-0.0,0.1403519369894579,0.20298690088661586,2.063679223944631,1.860692323058015,0.3985638581215287,3.34047218554061,2.9419083274190814,-0.4050761020030569,6.856524800685045,7.261600902688102,0.2807038739789158,0,-0.2807038739789158,0.1554763277834334,-0.16784691683301,-0.1403519369894579,0.4,0.034493207931518555,0.1699507236480713,GUIDED_NOGPS
0.002,8e-05,0.0,-0.07294280833736302,-0.0012199956123689155,-5.835424666989043e-06,-0.0,-0.0012258310370359047,0.05,0.004,0.04,0.048645370714014806,0.023546281628067448,0.00019458148285605924,0.09017121126000044,0.11391207437092395,0.08,0.002,0.06,0.026883827816855447,0.02528728581196834,5.376765563371089e-05,0.2114114858026928,0.23675253927029485,0.5,0,0,0.07662050096635487,0.11565316944328291,0.0,-0.0,0.11565316944328291,0.31609107264960423,2.063679223944631,1.7475881512950266,0.4709256325613489,3.34047218554061,2.869546552979261,-0.6099978061844578,6.856524800685045,7.4665226068695025,0.23130633888656582,0,-0.23130633888656582,0.11295536516659481,-0.2372104783067153,-0.11565316944328291,0.4,0.03209972381591797,0.20205330848693848,GUIDED_NOGPS
0.002,8e-05,0.0,-0.09824516672675086,-0.0015044233334804264,-7.85961333814007e-06,-0.0,-0.0015122829468185665,0.05,0.004,0.04,0.06773559671314541,0.028376585487138086,0.00027094238685258163,0.11487975502606468,0.14352728290005534,0.08,0.002,0.06,0.041052257536507535,0.03369696364424602,8.210451507301507e-05,0.1875079493069795,0.22128701746629853,0.5,0,0,0.08154629071688695,0.07321919287598147,0.0,-0.0,0.07321919287598147,0.42121204555307523,2.063679223944631,1.6424671783915556,0.5675317097427617,3.34047218554061,2.7729404757978484,-0.7522116667402132,6.856524800685045,7.608736467425258,0.14643838575196294,0,-0.14643838575196294,0.14296124229947133,-0.22165312593327954,-0.07321919287598147,0.4,0.033637285232543945,0.23569297790527344,GUIDED_NOGPS
0.002,8e-05,0.0,-0.13102286307312663,-0.0019322097622170898,-1.0481829045850132e-05,-0.0,-0.00194269159126294,0.05,0.004,0.04,0.09057935788616327,0.03366537559399081,0.00036231743154465306,0.1247073835426256,0.15873507656816108,0.08,0.002,0.06,0.05848751625206988,0.0411115860504518,0.00011697503250413977,0.16390649046491565,0.2051350515478716,0.5,0,0,0.08507818443495829,0.052050329048865904,0.0,-0.0,0.052050329048865904,0.5138948256306475,2.063679223944631,1.5497843983139834,0.6733075118798162,3.34047218554061,2.667164673660794,-0.9661048811085449,6.856524800685045,7.82262968179359,0.10410065809773181,0,-0.10410065809773181,0.15836210505259948,-0.20542311844083505,-0.052050329048865904,0.4,0.03392767906188965,0.26962924003601074,GUIDED_NOGPS
0.002,8e-05,0.0,-0.1695180150724121,-0.002303516328466623,-1.3561441205792969e-05,-0.0,-0.002317077769672416,0.05,0.004,0.04,0.1165330084102327,0.038826095404571985,0.0004661320336409308,0.12352518935927895,0.16281741679749187,0.08,0.002,0.06,0.083627350808661,0.060173831132951,0.000167254701617322,0.42775054640891425,0.48809163224348256,0.5,0,0,0.08575004654256116,0.010050910666425713,0.0,-0.0,0.010050910666425713,0.7521728891618875,2.063679223944631,1.3115063347827434,0.7765219080914396,3.34047218554061,2.5639502774491705,-1.1517581642333115,6.856524800685045,8.008282964918356,0.020101821332851426,0,-0.020101821332851426,0.16264616326347664,-0.4881487255482551,-0.010050910666425713,0.4,0.03342294692993164,0.303058385848999,GUIDED_NOGPS
0.002,8e-05,0.0,-0.21617542987685007,-0.002800649467533644,-1.7294034390148008e-05,-0.0,-0.002817943501923792,0.05,0.004,0.04,0.1459778802674818,0.044186312633397944,0.0005839115210699272,0.1287005685222677,0.17347079267673557,0.08,0.002,0.06,0.1123789819228877,0.06903360651959957,0.0002247579638457754,0.1994307227727459,0.26868908725619123,0.5,0,0,0.08334927973638252,-0.036026997560723736,0.0,-0.0,-0.036026997560723736,0.8629200814949947,2.063679223944631,1.2007591424496362,0.8837262526679588,3.34047218554061,2.4567459328726513,-1.4003247337668219,6.856524800685045,8.256849534451867,-0.07205399512144747,0,0.07205399512144747,0.1738085532908024,-0.2684707215422539,0.036026997560723736,0.4,0.03331899642944336,0.33637094497680664,GUIDED_NOGPS
0.002,8e-05,0.0,-0.27182191604957684,-0.003314139574585907,-2.1745753283966148e-05,-0.0,-0.003335885327869873,0.05,0.004,0.04,0.1792349425531459,0.049517298321977335,0.0007169397702125836,0.12699907474647526,0.17723331283866517,0.08,0.002,0.06,0.14485221462346928,0.07736037475838418,0.00028970442924693856,0.1859691018690483,0.2636191810566794,0.5,0,0,0.07892662483221455,-0.06585005024909966,0.0,-0.0,-0.06585005024909966,0.9670046844798024,2.063679223944631,1.0966745394648285,0.9903459664395466,3.34047218554061,2.3501262191010635,-1.6570697872929534,6.856524800685045,8.513594587977998,-0.13170010049819933,0,0.13170010049819933,0.17783879924298424,-0.26321109643131696,0.06585005024909966,0.4,0.03358125686645508,0.3699533939361572,GUIDED_NOGPS
0.002,8e-05,0.0,-0.34419109111384844,-0.003846956351096905,-2.7535287289107878e-05,-0.0,-0.0038744916383860128,0.05,0.004,0.04,0.22122700850971766,0.05580471405258092,0.0008849080340388707,0.13368904014921285,0.19037866223583264,0.08,0.002,0.06,0.18369775972808539,0.08259710923569769,0.0003673955194561708,0.10438917331835991,0.18735367807351377,0.5,0,0,0.07088173884640805,-0.10691128235696815,0.0,-0.0,-0.10691128235696815,1.032463865446221,2.063679223944631,1.0312153584984098,1.1160942810516183,3.34047218554061,2.2243779044889918,-1.9234781755484525,6.856524800685045,8.780002976233497,-0.2138225647139363,0,0.2138225647139363,0.19107652154651844,-0.18664189946542536,0.10691128235696815,0.4,0.03762412071228027,0.407578706741333,GUIDED_NOGPS
0.002,8e-05,0.0,-0.4290321159371254,-0.004367719780053024,-3.432256927497004e-05,-0.0,-0.004402042349327994,0.05,0.004,0.04,0.2694291255003341,0.06203759922127421,0.0010777165020013364,0.12835062233068065,0.1914659380539562,0.08,0.002,0.06,0.22868885362151725,0.09264786281584426,0.0004573777072430345,0.1940344101271431,0.2871396506502304,0.5,0,0,0.062021008872559055,-0.11404030553939909,0.0,-0.0,-0.11404030553939909,1.1580982851980532,2.063679223944631,0.9055809387465776,1.2407519844254842,3.34047218554061,2.099720201115126,-2.183859890026512,6.856524800685045,9.040384690711557,-0.22808061107879818,0,0.22808061107879818,0.19260745136448956,-0.28637519810432877,0.11404030553939909,0.4,0.0388491153717041,0.4464225769042969,GUIDED_NOGPS
0.002,8e-05,0.0,-0.509629102264538,-0.00483457892454574,-4.077032818116304e-05,-0.0,-0.004875349252726903,0.05,0.004,0.04,0.31519538130062374,0.06863177701477989,0.001260781525202495,0.1582196776225964,0.22811223616257878,0.08,0.002,0.06,0.27170472780567195,0.10321162029895563,0.0005434094556113439,0.23762358379812762,0.3413786135526946,0.5,0,0,0.05272108698851218,-0.13946305063407372,0.0,-0.0,-0.13946305063407372,1.2901452537369453,2.063679223944631,0.7735339702076856,1.3726355402955976,3.34047218554061,1.9678366452450125,-2.41728946227287,6.856524800685045,9.273814262957915,-0.27892610126814743,0,0.27892610126814743,0.2297714187107598,-0.3402640815923667,0.13946305063407372,0.4,0.03334188461303711,0.4797635078430176,GUIDED_NOGPS
0.002,8e-05,0.0,-0.5925628866336096,-0.004986732184278326,-4.740503093068877e-05,-0.0,-0.005034137215209015,0.05,0.004,0.04,0.36556363670058184,0.07571492190418819,0.0014622545468023274,0.17036119528191407,0.24753837173290458,0.08,0.002,0.06,0.31734704401429653,0.10977721995160146,0.0006346940880285931,0.14804380090400865,0.2584557149436387,0.5,0,0,0.043178906927583006,-0.143440627905797,0.0,-0.0,-0.143440627905797,1.3722152493950182,2.063679223944631,0.6914639745496126,1.5142984380837636,3.34047218554061,1.8261737474568465,-2.493366092139163,6.856524800685045,9.349890892824208,-0.286881255811594,0,0.286881255811594,0.24882935697858558,-0.2572130501604239,0.143440627905797,0.4,0.033261775970458984,0.5130534172058105,GUIDED_NOGPS
0.002,8e-05,0.0,-0.6613895609822484,-0.005360617906989406,-5.291116487857988e-05,-0.0,-0.005413529071867986,0.05,0.004,0.04,0.40802130813486925,0.08267120122164329,0.001632085232539477,0.21671804327652988,0.30102132973071266,0.08,0.002,0.06,0.3542116903575762,0.11484924134011987,0.0007084233807151525,0.14813934207142962,0.26369700679226465,0.5,0,0,0.03594602271688736,-0.1408346726976601,0.0,0.0,-0.1408346726976601,1.4356155167514983,2.063679223944631,0.6280637071931326,1.6534240244328657,3.34047218554061,1.6870481611077444,-2.680308953494703,6.856524800685045,9.536833754179748,-0.2816693453953202,0,0.2816693453953202,0.3023140366741582,-0.262213988135305,0.1408346726976601,0.4,0.025678634643554688,0.5387227535247803,GUIDED_NOGPS
0.002,8e-05,0.0,-0.7611819552844165,-0.005616478541549453,-6.089455642275332e-05,-0.0,-0.005677373097972206,0.05,0.004,0.04,0.47147945814357356,0.08928820184710476,0.0018859178325742942,0.14896623047159907,0.2401403501512781,0.08,0.002,0.06,0.4086773240631696,0.12261658419902716,0.0008173546481263392,0.16393451674213314,0.28736845558928664,0.5,0,0,0.02633176789354963,-0.13527648145398685,0.0,0.0,-0.13527648145398685,1.5327073024878395,2.063679223944631,0.5309719214567915,1.785764036942095,3.34047218554061,1.554708148598515,-2.8082392707747266,6.856524800685045,9.664764071459771,-0.2705529629079737,0,0.2705529629079737,0.24149463317235798,-0.28623130364706534,0.13527648145398685,0.4,0.035535573959350586,0.574246883392334,GUIDED_NOGPS
0.002,8e-05,0.0,-0.8562400733997046,-0.006034320557621188,-6.849920587197638e-05,-0.0,-0.006102819763493164,0.05,0.004,0.04,0.5320399809790861,0.09611004698289058,0.0021281599239163446,0.17322118787941737,0.2714593947862243,0.08,0.002,0.06,0.45909925604784896,0.12803203209266703,0.0009181985120956979,0.12891540407555277,0.25786563468031554,0.5,0,0,0.017766384107029652,-0.13593334396812548,0.0,-0.0,-0.13593334396812548,1.6004004011583377,2.063679223944631,0.4632788227862933,1.9222009396578115,3.34047218554061,1.4182712458827986,-3.017160278810594,6.856524800685045,9.873685079495639,-0.27186668793625096,0,0.27186668793625096,0.27267989868234954,-0.25657467026456193,0.13593334396812548,0.4,0.03150582313537598,0.6057877540588379,GUIDED_NOGPS
0.002,8e-05,0.0,-0.9797796930335849,-0.006334972256997608,-7.83823754426868e-05,-0.0,-0.006413354632440294,0.05,0.004,0.04,0.6127201864636961,0.10342974685946447,0.0024508807458547845,0.1501383792019629,0.2560190068072822,0.08,0.002,0.06,0.5232818785712391,0.13164849763080194,0.0010465637571424782,0.06954310159880996,0.2022381629867544,0.5,0,0,0.008092408136419099,-0.12401764221530837,0.0,0.0,-0.12401764221530837,1.6456062203850244,2.063679223944631,0.41807300355960647,2.0685949371892893,3.34047218554061,1.2718772483513208,-3.167486128498804,6.856524800685045,10.024010929183849,-0.24803528443061673,0,0.24803528443061673,0.25689210066658164,-0.20112795685820292,0.12401764221530837,0.4,0.039002418518066406,0.6447670459747314,GUIDED_NOGPS
0.002,8e-05,0.0,-1.1001787077477239,-0.006905422148538852,-8.801429661981792e-05,-0.0,-0.00699343644515867,0.05,0.004,0.04,0.6900634790434893,0.11089959641478378,0.0027602539161739573,0.17137171658099123,0.285031566911949,0.08,0.002,0.06,0.584718210330732,0.14094593948771317,0.001169436420661464,0.1999687074139545,0.34208408332232915,0.5,0,0,9.886099241845914e-05,-0.11461642278516351,0.0,0.0,-0.11461642278516351,1.7618242435964144,2.063679223944631,0.30185498034821656,2.2179919282956755,3.34047218554061,1.1224802572449346,-3.452711074269426,6.856524800685045,10.30923587495447,-0.22923284557032703,0,0.22923284557032703,0.2863979152526698,-0.34094097485882163,0.11461642278516351,0.4,0.03487086296081543,0.679638147354126,GUIDED_NOGPS
0.002,8e-05,0.0,-1.2281745941160387,-0.0072451353020394245,-9.82539675292831e-05,-0.0,-0.007343389269568707,0.05,0.004,0.04,0.7737037260137946,0.11836023078353107,0.0030948149040551784,0.16892200827479217,0.29037705396237845,0.08,0.002,0.06,0.6517957229132741,0.15187539792843674,0.0013035914458265484,0.23199594756857747,0.3851749369428408,0.5,0,0,-0.006816356337401013,-0.09785799883712604,-0.0,0.0,-0.09785799883712604,1.898442474105459,2.063679223944631,0.1652367498391718,2.3672046156706212,3.34047218554061,0.9732675698699889,-3.622567651019712,6.856524800685045,10.479092451704757,-0.19571599767425207,0,0.19571599767425207,0.29169107196284905,-0.3841807960504474,0.09785799883712604,0.4,0.03533291816711426,0.7149703502655029,GUIDED_NOGPS
0.002,8e-05,0.0,-1.3529459250682756,-0.007473457943567171,-0.00010823567400546206,-0.0,-0.007581693617572633,0.05,0.004,0.04,0.8576788440776599,0.12574693809201815,0.0034307153763106397,0.1769773424395091,0.3061549959078379,0.08,0.002,0.06,0.7206368996595441,0.1649358503343589,0.0014412737993190882,0.29335687844324665,0.45973400257692465,0.5,0,0,-0.011614377588727251,-0.07184705364699266,-0.0,0.0,-0.07184705364699266,2.061698129179486,2.063679223944631,0.001981094765145061,2.5149387618403627,3.34047218554061,0.8255334237002475,-3.7367289717835854,6.856524800685045,10.59325377246863,-0.14369410729398532,0,0.14369410729398532,0.3073070150102643,-0.45896474066120724,0.07184705364699266,0.4,0.03339052200317383,0.7483563423156738,GUIDED_NOGPS
0.002,8e-05,0.0,-1.4707863600602156,-0.007507193533346,-0.00011766290880481725,-0.0,-0.007624856442150817,0.05,0.004,0.04,0.9410185097769677,0.13273181642868442,0.0037640740391078707,0.17799266774198924,0.3144885582097815,0.08,0.002,0.06,0.7910675669345978,0.17947545762290865,0.0015821351338691956,0.3473499328396601,0.528407525596438,0.5,0,0,-0.014641484177956307,-0.048211539216067426,-0.0,0.0,-0.048211539216067426,2.243443220286358,2.063679223944631,-0.17976399634172735,2.6546363285736883,3.34047218554061,0.6858358569669217,-3.7535967666729997,6.856524800685045,10.610121567358044,-0.09642307843213485,0,0.09642307843213485,0.3153773695773674,-0.5278775247254595,0.048211539216067426,0.4,0.031394004821777344,0.7797548770904541,GUIDED_NOGPS
0.002,8e-05,0.0,-1.5961526899166951,-0.00750497047367533,-0.00012769221519333561,0.0,-0.007632662688868666,0.05,0.004,0.04,1.0347060665913512,0.14021355423893891,0.004138824266365405,0.17915566778423386,0.3235080462895382,0.08,0.002,0.06,0.8668568950710386,0.18148307301803993,0.0017337137901420772,0.04506920123670324,0.22828598804488526,0.5,0,0,-0.016829822120016404,-0.03275084239202451,-0.0,0.0,-0.03275084239202451,2.268538412725499,2.063679223944631,-0.20485918878086817,2.804271084778778,3.34047218554061,0.5362011007618319,-3.752485236837665,6.856524800685045,10.60901003752271,-0.06550168478404902,0,0.06550168478404902,0.32376881595006063,-0.22791599805629983,0.03275084239202451,0.4,0.03340888023376465,0.8131654262542725,GUIDED_NOGPS
0.002,8e-05,0.0,-1.7230400109012467,-0.007537446152770058,-0.00013784320087209976,-0.0,-0.007675289353642157,0.05,0.004,0.04,1.133977592323857,0.1474248518106846,0.004535910369295428,0.17134814327194192,0.3233089054519219,0.08,0.002,0.06,0.9446379448043796,0.18481609337228133,0.0018892758896087592,0.07424637047435903,0.26095173973624913,0.5,0,0,-0.019112100950944323,-0.03389336629587402,-0.0,-0.0,-0.03389336629587402,2.3102011671535165,2.063679223944631,-0.2465219432088856,2.9484970362136917,3.34047218554061,0.39197514932691846,-3.7687230763850286,6.856524800685045,10.625247877070073,-0.06778673259174804,0,0.06778673259174804,0.32361741154723417,-0.2605690498876699,0.03389336629587402,0.4,0.03366851806640625,0.8468546867370605,GUIDED_NOGPS
0.002,8e-05,0.0,-1.8511878327966107,-0.0074320172835969185,-0.00014809502662372888,0.0,-0.007580112310220648,0.05,0.004,0.04,1.2404866978339493,0.15442664208093146,0.004961946791335797,0.16242937424901463,0.32181796312128186,0.08,0.002,0.06,1.0234791415116282,0.18289788399717888,0.0020469582830232565,-0.04171793076092859,0.14322691151927355,0.5,0,0,-0.01934236261399895,-0.0033385441794108184,-0.0,0.0,-0.0033385441794108184,2.286223549964736,2.063679223944631,-0.2225443260201051,3.088532841618629,3.34047218554061,0.2519393439219812,-3.7160086417984592,6.856524800685045,10.572533442483504,-0.006677088358821637,0,0.006677088358821637,0.3218346521957929,-0.14318940679007494,0.0033385441794108184,0.4,0.0344853401184082,0.8813252449035645,GUIDED_NOGPS
0.002,8e-05,0.0,-1.970854463105165,-0.007245510172357064,-0.0001576683570484132,0.0,-0.007403178529405477,0.05,0.004,0.04,1.3469147699972526,0.1610987285041907,0.005387659079989011,0.16159114675802727,0.328077534342207,0.08,0.002,0.06,1.0987517307148889,0.1823025548110187,0.0021975034614297776,-0.013517125648674704,0.17098293262377376,0.5,0,0,-0.017686167432415276,0.025069601702312354,-0.0,0.0,0.025069601702312354,2.278781935137734,2.063679223944631,-0.21510271119310292,3.2219745700838143,3.34047218554061,0.11849761545679569,-3.6227550861785316,6.856524800685045,10.479279886863576,0.05013920340462471,0,-0.05013920340462471,0.3279277825722348,-0.1712699658607575,-0.025069601702312354,0.4,0.03303194046020508,0.9143655300140381,GUIDED_NOGPS
0.002,8e-05,0.0,-2.0915537647037032,-0.007033979373811407,-0.00016732430117629628,0.0,-0.007201303674987704,0.05,0.004,0.04,1.4614969414569876,0.1669373020349069,0.005845987765827951,0.13610155234911894,0.3088848421498538,0.08,0.002,0.06,1.1775927407858702,0.18378434052395776,0.0023551854815717405,0.03238269609842932,0.21852222210395883,0.5,0,0,-0.013429564045075861,0.06201539700832009,-0.0,0.0,0.06201539700832009,2.297304256549472,2.063679223944631,-0.23362503260484108,3.3387460406981377,3.34047218554061,0.0017261448424722575,-3.5169896869057036,6.856524800685045,10.373514487590748,0.12403079401664018,0,-0.12403079401664018,0.3084110737361568,-0.21919036671373784,-0.06201539700832009,0.4,0.03431892395019531,0.9486715793609619,GUIDED_NOGPS
0.002,8e-05,0.0,-2.199208957806586,-0.006693724995955849,-0.0001759367166245269,0.0,-0.006869661712580376,0.05,0.004,0.04,1.5725391107942965,0.17260796322848326,0.006290156443177187,0.14103489290577506,0.3199330125774355,0.08,0.002,0.06,1.2524135811092587,0.18608675147234544,0.0025048271622185175,0.05368426247720519,0.24227584111176914,0.5,0,0,-0.006527201708433149,0.10729281600882738,-0.0,0.0,0.10729281600882738,2.326084393404318,2.063679223944631,-0.26240516945968706,3.4521592645696653,3.34047218554061,-0.11168707902905514,-3.3468624979779245,6.856524800685045,10.20338729866297,0.21458563201765476,0,-0.21458563201765476,0.3190233931641583,-0.2434723605202767,-0.10729281600882738,0.4,0.0321660041809082,0.980849027633667,GUIDED_NOGPS
0.002,8e-05,0.0,-2.307113309421737,-0.00621194468063238,-0.00018456906475373895,0.0,-0.006396513745386119,0.05,0.004,0.04,1.6958069478245945,0.1774101259753789,0.0067832277912983786,0.11058226618145295,0.29477561994813023,0.08,0.002,0.06,1.333482423079416,0.18668205836133722,0.002666964846158832,0.012851706420072176,0.20220072962756824,0.5,0,0,0.0023049104545365597,0.12711394709359602,0.0,0.0,0.12711394709359602,2.3335257295167153,2.063679223944631,-0.26984650557208456,3.5482025195075777,3.34047218554061,-0.20773033396696766,-3.10597234031619,6.856524800685045,9.962497141001235,0.25422789418719205,0,-0.25422789418719205,0.2938755334801575,-0.20350668784951095,-0.12711394709359602,0.4,0.03474092483520508,1.0155999660491943,GUIDED_NOGPS
0.002,8e-05,0.0,-2.405267114660443,-0.005704602458557199,-0.00019242136917283547,0.0,-0.005897023827730034,0.05,0.004,0.04,1.8212565850069313,0.1822752329762097,0.007285026340027726,0.11310209029833454,0.30266234961457195,0.08,0.002,0.06,1.414131895087142,0.18749071426328637,0.002828263790174284,0.017624356622625688,0.20794333467608633,0.5,0,0,0.01256279638367875,0.14904455601255692,0.0,0.0,0.14904455601255692,2.3436339282910796,2.063679223944631,-0.27995470434644876,3.645504659524194,3.34047218554061,-0.3050324739835836,-2.8523012292785994,6.856524800685045,9.708826029963644,0.29808911202511384,0,-0.29808911202511384,0.30157640478238323,-0.20951515551137673,-0.14904455601255692,0.4,0.03441214561462402,1.0499956607818604,GUIDED_NOGPS
0.002,8e-05,0.0,-2.4922103765454002,-0.005240966816572625,-0.00019937683012363202,0.0,-0.005440343646696258,0.05,0.004,0.04,1.9456646106039759,0.1874838600868734,0.007782658442415904,0.1255910636663708,0.3208575821956601,0.08,0.002,0.06,1.4901510039513208,0.18329821925004935,0.002980302007902642,-0.09477183783414807,0.09150668342380393,0.5,0,0,0.024114345035555748,0.17408273468224456,0.0,0.0,0.17408273468224456,2.291227740625617,2.063679223944631,-0.22754851668098602,3.7496772017374678,3.34047218554061,-0.4092050161968577,-2.6204834082863124,6.856524800685045,9.477008208971357,0.3481654693644891,0,-0.3481654693644891,0.3202956091223645,-0.09345471598909574,-0.17408273468224456,0.4,0.03317832946777344,1.0831780433654785,GUIDED_NOGPS
0.002,8e-05,0.0,-2.5690352212363226,-0.0047346251829190516,-0.00020552281769890582,0.0,-0.004940148000617957,0.05,0.004,0.04,2.070308936234971,0.19204209439495498,0.008281235744939885,0.11236745629107028,0.31269078643096515,0.08,0.002,0.06,1.5635204743372562,0.18086698049009178,0.0031270409486745124,-0.0561878987759159,0.1278061226628504,0.5,0,0,0.03866653141576708,0.22420854991465272,0.0,0.0,0.22420854991465272,2.2608372561261474,2.063679223944631,-0.19715803218151667,3.8408418878990993,3.34047218554061,-0.5003697023584892,-2.367312591459526,6.856524800685045,9.22383739214457,0.44841709982930544,0,-0.44841709982930544,0.311680964186276,-0.13024941256236183,-0.22420854991465272,0.4,0.03245234489440918,1.115638017654419,GUIDED_NOGPS
0.002,8e-05,0.0,-2.6379125300635096,-0.00415753235409907,-0.00021103300240508078,0.0,-0.0043685653565041505,0.05,0.004,0.04,2.20081428169647,0.19693720812335747,0.00880325712678588,0.11819041161372887,0.32393087686387223,0.08,0.002,0.06,1.6373942995993769,0.17836516779070136,0.003274788599198754,-0.056629865220065176,0.1250100911698349,0.5,0,0,0.05685975405414905,0.27454220058952483,0.0,0.0,0.27454220058952483,2.2295645973837668,2.063679223944631,-0.16588537343913595,3.938744162467149,3.34047218554061,-0.5982719769265387,-2.078766177049535,6.856524800685045,8.93529097773458,0.5490844011790497,0,-0.5490844011790497,0.32271800733166145,-0.12810863992709187,-0.27454220058952483,0.4,0.033133745193481445,1.1487665176391602,GUIDED_NOGPS
0.002,8e-05,0.0,-2.697642929437028,-0.0035779668951355834,-0.00021581143435496226,0.0,-0.0037937783294905458,0.05,0.004,0.04,2.3350925396367623,0.20108820913888248,0.00934037015854705,0.09946120816869942,0.30988978746612894,0.08,0.002,0.06,1.7131934751499245,0.1816207114922925,0.0034263869502998492,0.07313002076078025,0.2581771192033726,0.5,0,0,0.08010601801675264,0.34812408658803656,0.0,0.0,0.34812408658803656,2.270258893653656,2.063679223944631,-0.2065796697090252,4.021764182777649,3.34047218554061,-0.6812919972370388,-1.7889834475677917,6.856524800685045,8.645508248252836,0.6962481731760731,0,-0.6962481731760731,0.3067296620793691,-0.26192369052193626,-0.34812408658803656,0.4,0.03338789939880371,1.1821746826171875,GUIDED_NOGPS
0.002,8e-05,0.0,-2.7486617237614075,-0.0028450031324650186,-0.00021989293790091263,0.0,-0.003064896070365931,0.05,0.004,0.04,2.4821477998646557,0.2050090959293281,0.009928591199458624,0.08745745836277485,0.30239514549156155,0.08,0.002,0.06,1.7971976527215558,0.1873757712202425,0.0035943953054431116,0.1203465544195325,0.3113167209452181,0.5,0,0,0.11027462922528783,0.4205792910583721,0.0,0.0,0.4205792910583721,2.342197140253031,2.063679223944631,-0.2785179163084002,4.100181918586562,3.34047218554061,-0.7597097330459517,-1.4225015662325093,6.856524800685045,8.279026366917554,0.8411585821167442,0,-0.8411585821167442,0.2977922857658813,-0.3157224719516765,-0.4205792910583721,0.4,0.03586554527282715,1.2180278301239014,GUIDED_NOGPS
0.002,8e-05,0.0,-2.780360627736234,-0.0020288227265229802,-0.00022242885021889875,0.0,-0.002251251576741879,0.05,0.004,0.04,2.6128165781280295,0.20907961612667703,0.010451266312512118,0.10421008741135905,0.3237409698505482,0.08,0.002,0.06,1.8732038520072112,0.1945847775555043,0.0037464077040144225,0.17302407245975665,0.37135525771927536,0.5,0,0,0.1403866237553009,0.4818139681733322,0.0,0.0,0.4818139681733322,2.4323097194438037,2.063679223944631,-0.368630495499173,4.1815923225335405,3.34047218554061,-0.8411201369929304,-1.0144113632614902,6.856524800685045,7.870936163946535,0.9636279363466644,0,-0.9636279363466644,0.31744984740564186,-0.3767473123695213,-0.4818139681733322,0.4,0.03124856948852539,1.2493376731872559,GUIDED_NOGPS
0.002,8e-05,0.0,-2.7990767451936716,-0.0010995165879909318,-0.00022392613961549375,0.0,-0.0013234427276064256,0.05,0.004,0.04,2.757473303364627,0.21245387741846913,0.011029893213458507,0.07929115151105821,0.30277492214298585,0.08,0.002,0.06,1.9591812119153265,0.2020366320645681,0.003918362423830653,0.1641654110950771,0.3701204055834758,0.5,0,0,0.17895213437128413,0.566402443549572,0.0,0.0,0.566402443549572,2.525457900807101,2.063679223944631,-0.46177867686247026,4.249077548369383,3.34047218554061,-0.9086053628287728,-0.5497582939954659,6.856524800685045,7.406283094680511,1.132804887099144,0,-1.132804887099144,0.29539850821454616,-0.37603389402098913,-0.566402443549572,0.4,0.03404426574707031,1.2833194732666016,GUIDED_NOGPS
0.002,8e-05,0.0,-2.8028388016877916,-0.00022704387291111417,-0.00022422710413502335,0.0,-0.0004512709770461375,0.05,0.004,0.04,2.9007728960427683,0.21620684430897774,0.011603091584171074,0.09059812249604143,0.3184080583891903,0.08,0.002,0.06,2.0432275789593737,0.20289129318089713,0.004086455157918748,0.019342370009047104,0.22632011834786298,0.5,0,0,0.22095170404950212,0.633679011416176,0.0,0.0,0.633679011416176,2.536141164761214,2.063679223944631,-0.47246194081658344,4.324136886179555,3.34047218554061,-0.9836647006389445,-0.11352193645555708,6.856524800685045,6.970046737140602,1.267358022832352,0,-1.267358022832352,0.313324471400762,-0.23330722928704511,-0.633679011416176,0.4,0.03313946723937988,1.3165240287780762,GUIDED_NOGPS
0.002,8e-05,0.0,-2.7915726027204095,0.0006704577666527669,-0.0002233258082176328,0.0,0.0004471319584351341,0.05,0.004,0.04,3.048217863024223,0.21936329979787983,0.012192871452096892,0.07513696868855836,0.3066931399385351,0.08,0.002,0.06,2.1311939460111744,0.209397097157115,0.004262387892022349,0.1451865048985513,0.3588459899476887,0.5,0,0,0.2678723445468602,0.6980683531520682,0.0,0.0,0.6980683531520682,2.617463714463937,2.063679223944631,-0.5537844905193064,4.387265995957597,3.34047218554061,-1.0467938104169865,0.33522888332638345,6.856524800685045,6.521295917358661,1.3961367063041363,0,-1.3961367063041363,0.29785889306938085,-0.366211969228721,-0.6980683531520682,0.5004471319584352,0.03360748291015625,1.3500659465789795,GUIDED_NOGPS
0.002,8e-05,0.0,-2.765719506609265,0.0015492369870038036,-0.00022125756052874122,0.0,0.0013279794264750625,0.05,0.004,0.04,3.196920260347818,0.2227733701598531,0.012787681041391273,0.08173886965557094,0.3172999208568153,0.08,0.002,0.06,2.220968804681535,0.21518897536640919,0.0044419376093630695,0.13015354003662233,0.3497844530123946,0.5,0,0,0.31745897579193466,0.7428650214226449,0.0,0.0,0.7428650214226449,2.6898621920801147,2.063679223944631,-0.6261829681354837,4.455467403197062,3.34047218554061,-1.1149952176564524,0.7746184935019018,6.856524800685045,6.081906307183143,1.4857300428452898,0,-1.4857300428452898,0.30812404632967116,-0.3578938046660657,-0.7428650214226449,0.5013279794264751,0.03337526321411133,1.3834474086761475,GUIDED_NOGPS
0.002,8e-05,0.0,-2.7246581594183814,0.002465711339247804,-0.00021797265275347053,0.0,0.0022477386864943336,0.05,0.004,0.04,3.3476844391898917,0.2263326526983876,0.013390737756759566,0.08549318437169735,0.3252165748268445,0.08,0.002,0.06,2.3128871756917784,0.22078590712724086,0.004625774351383557,0.12603475395781913,0.35144643543644355,0.5,0,0,0.37177610933226757,0.8154285066636331,0.0,0.0,0.8154285066636331,2.7598238390905108,2.063679223944631,-0.6961446151458798,4.526653053967752,3.34047218554061,-1.1861808684271415,1.232855669623902,6.856524800685045,5.623669131061143,1.6308570133272662,0,-1.6308570133272662,0.3150826812970106,-0.3605597335668159,-0.8154285066636331,0.5022477386864943,0.03330588340759277,1.416752815246582,GUIDED_NOGPS
0.002,8e-05,0.0,-2.664557283885343,0.0033331527486559287,-0.00021316458271082746,0.0,0.003119988165945101,0.05,0.004,0.04,3.513239198389198,0.22953879447849912,0.014052956793556792,0.07112415712536332,0.31471590839741925,0.08,0.002,0.06,2.4159648092121784,0.22866455401609062,0.004831929618424356,0.163854103415826,0.397350587050341,0.5,0,0,0.43382879036940897,0.8603496310412287,0.0,0.0,0.8603496310412287,2.858306925201133,2.063679223944631,-0.7946277012565021,4.590775889569982,3.34047218554061,-1.2503037040293719,1.6665763743279642,6.856524800685045,5.1899484263570805,1.7206992620824575,0,-1.7206992620824575,0.30264260936433846,-0.4066214984783857,-0.8603496310412287,0.503119988165945,0.03606247901916504,1.4528172016143799,GUIDED_NOGPS
0.002,8e-05,0.0,-2.596804571942842,0.004299532800933193,-0.00020774436575542738,0.0,0.004091788435177766,0.05,0.004,0.04,3.660017014653519,0.2328600647061058,0.014640068058614076,0.08430605875364298,0.3318061915183628,0.08,0.002,0.06,2.5079568451971874,0.23350963514366085,0.005015913690394375,0.11529936201400458,0.3538249108480598,0.5,0,0,0.49227320679984643,0.9272089569171774,0.0,0.0,0.9272089569171774,2.9188704392957607,2.063679223944631,-0.8551912153511299,4.657201294122116,3.34047218554061,-1.3167291085815054,2.1497664004665964,6.856524800685045,4.706758400218448,1.8544179138343548,0,-1.8544179138343548,0.320182625764146,-0.3643768686749129,-0.9272089569171774,0.5040917884351778,0.031516313552856445,1.4843413829803467,GUIDED_NOGPS
0.002,8e-05,0.0,-2.5094132381752035,0.005252388653778919,-0.00020075305905401628,0.0,0.005051635594724903,0.05,0.004,0.04,3.816278568355099,0.23479056111739038,0.015265114273420397,0.046410631396253656,0.2964663067870645,0.08,0.002,0.06,2.606086732095155,0.23591186096777608,0.00521217346419031,0.054141911668032824,0.29526594609999923,0.5,0,0,0.5562632250885257,0.9614810517373721,0.0,0.0,0.9614810517373721,2.948898262097201,2.063679223944631,-0.8852190381525702,4.695811222347808,3.34047218554061,-1.3553390368071978,2.6261943268894594,6.856524800685045,4.230330473795585,1.9229621034747442,0,-1.9229621034747442,0.2863914899515437,-0.3050478068592271,-0.9614810517373721,0.5050516355947249,0.03327679634094238,1.5176198482513428,GUIDED_NOGPS
0.002,8e-05,0.0,-2.405248715691872,0.0062556044917731445,-0.00019241989725534976,0.0,0.0060631845945177945,0.05,0.004,0.04,3.9745004369150863,0.23755051337632224,0.015898001747660345,0.06629961655444143,0.31974813167842403,0.08,0.002,0.06,2.7019116511232344,0.23019077113967382,0.005403823302246469,-0.1288426029322069,0.1067519915097134,0.5,0,0,0.6223207431069767,0.9917717102234411,0.0,0.0,0.9917717102234411,2.8773846392459226,2.063679223944631,-0.8137054153012916,4.7510102675264445,3.34047218554061,-1.4105380819858344,3.127802245886572,6.856524800685045,3.728722554798473,1.9835434204468823,0,-1.9835434204468823,0.31586159385984514,-0.11775529256662286,-0.9917717102234411,0.5060631845945178,0.03330278396606445,1.5509183406829834,GUIDED_NOGPS
0.002,8e-05,0.0,-2.282188545447269,0.00715159082063402,-0.00018257508363578152,0.0,0.006969015736998239,0.05,0.004,0.04,4.139591341062209,0.23985473779248867,0.016558365364248834,0.05356361900225617,0.30997672215899363,0.08,0.002,0.06,2.799968480421461,0.22794128072983996,0.005599936960842922,-0.049023076274686175,0.1845181414159967,0.5,0,0,0.6949061742291187,1.0545680659572303,0.0,0.0,1.0545680659572303,2.8492660091229993,2.063679223944631,-0.7855867851783682,4.797094755849773,3.34047218554061,-1.4566225703091633,3.57579541031701,6.856524800685045,3.280729390368035,2.1091361319144606,0,-2.1091361319144606,0.3029758930917047,-0.19580122828351107,-1.0545680659572303,0.5069690157369983,0.03441476821899414,1.5853304862976074,GUIDED_NOGPS
0.002,8e-05,0.0,-2.1493357195195224,0.008038968761677421,-0.0001719468575615618,0.0,0.007867021904115859,0.05,0.004,0.04,4.299589119935429,0.24203797271860555,0.017198356479741717,0.05284330912163487,0.31207963831998214,0.08,0.002,0.06,2.894655439801084,0.22918157841971318,0.005789310879602169,0.02814405992432832,0.26311494922364365,0.5,0,0,0.7677042831753021,1.1012594569231018,0.0,0.0,1.1012594569231018,2.864769730246415,2.063679223944631,-0.801090506301784,4.840759454372111,3.34047218554061,-1.500287268831501,4.01948438083871,6.856524800685045,2.8370404198463346,2.2025189138462036,0,-2.2025189138462036,0.30173711724048147,-0.27491433072558324,-1.1012594569231018,0.5078670219041158,0.03305220603942871,1.6183888912200928,GUIDED_NOGPS
0.002,8e-05,0.0,-1.9948158450129658,0.008965138746911443,-0.0001595852676010373,0.0,0.008805553479310406,0.05,0.004,0.04,4.467725349346151,0.2438787615287792,0.017870901397384602,0.042720529354995006,0.3044701922811588,0.08,0.002,0.06,2.995809277038777,0.23475509244732995,0.0059916185540775544,0.12126431969918174,0.36201103070058926,0.5,0,0,0.8471153326000815,1.1518438621641203,0.0,0.0,1.1518438621641203,2.934438655591624,2.063679223944631,-0.8707594316469932,4.877575230575584,3.34047218554061,-1.5371030450349739,4.482569373455721,6.856524800685045,2.3739554272293235,2.3036877243282405,0,-2.3036877243282405,0.28967268966121784,-0.3739569723926331,-1.1518438621641203,0.5088055534793104,0.03447127342224121,1.6528825759887695,GUIDED_NOGPS
0.002,8e-05,0.0,-1.8322800439530864,0.009812092468531859,-0.00014658240351624692,0.0,0.009665510065015611,0.05,0.004,0.04,4.6305458564285695,0.2457319957892485,0.018522183425714277,0.04475101684920953,0.3090051960641723,0.08,0.002,0.06,3.0915864001076088,0.23127802780511425,0.006183172800215218,-0.07871484212864442,0.15874635847668506,0.5,0,0,0.9257969945127881,1.1874795233279332,0.0,0.0,1.1874795233279332,2.890975347563928,2.063679223944631,-0.8272961236192973,4.91463991578497,3.34047218554061,-1.5741677302443595,4.906046234265929,6.856524800685045,1.950478566419116,2.3749590466558663,0,-2.3749590466558663,0.30216148369014595,-0.1714148631199624,-1.1874795233279332,0.5096655100650156,0.03312969207763672,1.6859986782073975,GUIDED_NOGPS
0.002,8e-05,0.0,-1.6528793092310503,0.010615838084219682,-0.00013223034473848404,0.0,0.010483607739481197,0.05,0.004,0.04,4.798240214671221,0.24807815830567634,0.019192960858684886,0.05553261848621387,0.32280373765057513,0.08,0.002,0.06,3.187382502468426,0.22674509406830295,0.006374765004936852,-0.1005867339486735,0.13253312512456633,0.5,0,0,1.009172244580428,1.2334093228781424,0.0,0.0,1.2334093228781424,2.834313675853787,2.063679223944631,-0.770634451909156,4.961563166113526,3.34047218554061,-1.6210909805729168,5.307919042109841,6.856524800685045,1.5486057585752038,2.466818645756285,0,-2.466818645756285,0.3168002675812752,-0.14630404217552467,-1.2334093228781424,0.5104836077394812,0.0337986946105957,1.7197935581207275,GUIDED_NOGPS
0.002,8e-05,0.0,-1.4664037640700043,0.011323639805000018,-0.00011731230112560036,0.0,0.011206327503874418,0.05,0.004,0.04,4.963457658820537,0.2508187903987391,0.01985383063528215,0.06656943811707737,0.3372420591510986,0.08,0.002,0.06,3.2798373009115798,0.22457096664551812,0.00655967460182316,-0.04950857457849237,0.18162206666884892,0.5,0,0,1.0919212597526127,1.2562237600901758,0.0,0.0,1.2562237600901758,2.8071370830689766,2.063679223944631,-0.7434578591243456,5.016375807974782,3.34047218554061,-1.6759036224341726,5.661819902500008,6.856524800685045,1.1947048981850366,2.5124475201803516,0,-2.5124475201803516,0.32895621270214687,-0.19623096515636068,-1.2562237600901758,0.5112063275038744,0.03293561935424805,1.752732276916504,GUIDED_NOGPS
0.002,8e-05,0.0,-1.2640051092577282,0.011984153584620308,-0.00010112040874061826,0.0,0.01188303317587969,0.05,0.004,0.04,5.134935389043723,0.253832647410969,0.02053974155617489,0.07138095922652735,0.3457533481936712,0.08,0.002,0.06,3.3753258100958194,0.22615742395950925,0.006750651620191639,0.03522568144773673,0.26813375702743764,0.5,0,0,1.1776462496974718,1.2689578476844097,0.0,0.0,1.2689578476844097,2.8269677994938656,2.063679223944631,-0.7632885755492349,5.07665294821938,3.34047218554061,-1.7361807626787695,5.992076792310153,6.856524800685045,0.8644480083748911,2.5379156953688193,0,-2.5379156953688193,0.3335411144451835,-0.28318088639498257,-1.2689578476844097,0.5118830331758797,0.033777713775634766,1.7865097522735596,GUIDED_NOGPS
0.002,8e-05,0.0,-1.0524900996814082,0.012665547158626566,-8.419920797451266e-05,0.0,0.012581347950652053,0.05,0.004,0.04,5.306959538703231,0.2575207291789119,0.021227838154812925,0.08833713248117646,0.3670856998149013,0.08,0.002,0.06,3.4706996863297874,0.22844002032044342,0.006941399372659575,0.05125581615596177,0.28663723584906475,0.5,0,0,1.263096756692937,1.2791969565747292,0.0,0.0,1.2791969565747292,2.8555002540055425,2.063679223944631,-0.7918210300609118,5.150414583578238,3.34047218554061,-1.8099423980376277,6.332773579313283,6.856524800685045,0.5237512213717619,2.5583939131494584,0,-2.5583939131494584,0.3539250191908022,-0.30273733957769144,-1.2791969565747292,0.512581347950652,0.03340005874633789,1.8199098110198975,GUIDED_NOGPS
0.002,8e-05,0.0,-0.8284868757342354,0.013345136119405741,-6.627895005873884e-05,0.0,0.013278857169347002,0.05,0.004,0.04,5.482107010306458,0.2608630813798057,0.02192842804122583,0.0796491127117742,0.36244062213280576,0.08,0.002,0.06,3.5661924777115246,0.2275617782558045,0.007132384955423049,-0.019620688418905203,0.21507347479232233,0.5,0,0,1.3480171291029357,1.2647964493016892,0.0,-0.0,1.2647964493016892,2.8445222281975564,2.063679223944631,-0.7808430042529253,5.2172616275961134,3.34047218554061,-1.8767894420555034,6.67256805970287,6.856524800685045,0.1839567409821743,2.5295928986033784,0,-2.5295928986033784,0.3525950949212005,-0.2308603542593847,-1.2647964493016892,0.513278857169347,0.03357076644897461,1.853482961654663,GUIDED_NOGPS
0.002,8e-05,0.0,-0.5932227246204758,0.013936829937616295,-4.7457817969638064e-05,0.0,0.013889372119646658,0.05,0.004,0.04,5.660691202269543,0.26447904420982765,0.022642764809078172,0.08568251267213285,0.37280432169103866,0.08,0.002,0.06,3.6621524414916977,0.22738316733643185,0.007324304882983396,-0.00396777940324801,0.2307396928161672,0.5,0,0,1.4339435695497564,1.2725506435880625,0.0,0.0,1.2725506435880625,2.842289591705398,2.063679223944631,-0.7786103677607672,5.289580884196553,3.34047218554061,-1.9491086986559432,6.968414968808148,6.856524800685045,-0.11189016812310258,2.545101287176125,0,-2.545101287176125,0.3621904002341227,-0.24706675634463796,-1.2725506435880625,0.5138893721196467,0.03376150131225586,1.8872475624084473,GUIDED_NOGPS
0.002,8e-05,0.0,-0.3519492709151836,0.014456567934314105,-2.815594167321469e-05,0.0,0.01442841199264089,0.05,0.004,0.04,5.83973376207993,0.26819578462555616,0.02335893504831972,0.08907952282196874,0.3806342424958446,0.08,0.002,0.06,3.7547012452342168,0.22181272709387706,0.007509402490468433,-0.1251631394075184,0.10415899017682712,0.5,0,0,1.5205378252530153,1.2971337304938535,0.0,0.0,1.2971337304938535,2.7726590886734632,2.063679223944631,-0.7089798647288325,5.363915692511123,3.34047218554061,-2.023443506970512,7.2282839671570525,6.856524800685045,-0.37175916647200813,2.594267460987707,0,-2.594267460987707,0.3755295793104454,-0.1212809006313924,-1.2971337304938535,0.5144284119926409,0.03337907791137695,1.920630693435669,GUIDED_NOGPS
0.002,8e-05,0.0,-0.10351214559228686,0.01487697938380736,-8.28097164738295e-06,0.0,0.014868698412159976,0.05,0.004,0.04,6.0216301382293524,0.27230920443624507,0.02408652055291741,0.09852836872271406,0.39492409371187653,0.08,0.002,0.06,3.8457346350790513,0.21805144657015352,0.007691469270158103,-0.08446275803499184,0.14128015780531977,0.5,0,0,1.6073179286308295,1.2991474273404702,0.0,0.0,1.2991474273404702,2.725643082126919,2.063679223944631,-0.6619638581822879,5.446184088724901,3.34047218554061,-2.105711903184291,7.43848969190368,6.856524800685045,-0.581964891218635,2.5982948546809403,0,-2.5982948546809403,0.3881133900075527,-0.1590381063785923,-1.2991474273404702,0.51486869841216,0.03339886665344238,1.9540269374847412,GUIDED_NOGPS
0.002,8e-05,0.0,0.15558121204442285,0.015265013433194018,1.244649696355383e-05,0.0,0.015277459930157573,0.05,0.004,0.04,6.209542866090002,0.2767815374760626,0.024838171464360008,0.10539864789009039,0.407018356830513,0.08,0.002,0.06,3.933360599090742,0.20650649324797815,0.007866721198181484,-0.2550729240361009,-0.040699709589941235,0.5,0,0,1.6949984772396953,1.2914695735087827,0.0,-0.0,1.2914695735087827,2.581331165599727,2.063679223944631,-0.5176519416550959,5.535630749521252,3.34047218554061,-2.1951585639806415,7.632506716597009,6.856524800685045,-0.7759819159119639,2.5829391470175653,0,-2.5829391470175653,0.4084389934370785,0.022315864263401097,-1.2914695735087827,0.5152774599301576,0.03394603729248047,1.987983226776123,GUIDED_NOGPS
0.002,8e-05,0.0,0.4157204020628311,0.01567338713281577,3.325763216502649e-05,0.0,0.015706644764980796,0.05,0.004,0.04,6.396461759067976,0.2815465993295585,0.025585847036271904,0.11483799751412978,0.4219704438799602,0.08,0.002,0.06,4.01574800172063,0.1985536521727511,0.00803149600344126,-0.17968451375344338,0.026900634422748954,0.5,0,0,1.7803510459096161,1.2856231422197943,0.0,-0.0,1.2856231422197943,2.4819206521593884,2.063679223944631,-0.41824142821475746,5.63093198659117,3.34047218554061,-2.2904598010505604,7.8366935664078845,6.856524800685045,-0.9801687657228393,2.5712462844395887,0,-2.5712462844395887,0.42033880104916793,-0.04580384234040889,-1.2856231422197943,0.5157066447649808,0.03319501876831055,2.02117657661438,GUIDED_NOGPS
0.002,8e-05,0.0,0.6828469029307351,0.01595536624959953,5.4627752234458816e-05,0.0,0.01600999400183399,0.05,0.004,0.04,8.262553394447648,2.7865239316446893,0.033050213577790595,59.848544647087756,62.66811879231024,0.08,0.002,0.06,4.095569130821655,0.19070745060868446,0.00819113826164331,-0.17574400969594858,0.023154579174379186,0.5,0,0,1.863204979487349,1.2372086363180055,0.0,-0.0,1.2372086363180055,2.383843132608556,2.063679223944631,-0.32016390866392475,55.730478632893785,53.34047218554061,-2.3900064473531706,7.977683124799766,6.856524800685045,-1.121158324114721,2.474417272636011,0,-2.474417272636011,3.9952707329803885,-0.1958262105211956,-1.2372086363180055,0.516009994001834,0.03348422050476074,2.054658889770508,GUIDED_NOGPS
0.002,8e-05,0.0,0.9568312912539991,0.016226111982517128,7.654650330031994e-05,0.0,0.016302658485817446,0.05,0.004,0.04,10.148382337837987,2.792099926075,0.04059352935135195,0.1320903144793201,2.9647837699056723,0.08,0.002,0.06,4.169986438322935,0.176287937038002,0.00833997287664587,-0.32023627791786413,-0.13560836800321627,0.5,0,0,1.9445429771127416,1.20426520100312,0.0,-0.0,1.20426520100312,2.203599212975025,2.063679223944631,-0.13991998903039407,55.841998521499995,53.34047218554061,-2.501526335959381,8.113055991258564,6.856524800685045,-1.2565311905735193,2.40853040200624,0,-2.40853040200624,2.9678634949041967,0.010895291810362959,-1.20426520100312,0.5163026584858175,0.03377079963684082,2.0885062217712402,GUIDED_NOGPS
0.002,8e-05,0.0,1.2299467686391459,0.016328897906140546,9.839574149113167e-05,0.0,0.016427293647631677,0.05,0.004,0.04,12.02013514564084,2.7976866046522035,0.04808054058256336,0.13360546973752876,2.9793726149722954,0.08,0.002,0.06,4.2384063247626225,0.16362622157042903,0.008476812649525245,-0.2838797271296324,-0.11177669290967812,0.5,0,0,2.0222104309782547,1.1608861725285846,0.0,-0.0,1.1608861725285846,2.045327769630363,2.063679223944631,0.018351454314268045,55.95373209304407,53.34047218554061,-2.6132599075034584,8.164448953070274,6.856524800685045,-1.3079241523852292,2.3217723450571692,0,-2.3217723450571692,2.9814550068853856,-0.00901386946556973,-1.1608861725285846,0.5164272936476316,0.03345179557800293,2.12188720703125,GUIDED_NOGPS
0.002,8e-05,0.0,1.500741968854731,0.016259007987016662,0.00012005935750837849,-0.0,0.01637906734452504,0.05,0.004,0.04,13.888654714066503,2.804727942255207,0.05555461885626601,0.16910959165505482,3.029392152766528,0.08,0.002,0.06,4.3025625583245795,0.15408200929267876,0.008605125116649159,-0.21489407428129673,-0.05220693987196881,0.5,0,0,2.0947399858666884,1.0886996993364149,0.0,-0.0,1.0886996993364149,1.9260251161584845,2.063679223944631,0.1376541077861463,56.09455884510414,53.34047218554061,-2.7540866595635243,8.129503993508331,6.856524800685045,-1.2729791928232863,2.1773993986728297,0,-2.1773993986728297,3.0291884056421874,-0.06292839531686695,-1.0886996993364149,0.516379067344525,0.0333101749420166,2.155200242996216,GUIDED_NOGPS
0.002,8e-05,0.0,1.773020567989254,0.016232585691747046,0.0001418416454391403,-0.0,0.016374427337186186,0.05,0.004,0.04,15.77537691548985,2.812044346165704,0.0631015076619594,0.174474459336987,3.04962031316465,0.08,0.002,0.06,4.3617376920101085,0.14111508306921455,0.008723475384020218,-0.28989618778799625,-0.14005762933476149,0.5,0,0,2.1612442105270517,0.9912048992227097,0.0,-0.0,0.9912048992227097,1.763938538365182,2.063679223944631,0.29974068557944894,56.24088692331407,53.34047218554061,-2.9004147377734593,8.116292845873522,6.856524800685045,-1.2597680451884774,1.9824097984454194,0,-1.9824097984454194,3.052640066124008,0.03447927922311729,-0.9912048992227097,0.5163744273371862,0.033547163009643555,2.1887505054473877,GUIDED_NOGPS
0.002,8e-05,0.0,2.0465715095692127,0.01622977471334527,0.00016372572076553703,-0.0,0.016393500434110808,0.05,0.004,0.04,17.67631182031151,2.8195612370952166,0.07070524728124605,0.1783908264049956,3.0686573107814583,0.08,0.002,0.06,4.416295873202021,0.1294774544588127,0.008832591746404042,-0.258922647259279,-0.12061260105406224,0.5,0,0,2.22297070757184,0.915558117890866,0.0,-0.0,0.915558117890866,1.6184681807351589,2.063679223944631,0.44521104320947213,56.39122474190433,53.34047218554061,-3.050752556363716,8.114887356672636,6.856524800685045,-1.2583625559875902,1.831116235781732,0,-1.831116235781732,3.070944317256752,0.022496463143756126,-0.915558117890866,0.5163935004341108,0.03370976448059082,2.222501039505005,GUIDED_NOGPS
0.002,8e-05,0.0,2.3176889211305407,0.016126568394663813,0.00018541511369044326,-0.0,0.016311983508354257,0.05,0.004,0.04,19.57729144946599,2.826845187651082,0.07830916579786396,0.17330517600628093,3.078459529455227,0.08,0.002,0.06,4.466246200765458,0.11884553915570552,0.008932492401530916,-0.23715229360561582,-0.10937426204837938,0.5,0,0,2.2768099913076734,0.8006152080804569,0.0,-0.0,0.8006152080804569,1.485569239446319,2.063679223944631,0.578109984498312,56.53690375302163,53.34047218554061,-3.1964315674810244,8.063284197331907,6.856524800685045,-1.2067593966468617,1.6012304161609139,0,-1.6012304161609139,3.0803136943010023,0.02330983470632382,-0.8006152080804569,0.5163119835083543,0.033623695373535156,2.25608491897583,GUIDED_NOGPS
0.002,8e-05,0.0,2.6077791896181375,0.015987369815303767,0.00020862233516945103,-0.0,0.016195992150473217,0.05,0.004,0.04,21.6335270940827,2.8330663976842843,0.08653410837633081,0.13714460125537198,3.056745107315987,0.08,0.002,0.06,4.514258131374982,0.10584077765903768,0.009028516262749964,-0.2687679758584459,-0.1538986819366583,0.5,0,0,2.3271418281056464,0.6934683577700901,0.0,-0.0,0.6934683577700901,1.323009720737971,2.063679223944631,0.74066950320666,56.661327953685685,53.34047218554061,-3.3208557681450754,7.9936849076518826,6.856524800685045,-1.137160106966838,1.3869367155401802,0,-1.3869367155401802,3.0595745876540104,0.0798673774695286,-0.6934683577700901,0.5161959921504732,0.03628993034362793,2.2923758029937744,GUIDED_NOGPS
0.002,8e-05,0.0,2.8734481570735966,0.015823016974323582,0.00022987585256588775,-0.0,0.01605289282688947,0.05,0.004,0.04,23.540349316480018,2.839217606123738,0.09416139726592007,0.1465442900347707,3.0799232934244287,0.08,0.002,0.06,4.551033709934343,0.08761288295862352,0.009102067419868685,-0.4071141946121227,-0.3103992442336305,0.5,0,0,2.36543487833234,0.5701753478576489,0.0,-0.0,0.5701753478576489,1.095161036982794,2.063679223944631,0.9685181869618369,56.78435212247476,53.34047218554061,-3.4438799369341444,7.9115084871617904,6.856524800685045,-1.0549836864767457,1.1403506957152978,0,-1.1403506957152978,3.0854907264448546,0.24904248878854132,-0.5701753478576489,0.5160528928268895,0.03358006477355957,2.3259758949279785,GUIDED_NOGPS
0.002,8e-05,0.0,3.133325223262344,0.015505799267726387,0.0002506660178609875,-0.0,0.015756465285587374,0.05,0.004,0.04,25.446429354608384,2.843199564786994,0.10178571741843354,0.09503486033659224,3.0400201425420197,0.08,0.002,0.06,4.581399995773759,0.07247327201861056,0.009162799991547517,-0.3387444470429188,-0.25710837503276074,0.5,0,0,2.3960220803984806,0.45625324153699676,0.0,-0.0,0.45625324153699676,0.905915900232632,2.063679223944631,1.1577633237119989,56.86399129573987,53.34047218554061,-3.523519110199262,7.752899633863193,6.856524800685045,-0.8963748331781485,0.9125064830739935,0,-0.9125064830739935,3.0437292046767794,0.2086617170705916,-0.45625324153699676,0.5157564652855874,0.03351998329162598,2.3594868183135986,GUIDED_NOGPS
0.002,8e-05,0.0,3.3883879014020857,0.015200704914423779,0.0002710710321121669,-0.0,0.015471775946535945,0.05,0.004,0.04,27.356978170026387,2.8465247228232133,0.10942791268010556,0.0792663928271136,3.0352190283304323,0.08,0.002,0.06,4.6051439116784065,0.05660165757088214,0.009210287823356813,-0.35470653158913773,-0.2888945861948988,0.5,0,0,2.4176936930393302,0.3228851347204633,0.0,-0.0,0.3228851347204633,0.7075207196360267,2.063679223944631,1.3561585043086042,56.93049445646427,53.34047218554061,-3.5900222709236562,7.600352457211889,6.856524800685045,-0.7438276565268442,0.6457702694409266,0,-0.6457702694409266,3.0382822556193525,0.2546675618535533,-0.3228851347204633,0.5154717759465359,0.033559322357177734,2.3930439949035645,GUIDED_NOGPS
0.002,8e-05,0.0,3.6389379590730937,0.014952060001134552,0.0002911150367258475,-0.0,0.0152431750378604,0.05,0.004,0.04,29.26652214067969,2.848893379771581,0.11706608856271876,0.056541676570836474,3.0225011449051364,0.08,0.002,0.06,4.622348743778826,0.04106926723803925,0.009244697487557652,-0.34759705462130647,-0.29728308989570956,0.5,0,0,2.429718380597365,0.17939913039125804,0.0,-0.0,0.17939913039125804,0.5133658404754906,2.063679223944631,1.5503133834691403,56.97786759543162,53.34047218554061,-3.6373954098910044,7.476030000567276,6.856524800685045,-0.6195051998822314,0.3587982607825161,0,-0.3587982607825161,3.024303518242937,0.27834984468146295,-0.17939913039125804,0.5152431750378604,0.033513784408569336,2.4265599250793457,GUIDED_NOGPS
0.002,8e-05,0.0,3.8852193840075864,0.014646992778850641,0.00031081755072060694,-0.0,0.014957810329571249,0.05,0.004,0.04,31.183785431459434,2.850615061882541,0.12473514172583773,0.04095715371699504,3.016307357325374,0.08,0.002,0.06,4.634158167692336,0.028093478317267398,0.009268316335384672,-0.28938888713336963,-0.2520270924807176,0.5,0,0,2.4312466287042085,0.022722216049365404,0.0,-0.0,0.022722216049365404,0.35116847896584247,2.063679223944631,1.7125107449787884,57.01230123765082,53.34047218554061,-3.6718290521102013,7.323496389425321,6.856524800685045,-0.4669715887402761,0.04544443209873081,0,-0.04544443209873081,3.0165063050730003,0.24963461429517192,-0.022722216049365404,0.5149578103295712,0.03362894058227539,2.4601869583129883,GUIDED_NOGPS
0.002,8e-05,0.0,4.125156465257199,0.014397165394147007,0.0003300125172205759,-0.0,0.014727177911367583,0.05,0.004,0.04,33.08516971141671,2.8522627488222327,0.13234067884566686,0.0395470700318141,3.0241504976997136,0.08,0.002,0.06,4.640382143878715,0.014938518731301507,0.00928076428775743,-0.2960059277719137,-0.27178664475285474,0.5,0,0,2.4237374123380713,-0.11264560425660644,0.0,-0.0,-0.11264560425660644,0.18673148414126883,2.063679223944631,1.876947739803362,57.04525497644465,53.34047218554061,-3.7047827909040416,7.198582697073503,6.856524800685045,-0.3420578963884583,-0.22529120851321288,0,0.22529120851321288,3.0230584369578097,0.28367569466142895,0.11264560425660644,0.5147271779113676,0.03333115577697754,2.493520975112915,GUIDED_NOGPS
0.002,8e-05,0.0,4.362202143538712,0.014152805127349509,0.000348976171483097,-0.0,0.014501781298832606,0.05,0.004,0.04,34.996631958634055,2.8530949065674602,0.13998652783453622,0.019873581309392225,3.0129550157113885,0.08,0.002,0.06,4.644839104096489,0.01064410705646134,0.009289678208192978,-0.09614914519520577,-0.07621535993055145,0.5,0,0,2.4045609952432225,-0.2862318521810977,0.0,-0.0,-0.2862318521810977,0.13305133820576676,2.063679223944631,1.9306278857388641,57.0618981313492,53.34047218554061,-3.7214259458085883,7.076402563674754,6.856524800685045,-0.21987776298970865,-0.5724637043621954,0,0.5724637043621954,3.012043145236472,0.10631462281237916,0.2862318521810977,0.5145017812988326,0.03349804878234863,2.527021646499634,GUIDED_NOGPS
0.002,8e-05,0.0,4.594404030870098,0.013790483338877987,0.0003675523224696079,-0.0,0.014158035661347596,0.05,0.004,0.04,36.91896687079017,2.8541895032057703,0.1476758674831607,0.026003262724320117,3.0278686334132514,0.08,0.002,0.06,4.642357065403326,-0.005896336784836436,0.009284714130806651,-0.3683767138467494,-0.3649883365007792,0.5,0,0,2.374792960163439,-0.44198132551461655,0.0,-0.0,-0.44198132551461655,-0.07370420981045545,2.063679223944631,2.1373834337550863,57.0837900641154,53.34047218554061,-3.7433178785747856,6.8952416694389935,6.856524800685045,-0.038716868753948974,-0.8839626510292331,0,0.8839626510292331,3.0218774482479756,0.4116571811103745,0.44198132551461655,0.5141580356613475,0.0336756706237793,2.5606977939605713,GUIDED_NOGPS
0.002,8e-05,0.0,4.821414105997551,0.013572370104804134,0.0003857131284798041,-0.0,0.013958083233283939,0.05,0.004,0.04,38.82903939109916,2.8549626220438227,0.15531615756439662,0.018489144147727482,3.0287679237559466,0.08,0.002,0.06,4.633900224394538,-0.02022454307797677,0.009267800448789077,-0.3212429866372152,-0.33219972926640284,0.5,0,0,2.3338390213692506,-0.6121336401612937,0.0,-0.0,-0.6121336401612937,-0.2528067884747096,2.063679223944631,2.3164860124193405,57.09925244087645,53.34047218554061,-3.758780255335837,6.786185052402067,6.856524800685045,0.07033974828297762,-1.2242672803225874,0,1.2242672803225874,3.0209787921055096,0.39683615478723155,0.6121336401612937,0.513958083233284,0.03345179557800293,2.5941567420959473,GUIDED_NOGPS
0.002,8e-05,0.0,5.044583735838267,0.013266831140520633,0.0004035666988670614,-0.0,0.013670397839387694,0.05,0.004,0.04,40.74987229478268,2.854708075703853,0.16299948917913074,-0.00605283669148589,3.011654728191498,0.08,0.002,0.06,4.619183554206113,-0.03499465020933634,0.009238367108412226,-0.3292661013827332,-0.3550223844836573,0.5,0,0,2.2831072000317483,-0.7539674054396239,0.0,-0.0,-0.7539674054396239,-0.4374331276167043,2.063679223944631,2.501112351561335,57.09416151407706,53.34047218554061,-3.7536893285364483,6.633415570260317,6.856524800685045,0.22310923042472858,-1.5079348108792479,0,1.5079348108792479,3.0012692103741956,0.4341523029796351,0.7539674054396239,0.5136703978393877,0.033643245697021484,2.6278016567230225,GUIDED_NOGPS
0.002,8e-05,0.0,5.262722528965311,0.012897292978875693,0.0004210178023172249,-0.0,0.01331831078119292,0.05,0.004,0.04,42.680615665375065,2.8538439404321605,0.17072246266150026,-0.020436540631097313,3.0041298624625634,0.08,0.002,0.06,4.595389926598828,-0.05627121739922647,0.009190779853197656,-0.47173542019804393,-0.5188158577440728,0.5,0,0,2.2210026046918876,-0.9179719365255358,0.0,-0.0,-0.9179719365255358,-0.7033902174903308,2.063679223944631,2.7670694414349617,57.07687880864321,53.34047218554061,-3.7364066231025985,6.448646489437847,6.856524800685045,0.4078783112471981,-1.8359438730510715,0,1.8359438730510715,2.985966008448547,0.6147951863636457,0.9179719365255358,0.5133183107811929,0.03382706642150879,2.6616427898406982,GUIDED_NOGPS
0.002,8e-05,0.0,5.470923839535788,0.012521466421918186,0.00043767390716286313,-0.0,0.01295914032908105,0.05,0.004,0.04,44.57737628236347,2.8518341588437655,0.17830950512945387,-0.04834823105680552,2.981795432916414,0.08,0.002,0.06,4.567817317088361,-0.06632993869327383,0.009135634634176722,-0.22685365293644347,-0.2840479569955406,0.5,0,0,2.1485790749037,-1.0889086071490044,0.0,-0.0,-1.0889086071490044,-0.8291242336659228,2.063679223944631,2.8928034576105537,57.03668317687531,53.34047218554061,-3.6962109913346977,6.260733210959093,6.856524800685045,0.5957915897259519,-2.177817214298009,0,2.177817214298009,2.968847607306415,0.3971537866186059,1.0889086071490044,0.5129591403290811,0.03325510025024414,2.694878339767456,GUIDED_NOGPS
