D-kp,D-ki,D-kd,D-I-Tot,D-P,D-I,D-D,D-PID,E-kp,E-ki,E-kd,E-I-Tot,E-P,E-I,E-D,E-PID,N-kp,N-ki,N-kd,N-I-Tot,N-P,N-I,N-D,N-PID,Y-kp,Y-ki,Y-kd,Y-I-Tot,Y-P,Y-I,Y-D,Y-PID,errorN,desiredN,actualN,errorE,desiredE,actualE,errorD,desiredD,actualD,errorY,desiredY,actualY,roll,pitch,yaw-rate,thrust,dt,Time,Mode
0.002,8e-05,0.0,0.001109839701104493,8.104681902815969e-05,8.878717608835945e-08,0.0,8.113560620424804e-05,0.05,0.003,0.1,-0.007487254625297083,-0.013669049909421816,-2.246176387589125e-05,-0.99819191293418,-1.0118834246074777,0.08,0.002,0.06,-0.010495894314450655,-0.030658800408578345,-2.099178862890131e-05,-0.8395801143157282,-0.8702599065129355,0.6,0,0.4,0.1739481730801805,3.810806035289157,0.0,92.76225710377611,96.57306313906527,-0.3832350051072293,3.640061943854537,4.023296948961766,-0.2733809981884363,41.972293139161586,42.24567413735002,0.040523409514079844,33.54740281557301,33.50687940605893,6.351343392148595,0,-6.351343392148595,-0.9094002360202482,0.9768580145576824,-10.0,0.5000811356062043,0.027387619018554688,0.027608394622802734,GUIDED_NOGPS
0.002,8e-05,0.0,0.0036308899659164276,0.00015067258310750732,2.904711972733142e-07,0.0,0.00015096305430478064,0.05,0.003,0.1,-0.0220152173765998,-0.021706882500334857,-6.60456521297994e-05,-0.4803874861054864,-0.5021604142579511,0.08,0.002,0.06,-0.028988692942145913,-0.044209475344668195,-5.797738588429183e-05,-0.30370009237347384,-0.34796754510402633,0.6,0,0.4,0.3850002205422077,3.7841082669096338,0.0,-0.531871151889258,3.2522371150203755,-0.5526184418083524,3.640061943854537,4.192680385662889,-0.43413765000669713,41.972293139161586,42.40643078916828,0.07533629155375365,33.54740281557301,33.472066524019255,6.306847111516056,0,-6.306847111516056,-0.4608959451911503,0.4010254627823474,-3.2522371150203755,0.5001509630543047,0.03346395492553711,0.061029672622680664,GUIDED_NOGPS
0.002,8e-05,0.0,0.009677893747338993,0.0003578878083836372,7.742314997871195e-07,0.0,0.0003586620398834243,0.05,0.003,0.1,-0.041387653112106765,-0.028663611017299574,-0.0001241629593363203,-0.4117292484759686,-0.4405170224526045,0.08,0.002,0.06,-0.05924362066951909,-0.07162469327649504,-0.00011848724133903818,-0.6084566392279348,-0.6801998197457688,0.6,0,0.4,0.5950726609185829,3.7298983764030225,0.0,-1.069458506912763,2.6604398694902596,-0.895308665956188,3.640061943854537,4.535370609810725,-0.5732722203459915,41.972293139161586,42.54556535950758,0.1789439041918186,33.54740281557301,33.36845891138119,6.216497294005038,0,-6.216497294005038,-0.3642708607791139,0.7239017763757236,-2.6604398694902596,0.5003586620398834,0.033792734146118164,0.09482598304748535,GUIDED_NOGPS
0.002,8e-05,0.0,0.015875656580433283,0.00037499352935429895,1.2700525264346627e-06,0.0,0.0003762635818807336,0.05,0.003,0.1,-0.06391901788197932,-0.03408131378917787,-0.00019175705364593795,-0.32779626102680576,-0.3620693318696296,0.08,0.002,0.06,-0.09903420316200053,-0.0963006256660482,-0.00019806840632400106,-0.55987833187101,-0.6563770259433822,0.6,0,0.4,0.7968949417667777,3.6633565095526954,0.0,-1.3420309968831177,2.3213255126695778,-1.2037578208256026,3.640061943854537,4.8438197646801395,-0.6816262757835574,41.972293139161586,42.65391941494514,0.18749676467714949,33.54740281557301,33.35990605089586,6.105594182587826,0,-6.105594182587826,-0.2902024982576408,0.6911638816314287,-2.3213255126695778,0.5003762635818807,0.03305530548095703,0.12790226936340332,GUIDED_NOGPS
0.002,8e-05,0.0,0.023176917137897567,0.00041725365817428897,1.8541533710318056e-06,0.0,0.0004191078115453208,0.05,0.003,0.1,-0.09078678961522764,-0.03838609769661155,-0.0002723603688456829,-0.2460105099509451,-0.2846689680164023,0.08,0.002,0.06,-0.15183671034932283,-0.12070266010249668,-0.0003036734206986457,-0.5229493278267162,-0.6439556613499116,0.6,0,0.4,1.0071685911320967,3.605026093431522,0.0,-1.1111587886243355,2.4938673048071864,-1.5087832512812085,3.640061943854537,5.1488451951357455,-0.7677219539322309,41.972293139161586,42.74001509309382,0.20862682908714447,33.54740281557301,33.338775986485864,6.008376822385871,0,-6.008376822385871,-0.2156998406231509,0.6702155577806835,-2.4938673048071864,0.5004191078115453,0.034996747970581055,0.16286540031433105,GUIDED_NOGPS
0.002,8e-05,0.0,0.030657709442236048,0.00046413888768462644,2.452616755378884e-06,0.0,0.0004665915044400053,0.05,0.003,0.1,-0.1181812739437023,-0.04249164048284762,-0.00035454382183110693,-0.25472463137896956,-0.2975708156836483,0.08,0.002,0.06,-0.21007889974106625,-0.144543325898374,-0.0004201577994821325,-0.5546895796924171,-0.6996530633902731,0.6,0,0.4,1.1980650970229638,3.553199512931958,0.0,-1.0718441954165325,2.4813553175154253,-1.806791573729675,3.640061943854537,5.446853517584212,-0.8498328096569523,41.972293139161586,42.82212594881854,0.2320694438423132,33.54740281557301,33.315333371730695,5.92199918821993,0,-5.92199918821993,-0.22379643979171704,0.7266209142287178,-2.4813553175154253,0.50046659150444,0.032235145568847656,0.1951005458831787,GUIDED_NOGPS
0.002,8e-05,0.0,0.04200363433414086,0.00047848554293170763,3.360290746731269e-06,0.0,0.0004818458336784389,0.05,0.003,0.1,-0.16078453762066003,-0.04491710888566765,-0.0004823536128619801,-0.10228796476654665,-0.14768742726507628,0.08,0.002,0.06,-0.30610723669061934,-0.16199004093502992,-0.0006122144733812388,-0.27591407254881345,-0.4385163279572246,0.6,0,0.4,1.4765065820796455,3.5227685646090143,0.0,-0.42778263176585957,3.0949859328431546,-2.024875511687874,3.640061943854537,5.664937455542411,-0.8983421777133529,41.972293139161586,42.87063531687494,0.23924277146585382,33.54740281557301,33.308160044107154,5.871280941015024,0,-5.871280941015024,-0.10205512934388178,0.4513234944381568,-3.0949859328431546,0.5004818458336784,0.04742431640625,0.24252724647521973,GUIDED_NOGPS
0.002,8e-05,0.0,0.047378678641054384,0.0005368393817517472,3.790294291284351e-06,0.0,0.0005406296760430315,0.05,0.003,0.1,-0.17953179545937276,-0.046810155102955164,-0.0005385953863781183,-0.18907039698425795,-0.23641914747359125,0.08,0.002,0.06,-0.35071119871893935,-0.17819509594116517,-0.0007014223974378788,-0.6069376744176668,-0.7858341927562698,0.6,0,0.4,1.5939152017519191,3.5179005342961975,0.0,-0.1620669048947761,3.3558336294014213,-2.2274386992645647,3.640061943854537,5.867500643119102,-0.9362031020591033,41.972293139161586,42.90849624122069,0.2684196908758736,33.54740281557301,33.278983124697135,5.863167557160329,0,-5.863167557160329,-0.154906987946785,0.8058741942029739,-3.3558336294014213,0.5005406296760431,0.020024776458740234,0.262575626373291,GUIDED_NOGPS
0.002,8e-05,0.0,0.06097254609493506,0.0006212572133093062,4.877803687594806e-06,0.0,0.000626135016996901,0.05,0.003,0.1,-0.21914498222247814,-0.04525933863604514,-0.0006574349466674345,0.07087430562754703,0.024957532044834446,0.08,0.002,0.06,-0.45110224556697365,-0.18351999449048406,-0.0009022044911339473,-0.09125801519861733,-0.27568021418023536,0.6,0,0.4,1.8509084655020396,3.523476731364298,0.0,0.08494645749011075,3.6084231888544087,-2.293999931131051,3.640061943854537,5.934061874985588,-0.9051867727209029,41.972293139161586,42.87747991188249,0.3106286066546531,33.54740281557301,33.236774208918355,5.872461218940497,0,-5.872461218940497,0.05303262121387281,0.27167995874450374,-3.6084231888544087,0.5006261350169969,0.0437624454498291,0.3063223361968994,GUIDED_NOGPS
0.002,8e-05,0.0,0.0698342871184721,0.0006731899339283416,5.586742969477769e-06,0.0,0.0006787766768978193,0.05,0.003,0.1,-0.24281819702882546,-0.04495891346020038,-0.0007284545910864763,0.02282206213656932,-0.022865305914717537,0.08,0.002,0.06,-0.5167601799216776,-0.1995105041897177,-0.0010335203598433552,-0.4555249134728302,-0.6560689380223912,0.6,0,0.4,2.0048574575659543,3.5084610863907737,0.0,-0.38022554938772357,3.12823553700305,-2.493881302371471,3.640061943854537,6.133943246226008,-0.8991782692040076,41.972293139161586,42.87147140836559,0.3365949669641708,33.54740281557301,33.21080784860884,5.847435143984623,0,-5.847435143984623,0.04409392236226557,0.6549847323893224,-3.12823553700305,0.5006787766768979,0.02632761001586914,0.3326544761657715,GUIDED_NOGPS
0.002,8e-05,0.0,0.08268555157392654,0.0008514870411678715,6.6148441259141235e-06,0.0,0.0008581018852937855,0.05,0.003,0.1,-0.2678387457213791,-0.04144470189775156,-0.0008035162371641374,0.23284133757573186,0.19059311944081617,0.08,0.002,0.06,-0.596359530508755,-0.2109607680869343,-0.0011927190610175101,-0.2844978219913869,-0.49665130913933875,0.6,0,0.4,2.181661055077696,3.5143461400612312,0.0,0.12997545765091084,3.644321597712142,-2.637009601086679,3.640061943854537,6.277071544941216,-0.8288940379550311,41.972293139161586,42.80118717711662,0.4257435205839357,33.54740281557301,33.12165929498907,5.857243566768719,0,-5.857243566768719,0.24028145574566523,0.47460834597881246,-3.644321597712142,0.5008581018852938,0.030185461044311523,0.36283445358276367,GUIDED_NOGPS
0.002,8e-05,0.0,0.09946021477643945,0.0010137753518479685,7.956817182115156e-06,0.0,0.0010217321690300836,0.05,0.003,0.1,-0.2926822545630184,-0.03753538388970164,-0.0008780467636890552,0.23625930316757185,0.19784587251418115,0.08,0.002,0.06,-0.69000476464389,-0.2263776721788613,-0.00138000952928778,-0.3493947355644595,-0.5771524172726086,0.6,0,0.4,2.3760855790023365,3.5250088977056158,0.0,0.2148009521285363,3.739809849834152,-2.829720902235766,3.640061943854537,6.469782846090303,-0.7507076777940327,41.972293139161586,42.72300081695562,0.5068876759239842,33.54740281557301,33.040515139649024,5.87501482950936,0,-5.87501482950936,0.2558833042767248,0.5538696928221818,-3.739809849834152,0.5010217321690301,0.03309345245361328,0.3959834575653076,GUIDED_NOGPS
0.002,8e-05,0.0,0.12251792786479945,0.0013174098656499212,9.801434229183956e-06,0.0,0.001327211299879105,0.05,0.003,0.1,-0.315910286739426,-0.033178527540401605,-0.000947730860218278,0.24893039113601034,0.21480413273539045,0.08,0.002,0.06,-0.7956591728849277,-0.24146394611252817,-0.0015913183457698554,-0.32323467054083926,-0.5662899349991373,0.6,0,0.4,2.582612327636458,3.5399916955581934,0.0,0.2853489940710028,3.825340689629196,-3.018299326406602,3.640061943854537,6.658361270261139,-0.6635705508080321,41.972293139161586,42.63586368996962,0.6587049328249606,33.54740281557301,32.88869788274805,5.899986159263656,0,-5.899986159263656,0.271876524197797,0.5412099976087424,-3.825340689629196,0.5013272112998791,0.035004615783691406,0.43114662170410156,GUIDED_NOGPS
0.002,8e-05,0.0,0.14951946642994712,0.0015319733410431126,1.196155731439577e-05,0.0,0.0015439348983575085,0.05,0.003,0.1,-0.33441600210360023,-0.02624874738752858,-0.0010032480063108006,0.39317161234634534,0.36591961695250597,0.08,0.002,0.06,-0.909239896592095,-0.2577670014705878,-0.00181847979318419,-0.34686698675295624,-0.6064524680167283,0.6,0,0.4,2.7916520169311796,3.5580553728090565,0.0,0.34162339703669836,3.899678769845755,-3.222087518382347,3.640061943854537,6.862149462236884,-0.5249749477505716,41.972293139161586,42.49726808691216,0.7659866705215563,33.54740281557301,32.78141614505145,5.930092288015095,0,-5.930092288015095,0.4266170748789903,0.5654021873462673,-3.899678769845755,0.5015439348983575,0.03525066375732422,0.4661870002746582,GUIDED_NOGPS
0.002,8e-05,0.0,0.17929413852508416,0.0018070718691235044,1.4343531082006734e-05,0.0,0.0018214154002055111,0.05,0.003,0.1,-0.3457957152505415,-0.01726631903856557,-0.0010373871457516244,0.5451577614008256,0.5268540552165084,0.08,0.002,0.06,-1.0226141730388032,-0.27523455505330524,-0.0020452283460776063,-0.39755002927754696,-0.6748298126769299,0.6,0,0.4,2.988444138906299,3.583087396060099,0.0,0.5064110070875918,4.08949840314769,-3.4404319381663155,3.640061943854537,7.0804938820208525,-0.3453263807713114,41.972293139161586,42.3176195199329,0.9035359345617522,33.54740281557301,32.643866881011256,5.971812326766831,0,-5.971812326766831,0.5942036624293189,0.6163541831862942,-4.08949840314769,0.5018214154002055,0.032953500747680664,0.499147891998291,GUIDED_NOGPS
0.002,8e-05,0.0,0.21724079406665306,0.0022094941885433313,1.7379263525332246e-05,0.0,0.0022268734520686636,0.05,0.003,0.1,-0.3509865381343058,-0.007556063131091407,-0.0010529596144029174,0.5653924882347002,0.5567834654892059,0.08,0.002,0.06,-1.1473558039850347,-0.2905298553578091,-0.0022947116079700693,-0.3339709058595977,-0.6267954728253768,0.6,0,0.4,3.193455994170401,3.581125896264892,0.0,-0.03807030629783281,3.5430555899670595,-3.631623191972614,3.640061943854537,7.271685135827151,-0.15112126262182812,41.972293139161586,42.123414401783414,1.1047470942716657,33.54740281557301,32.44265572130134,5.968543160441487,0,-5.968543160441487,0.618940933289402,0.5655020011418186,-3.5430555899670595,0.5022268734520686,0.03434872627258301,0.5334954261779785,GUIDED_NOGPS
0.002,8e-05,0.0,0.2693103311029072,0.0025867964924646005,2.1544826488232578e-05,0.0,0.002608341318952833,0.05,0.003,0.1,-0.3485407674514087,0.003037625924869403,-0.0010456223023542262,0.5262907882806761,0.5282827919031913,0.08,0.002,0.06,-1.3013858420249,-0.30608634899771864,-0.0026027716840498,-0.2898154478122241,-0.5985045684939926,0.6,0,0.4,3.4380165857481297,3.644905542646905,0.0,1.0561835508335096,4.701089093480414,-3.826079362471483,3.640061943854537,7.46614130632602,0.06075251849738805,41.972293139161586,41.9115406206642,1.2933982462323002,33.54740281557301,32.25400456934071,6.074842571078175,0,-6.074842571078175,0.5886544460412904,0.5392368402520662,-4.701089093480414,0.5026083413189528,0.040257930755615234,0.573758602142334,GUIDED_NOGPS
0.002,8e-05,0.0,0.3167288711927808,0.0029048493427263652,2.5338309695422468e-05,0.0,0.0029301876524217875,0.05,0.003,0.1,-0.3390211306171783,0.014579271498287484,-0.0010170633918515349,0.7070386708317048,0.7206008789381407,0.08,0.002,0.06,-1.4299188500750353,-0.3149561528005048,-0.002859837700150071,-0.20376083672494885,-0.5215768272256037,0.6,0,0.4,3.637567171204928,3.6673275004219072,0.0,0.4578547348913608,4.125182235313268,-3.93695191000631,3.640061943854537,7.577013853860847,0.29158542996574965,41.972293139161586,41.680707709195836,1.4524246713631825,33.54740281557301,32.094978144209826,6.112212500703179,0,-6.112212500703179,0.7720398782948455,0.44188509790173774,-4.125182235313268,0.5029301876524218,0.03264784812927246,0.6064212322235107,GUIDED_NOGPS
0.002,8e-05,0.0,0.3772156031234388,0.0033123530092396933,3.017724824987511e-05,0.0,0.0033425302574895685,0.05,0.003,0.1,-0.31923687477810564,0.027085460427605314,-0.000957710624334317,0.6848594925187159,0.710987242321987,0.08,0.002,0.06,-1.58062923718978,-0.33012595546110457,-0.00316125847437956,-0.31152126190674684,-0.644808475842231,0.6,0,0.4,3.8624226363127656,3.6940366228470283,0.0,0.4875451701838957,4.181581793030924,-4.126574443263807,3.640061943854537,7.766636387118344,0.5417092085521062,41.972293139161586,41.43058393060948,1.6561765046198467,33.54740281557301,31.89122631095316,6.156727704745047,0,-6.156727704745047,0.7760411838163341,0.5648370652529342,-4.181581793030924,0.5033425302574895,0.03652191162109375,0.6429352760314941,GUIDED_NOGPS
0.002,8e-05,0.0,0.4326216165534962,0.003617438318746345,3.46097293242797e-05,0.0,0.003652048048070625,0.05,0.003,0.1,-0.2942408855076276,0.040799474553490714,-0.0008827226565228829,0.8953829581229833,0.9352997100199512,0.08,0.002,0.06,-1.7112305198607958,-0.34107639598214334,-0.003422461039721592,-0.2681063437136924,-0.6126052007355574,0.6,0,0.4,4.053200701013402,3.7367489857154945,0.0,0.9295581746413174,4.666307160356812,-4.263454949776792,3.640061943854537,7.903516893631329,0.8159894910698142,41.972293139161586,41.15630364809177,1.8087191593731724,33.54740281557301,31.738683656199836,6.2279149761924915,0,-6.2279149761924915,0.9962374638805299,0.5075249699202466,-4.666307160356812,0.5036520480480706,0.030632734298706055,0.6735589504241943,GUIDED_NOGPS
0.002,8e-05,0.0,0.49671327365024115,0.0038310349830766558,3.97370618920193e-05,0.0,0.0038707720449686752,0.05,0.003,0.1,-0.25781138960359473,0.054438705264528764,-0.0007734341688107842,0.8152756905218793,0.8689409616175973,0.08,0.002,0.06,-1.8572932501288542,-0.34923199350952044,-0.0037145865002577083,-0.18281072481153351,-0.5357573048213117,0.6,0,0.4,4.262416674978913,3.751722540441371,0.0,0.29834466540762605,4.050067205848997,-4.365399918869006,3.640061943854537,8.005461862723543,1.0887741052905753,41.972293139161586,40.88351903387101,1.9155174915383277,33.54740281557301,31.63188532403468,6.252870900735619,0,-6.252870900735619,0.9221244381561403,0.4379278536489008,-4.050067205848997,0.5038707720449687,0.03345918655395508,0.7070465087890625,GUIDED_NOGPS
0.002,8e-05,0.0,0.5654239396643074,0.004051843142927908,4.5233915173144595e-05,0.0,0.004097077058101052,0.05,0.003,0.1,-0.21082376030762606,0.0692710879582851,-0.0006324712809228782,0.8746602470521249,0.9432988637294871,0.08,0.002,0.06,-2.0108136164293735,-0.3621216207493595,-0.004021627232858747,-0.2850362475162159,-0.6511794954984342,0.6,0,0.4,4.4767499870391525,3.7917473857458623,0.0,0.7867502208975446,4.578497606643407,-4.526520259366993,3.640061943854537,8.16658220322153,1.3854217591657019,41.972293139161586,40.586871379995884,2.025921571463954,33.54740281557301,31.521481244109054,6.319578976243104,0,-6.319578976243104,1.009244718020546,0.5433898976044418,-4.578497606643407,0.504097077058101,0.03391575813293457,0.7409451007843018,GUIDED_NOGPS
0.002,8e-05,0.0,0.6562992145250423,0.0042338716465185585,5.2503937162003384e-05,0.0,0.004286375583680562,0.05,0.003,0.1,-0.1385305317051574,0.08420339065943416,-0.0004155915951154722,0.6956947653860035,0.7794825644503222,0.08,0.002,0.06,-2.2102498155584738,-0.3716686502796891,-0.004420499631116947,-0.16679824778611063,-0.5428873976969166,0.6,0,0.4,4.747779289622177,3.788169932934455,0.0,-0.05555774493552337,3.7326121879989316,-4.645858128496114,3.640061943854537,8.28592007235065,1.6840678131886833,41.972293139161586,40.2882253259729,2.116935823259279,33.54740281557301,31.43046699231373,6.313616554890759,0,-6.313616554890759,0.8344564976557479,0.45387459543389674,-3.7326121879989316,0.5042863755836806,0.04292774200439453,0.783867597579956,GUIDED_NOGPS
0.002,8e-05,0.0,0.730676449884175,0.004401034595861546,5.8454115990734005e-05,0.0,0.0044594887118522795,0.05,0.003,0.1,-0.06865832572301717,0.10336159791760942,-0.0002059749771690515,1.1336255311291557,1.236781154069596,0.08,0.002,0.06,-2.3743813648271126,-0.3884783418559464,-0.004748762729654225,-0.3729973651329052,-0.7662244697185059,0.6,0,0.4,4.964064247888395,3.8393908269025694,0.0,1.010277429180922,4.849668256083492,-4.855979273199329,3.640061943854537,8.496041217053866,2.0672319583521883,41.972293139161586,39.9050611808094,2.200517297930773,33.54740281557301,31.346885517642235,6.398984711504283,0,-6.398984711504283,1.3144726071660788,0.6236099149846315,-4.849668256083492,0.5044594887118523,0.03379988670349121,0.8176665306091309,GUIDED_NOGPS
0.002,8e-05,0.0,0.805998499050065,0.004510358804532715,6.44798799240052e-05,0.0,0.00457483868445672,0.05,0.003,0.1,0.011156684360020694,0.11948504370514464,3.3470053080062084e-05,0.9654878813380464,1.0850063950962712,0.08,0.002,0.06,-2.5408404765667516,-0.398709450177611,-0.005081680953133503,-0.22974333218044043,-0.6335344633111849,0.6,0,0.4,5.179788038729364,3.875326189906802,0.0,0.7172816933646742,4.5926078832714765,-4.983868127220138,3.640061943854537,8.623930071074675,2.3897008741028927,41.972293139161586,39.58259226505869,2.255179402266357,33.54740281557301,31.29222341330665,6.458876983178004,0,-6.458876983178004,1.1493860298185847,0.5074608832813302,-4.5926078832714765,0.5045748386844567,0.03339958190917969,0.8510737419128418,GUIDED_NOGPS
0.002,8e-05,0.0,0.9208623653017133,0.00457160454788918,7.366898922413707e-05,0.0,0.0046452735371133175,0.05,0.003,0.1,0.14567506340033876,0.1338464509039138,0.0004370251902010163,0.5715868410710007,0.7058703171651155,0.08,0.002,0.06,-2.795196994321987,-0.40493758439492,-0.005590393988643975,-0.09295536416888184,-0.5034833425524459,0.6,0,0.4,5.506858732643315,3.9052434518505494,0.0,0.39690431007776905,4.302147761928318,-5.0617198049365,3.640061943854537,8.701781748791037,2.676929018078276,41.972293139161586,39.29536412108331,2.28580227394459,33.54740281557301,31.261600541628418,6.508739086417583,0,-6.508739086417583,0.7583929172489997,0.4202244209337628,-4.302147761928318,0.5046452735371133,0.050251007080078125,0.9013214111328125,GUIDED_NOGPS
0.002,8e-05,0.0,0.9624714045295047,0.004791570036908027,7.699771236236039e-05,0.0,0.004868567749270388,0.05,0.003,0.1,0.19886957581847867,0.1531429447549275,0.000596608727455436,2.2221253715500637,2.3758649250324466,0.08,0.002,0.06,-2.8857047825479643,-0.4169040326033293,-0.005771409565095928,-0.5167573778535656,-0.9394328200219908,0.6,0,0.4,5.620113756881794,3.912630938432687,0.0,0.2835734735525737,4.196204411985261,-5.211300407541616,3.640061943854537,8.851362351396153,3.0628588950985502,41.972293139161586,38.909434244063036,2.3957850184540135,33.54740281557301,31.151617797118995,6.521051564054479,0,-6.521051564054479,2.46718329761353,0.6635320198081853,-4.196204411985261,0.5048685677492704,0.01736760139465332,0.9186992645263672,GUIDED_NOGPS
0.002,8e-05,0.0,1.0426794252558844,0.0048345474975531955,8.341435402047076e-05,0.0,0.004917961851573666,0.05,0.003,0.1,0.30848722135182294,0.1651803987623545,0.0009254616640554689,0.7255588982434252,0.8916647586698352,0.08,0.002,0.06,-3.059364857040087,-0.4186952232245612,-0.006118729714080174,-0.04048658128464521,-0.4653005342232866,0.6,0,0.4,5.837615260407928,3.932978298417832,0.0,0.4088131394970924,4.3417914379149245,-5.233690290307015,3.640061943854537,8.873752234161552,3.3036079752470897,41.972293139161586,38.668685163914496,2.417273748776598,33.54740281557301,31.13012906679641,6.554963830696387,0,-6.554963830696387,0.9389527551877193,0.36046962774636393,-4.3417914379149245,0.5049179618515737,0.033181190490722656,0.951911211013794,GUIDED_NOGPS
0.002,8e-05,0.0,1.1225694140526106,0.004854866699073661,8.980555312420885e-05,0.0,0.00494467225219787,0.05,0.003,0.1,0.4288737800127644,0.18289547397052353,0.0012866213400382933,1.0765344944352975,1.2607165897458592,0.08,0.002,0.06,-3.2362523113952113,-0.4299737799776966,-0.006472504622790423,-0.2570216732680899,-0.693467957868577,0.6,0,0.4,6.05448912771151,3.95378844882738,0.0,0.42154011930536317,4.375328568132743,-5.374672249721208,3.640061943854537,9.014734193575745,3.6579094794104705,41.972293139161586,38.314383659751115,2.4274333495368303,33.54740281557301,31.119969466036178,6.5896474147123,0,-6.5896474147123,1.3319684467206439,0.5442096886232721,-4.375328568132743,0.5049446722521979,0.03291130065917969,0.9848053455352783,GUIDED_NOGPS
0.002,8e-05,0.0,1.2101766897909472,0.004932963888069494,9.681413518327579e-05,0.0,0.00502977802325277,0.05,0.003,0.1,0.5724493519804394,0.20211024305813866,0.0017173480559413185,1.0819393849193903,1.2857669760334702,0.08,0.002,0.06,-3.4322507175481642,-0.4414487502428308,-0.006864501435096329,-0.24229842837331741,-0.6906116800512445,0.6,0,0.4,6.290135138368154,3.9806052104922998,0.0,0.5033300250964106,4.48393523558871,-5.518109378035385,3.640061943854537,9.158171321889922,4.042204861162773,41.972293139161586,37.93008827799881,2.466481944034747,33.54740281557301,31.08092087153826,6.634342017487167,0,-6.634342017487167,1.3569452102302355,0.5374392111808355,-4.48393523558871,0.5050297780232528,0.03551912307739258,1.0203146934509277,GUIDED_NOGPS
0.002,8e-05,0.0,1.2892109226812887,0.004864925618017317,0.0001031368738145031,-0.0,0.00496806249183182,0.05,0.003,0.1,0.7160089741573057,0.2209191062213982,0.002148026922471917,1.157773244610134,1.3808403777540041,0.08,0.002,0.06,-3.61676054656375,-0.45429761819760145,-0.0072335210931275,-0.29659040419745325,-0.7581215434881823,0.6,0,0.4,6.509000559342835,4.041656208172003,0.0,1.2526578747616754,5.2943140829336786,-5.678720227470018,3.640061943854537,9.318782171324555,4.418382124427964,41.972293139161586,37.55391101473362,2.4324628090086584,33.54740281557301,31.11494000656435,6.736093680286672,0,-6.736093680286672,1.460233276448974,0.5909206392467765,-5.2943140829336786,0.5049680624918318,0.032491445541381836,1.0528326034545898,GUIDED_NOGPS
0.002,8e-05,0.0,1.3725648031559936,0.004841091346149845,0.0001098051842524795,-0.0,0.004950896530402325,0.05,0.003,0.1,0.8800971529740695,0.23825101421534534,0.0026402914589222087,1.006616000645888,1.2475073063201556,0.08,0.002,0.06,-3.8180120617838353,-0.4675376662408229,-0.007636024123567671,-0.28836216880193083,-0.7635358591663214,0.6,0,0.4,6.746479780387632,4.137750739412509,0.0,1.8603509156837739,5.998101655096282,-5.844220828010286,3.640061943854537,9.484282771864823,4.765020284306907,41.972293139161586,37.20727285485468,2.4205456730749226,33.54740281557301,31.126857142498086,6.896251232354182,0,-6.896251232354182,1.3301610298567463,0.6082212773370093,-5.998101655096282,0.5049508965304024,0.03443598747253418,1.0872313976287842,GUIDED_NOGPS
0.002,8e-05,0.0,1.4682848007321807,0.004768496195854709,0.00011746278405857446,-0.0,0.0048859589799132835,0.05,0.003,0.1,1.0838650390590396,0.2537783154612367,0.003251595117177119,0.7735256873987097,1.0305555979771235,0.08,0.002,0.06,-4.055180511575532,-0.47260212254322853,-0.008110361023151064,-0.09461126680793086,-0.5753237503743105,0.6,0,0.4,7.024430027212204,4.154005625308067,0.0,0.2699239570962425,4.42392958240431,-5.9075265317903565,3.640061943854537,9.547588475644893,5.075566309224733,41.972293139161586,36.89672682993685,2.3842480979273546,33.54740281557301,31.163154717645654,6.9233427088467785,0,-6.9233427088467785,1.0923913754327577,0.44690417445675795,-4.42392958240431,0.5048859589799133,0.040146827697753906,1.1274051666259766,GUIDED_NOGPS
0.002,8e-05,0.0,1.554074140700611,0.004670524801886593,0.0001243259312560489,-0.0,0.004794850733142642,0.05,0.003,0.1,1.283853174042902,0.2721927761855071,0.003851559522128706,1.002516111648844,1.2785604473564798,0.08,0.002,0.06,-4.275338918020546,-0.47943266518831296,-0.008550677836041094,-0.13945010029487892,-0.627433443319233,0.6,0,0.4,7.28001853457554,4.174408369933568,0.0,0.3702539454397948,4.544662315373363,-5.992908314853912,3.640061943854537,9.632970258708449,5.443855523710141,41.972293139161586,36.528437615451445,2.3352624009432965,33.54740281557301,31.21214041462971,6.957347283222614,0,-6.957347283222614,1.3451471768399526,0.467940825296678,-4.544662315373363,0.5047948507331427,0.036736488342285156,1.164201259613037,GUIDED_NOGPS
0.002,8e-05,0.0,1.6089429006434761,0.004676758269473751,0.0001287154320514781,0.0,0.00480547370152523,0.05,0.003,0.1,1.4177069247937113,0.28522680136009165,0.004253120774381134,1.1109597717032793,1.4004396938377521,0.08,0.002,0.06,-4.418444790486053,-0.4879071975821755,-0.008836889580972106,-0.2708736685560466,-0.7676177557191942,0.6,0,0.4,7.444815578562198,4.2139603977854385,0.0,1.1237437206120275,5.3377041183974665,-6.098839969777194,3.640061943854537,9.73890191363173,5.704536027201833,41.972293139161586,36.26775711195975,2.3383791347368756,33.54740281557301,31.209023680836133,7.0232673296423975,0,-7.0232673296423975,1.4837900698760262,0.5906228775699826,-5.3377041183974665,0.5048054737015252,0.023464441299438477,1.1875934600830078,GUIDED_NOGPS
0.002,8e-05,0.0,1.6988229827339851,0.004685596945318558,0.00013590583861871881,0.0,0.004821502783937277,0.05,0.003,0.1,1.6451790311670287,0.2964624035653124,0.0049355370935010865,0.5857304771771668,0.8871284178359802,0.08,0.002,0.06,-4.6559526437347,-0.49526704728657406,-0.009311905287469401,-0.14388041470442445,-0.648459367278468,0.6,0,0.4,7.716550654016039,4.249799321056284,0.0,0.6227807299666992,4.872580051022983,-6.190838091082176,3.640061943854537,9.830900034936713,5.929248071306247,41.972293139161586,36.04304506785534,2.342798472659279,33.54740281557301,31.20460434291373,7.082998868427141,0,-7.082998868427141,0.9603179521070924,0.5341215326161272,-4.872580051022983,0.5048215027839372,0.038364410400390625,1.2259631156921387,GUIDED_NOGPS
0.002,8e-05,0.0,1.7692344312348023,0.004613799828037579,0.0001415387544987842,-0.0,0.0047553385825363625,0.05,0.003,0.1,1.8353286638046724,0.31149492058624095,0.005505985991414017,0.9850248208617259,1.302025727439381,0.08,0.002,0.06,-4.84975304675193,-0.5079607280649142,-0.009699506093503861,-0.31191359913361655,-0.8295738332920346,0.6,0,0.4,7.933214700083538,4.259156258416766,0.0,0.2043750786931069,4.463531337109873,-6.349509100811428,3.640061943854537,9.989571044665965,6.229898411724818,41.972293139161586,35.74239472743677,2.306899914018789,33.54740281557301,31.24050290155422,7.098593764027944,0,-7.098593764027944,1.3945620090846946,0.6623145345034709,-4.463531337109873,0.5047553385825364,0.03052210807800293,1.2566757202148438,GUIDED_NOGPS
0.002,8e-05,0.0,1.8388920166099125,0.004526217692920419,0.000147111361328793,-0.0,0.004673329054249212,0.05,0.003,0.1,2.0351451223758192,0.3245923560410212,0.006105435367127458,0.8510464979237137,1.1817442893318624,0.08,0.002,0.06,-5.049895729614185,-0.5201956670771353,-0.010099791459228371,-0.29812616851436424,-0.8284216270507279,0.6,0,0.4,8.154782002219813,4.319106832521013,0.0,1.2984915079008497,5.617598340421862,-6.50244583846419,3.640061943854537,10.142507782318727,6.491847120820424,41.972293139161586,35.48044601834116,2.2631088464602094,33.54740281557301,31.2842939691128,7.198511387535022,0,-7.198511387535022,1.2762371379437607,0.673810600441223,-5.617598340421862,0.5046733290542492,0.030779600143432617,1.2872941493988037,GUIDED_NOGPS
0.002,8e-05,0.0,1.9193526495208502,0.0044577815792996205,0.000153548211961668,-0.0,0.004611329791261288,0.05,0.003,0.1,2.27899430170032,0.3377510033146653,0.00683698290510096,0.7290319912084327,1.073619977428199,0.08,0.002,0.06,-5.291751091250958,-0.5359830451011496,-0.010583502182501918,-0.3280020942918341,-0.8745686415754856,0.6,0,0.4,8.41524746016755,4.329190854495835,0.0,0.1862292393944977,4.515420093890333,-6.69978806376437,3.640061943854537,10.339850007618907,6.755020066293305,41.972293139161586,35.21727307286828,2.2288907896498102,33.54740281557301,31.318512025923198,7.215318090826391,0,-7.215318090826391,1.1749626354201257,0.7327980418414812,-4.515420093890333,0.5046113297912613,0.03609895706176758,1.323373794555664,GUIDED_NOGPS
0.002,8e-05,0.0,1.9869867055556842,0.00437527922949463,0.00015895893644445475,-0.0,0.004534238165939085,0.05,0.003,0.1,2.496162807032868,0.35121834560406917,0.0074884884210986045,0.8712087733578464,1.2299156073830142,0.08,0.002,0.06,-5.503005964652635,-0.5466471265587411,-0.01100601192930527,-0.2586991866882586,-0.816352325176305,0.6,0,0.4,8.639605531311616,4.354149076053679,0.0,0.5381864048437458,4.892335480897425,-6.833089081984264,3.640061943854537,10.473151025838801,7.024366912081383,41.972293139161586,34.9479262270802,2.187639614747315,33.54740281557301,31.359763200825693,7.256915126756132,0,-7.256915126756132,1.3231841886547808,0.6544517728596031,-4.892335480897425,0.5045342381659391,0.030916452407836914,1.3542866706848145,GUIDED_NOGPS
0.002,8e-05,0.0,2.059769101875823,0.004296572779945727,0.00016478152815006586,-0.0,0.004461354308095793,0.05,0.003,0.1,2.7429285760137665,0.36418390284998525,0.0082287857280413,0.765397447132649,1.1378101357106756,0.08,0.002,0.06,-5.740460736474412,-0.560707951736054,-0.011480921472948824,-0.31127045364798184,-0.8834593268569846,0.6,0,0.4,8.882731542231836,4.30574693922612,0.0,-0.9524432376466173,3.353303701579503,-7.0088493967006755,3.640061943854537,10.648911340555212,7.283678056999705,41.972293139161586,34.68861508216188,2.1482863899728635,33.54740281557301,31.399116425600145,7.176244898710201,0,-7.176244898710201,1.2392605973146338,0.7344014291107551,-3.353303701579503,0.5044613543080958,0.03387928009033203,1.38824462890625,GUIDED_NOGPS
0.002,8e-05,0.0,2.14236973084739,0.0041124601427744165,0.00017138957846779123,-0.0,0.004283849721242208,0.05,0.003,0.1,3.046778866606554,0.3781969414129378,0.009140336599819662,0.6976709897589307,1.0850082677716881,0.08,0.002,0.06,-6.030105005303301,-0.5768239423706395,-0.012060210010606602,-0.30088921524225976,-0.8897733676235059,0.6,0,0.4,9.170120371115093,4.292491905846758,0.0,-0.2199773260101895,4.072514579836568,-7.210299279632993,3.640061943854537,10.85036122348753,7.563938828258756,41.972293139161586,34.40835431090283,2.0562300713872084,33.54740281557301,31.4911727441858,7.1541531764112625,0,-7.1541531764112625,1.1873728978939206,0.7477199931872808,-4.072514579836568,0.5042838497212422,0.040170907974243164,1.4283363819122314,GUIDED_NOGPS
0.002,8e-05,0.0,2.2108925234356596,0.003975591147686807,0.00017687140187485278,-0.0,0.00415246254956166,0.05,0.003,0.1,3.3190665271146784,0.3949431903793162,0.009957199581344035,0.971592613682978,1.3764930036436382,0.08,0.002,0.06,-6.288049549123163,-0.5986224473752182,-0.012576099098246326,-0.4742688906251926,-1.0854674370986572,0.6,0,0.4,9.414097391303914,4.246555832289868,0.0,-0.8883810310610993,3.3581748012287687,-7.4827805921902275,3.640061943854537,11.122842536044764,7.898863807586324,41.972293139161586,34.07342933157526,1.9877955738434032,33.54740281557301,31.559607241729605,7.0775930538164475,0,-7.0775930538164475,1.4997485253459462,0.9075940209168811,-3.3581748012287687,0.5041524625495617,0.034471750259399414,1.4635019302368164,GUIDED_NOGPS
0.002,8e-05,0.0,2.2738811305885194,0.0038243998629966143,0.00018191049044708157,-0.0,0.004006310353443696,0.05,0.003,0.1,3.588027651757441,0.4082543394470399,0.010764082955272324,0.8081962591646011,1.2272146815669134,0.08,0.002,0.06,-6.542441349100088,-0.6178234502745561,-0.013084882698200176,-0.4371761587739629,-1.0680844917467192,0.6,0,0.4,9.643349618112056,4.175765544405689,0.0,-1.4326948926321506,2.743070651773538,-7.722793128431951,3.640061943854537,11.362855072286488,8.165086788940798,41.972293139161586,33.80720635022079,1.9121999314983071,33.54740281557301,31.6352028840747,6.959609240676149,0,-6.959609240676149,1.3475917269997717,0.9115135179935628,-2.743070651773538,0.5040063103534437,0.03294038772583008,1.4957530498504639,GUIDED_NOGPS
0.002,8e-05,0.0,2.344417734991731,0.0036628714938598747,0.0001875534187993385,-0.0,0.0038504249126592133,0.05,0.003,0.1,3.9116286807459915,0.42010421202381815,0.011734886042237975,0.615348028652433,1.0471871267184891,0.08,0.002,0.06,-6.847177168442499,-0.6329809353717769,-0.013694354336885,-0.2951654705610985,-0.9418407602697605,0.6,0,0.4,9.907890241776538,4.121172195288237,0.0,-0.9449865259252137,3.176185669363023,-7.9122616921472115,3.640061943854537,11.552323636001748,8.402084240476363,41.972293139161586,33.57020889868522,1.8314357469299374,33.54740281557301,31.71596706864307,6.868620325480395,0,-6.868620325480395,1.1523091181941787,0.8098447951286714,-3.176185669363023,0.5038504249126592,0.03851437568664551,1.534292459487915,GUIDED_NOGPS
0.002,8e-05,0.0,2.394258168493891,0.0034757570098404573,0.0001915406534795113,-0.0,0.0036672976633199687,0.05,0.003,0.1,4.160293947474511,0.4335335706390055,0.012480881842423533,0.9365325312103396,1.3825469836917685,0.08,0.002,0.06,-7.08004720197353,-0.6495927860596811,-0.01416009440394706,-0.43442707369612427,-1.0981799541597523,0.6,0,0.4,10.101986769828464,4.060753411783239,0.0,-1.4044889228637116,2.6562644889195273,-8.119909825746014,3.640061943854537,11.75997176960055,8.67067141278011,41.972293139161586,33.30162172638148,1.7378785049202286,33.54740281557301,31.80952431065278,6.767922352972065,0,-6.767922352972065,1.5023312431275277,0.9275970082726764,-2.6562644889195273,0.50366729766332,0.02867889404296875,1.5629558563232422,GUIDED_NOGPS
0.002,8e-05,0.0,2.4508461102984467,0.003252353901402017,0.00019606768882387575,-0.0,0.003448421590225893,0.05,0.003,0.1,4.468582844869205,0.4429674265515708,0.013405748534607615,0.5422045245693335,0.998577699655512,0.08,0.002,0.06,-7.369702507949244,-0.6659097570331268,-0.014739405015898488,-0.3516776002463476,-1.032326762295373,0.6,0,0.4,10.335750076976566,4.030616663707114,0.0,-0.5773631098505068,3.453253553856608,-8.323871962914085,3.640061943854537,11.963933906768622,8.859348531031415,41.972293139161586,33.11294460813017,1.6261769507010086,33.54740281557301,31.921225864872,6.717694439511858,0,-6.717694439511858,1.1124809864057617,0.9084283247929937,-3.453253553856608,0.5034484215902258,0.03479814529418945,1.5977492332458496,GUIDED_NOGPS
0.002,8e-05,0.0,2.4987512874000495,0.0029293766811675113,0.00019990010299200398,-0.0,0.0031292767841595154,0.05,0.003,0.1,4.765949714728578,0.4545957384054191,0.014297849144185732,0.7110652260769403,1.1799588136265453,0.08,0.002,0.06,-7.650276581530916,-0.6862783508739638,-0.015300553163061831,-0.46707334756563124,-1.1686522516026567,0.6,0,0.4,10.550655267695916,3.9424022148165103,0.0,-1.798089233474054,2.1443129813424564,-8.578479385924547,3.640061943854537,12.218541329779084,9.091914768108381,41.972293139161586,32.880378371053204,1.4646883405837556,33.54740281557301,32.08271447498925,6.570670358027518,0,-6.570670358027518,1.3059354957485223,1.025954856694477,-2.1443129813424564,0.5031292767841595,0.03270673751831055,1.6305201053619385,GUIDED_NOGPS
0.002,8e-05,0.0,2.5433658918301143,0.0026935824592737704,0.00020346927134640917,-0.0,0.0028970517306201797,0.05,0.003,0.1,5.074711226634187,0.4660327056533053,0.01522413367990256,0.6905006725877234,1.1717575119209314,0.08,0.002,0.06,-7.9424899081842355,-0.7056888219401205,-0.01588497981636847,-0.439461234650173,-1.161035036406662,0.6,0,0.4,10.76341742221029,3.8536197824788228,0.0,-1.7867303430600705,2.0668894394187523,-8.821110274251506,3.640061943854537,12.461172218106043,9.320654113066105,41.972293139161586,32.65163902609548,1.3467912296368851,33.54740281557301,32.20061158593612,6.422699637464705,0,-6.422699637464705,1.294279627441465,1.0226721216973371,-2.0668894394187523,0.5028970517306202,0.0331265926361084,1.6635990142822266,GUIDED_NOGPS
0.002,8e-05,0.0,2.5855372660073,0.002450873817332223,0.00020684298128058402,-0.0,0.002657716798612807,0.05,0.003,0.1,5.403627711577534,0.4778909964195034,0.016210883134732602,0.6891683025332935,1.1832701820875295,0.08,0.002,0.06,-8.256024753911129,-0.7288682042797229,-0.016512049507822257,-0.5051685745350741,-1.2505488283226192,0.6,0,0.4,10.980138063861272,3.778546158345339,0.0,-1.454351309397104,2.3241948489482347,-9.110852553496535,3.640061943854537,12.750914497351072,9.557819928390067,41.972293139161586,32.41447321077152,1.2254369086661114,33.54740281557301,32.3219659069069,6.297576930575565,0,-6.297576930575565,1.3133053979646592,1.113206911366175,-2.3241948489482347,0.5026577167986128,0.03441333770751953,1.6980171203613281,GUIDED_NOGPS
0.002,8e-05,0.0,2.6281925238137105,0.0022467975465877005,0.00021025540190509686,-0.0,0.0024570529484927973,0.05,0.003,0.1,5.775631083630635,0.48986708007051727,0.017326893250891904,0.6308210698654643,1.1380150431868734,0.08,0.002,0.06,-8.61298064460212,-0.7520832466510262,-0.01722596128920424,-0.45855572319330096,-1.2278649311335315,0.6,0,0.4,11.21432615121147,3.7006449883846306,0.0,-1.367773216753964,2.332871771630667,-9.401040583137828,3.640061943854537,13.041102526992365,9.797341601410345,41.972293139161586,32.17495153775124,1.1233987732938502,33.54740281557301,32.42400404227916,6.167741647307718,0,-6.167741647307718,1.2633491083444282,1.0984896713544974,-2.332871771630667,0.5024570529484927,0.03796982765197754,1.7359721660614014,GUIDED_NOGPS
0.002,8e-05,0.0,2.664125846437641,0.0021031555132790063,0.00021313006771501132,-0.0,0.0023162855809940176,0.05,0.003,0.1,6.119791625513119,0.503587678690744,0.018359374876539356,0.8030582903680644,1.3250053439353477,0.08,0.002,0.06,-8.9434274755546,-0.7736340795832152,-0.0178868549511092,-0.47300892793277316,-1.2645298624670975,0.6,0,0.4,11.41698020329892,3.5583655154578073,0.0,-2.7758436650775637,0.7825218503802436,-9.67042599479019,3.640061943854537,13.310487938644727,10.071753573814878,41.972293139161586,31.90053956534671,1.051577756639503,33.54740281557301,32.495825058933505,5.930609192429679,0,-5.930609192429679,1.4485697841906342,1.120857044791255,-0.7825218503802436,0.5023162855809941,0.03417086601257324,1.7701427936553955,GUIDED_NOGPS
0.002,8e-05,0.0,2.695269182622939,0.0018880619146678726,0.00021562153460983515,-0.0,0.0021036834492777078,0.05,0.003,0.1,6.459647467407311,0.5150932351466658,0.019378942402221936,0.6975233103556285,1.2319954879045163,0.08,0.002,0.06,-9.27048619055106,-0.7931161902128439,-0.018540972381102118,-0.4429129422538329,-1.2545701048477789,0.6,0,0.4,11.605846529517903,3.4350011383716836,0.0,-2.4929847016303603,0.9420164367413233,-9.913952377660548,3.640061943854537,13.554014321515085,10.301864702933315,41.972293139161586,31.67042843622827,0.9440309573339363,33.54740281557301,32.60337185823907,5.725001897286139,0,-5.725001897286139,1.3509987825270218,1.1254160651978264,-0.9420164367413233,0.5021036834492777,0.0329897403717041,1.803144931793213,GUIDED_NOGPS
0.002,8e-05,0.0,2.725507356482046,0.0016798311742299318,0.0002180405885185637,-0.0,0.0018978717627484956,0.05,0.003,0.1,6.838334321158163,0.5259328697937798,0.02051500296347449,0.6021777731131461,1.1486256458704005,0.08,0.002,0.06,-9.636094105690207,-0.8124294492883003,-0.019272188211380412,-0.40234342716218674,-1.2340450646618675,0.6,0,0.4,11.804312397992948,3.307631814392053,0.0,-2.358596587859504,0.949035226532549,-10.155368116103753,3.640061943854537,13.79543005995829,10.518657395875596,41.972293139161586,31.45363574328599,0.839915587114966,33.54740281557301,32.70748722845804,5.512719690653422,0,-5.512719690653422,1.261863805139238,1.117992769765096,-0.949035226532549,0.5018978717627485,0.03600144386291504,1.839160680770874,GUIDED_NOGPS
0.002,8e-05,0.0,2.75843102719939,0.0015304940182477367,0.00022067448217595123,-0.0,0.001751168500423688,0.05,0.003,0.1,7.300497691652179,0.5371046564544241,0.02190149307495654,0.5193331206610738,1.0783392701904546,0.08,0.002,0.06,-10.084858847994628,-0.8344534357593202,-0.020169717695989256,-0.38392870711377075,-1.2385518605690802,0.6,0,0.4,12.031650958081995,3.170426918557854,0.0,-2.1260415153518903,1.0443854032059638,-10.430667946991502,3.640061943854537,14.070729890846039,10.742093129088481,41.972293139161586,31.230200010073105,0.7652470091238683,33.54740281557301,32.78215580644914,5.28404486426309,0,-5.28404486426309,1.187819074154561,1.13398066122338,-1.0443854032059638,0.5017511685004237,0.04302358627319336,1.882169246673584,GUIDED_NOGPS
0.002,8e-05,0.0,2.776096056544463,0.0013835747503273552,0.00022208768452355705,-0.0,0.0016056624348509123,0.05,0.003,0.1,7.579759481848589,0.546814208597313,0.022739278445545765,0.7604794149767502,1.3300329020196089,0.08,0.002,0.06,-10.356397894102482,-0.8507080528062586,-0.020712795788204966,-0.4774152355567228,-1.3488360841511864,0.6,0,0.4,12.160062259564768,3.0172602193462175,0.0,-3.9988154653007792,-0.9815552459545618,-10.633850660078233,3.640061943854537,14.27391260393277,10.936284171946259,41.972293139161586,31.036008967215327,0.6917873751636776,33.54740281557301,32.85561544040933,5.028767032243696,0,-5.028767032243696,1.443146798956398,1.227058930542829,0.9815552459545618,0.5016056624348509,0.02553534507751465,1.9077346324920654,GUIDED_NOGPS
0.002,8e-05,0.0,2.7950551394950205,0.0012864633241527913,0.00022360441115960167,-0.0,0.001510067735312393,0.05,0.003,0.1,7.904720480951746,0.5512534654451209,0.02371416144285524,0.3012245442510165,0.8761921711389926,0.08,0.002,0.06,-10.67274650222196,-0.8586298884894477,-0.02134549300444392,-0.20157523757144052,-1.0815506190653321,0.6,0,0.4,12.304093849663216,2.9319670998476965,0.0,-1.9291803357714608,1.0027867640762358,-10.732873606118096,3.640061943854537,14.372935549972633,11.025069308902417,41.972293139161586,30.94722383025917,0.6432316620763956,33.54740281557301,32.90417115349661,4.8866118330794945,0,-4.8866118330794945,0.9651383363829047,1.0029817814945114,-1.0027867640762358,0.5015100677353124,0.029474735260009766,1.9371912479400635,GUIDED_NOGPS
0.002,8e-05,0.0,2.8194187008176455,0.0011403849267617545,0.00022555349606541165,-0.0,0.0013659384228271662,0.05,0.003,0.1,8.38181697058742,0.5582862437338161,0.025145450911762263,0.3291831702058131,0.9126148648513914,0.08,0.002,0.06,-11.13716452485422,-0.869520355769188,-0.02227432904970844,-0.19115623994912675,-1.0829509247680231,0.6,0,0.4,12.505553512943308,2.8289160231485035,0.0,-1.6078368428729108,1.2210791802755927,-10.869004447114849,3.640061943854537,14.509066390969386,11.165724874676322,41.972293139161586,30.806568264485264,0.5701924633808773,33.54740281557301,32.97721035219213,4.71486003858084,0,-4.71486003858084,0.9985419759591418,1.004272134060909,-1.2210791802755927,0.5013659384228272,0.04272866249084473,1.9799613952636719,GUIDED_NOGPS
0.002,8e-05,0.0,2.8342160303599515,0.0009704932407936013,0.00022673728242879614,-0.0,0.0011972305232223973,0.05,0.003,0.1,8.728877661713238,0.5690554736916944,0.026186632985139714,0.706307503174263,1.3015496098510972,0.08,0.002,0.06,-11.474085300962463,-0.8838874202568548,-0.022948170601924927,-0.35335275198126487,-1.2601883428400447,0.6,0,0.4,12.640768686511281,2.6604546102445408,0.0,-3.682886656235549,-1.0224320459910081,-11.048592753210686,3.640061943854537,14.688654697065223,11.381109473833888,41.972293139161586,30.591183665327698,0.48524662039680067,33.54740281557301,33.06215619517621,4.434091017074235,0,-4.434091017074235,1.3950819885632046,1.1557907645936683,1.0224320459910081,0.5011972305232224,0.03049445152282715,2.0104169845581055,GUIDED_NOGPS
0.002,8e-05,0.0,2.847111115541131,0.0009171999856832258,0.00022776888924329049,-0.0,0.0011449688749265163,0.05,0.003,0.1,9.052433950183383,0.5753467677469685,0.02715730185055015,0.4474863668096042,1.0499904364071226,0.08,0.002,0.06,-11.789879517539168,-0.8984708417304441,-0.023579759035078335,-0.3889829083771064,-1.3110335091426288,0.6,0,0.4,12.758079985268795,2.503230960379694,0.0,-3.7276612853909423,-1.2244303250112485,-11.230885521630551,3.640061943854537,14.870947465485088,11.506935354939369,41.972293139161586,30.465357784222217,0.4585999928416129,33.54740281557301,33.088802822731395,4.172051600632823,0,-4.172051600632823,1.1425879749638665,1.231170783485876,1.2244303250112485,0.5011449688749265,0.028118371963500977,2.038534164428711,GUIDED_NOGPS
0.002,8e-05,0.0,2.860938504065935,0.00083473094027174,0.00022887508032527483,-0.0,0.001063606020597015,0.05,0.003,0.1,11.094717220371518,3.0822107720617646,0.03328415166111456,151.33421207492287,154.44970699864575,0.08,0.002,0.06,-12.168557844770108,-0.9144011989913733,-0.024337115689540216,-0.36063106036146414,-1.2993693750423776,0.6,0,0.4,12.890030805025887,2.389679692182306,0.0,-2.2849519922344776,0.10472769994782816,-11.430014987392166,3.640061943854537,15.070076931246703,61.64421544123529,91.9722931391616,30.328077697926304,0.41736547013587,33.54740281557301,33.13003734543714,3.9827994869705097,0,-3.9827994869705097,4.080590080244395,1.0184033433807356,-0.10472769994782816,0.501063606020597,0.03313016891479492,2.071664810180664,GUIDED_NOGPS
0.002,8e-05,0.0,2.8740285659342946,0.0006943770485867589,0.00022992228527474358,-0.0,0.0009242993338615024,0.05,0.003,0.1,13.426020425947806,3.0916649889215266,0.04027806127784342,0.5015095624298674,3.6334526126292377,0.08,0.002,0.06,-12.60797773866489,-0.9323808919513104,-0.025215955477329778,-0.3576573851666076,-1.3152542325952479,0.6,0,0.4,13.031330741942773,2.248624203962005,0.0,-2.4941489857565795,-0.2455247817945745,-11.65476114939138,3.640061943854537,15.294823093245917,61.83329977843053,91.9722931391616,30.138993360731067,0.34718852429337943,33.54740281557301,33.20021429127963,3.7477070066033416,0,-3.7477070066033416,3.7116518374874445,1.074947543770404,0.2455247817945745,0.5009242993338615,0.03770303726196289,2.1093831062316895,GUIDED_NOGPS
0.002,8e-05,0.0,2.883352673054194,0.0006111888319412203,0.00023066821384433556,-0.0,0.0008418570457855558,0.05,0.003,0.1,15.319037347523722,3.102149048335423,0.04595711204257116,0.6872229099026832,3.8353290702806775,0.08,0.002,0.06,-12.971109327858231,-0.9521210727678998,-0.025942218655716463,-0.48523324675174756,-1.4632965381753638,0.6,0,0.4,13.137593587830123,2.0896370179413006,0.0,-3.4738336968206256,-1.384196678879325,-11.901513409598747,3.640061943854537,15.541575353453284,62.042980966708456,91.9722931391616,29.929312172453137,0.3055944159706101,33.54740281557301,33.2418083996024,3.482728363235501,0,-3.482728363235501,3.9171376446832915,1.2276068216579297,1.384196678879325,0.5008418570457855,0.03051137924194336,2.1398980617523193,GUIDED_NOGPS
0.002,8e-05,0.0,2.891339617574353,0.0004513047326657613,0.00023130716940594824,-0.0,0.0006826119020717095,0.05,0.003,0.1,17.520798851854252,3.110280109614086,0.05256239655556276,0.45944809399814845,3.6222906001677972,0.08,0.002,0.06,-13.399422405163854,-0.9680784353154291,-0.02679884481032771,-0.33812836155866294,-1.3330056416844198,0.6,0,0.4,13.2513688223549,1.9286712836776014,0.0,-3.0318059464364344,-1.103134662758833,-12.100980441442864,3.640061943854537,15.741042385297401,62.20560219228172,91.9722931391616,29.76669094687988,0.22565236633288066,33.54740281557301,33.32175044924013,3.214452139462669,0,-3.214452139462669,3.69133756537654,1.1277944011505245,1.103134662758833,0.5006826119020718,0.035394906997680664,2.1752822399139404,GUIDED_NOGPS
0.002,8e-05,0.0,2.8955991521010955,0.00027604732236797245,0.00023164793216808767,-0.0,0.0005076952545360602,0.05,0.003,0.1,19.446028085404343,3.119204525338411,0.05833808425621303,0.5783639148671103,3.755906524461734,0.08,0.002,0.06,-13.779362990227387,-0.9849111963500105,-0.027558725980454776,-0.40907978757564323,-1.4215497099061083,0.6,0,0.4,13.341788425383555,1.7579448516447957,0.0,-3.6880848618712663,-1.9301400102264705,-12.31138995437513,3.640061943854537,15.951451898229667,62.38409050676822,91.9722931391616,29.58820263239338,0.13802366118398623,33.54740281557301,33.40937915438902,2.9299080860746596,0,-2.9299080860746596,3.8236583084789557,1.2277110972163665,1.9301400102264705,0.5005076952545361,0.03086090087890625,2.2062296867370605,GUIDED_NOGPS
0.002,8e-05,0.0,2.896801076351124,6.940122647050374e-05,0.00023174408610808993,-0.0,0.00030114531257859366,0.05,0.003,0.1,21.611935964740596,3.126583543940433,0.06483580789422179,0.42607755115756946,3.617496902992224,0.08,0.002,0.06,-14.209626475423573,-0.9937669059388486,-0.028419252950847147,-0.19175411014383975,-1.2139402690335357,0.6,0,0.4,13.435316827330771,1.6201484756156563,0.0,-2.6522019446143394,-1.032053468998683,-12.422086324235607,3.640061943854537,16.062148268090144,62.531670878808654,91.9722931391616,29.44062226035294,0.034700613235251865,33.54740281557301,33.512702202337756,2.7002474593594274,0,-2.7002474593594274,3.6706699476963234,1.0421693504505956,1.032053468998683,0.5003011453125786,0.0346369743347168,2.24084734916687,GUIDED_NOGPS
0.002,8e-05,0.0,2.891138283762802,-0.0002761076881556619,0.00023129106270102417,-0.0,-4.481662545463772e-05,0.05,0.003,0.1,24.183346733422756,3.134435314227863,0.07255004020026827,0.38283834489405794,3.589823699322189,0.08,0.002,0.06,-14.72322542449038,-1.0016868268030834,-0.02944645084898076,-0.14481046714759224,-1.1759437447996564,0.6,0,0.4,13.535215549934648,1.4612651753169181,0.0,-2.582288982441414,-1.121023807124496,-12.521085335038542,3.640061943854537,16.16114727889308,62.688706284557256,91.9722931391616,29.28358685460434,-0.13805384407783095,33.54740281557301,33.68545665965084,2.43544195886153,0,-2.43544195886153,3.6365513186941754,1.0223367300710373,1.121023807124496,0.49995518337454536,0.04101872444152832,2.2818763256073,GUIDED_NOGPS
0.002,8e-05,0.0,2.8846666602104576,-0.0004948851674978983,0.00023077333281683663,-0.0,-0.00026411183468106166,0.05,0.003,0.1,25.826322385350863,3.1409594289707488,0.0774789671560526,0.4988991697668958,3.7173375658936973,0.08,0.002,0.06,-15.052492796247963,-1.0071632696547348,-0.030104985592495925,-0.15704388064358438,-1.194312135890815,0.6,0,0.4,13.591508988089453,1.291428063372814,0.0,-4.3291489846402795,-3.0377209212674656,-12.589540870684186,3.640061943854537,16.229602814538723,62.81918857941497,91.9722931391616,29.153104559746627,-0.24744258374894912,33.54740281557301,33.79484539932196,2.1523801056213565,0,-2.1523801056213565,3.759570016932463,1.053856415515415,3.0377209212674656,0.49973588816531894,0.026154041290283203,2.307997465133667,GUIDED_NOGPS
0.002,8e-05,0.0,2.8739146065279035,-0.0006595209314109809,0.0002299131685222323,-0.0,-0.00042960776288874863,0.05,0.003,0.1,27.877125581119518,3.1448588189448716,0.08363137674335856,0.23918493932381937,3.46767513501205,0.08,0.002,0.06,-15.464028952402522,-1.0097297391910942,-0.030928057904805045,-0.05903431668840337,-1.0996921137843025,0.6,0,0.4,13.654093628278677,1.1516650141895246,0.0,-2.857644970150031,-1.7059799559605064,-12.621621739888678,3.640061943854537,16.261683683743215,62.89717637889743,91.9722931391616,29.075116760264162,-0.32976046570549045,33.54740281557301,33.8771632812785,1.9194416903158744,0,-1.9194416903158744,3.5025628808509155,0.9829276945867184,1.7059799559605064,0.49957039223711125,0.032605648040771484,2.3406052589416504,GUIDED_NOGPS
0.002,8e-05,0.0,2.858117297282226,-0.000911907147150501,0.0002286493837825781,-0.0,-0.0006832577633679228,0.05,0.003,0.1,30.058624113036988,3.1482008610077035,0.09017587233911097,0.19292095861247968,3.431297691959294,0.08,0.002,0.06,-15.901466720317291,-1.0100520811268927,-0.03180293344063458,-0.006977752757833795,-1.0488327673253612,0.6,0,0.4,13.712542720909541,1.0122004542475584,0.0,-2.6835525596461522,-1.6713521053985938,-12.62565101408616,3.640061943854537,16.265712957940696,62.96401722015406,91.9722931391616,29.008275919007527,-0.45595357357525046,33.54740281557301,34.00335638914826,1.687000757079264,0,-1.687000757079264,3.460687521714653,0.9473626030771148,1.6713521053985938,0.4993167422366321,0.03464674949645996,2.3752281665802,GUIDED_NOGPS
0.002,8e-05,0.0,2.8405757704183348,-0.0010425820827882717,0.0002272460616334668,-0.0,-0.000815336021154805,0.05,0.003,0.1,32.178754867912865,3.15025361724928,0.0965362646037386,0.12200573498564245,3.3687956168386606,0.08,0.002,0.06,-16.32624998983379,-1.0098811336150257,-0.032652499979667585,0.00381010475212722,-1.038723528842566,0.6,0,0.4,13.762885712538832,0.897641946574795,0.0,-2.2695980887205844,-1.3719561421457893,-12.623514170187821,3.640061943854537,16.26357611404236,63.00507234498559,91.9722931391616,28.967220794176004,-0.5212910413941358,33.54740281557301,34.068693856967144,1.4960699109579918,0,-1.4960699109579918,3.3947666429702257,0.95041565495271,1.3719561421457893,0.4991846639788452,0.03365015983581543,2.408869504928589,GUIDED_NOGPS
0.002,8e-05,0.0,2.8203097092001155,-0.0012119080915299917,0.00022562477673600926,-0.0,-0.0009862833147939825,0.05,0.003,0.1,34.28746109136837,3.1525096408076574,0.10286238327410512,0.1349099450376682,3.3902819691194304,0.08,0.002,0.06,-16.748371867808242,-1.0097135580922143,-0.03349674373561649,0.0037578737522829036,-1.0394524280755477,0.6,0,0.4,13.805972884564973,0.7729823549434577,0.0,-2.484876335171041,-1.7118939802275834,-12.621419476152678,3.640061943854537,16.261481420007215,63.05019281615314,91.9722931391616,28.922100323008447,-0.6059540457649959,33.54740281557301,34.153356861338004,1.2883039249057628,0,-1.2883039249057628,3.4127952423216428,0.9629651158558297,1.7118939802275834,0.499013716685206,0.033444881439208984,2.4423155784606934,GUIDED_NOGPS
0.002,8e-05,0.0,2.7984769264288776,-0.0012677492020064848,0.00022387815411431024,-0.0,-0.0010438710478921746,0.05,0.003,0.1,36.46041994169178,3.1543927283052353,0.10938125982507535,0.10934394838150803,3.3731179365118185,0.08,0.002,0.06,-17.185189555563262,-1.014575706406566,-0.034370379111126524,-0.10587263503252783,-1.1548187205502203,0.6,0,0.4,13.84223075082241,0.6316081852132646,0.0,-2.736358938417011,-2.104750753203746,-12.682196330082075,3.640061943854537,16.32225827393661,63.0878545661047,91.9722931391616,28.88443857305689,-0.6338746010032423,33.54740281557301,34.18127741657625,1.0526803086887744,0,-1.0526803086887744,3.3937646293330745,1.0926538938011143,2.104750753203746,0.49895612895210784,0.03444337844848633,2.476764440536499,GUIDED_NOGPS
0.002,8e-05,0.0,2.7763936501975195,-0.0012170390485676562,0.00022211149201580157,0.0,-0.0009949275565518546,0.05,0.003,0.1,38.75017808833032,3.1547912626726613,0.11625053426499098,0.02196376489937592,3.293005561837028,0.08,0.002,0.06,-17.647181378827693,-1.0184396248838719,-0.035294362757655386,-0.07985465366579626,-1.1335886413073235,0.6,0,0.4,13.87470583281934,0.5369236314615834,0.0,-1.7393976933000972,-1.202474061838514,-12.730495311048397,3.640061943854537,16.370557254902934,63.09582525345322,91.9722931391616,28.876467885708372,-0.6085195242838282,33.54740281557301,34.155922339856836,0.894872719102639,0,-0.894872719102639,3.3103081338573563,1.0820207469861238,1.202474061838514,0.49900507244344816,0.03629016876220703,2.5130462646484375,GUIDED_NOGPS
0.002,8e-05,0.0,2.7568433602062434,-0.0011813413940078305,0.00022054746881649948,0.0,-0.000960793925191331,0.05,0.003,0.1,40.838227282954634,3.154299689972813,0.12251468184886391,-0.02970366059806397,3.247110711223613,0.08,0.002,0.06,-18.069858939166117,-1.0216247402342247,-0.036139717878332235,-0.07217364697162039,-1.1299381050841772,0.6,0,0.4,13.89999941641426,0.4585153056575433,0.0,-1.5792945773608913,-1.120779271703348,-12.77030925292781,3.640061943854537,16.410371196782346,63.08599379945626,91.9722931391616,28.886299339705335,-0.5906706970039153,33.54740281557301,34.13807351257692,0.7641921760959055,0,-0.7641921760959055,3.2618921899507236,1.0865299965499398,1.120779271703348,0.49903920607480867,0.033098459243774414,2.5461742877960205,GUIDED_NOGPS
0.002,8e-05,0.0,2.734727823987214,-0.0013206706203415593,0.00021877822591897714,-0.0,-0.0011018923944225822,0.05,0.003,0.1,42.948182488763045,3.149998063522187,0.12884454746628915,-0.2568796712302935,3.0219629397581826,0.08,0.002,0.06,-18.495799410896666,-1.0174332857368082,-0.036991598821793335,0.0938627050981254,-0.9605621794604761,0.6,0,0.4,13.91985985132565,0.3558009080346293,0.0,-2.044594139359538,-1.6887932313249088,-12.717916071710103,3.640061943854537,16.35797801556464,62.99996127044374,91.9722931391616,28.972331868717852,-0.6603353101707796,33.54740281557301,34.20773812574379,0.5930015133910489,0,-0.5930015133910489,3.0317425631377626,0.9292344917945337,1.6887932313249088,0.4988981076055774,0.03349137306213379,2.5796496868133545,GUIDED_NOGPS
0.002,8e-05,0.0,2.7099202217646554,-0.001454602488850952,0.00021679361774117246,-0.0,-0.0012378088711097795,0.05,0.003,0.1,45.0938251154282,3.1452627675698253,0.13528147534628462,-0.27765574503963103,3.0028884978764787,0.08,0.002,0.06,-18.92775722527165,-1.0131199399788984,-0.037855514450543304,0.0948429550714272,-0.9561324993580145,0.6,0,0.4,13.932720612381468,0.226228575488407,0.0,-2.532506443213995,-2.306277867725588,-12.663999249736229,3.640061943854537,16.304061193590766,62.905255351396505,91.9722931391616,29.06703778776509,-0.7273012444254761,33.54740281557301,34.274704059998484,0.3770476258140117,0,-0.3770476258140117,3.0091154739483366,0.9363507630434957,2.306277867725588,0.4987621911288902,0.03410911560058594,2.6137611865997314,GUIDED_NOGPS
0.002,8e-05,0.0,2.683516551117199,-0.001497535836478093,0.00021468132408937593,-0.0,-0.0012828545123887171,0.05,0.003,0.1,47.30882840453748,3.1407061234471847,0.14192648521361245,-0.25843898595928144,3.024193622701516,0.08,0.002,0.06,-19.372785636508258,-1.0096262795823432,-0.03874557127301652,0.07430616912391495,-0.9740656817314447,0.6,0,0.4,13.942703210910787,0.16985478161465822,0.0,-1.065783336104699,-0.8959285544900408,-12.62032849477929,3.640061943854537,16.260390438633827,62.814122468943694,91.9722931391616,29.158170670217896,-0.7487679182390465,33.54740281557301,34.296170733812055,0.28309130269109706,0,-0.28309130269109706,3.0289694265940716,0.959111689363572,0.8959285544900408,0.49871714548761126,0.0352628231048584,2.6490306854248047,GUIDED_NOGPS
