D-kp,D-ki,D-kd,D-I-Tot,D-P,D-I,D-D,D-PID,E-kp,E-ki,E-kd,E-I-Tot,E-P,E-I,E-D,E-PID,N-kp,N-ki,N-kd,N-I-Tot,N-P,N-I,N-D,N-PID,Y-kp,Y-ki,Y-kd,Y-I-Tot,Y-P,Y-I,Y-D,Y-PID,errorN,desiredN,actualN,errorE,desiredE,actualE,errorD,desiredD,actualD,errorY,desiredY,actualY,roll,pitch,yaw-rate,thrust,dt,Time,Mode
0.05,0.004,0.04,-0.0059051933413648335,-0.008786655522292817,-2.3620773365459333e-05,-0.20918621506023674,-0.21799649135589502,0.08,0.002,0.06,-0.001051941948943463,-0.0025043858178378977,-2.103883897886926e-06,-0.05589616005147914,-0.05840264975321492,0.5,0,0,0.0006500105639483186,0.009671857602455935,0.0,0.0,0.009671857602455935,0.002,8e-05,0.0,-0.011745636149637622,-0.0006990786094275614,-9.396508919710098e-07,-0.0,-0.0007000182603195324,-0.03130482272297372,0,0.03130482272297372,-0.17573311044585635,0,0.17573311044585635,-0.3495393047137807,0.5,0.8495393047137807,0.01934371520491187,0.0,-0.01934371520491187,-0.21797676152513298,0.05847624455018306,-0.009671857602455935,0.4,0.03360319137573242,0.0338289737701416,GUIDED_NOGPS
0.05,0.004,0.04,-0.011765262574055193,-0.008633570488232852,-4.706105029622077e-05,0.0036086138365118638,-0.00507201770201721,0.08,0.002,0.06,-0.0022965326845543655,-0.002933825227853877,-4.593065369108731e-06,-0.009490319831330545,-0.01242873812455353,0.5,0,0,0.07261074286417597,1.0601889329789387,0.0,0.0,1.0601889329789387,0.002,8e-05,0.0,-0.02390428991584927,-0.0007165280147000117,-1.9123431932679417e-06,-0.0,-0.0007184403578932797,-0.03667281534817346,0,0.03667281534817346,-0.17267140976465703,0,0.17267140976465703,-0.35826400735000585,0.5,0.8582640073500059,2.1203778659578774,2.0928640278329307,-0.027513838124946524,-0.0050660487495877435,0.012431172310168773,-1.0601889329789387,0.4,0.033937692642211914,0.06770467758178711,GUIDED_NOGPS
0.05,0.004,0.04,-0.01720540534100814,-0.007880479291028648,-6.882162136403256e-05,0.017454599522277653,0.009505298609884971,0.08,0.002,0.06,-0.0031116715882965633,-0.0018892696094003794,-6.2233431765931265e-06,0.02269682783755592,0.02080133488497895,0.5,0,0,0.21497521102917583,2.0622625015794784,0.0,0.0,2.0622625015794784,0.002,8e-05,0.0,-0.03696400355608157,-0.000756721338372223,-2.957120284486526e-06,-0.0,-0.0007596784586567095,-0.023615870117504743,0,0.023615870117504743,-0.15760958582057297,0,0.15760958582057297,-0.37836066918611144,0.5,0.8783606691861114,4.124525003158957,4.093032540812346,-0.031492462346611086,0.00949386378003641,-0.020806556302911738,-2.0622625015794784,0.4,0.03451657295227051,0.10223174095153809,GUIDED_NOGPS
0.05,0.004,0.04,-0.022141058727759153,-0.00735571523993495,-8.856423491103661e-05,0.012513082667795189,0.005068803192949202,0.08,0.002,0.06,-0.0030862496911965597,6.06189199358334e-05,-6.172499382393119e-06,0.04358944089321726,0.043643887313770696,0.5,0,0,0.4148157520760552,2.9782685252600603,0.0,0.0,2.9782685252600603,0.002,8e-05,0.0,-0.0513841258639655,-0.0008596253027536889,-4.11073006911724e-06,-0.0,-0.0008637360328228061,0.0007577364991979176,0,-0.0007577364991979176,-0.147114304798699,0,0.147114304798699,-0.42981265137684443,0.5,0.9298126513768444,5.9565370505201205,5.911915622135862,-0.044621428384258,0.005034812199472028,-0.04364782161554016,-2.9782685252600603,0.4,0.03354978561401367,0.13577842712402344,GUIDED_NOGPS
0.05,0.004,0.04,-0.027125426170573553,-0.007438093651621402,-0.00010850170468229422,-0.001966912264878023,-0.009513507621181718,0.08,0.002,0.06,-0.00279286102185407,0.0007005109230588584,-5.58572204370814e-06,0.01432351256431007,0.015018437765325219,0.5,0,0,0.6671159521908523,3.765036463116471,0.0,0.0,3.765036463116471,0.002,8e-05,0.0,-0.06651666904627744,-0.0009032823094894961,-5.321333523702195e-06,-0.0,-0.0009086036430131984,0.00875638653823573,0,-0.00875638653823573,-0.14876187303242802,0,0.14876187303242802,-0.4516411547447481,0.5,0.9516411547447481,7.530072926232942,7.468952709129846,-0.061120217103095974,-0.009529523109067111,-0.01500828069710136,-3.765036463116471,0.4,0.03350567817687988,0.16930460929870605,GUIDED_NOGPS
0.05,0.004,0.04,-0.03217545309862857,-0.007529646770580396,-0.0001287018123945143,-0.0021841076297679173,-0.009842456212742828,0.08,0.002,0.06,-0.0022377025813519204,0.0013243959347511553,-4.475405162703841e-06,0.01395329321138394,0.015273213740972392,0.5,0,0,0.9613043665658465,4.386382242706147,0.0,0.0,4.386382242706147,0.002,8e-05,0.0,-0.08237373812239344,-0.0009457227112714222,-6.589899049791476e-06,-0.0,-0.0009523126103212137,0.01655494918438944,0,-0.01655494918438944,-0.1505929354116079,0,0.1505929354116079,-0.4728613556357111,0.5,0.9728613556357111,8.772764485412294,8.695180719384028,-0.0775837660282657,-0.009863128522064515,-0.015259872150002608,-4.386382242706147,0.4,0.03353428840637207,0.20282721519470215,GUIDED_NOGPS
0.05,0.004,0.04,-0.03746857961162083,-0.007922131639291145,-0.00014987431844648333,-0.009398805907924463,-0.017470811865662093,0.08,0.002,0.06,-0.0016216796899897322,0.0014751854281084738,-3.2433593799794647e-06,0.003385260714815376,0.00485720278354387,0.5,0,0,1.2834940771315861,4.822158120841864,0.0,0.0,4.822158120841864,0.002,8e-05,0.0,-0.09888472592695861,-0.0009884684869060649,-7.91077807415669e-06,-0.0,-0.0009963792649802215,0.01843981785135592,0,-0.01843981785135592,-0.15844263278582288,0,0.15844263278582288,-0.49423424345303246,0.5,0.9942342434530325,9.644316241683727,9.536288510260055,-0.10802773142367246,-0.017479938769361728,-0.004824254009190483,-4.822158120841864,0.4,0.03340721130371094,0.23624324798583984,GUIDED_NOGPS
0.05,0.004,0.04,-0.04321675164071594,-0.008587072841555509,-0.00017286700656286377,-0.01589346598617914,-0.024653405834297513,0.08,0.002,0.06,-0.0006771797829517994,0.0022575495540564485,-1.3543595659035987e-06,0.01753135876274243,0.019787553957232973,0.5,0,0,1.6211340364820128,5.0439320717726925,0.0,0.0,5.0439320717726925,0.002,8e-05,0.0,-0.11574406474358134,-0.0010074324132682163,-9.259525179486509e-06,-0.0,-0.0010166919384477027,0.028219369425705604,0,-0.028219369425705604,-0.17174145683111017,0,0.17174145683111017,-0.5037162066341081,0.5,1.003716206634108,10.087864143545385,9.95502238601579,-0.13284175752959568,-0.024699217489630592,-0.019730341260122877,-5.0439320717726925,0.4,0.03346991539001465,0.26973843574523926,GUIDED_NOGPS
0.05,0.004,0.04,-0.04905723740576102,-0.008664185956606734,-0.00019622894962304408,-0.0018303199983691865,-0.010690734904598966,0.08,0.002,0.06,0.0008322413316819943,0.003582689728251361,1.6644826633639887e-06,0.029487087246688172,0.0330714414576029,0.5,0,0,1.9607841851497432,5.03860837373966,0.0,-0.0,5.03860837373966,0.002,8e-05,0.0,-0.13242916564107507,-0.0009900739266985668,-1.0594333251286007e-05,0.0,-0.0010006682599498528,0.04478362160314201,0,-0.04478362160314201,-0.1732837191321347,0,0.1732837191321347,-0.4950369633492834,0.5,0.9950369633492834,10.07721674747932,9.932836109684285,-0.14438063779503385,-0.010774038177685656,-0.0330443967145693,-5.03860837373966,0.4,0.03370475769042969,0.30341124534606934,GUIDED_NOGPS
0.05,0.004,0.04,-0.054323683783373086,-0.007873602584746816,-0.00021729473513349234,0.018911391352152147,0.01082049403227184,0.08,0.002,0.06,0.002812142584755608,0.00473608334911019,5.624285169511216e-06,0.02586572332634934,0.03060743096062904,0.5,0,0,2.282298055016054,4.806794288408127,0.0,-0.0,4.806794288408127,0.002,8e-05,0.0,-0.14909022669733935,-0.0009963650172525507,-1.1927218135787148e-05,-0.0,-0.0010082922353883378,0.05920104186387737,0,-0.05920104186387737,-0.1574720516949363,0,0.1574720516949363,-0.49818250862627533,0.5,0.9981825086262753,9.613588576816253,9.470712338657458,-0.14287623815879458,0.010744135918489455,-0.03063431841052006,-4.806794288408127,0.4,0.03344368934631348,0.33687448501586914,GUIDED_NOGPS
0.05,0.004,0.04,-0.05924866007081759,-0.007361723085101685,-0.00023699464028327036,0.012242300987916208,0.0046435832625312526,0.08,0.002,0.06,0.00473701339168699,0.004603592798235497,9.47402678337398e-06,-0.0029706500803423053,0.0016424167446765655,0.5,0,0,2.574036225206191,4.360824290198691,0.0,-0.0,4.360824290198691,0.002,8e-05,0.0,-0.16552128738715213,-0.0009824284360619039,-1.3241702990972171e-05,0.0,-0.000995670139052876,0.05754490997794371,0,-0.05754490997794371,-0.1472344617020337,0,0.1472344617020337,-0.4912142180309519,0.5,0.9912142180309519,8.721648580397382,8.589119101584899,-0.13252947881248295,0.004639771809235529,-0.0016531533012632638,-4.360824290198691,0.4,0.03344988822937012,0.37030982971191406,GUIDED_NOGPS
0.05,0.004,0.04,-0.06406575314395815,-0.007005087213631939,-0.00025626301257583264,0.00829800162121899,0.0010366513950112195,0.08,0.002,0.06,0.006164833353675971,0.003322170680858864,1.2329666707351943e-05,-0.02795194182488948,-0.024617441477323265,0.5,0,0,2.8301795592990224,3.724873834212479,0.0,-0.0,3.724873834212479,0.002,8e-05,0.0,-0.18181282070398705,-0.0009476554427777713,-1.4545025656318965e-05,0.0,-0.0009622004684340903,0.041527133510735795,0,-0.041527133510735795,-0.14010174427263877,0,0.14010174427263877,-0.4738277213888856,0.5,0.9738277213888856,7.449747668424958,7.327103244279351,-0.12264442414560807,0.001089343819825455,0.02461516607797767,-3.724873834212479,0.4,0.03438282012939453,0.40470123291015625,GUIDED_NOGPS
0.05,0.004,0.04,-0.06864082126634206,-0.007023720755030022,-0.00027456328506536825,-0.0004577043679576335,-0.007755988408053024,0.08,0.002,0.06,0.007416659296427185,0.003074918447756015,1.483331859285437e-05,-0.005693786174052971,-0.0026040344077041017,0.5,0,0,3.0212984876385542,2.9340896086111248,0.0,-0.0,2.9340896086111248,0.002,8e-05,0.0,-0.1965822103388337,-0.0009069685149373848,-1.5726576827106698e-05,0.0,-0.0009226950917644915,0.038436480596950186,0,-0.038436480596950186,-0.14047441510060044,0,0.14047441510060044,-0.45348425746869236,0.5,0.9534842574686924,5.8681792172222496,5.740560997021648,-0.12761822020060135,-0.007750169056442131,0.0026213032977750995,-2.9340896086111248,0.4,0.03256869316101074,0.4372713565826416,GUIDED_NOGPS
0.05,0.004,0.04,-0.0731116944628132,-0.006680465878922005,-0.0002924467778512528,0.008206370028738598,0.00123345737196534,0.08,0.002,0.06,0.00883013560244972,0.0033792701579642703,1.766027120489944e-05,0.006821523869797829,0.010218454298966999,0.5,0,0,3.15575320654723,2.0090486185974235,0.0,-0.0,2.0090486185974235,0.002,8e-05,0.0,-0.2111107091360623,-0.0008683506440169464,-1.6888856730884987e-05,0.0,-0.0008852395007478313,0.04224087697455338,0,-0.04224087697455338,-0.13360931757844008,0,0.13360931757844008,-0.4341753220084732,0.5,0.9341753220084732,4.018097237194847,3.8997622619605226,-0.11833497523432442,0.0012123502255700636,-0.01022098000580634,-2.0090486185974235,0.4,0.0334622859954834,0.4707338809967041,GUIDED_NOGPS
0.05,0.004,0.04,-0.07728775228964926,-0.006163925074017062,-0.0003091510091585971,0.012198753757272663,0.005725677674097003,0.08,0.002,0.06,0.009707120559396413,0.002071109085098092,1.9414241118792827e-05,-0.028962985567666397,-0.026872462241449513,0.5,0,0,3.2224862266142265,0.9849895588430804,0.0,-0.0,0.9849895588430804,0.002,8e-05,0.0,-0.2244804138758683,-0.0007893555280610809,-1.7958433110069466e-05,0.0,-0.0008073139611711504,0.02588886356372615,0,-0.02588886356372615,-0.12327850148034124,0,0.12327850148034124,-0.39467776403054045,0.5,0.8946777640305404,1.9699791176861607,1.8862382729548939,-0.0837408447312668,0.005764947084834613,0.026864065158773712,-0.9849895588430804,0.4,0.0338749885559082,0.5046055316925049,GUIDED_NOGPS
0.05,0.004,0.04,-0.08059578433570956,-0.004940848957666438,-0.00032238313734283825,0.029228419896667693,0.02396518780165842,0.08,0.002,0.06,0.010870466007200576,0.0027801008276372298,2.174093201440115e-05,0.0158841619277413,0.018686003687392934,0.5,0,0,3.2177337451805577,-0.0709826646505346,0.0,-0.0,-0.0709826646505346,0.002,8e-05,0.0,-0.23697460419811417,-0.0007464487208226923,-1.8957968335849136e-05,0.0,-0.0007654066891585414,0.03475126034546537,0,-0.03475126034546537,-0.09881697915332875,0,0.09881697915332875,-0.3732243604113461,0.5,0.8732243604113461,-0.1419653293010692,-0.21082952277810635,-0.06886419347703716,0.02394271166024311,-0.018714794108631777,0.0709826646505346,0.4,0.03347635269165039,0.5380833148956299,GUIDED_NOGPS
0.05,0.004,0.04,-0.08411790671187912,-0.005026147241037524,-0.00033647162684751646,-0.0019475608662845904,-0.0073101797341696305,0.08,0.002,0.06,0.011684077765707025,0.0018576674214211394,2.336815553141405e-05,-0.019744995876900713,-0.017863960299948158,0.5,0,0,3.1397066995928804,-1.1134633553911872,0.0,-0.0,-1.1134633553911872,0.002,8e-05,0.0,-0.2499403468246258,-0.0007400961644168236,-1.9995227745970063e-05,0.0,-0.0007600913921627936,0.023220842767764243,0,-0.023220842767764243,-0.10052294482075047,0,0.10052294482075047,-0.3700480822084118,0.5,0.8700480822084118,-2.2269267107823745,-2.298559420348432,-0.0716327095660574,-0.0072878400278829514,0.017873085717692267,1.1134633553911872,0.4,0.035037994384765625,0.5731239318847656,GUIDED_NOGPS
0.05,0.004,0.04,-0.08754338574523333,-0.005119183500147409,-0.00035017354298093334,-0.002224598325259768,-0.0076939553683881105,0.08,0.002,0.06,0.012079840640568608,0.0009463121551106335,2.4159681281137218e-05,-0.020429528819072295,-0.019459056982680523,0.5,0,0,2.9988570479408687,-2.1049178982492665,0.0,-0.0,-2.1049178982492665,0.002,8e-05,0.0,-0.2623530175281472,-0.000742001202628985,-2.0988241402251778e-05,-0.0,-0.0007629894440312369,0.011828901938882919,0,-0.011828901938882919,-0.10238367000294818,0,0.10238367000294818,-0.37100060131449253,0.5,0.8710006013144925,-4.209835796498533,-4.284483301829301,-0.074647505330768,-0.0076685967155239836,0.01946906449423317,2.1049178982492665,0.4,0.033457279205322266,0.6065876483917236,GUIDED_NOGPS
0.05,0.004,0.04,-0.09164535721311741,-0.006121395042955668,-0.00036658142885246964,-0.023929694560470494,-0.03041767103227863,0.08,0.002,0.06,0.012069446139255226,-2.4818836234979935e-05,2.4138892278510452e-05,-0.021738363429731903,-0.02173904337368837,0.5,0,0,2.798401085181009,-2.9914155824249846,0.0,-0.0,-2.9914155824249846,0.002,8e-05,0.0,-0.2742758988345381,-0.0007117033075253243,-2.1942071906763053e-05,0.0,-0.0007336453794320873,-0.0003102354529372492,0,0.0003102354529372492,-0.12242790085911334,0,0.12242790085911334,-0.35585165376266215,0.5,0.8558516537626621,-5.982831164849969,-6.080642162619563,-0.09781099776959425,-0.030380515485910125,0.021790938406626777,2.9914155824249846,0.4,0.03350520133972168,0.6400942802429199,GUIDED_NOGPS
0.05,0.004,0.04,-0.09584891439394085,-0.006289775927451008,-0.0003833956575757634,-0.004031168796839783,-0.010704340381866555,0.08,0.002,0.06,0.011863410596207472,-0.0004932650488583383,2.3726821192414944e-05,-0.010514029849191269,-0.010983568076857192,0.5,0,0,2.548052118563489,-3.745967607807482,0.0,-0.0,-3.745967607807482,0.002,8e-05,0.0,-0.28502432319337495,-0.000643314011272677,-2.2801945855469998e-05,0.0,-0.000666115957128147,-0.006165813110729228,0,0.006165813110729228,-0.12579551854902016,0,0.12579551854902016,-0.3216570056363385,0.5,0.8216570056363385,-7.491935215614964,-7.607481923646012,-0.11554670803104827,-0.010682168392156256,0.01100513285478341,3.745967607807482,0.4,0.033415794372558594,0.6735162734985352,GUIDED_NOGPS
0.05,0.004,0.04,-0.10016530770108627,-0.006435653549700435,-0.00040066123080434506,-0.003480008500234671,-0.010316323280739451,0.08,0.002,0.06,0.011472208504115566,-0.0009332388236090586,2.2944417008231134e-05,-0.009839877591421867,-0.010750171998022695,0.5,0,0,2.257469827252171,-4.332522134769319,0.0,-0.0,-4.332522134769319,0.002,8e-05,0.0,-0.294565976656382,-0.0005690563543184004,-2.3565278132510562e-05,0.0,-0.000592621632450911,-0.011665485295113232,0,0.011665485295113232,-0.1287130709940087,0,0.1287130709940087,-0.2845281771592002,0.5,0.7845281771592002,-8.665044269538638,-8.79737697910487,-0.13233270956623214,-0.010291466743631643,0.010773970312030841,4.332522134769319,0.4,0.033535003662109375,0.7070479393005371,GUIDED_NOGPS
0.05,0.004,0.04,-0.10410824620205843,-0.005850100365194002,-0.0004164329848082337,0.013900475080408184,0.007633941730405948,0.08,0.002,0.06,0.010958982764768598,-0.001218349039708488,2.1917965529537196e-05,-0.006345229752807108,-0.007541660826986059,0.5,0,0,1.9385984985174842,-4.731063586765946,0.0,-0.0,-4.731063586765946,0.002,8e-05,0.0,-0.30232579827947903,-0.00046052694253209925,-2.4186063862358325e-05,0.0,-0.00048471300639445756,-0.015229362996356102,0,0.015229362996356102,-0.11700200730388004,0,0.11700200730388004,-0.23026347126604962,0.5,0.7302634712660496,-9.462127173531892,-9.597625417490859,-0.13549824395896615,0.007651755568543253,0.007523586318491783,4.731063586765946,0.4,0.033699750900268555,0.7407562732696533,GUIDED_NOGPS
0.05,0.004,0.04,-0.10801830969605108,-0.005843825480906848,-0.00043207323878420437,0.00015005108226340933,-0.006125847637427642,0.08,0.002,0.06,0.01040143384009336,-0.001333264738181458,2.0802867680186718e-05,-0.002576226529023002,-0.0038886883995242734,0.5,0,0,1.6096572276677183,-4.916225486535166,0.0,-0.0,-4.916225486535166,0.002,8e-05,0.0,-0.30958213564081927,-0.0004338013358136641,-2.4766570851265543e-05,0.0,-0.0004585679066649296,-0.016665809227268225,0,0.016665809227268225,-0.11687650961813695,0,0.11687650961813695,-0.21690066790683205,0.5,0.716900667906832,-9.832450973070332,-9.972783253900806,-0.14033228083047486,-0.006116304862558444,0.00390368051636099,4.916225486535166,0.4,0.03345465660095215,0.7742078304290771,GUIDED_NOGPS
0.05,0.004,0.04,-0.11197922190376242,-0.005920075088000569,-0.0004479168876150497,-0.0018234320813131893,-0.008191424056928808,0.08,0.002,0.06,0.009973576271412135,-0.0010231780158644944,1.9947152542824273e-05,0.006951946610939098,0.005948715747617427,0.5,0,0,1.2830876170406293,-4.880988305187837,0.0,0.0,-4.880988305187837,0.002,8e-05,0.0,-0.3165375897196146,-0.0004158315888692805,-2.532300717756917e-05,0.0,-0.0004411545960468497,-0.012789725198306179,0,0.012789725198306179,-0.11840150176001137,0,0.11840150176001137,-0.20791579443464026,0.5,0.7079157944346403,-9.761976610375674,-9.9062342875998,-0.14425767722412552,-0.00820637558429831,-0.005928072780914229,4.880988305187837,0.4,0.03345322608947754,0.8076620101928711,GUIDED_NOGPS
0.05,0.004,0.04,-0.11599686151014231,-0.005999516466909811,-0.00046398744604056924,-0.0018980691455278548,-0.008361573058478235,0.08,0.002,0.06,0.00968124183488446,-0.0006984659402530786,1.936248366976892e-05,0.007273358123790906,0.006594254667207596,0.5,0,0,0.9732721922722846,-4.626454646774974,0.0,0.0,-4.626454646774974,0.002,8e-05,0.0,-0.32321116466451144,-0.0003986243336658264,-2.5856893173160918e-05,0.0,-0.0004244812268389873,-0.008730824253163483,0,0.008730824253163483,-0.11999032933819621,0,0.11999032933819621,-0.1993121668329132,0.5,0.6993121668329132,-9.252909293549948,-9.4009260539328,-0.14801676038285108,-0.008378580602011756,-0.00657263156763336,4.626454646774974,0.4,0.033483028411865234,0.8411622047424316,GUIDED_NOGPS
0.05,0.004,0.04,-0.11911379001232535,-0.00466232496127741,-0.00047645516004930137,0.032002896853625486,0.026864116732298774,0.08,0.002,0.06,0.009385801483223155,-0.0007070750196056655,1.877160296644631e-05,-0.00019316287908627763,-0.0008814662957254968,0.5,0,0,0.6934759183135156,-4.185213588430837,0.0,0.0,-4.185213588430837,0.002,8e-05,0.0,-0.330143714268499,-0.00041479038150958283,-2.641149714147992e-05,-0.0,-0.0004412018786510627,-0.008838437745070819,0,0.008838437745070819,-0.0932464992255482,0,0.0932464992255482,-0.2073951907547914,0.5,0.7073951907547914,-8.370427176861673,-8.479239274368842,-0.10881209750716811,0.026865742304533518,0.0008304463037867708,4.185213588430837,0.4,0.033426761627197266,0.8745741844177246,GUIDED_NOGPS
0.05,0.004,0.04,-0.12080830111939989,-0.0025233954591583857,-0.0004832332044775996,0.05096327756671022,0.04795664890307424,0.08,0.002,0.06,0.008797648692972313,-0.0014013642745819119,1.7595297385944626e-05,-0.015508600203637894,-0.016892369180833863,0.5,0,0,0.45383407812609206,-3.5686466074412455,0.0,0.0,-3.5686466074412455,0.002,8e-05,0.0,-0.3388437424404803,-0.0005182288033892981,-2.710749939523843e-05,-0.0,-0.0005453363027845366,-0.0175170534322739,0,0.0175170534322739,-0.05046790918316771,0,0.05046790918316771,-0.25911440169464905,0.5,0.759114401694649,-7.137293214882491,-7.181996586895462,-0.044703372012970415,0.047969814086710076,0.01685494725713459,3.5686466074412455,0.4,0.033576011657714844,0.9081594944000244,GUIDED_NOGPS
0.05,0.004,0.04,-0.12311131999602427,-0.0034439394203868985,-0.0004924452799840971,-0.022025334961532212,-0.025961719661903207,0.08,0.002,0.06,0.008264758265111987,-0.0012750168015609113,1.6529516530223975e-05,0.0028341042756090023,0.0015756169905783149,0.5,0,0,0.26994924146541577,-2.74981783351833,0.0,0.0,-2.74981783351833,0.002,8e-05,0.0,-0.3478596523733268,-0.0005392964502991677,-2.7828772189866145e-05,-0.0,-0.0005671252224890338,-0.01593771001951139,0,0.01593771001951139,-0.06887878840773796,0,0.06887878840773796,-0.26964822514958386,0.5,0.7696482251495839,-5.49963566703666,-5.566654461310076,-0.06701879427341596,-0.025963544898159992,-0.0015452485319458428,2.74981783351833,0.4,0.033435821533203125,0.9415910243988037,GUIDED_NOGPS
0.05,0.004,0.04,-0.12604589486937218,-0.00438421175353616,-0.0005041835794774887,-0.02247604885849719,-0.027364444191510837,0.08,0.002,0.06,0.007793268477805099,-0.0011270381061089685,1.55865369556102e-05,0.0033161699592275493,0.002204718390074191,0.5,0,0,0.14896080711602466,-1.8075494366629927,0.0,0.0,-1.8075494366629927,0.002,8e-05,0.0,-0.35712215757815324,-0.0005535218686018604,-2.856977260625226e-05,-0.0,-0.0005820916412081127,-0.014087976326362106,0,0.014087976326362106,-0.0876842350707232,0,0.0876842350707232,-0.2767609343009302,0.5,0.7767609343009302,-3.6150988733259855,-3.7047583816978453,-0.08965950837186,-0.027367860747106183,-0.002161894358391963,1.8075494366629927,0.4,0.03346753120422363,0.9750597476959229,GUIDED_NOGPS
0.05,0.004,0.04,-0.12940018216712987,-0.00499879217687737,-0.0005176007286685195,-0.01465424772321072,-0.02017064062875661,0.08,0.002,0.06,0.007515513167229528,-0.0006622884447707114,1.5031026334459055e-05,0.010389033936615001,0.009741776518178749,0.5,0,0,0.09612299246319378,-0.787425855580208,0.0,0.0,-0.787425855580208,0.002,8e-05,0.0,-0.36759984950420166,-0.000624583403653882,-2.9407987960336135e-05,-0.0,-0.0006539913916142181,-0.008278605559633893,0,0.008278605559633893,-0.09997584353754739,0,0.09997584353754739,-0.312291701826941,0.5,0.812291701826941,-1.574851711160416,-1.6787740091854046,-0.10392229802498876,-0.020188276940645376,-0.009705175282929818,0.787425855580208,0.4,0.03355097770690918,1.008620023727417,GUIDED_NOGPS
0.05,0.004,0.04,-0.1332430879918704,-0.005733198859049753,-0.0005329723519674816,-0.01753048237696439,-0.023796653587981626,0.08,0.002,0.06,0.007517509306481638,4.764837361989488e-06,1.5035018612963277e-05,0.014927567668042518,0.014947367524017471,0.5,0,0,0.1146033807449249,0.2757073575144696,0.0,0.0,0.2757073575144696,0.002,8e-05,0.0,-0.37811219565946064,-0.000627331230396065,-3.0248975652756853e-05,-0.0,-0.0006575802060488219,5.95604670248686e-05,0,-5.95604670248686e-05,-0.11466397718099505,0,0.11466397718099505,-0.3136656151980325,0.5,0.8136656151980325,0.5514147150289392,0.42156532334096364,-0.12984939168797555,-0.023830467658158886,-0.014893398842369537,-0.2757073575144696,0.4,0.03351449966430664,1.0421257019042969,GUIDED_NOGPS
0.05,0.004,0.04,-0.13834217395668053,-0.007576453734022111,-0.0005533686958267221,-0.0438206702193029,-0.05195049264915173,0.08,0.002,0.06,0.007646794054207151,0.0003073554488524229,1.52935881084143e-05,0.006744043297548412,0.00706669233450925,0.5,0,0,0.20573032076241474,1.354005501633524,0.0,0.0,1.354005501633524,0.002,8e-05,0.0,-0.38786377125665983,-0.0005795733733918324,-3.102910170053279e-05,0.0,-0.0006106024750923652,0.0038419431106552857,0,-0.0038419431106552857,-0.15152907468044222,0,0.15152907468044222,-0.28978668669591623,0.5,0.7897866866959162,2.708011003267048,2.5032330106138545,-0.20477799265319319,-0.051975417505430416,-0.006880973926442215,-1.354005501633524,0.4,0.033650875091552734,1.0757856369018555,GUIDED_NOGPS
0.05,0.004,0.04,-0.14462533154034946,-0.009386410192908182,-0.0005785013261613978,-0.04326230823448577,-0.05322721975355535,0.08,0.002,0.06,0.008186635573338527,0.0012903509409728157,1.6373271146677055e-05,0.022027457016525732,0.023334181228645227,0.5,0,0,0.3649562545410977,2.3786764980719086,0.0,0.0,2.3786764980719086,0.002,8e-05,0.0,-0.3969436196208261,-0.0005425754812006747,-3.175548956966609e-05,0.0,-0.0005743309707703408,0.016129386762160195,0,-0.016129386762160195,-0.18772820385816363,0,0.18772820385816363,-0.27128774060033733,0.5,0.7712877406003373,4.757352996143817,4.474029437436339,-0.283323558707478,-0.05334195438830701,-0.023070692194650473,-2.3786764980719086,0.4,0.033469438552856445,1.109266996383667,GUIDED_NOGPS
0.05,0.004,0.04,-0.15235096372351534,-0.011543790200419457,-0.0006094038548940614,-0.051577588161250416,-0.06373078221656393,0.08,0.002,0.06,0.00912252433467864,0.0022374771680964906,1.824504866935728e-05,0.021228217057215865,0.02348393927398171,0.5,0,0,0.5856737230609108,3.2980034381034904,0.0,0.0,3.2980034381034904,0.002,8e-05,0.0,-0.4041750982362493,-0.00043221665228725147,-3.2334007858899945e-05,0.0,-0.00046455066014615144,0.027968464601206132,0,-0.027968464601206132,-0.23087580400838914,0,0.23087580400838914,-0.21610832614362574,0.5,0.7161083261436257,6.596006876206981,6.246665612729069,-0.3493412634779113,-0.06387278195141778,-0.02309492869756913,-3.2980034381034904,0.4,0.0334622859954834,1.1427395343780518,GUIDED_NOGPS
0.05,0.004,0.04,-0.15866726067305129,-0.009426314921517492,-0.0006346690426922052,0.05056124239104851,0.04050025842683881,0.08,0.002,0.06,0.009589012771075964,0.0011138847825197338,1.917802554215193e-05,-0.02515240121186132,-0.024019338403799436,0.5,0,0,0.8549732636841656,4.01897234790598,0.0,0.0,4.01897234790598,0.002,8e-05,0.0,-0.4114638614806622,-0.00043510416485574056,-3.291710891845298e-05,-0.0,-0.0004680212737741935,0.013923559781496671,0,-0.013923559781496671,-0.18852629843034985,0,0.18852629843034985,-0.21755208242787027,0.5,0.7175520824278703,8.03794469581196,7.742629306011935,-0.2953153898000261,0.04062352100975968,0.023810272799079303,-4.01897234790598,0.4,0.03350353240966797,1.1762325763702393,GUIDED_NOGPS
0.05,0.004,0.04,-0.16348113779111256,-0.00721277454945948,-0.0006539245511644503,0.053065808763181996,0.045199109662558065,0.08,0.002,0.06,0.009575102490781268,-3.334749540955112e-05,1.9150204981562538e-05,-0.025783981103881894,-0.02579817839430988,0.5,0,0,1.1597578760420029,4.566678045921605,0.0,0.0,4.566678045921605,0.002,8e-05,0.0,-0.418685175647982,-0.00043279634907400456,-3.349481405183857e-05,0.0,-0.0004662911631258431,-0.000416843692619389,0,0.000416843692619389,-0.14425549098918958,0,0.14425549098918958,-0.21639817453700227,0.5,0.7163981745370023,9.13335609184321,8.895662450393434,-0.23769364144977512,0.04530574509841915,0.025610446771379365,-4.566678045921605,0.4,0.0333704948425293,1.209601879119873,GUIDED_NOGPS
0.05,0.004,0.04,-0.16606549584909136,-0.0038610204812970835,-0.0006642619833963655,0.08012011224523301,0.07559482978053955,0.08,0.002,0.06,0.009381109476011937,-0.00046371964655006384,1.8762218952023874e-05,-0.009644613785248786,-0.010089571212846826,0.5,0,0,1.4891512107357638,4.92112309178248,0.0,0.0,4.92112309178248,0.002,8e-05,0.0,-0.42730919698938424,-0.0005153701195156956,-3.4184735759150745e-05,-0.0,-0.0005495548552748464,-0.005796495581875798,0,0.005796495581875798,-0.07722040962594166,0,0.07722040962594166,-0.25768505975784783,0.5,0.7576850597578478,9.84224618356496,9.654695793623906,-0.187550389941054,0.07562745164207914,0.00984206761472601,-4.92112309178248,0.4,0.03346729278564453,1.2430853843688965,GUIDED_NOGPS
0.05,0.004,0.04,-0.16882896351351617,-0.004132318739489049,-0.0006753158540540647,-0.006490922348031864,-0.011298556941574979,0.08,0.002,0.06,0.008502781200818741,-0.00210143650326194,1.7005562401637482e-05,-0.03673410843967412,-0.03881853938053442,0.5,0,0,1.8278171649592005,5.064201354987585,0.0,0.0,5.064201354987585,0.002,8e-05,0.0,-0.43795213860280396,-0.000636591882562537,-3.503617108822432e-05,-0.0,-0.0006716280536507613,-0.026267956290774247,0,0.026267956290774247,-0.08264637478978099,0,0.08264637478978099,-0.3182959412812685,0.5,0.8182959412812685,10.12840270997517,9.986110817918139,-0.14229189205703066,-0.011202117830252212,0.038846479180451594,-5.064201354987585,0.4,0.033437252044677734,1.2765100002288818,GUIDED_NOGPS
0.05,0.004,0.04,-0.1719730072441484,-0.004697623663450778,-0.0006878920289765936,-0.013514263873594846,-0.018899779566022217,0.08,0.002,0.06,0.0068929387596284464,-0.0038485133638479717,1.3785877519256894e-05,-0.03915551263900126,-0.042990240125329975,0.5,0,0,2.162422991186694,4.999460509726058,0.0,-0.0,4.999460509726058,0.002,8e-05,0.0,-0.4505391054887424,-0.0007522647718715445,-3.604312843909939e-05,-0.0,-0.0007883079003106439,-0.04810641704809965,0,0.04810641704809965,-0.09395247326901555,0,0.09395247326901555,-0.37613238593577225,0.5,0.8761323859357723,9.998921019452116,9.875228745343794,-0.1236922741083218,-0.018806926656127706,0.043030941465749914,-4.999460509726058,0.4,0.03346419334411621,1.309978723526001,GUIDED_NOGPS
0.05,0.004,0.04,-0.17506306051045645,-0.004618896213502789,-0.0007002522420418258,0.0018828616292324916,-0.0034362868263121235,0.08,0.002,0.06,0.005771450691791466,-0.0026821735645792834,1.1542901383582933e-05,0.026151017562893036,0.023480386899697336,0.5,0,0,2.478923486927902,4.730931202028983,0.0,-0.0,4.730931202028983,0.002,8e-05,0.0,-0.46475679711006757,-0.0008500829770219645,-3.718054376880541e-05,-0.0,-0.0008872635207907699,-0.03352716955724104,0,0.03352716955724104,-0.09237792427005578,0,0.09237792427005578,-0.4250414885109822,0.5,0.9250414885109822,9.461862404057966,9.32696067890069,-0.13490172515727586,-0.003491561334806528,-0.02347223115848701,-4.730931202028983,0.4,0.03345012664794922,1.3434364795684814,GUIDED_NOGPS
0.05,0.004,0.04,-0.1774783536788559,-0.0036113968633973447,-0.0007099134147154236,0.02410294561637375,0.019781635338260984,0.08,0.002,0.06,0.006721518641636946,0.0022728983522012857,1.3443037283273892e-05,0.11113390754565051,0.11342024893513507,0.5,0,0,2.7636918134887765,4.257915580568465,0.0,-0.0,4.257915580568465,0.002,8e-05,0.0,-0.48103569830417403,-0.0009736221421254618,-3.848285586433393e-05,-0.0,-0.0010121049979897958,0.028411229402516072,0,-0.028411229402516072,-0.07222793726794689,0,0.07222793726794689,-0.4868110710627309,0.5,0.9868110710627309,8.51583116113693,8.365590083745087,-0.15024107739184256,0.01948415692671666,-0.11347173037377646,-4.257915580568465,0.4,0.03343987464904785,1.3768744468688965,GUIDED_NOGPS
0.05,0.004,0.04,-0.17993046004374014,-0.003664115662241686,-0.0007197218401749605,-0.0012604202121500542,-0.005644257714566701,0.08,0.002,0.06,0.008113822095913053,0.003328769724813871,1.6227644191826105e-05,0.023666396913526868,0.027011394282532564,0.5,0,0,3.0053766216656657,3.6114301714176364,0.0,-0.0,3.6114301714176364,0.002,8e-05,0.0,-0.49730310334533795,-0.000972317587017427,-3.978424826762704e-05,0.0,-0.001012101835285054,0.041609621560173386,0,-0.041609621560173386,-0.07328231324483371,0,0.07328231324483371,-0.4861587935087135,0.5,0.9861587935087135,7.222860342835273,7.033697242732391,-0.18916310010288206,-0.005733405420586619,-0.026992612480418905,-3.6114301714176364,0.4,0.03346109390258789,1.4103319644927979,GUIDED_NOGPS
0.05,0.004,0.04,-0.183902670136736,-0.0059332822941214215,-0.000735610680546944,-0.05423119476216355,-0.060900087736831914,0.08,0.002,0.06,0.009607201796504442,0.003569053248837186,1.9214403593008883e-05,0.0053836653095357245,0.008971932961965919,0.5,0,0,3.1947512380212717,2.8286848678019383,0.0,-0.0,2.8286848678019383,0.002,8e-05,0.0,-0.5149369122833709,-0.0010535834097439808,-4.119495298266968e-05,-0.0,-0.0010947783627266504,0.04461316561046483,0,-0.04461316561046483,-0.11866564588242842,0,0.11866564588242842,-0.5267917048719903,0.5,1.0267917048719903,5.657369735603877,5.390273323461356,-0.2670964121425209,-0.060941250425546996,-0.00868793784500115,-2.8286848678019383,0.4,0.033473968505859375,1.4438178539276123,GUIDED_NOGPS
0.05,0.004,0.04,-0.18865160894103863,-0.007096563686018043,-0.0007546064357641546,-0.02781354175336901,-0.03566471187515121,0.08,0.002,0.06,0.011655366529944993,0.004897070969084083,2.3310733059889987e-05,0.029767794605040865,0.034688176307184834,0.5,0,0,3.3219605567584147,1.9009489679150993,0.0,-0.0,1.9009489679150993,0.002,8e-05,0.0,-0.5349472858567257,-0.001196097876145847,-4.2795782868538055e-05,-0.0,-0.001238893659014385,0.06121338711355104,0,-0.06121338711355104,-0.14193127372036085,0,0.14193127372036085,-0.5980489380729235,0.5,1.0980489380729235,3.8018979358301985,3.508107587104019,-0.29379034872617954,-0.0358421096432136,-0.03450484639843722,-1.9009489679150993,0.4,0.03345942497253418,1.4772744178771973,GUIDED_NOGPS
0.05,0.004,0.04,-0.19413710692053535,-0.008207883344176511,-0.0007765484276821414,-0.026605663577232347,-0.035590095349091,0.08,0.002,0.06,0.014219154480998364,0.006137863143905742,2.8438308961996728e-05,0.027848731683165217,0.034015033136032956,0.5,0,0,3.38170890127814,0.8940071505970515,0.0,-0.0,0.8940071505970515,0.002,8e-05,0.0,-0.557028246344703,-0.0013215788137383858,-4.456225970757625e-05,-0.0,-0.0013661410734459622,0.07672328929882177,0,-0.07672328929882177,-0.1641576668835302,0,0.1641576668835302,-0.6607894068691929,0.5,1.1607894068691929,1.788014301194103,1.4705634627465556,-0.3174508384475474,-0.03577801052861868,-0.03381732291026095,-0.8940071505970515,0.4,0.033416032791137695,1.5106923580169678,GUIDED_NOGPS
0.05,0.004,0.04,-0.20024978598618326,-0.008186171503666522,-0.000800999143944733,0.0004652280236961732,-0.008521942623915082,0.08,0.002,0.06,0.018690247419259624,0.009580384170896294,3.7380494838519246e-05,0.06915396807832215,0.07877173274405697,0.5,0,0,3.370183626544127,-0.15434783110031075,0.0,-0.0,-0.15434783110031075,0.002,8e-05,0.0,-0.5843908260461039,-0.0014657715074702354,-4.675126608368832e-05,-0.0,-0.0015125227735539237,0.11975480213620368,0,-0.11975480213620368,-0.16372343007333043,0,0.16372343007333043,-0.7328857537351177,0.5,1.2328857537351177,-0.3086956622006215,-0.6321137211366181,-0.3234180589359966,-0.008966448083409491,-0.07872237416614135,0.15434783110031075,0.4,0.03733539581298828,1.5480554103851318,GUIDED_NOGPS
0.05,0.004,0.04,-0.20651742349305813,-0.009380799421071992,-0.0008260696939722326,-0.028608074066061057,-0.03881494318110528,0.08,0.002,0.06,0.025466061007333597,0.016226221919075648,5.0932122014667195e-05,0.14920279969671804,0.16547995373780836,0.5,0,0,3.290809791530626,-1.187991527471378,0.0,-0.0,-1.187991527471378,0.002,8e-05,0.0,-0.6138569030155,-0.0017640800539123576,-4.9108552241240006e-05,-0.0,-0.0018131886061535977,0.2028277739884456,0,-0.2028277739884456,-0.1876159884214398,0,0.1876159884214398,-0.8820400269561788,0.5,1.3820400269561788,-2.375983054942756,-2.706793812973938,-0.3308107580311825,-0.039769728626129916,-0.1652530894967583,1.187991527471378,0.4,0.033406734466552734,1.5814464092254639,GUIDED_NOGPS
0.05,0.004,0.04,-0.2135730112645901,-0.010524450012620708,-0.0008542920450583605,-0.027294777126799456,-0.038673519184478526,0.08,0.002,0.06,0.0329656173221095,0.017898711343688426,6.5931234644219e-05,0.03742147057611909,0.05538611315445173,0.5,0,0,3.1466006323264595,-2.1510923491449474,0.0,-0.0,-2.1510923491449474,0.002,8e-05,0.0,-0.6461730544987899,-0.0019281722906683686,-5.16938443599032e-05,-0.0,-0.001979866135028272,0.22373389179610534,0,-0.22373389179610534,-0.21048900025241413,0,0.21048900025241413,-0.9640861453341842,0.5,1.4640861453341842,-4.302184698289895,-4.661586686741114,-0.3594019884512196,-0.0390201791905686,-0.055142435858473615,2.1510923491449474,0.4,0.03351998329162598,1.615013599395752,GUIDED_NOGPS
0.05,0.004,0.04,-0.22146499633542993,-0.01179050976703633,-0.0008858599853417197,-0.030263594806320106,-0.042939964558698154,0.08,0.002,0.06,0.04136757731724777,0.020083847700311838,8.273515463449554e-05,0.048968424275667284,0.06913500713061362,0.5,0,0,2.945652019340595,-3.0021427597937755,0.0,-0.0,-3.0021427597937755,0.002,8e-05,0.0,-0.6795830772298351,-0.0019965633274335345,-5.4366646178386814e-05,-0.0,-0.0020509299736119215,0.25104809625389796,0,-0.25104809625389796,-0.23581019534072659,0,0.23581019534072659,-0.9982816637167673,0.5,1.4982816637167673,-6.004285519587551,-6.409912168353249,-0.40562664876569815,-0.043428327111627106,-0.06882928280563268,3.0021427597937755,0.4,0.03346753120422363,1.6484951972961426,GUIDED_NOGPS
0.05,0.004,0.04,-0.2308360920153274,-0.013995692924239831,-0.0009233443680613096,-0.05269491186800233,-0.06761394916030347,0.08,0.002,0.06,0.05155764016520315,0.024350107243851976,0.0001031152803304063,0.0955746166927655,0.12002783921694787,0.5,0,0,2.6982281429216397,-3.69526543615725,0.0,-0.0,-3.69526543615725,0.002,8e-05,0.0,-0.7172946624786486,-0.002252883909662358,-5.738357299829189e-05,-0.0,-0.0023102674826606497,0.3043763405481497,0,-0.3043763405481497,-0.2799138584847966,0,0.2799138584847966,-1.1264419548311788,0.5,1.6264419548311788,-7.3905308723145,-7.874334777772317,-0.4838039054578176,-0.06862503827513211,-0.11945263676402562,3.69526543615725,0.4,0.033478498458862305,1.6819853782653809,GUIDED_NOGPS
0.05,0.004,0.04,-0.2413437550839836,-0.015659472729555972,-0.0009653750203359344,-0.03967224958638275,-0.05629709733627465,0.08,0.002,0.06,0.06364353132154776,0.028818386236948768,0.00012728706264309553,0.09988552057188607,0.12883119387147793,0.5,0,0,2.4146568905249794,-4.2260360508109,0.0,-0.0,-4.2260360508109,0.002,8e-05,0.0,-0.7590259116302175,-0.0024876677289306097,-6.07220729304174e-05,-0.0,-0.002548389801861027,0.3602298279618596,0,-0.3602298279618596,-0.3131894545911194,0,0.3131894545911194,-1.2438338644653049,0.5,1.7438338644653049,-8.4520721016218,-8.989993441398719,-0.5379213397769183,-0.057504129932682,-0.12829697862196732,4.2260360508109,0.4,0.03355050086975098,1.7155046463012695,GUIDED_NOGPS
0.05,0.004,0.04,-0.25250041106427773,-0.01668594818350023,-0.001010001644257111,-0.024563225778622216,-0.042259175606379554,0.08,0.002,0.06,0.07662661553409325,0.031068100809445866,0.0001532532310681865,0.05047025853982033,0.08169161258033439,0.5,0,0,2.1092226730888086,-4.568088802424033,0.0,-0.0,-4.568088802424033,0.002,8e-05,0.0,-0.8008890524992822,-0.0025044285691826745,-6.407112419994258e-05,-0.0,-0.002568499693382617,0.3883512601180733,0,-0.3883512601180733,-0.33371896367000464,0,0.33371896367000464,-1.252214284591337,0.5,1.752214284591337,-9.136177604848067,-9.707474268578167,-0.5712966637301006,-0.043071609107221964,-0.0812661920962275,4.568088802424033,0.4,0.033431291580200195,1.7489054203033447,GUIDED_NOGPS
0.05,0.004,0.04,-0.2641318635959946,-0.017374001196443823,-0.0010565274543839784,-0.01644401173456422,-0.03487454038539202,0.08,0.002,0.06,0.09083296787793378,0.03395224208786656,0.00018166593575586756,0.06462100139946712,0.09875490942308955,0.5,0,0,1.7956995016777406,-4.683122714343151,0.0,-0.0,-4.683122714343151,0.002,8e-05,0.0,-0.8429396086797052,-0.0025124511711589505,-6.743516869437641e-05,-0.0,-0.002579886339853327,0.424403026098332,0,-0.424403026098332,-0.34748002392887645,0,0.34748002392887645,-1.2562255855794753,0.5,1.7562255855794753,-9.366245428686302,-9.994999153428735,-0.6287537247424333,-0.035956137640874374,-0.09836626387235341,4.683122714343151,0.4,0.03347373008728027,1.7823846340179443,GUIDED_NOGPS
0.05,0.004,0.04,-0.27558396121875933,-0.017114386296524824,-0.0011023358448750374,0.0062076308909071376,-0.012009091250492723,0.08,0.002,0.06,0.10526776910072523,0.0345149365474252,0.00021053553820145048,0.012613632888516848,0.0473391049741435,0.5,0,0,1.488798079972839,-4.586434432386841,0.0,0.0,-4.586434432386841,0.002,8e-05,0.0,-0.8878356929458665,-0.0026837666064076717,-7.102685543566933e-05,-0.0,-0.002754793461843341,0.43143670684281493,0,-0.43143670684281493,-0.34228772593049644,0,0.34228772593049644,-1.3418833032038358,0.5,1.8418833032038358,-9.172868864773681,-9.839833266128725,-0.666964401355044,-0.012559326652712104,-0.04719610626361156,4.586434432386841,0.4,0.03345751762390137,1.8159658908843994,GUIDED_NOGPS
0.05,0.004,0.04,-0.2862032747256982,-0.015871769431207005,-0.0011448130989027928,0.029715711268554764,0.012699128738444965,0.08,0.002,0.06,0.11945055212373161,0.03391644657811921,0.00023890110424746322,-0.013417667903167054,0.020737679779199616,0.5,0,0,1.2007877855877993,-4.304640769204606,0.0,0.0,-4.304640769204606,0.002,8e-05,0.0,-0.9322221339430822,-0.0026536229744770373,-7.457777071544658e-05,0.0,-0.0027282007451924837,0.4239555822264901,0,-0.4239555822264901,-0.31743538862414006,0,0.31743538862414006,-1.3268114872385186,0.5,1.8268114872385186,-8.609281538409212,-9.248849094149707,-0.6395675557404955,0.012466856793556483,-0.020878139644833735,4.304640769204606,0.4,0.03345346450805664,1.8493199348449707,GUIDED_NOGPS
0.05,0.004,0.04,-0.2959982701916747,-0.014650904970125278,-0.0011839930807666988,0.02921780905417232,0.013382911003280342,0.08,0.002,0.06,0.1333694076263094,0.03331069707497285,0.00026673881525261876,-0.01359078486119513,0.019986651029030335,0.5,0,0,0.9455385574022476,-3.817900885032746,0.0,0.0,-3.817900885032746,0.002,8e-05,0.0,-0.9760803108948337,-0.0026240419810913762,-7.808642487158671e-05,0.0,-0.002702128405962963,0.41638371343716063,0,-0.41638371343716063,-0.29301809940250556,0,0.29301809940250556,-1.312020990545688,0.5,1.812020990545688,-7.635801770065492,-8.24822205135675,-0.6124202812912584,0.013168518261292034,-0.02012855317900369,3.817900885032746,0.4,0.03342795372009277,1.882735252380371,GUIDED_NOGPS
0.05,0.004,0.04,-0.3061432882072575,-0.015156939795407465,-0.00122457315282903,-0.012096482225108831,-0.028477995173345323,0.08,0.002,0.06,0.14746892480447624,0.03370411489628276,0.00029493784960895247,0.008816657924424655,0.042815710670316365,0.5,0,0,0.7353589742588564,-3.140141577900598,0.0,0.0,-3.140141577900598,0.002,8e-05,0.0,-1.018344551029192,-0.0025257581296796237,-8.146756408233536e-05,0.0,-0.0026072256937619592,0.42130143620353444,0,-0.42130143620353444,-0.3031387959081493,0,0.3031387959081493,-1.2628790648398118,0.5,1.7628790648398118,-6.280283155801196,-6.882271136822208,-0.601987981021012,-0.028926265708495016,-0.04251414401653721,3.140141577900598,0.4,0.03346657752990723,1.9162733554840088,GUIDED_NOGPS
0.05,0.004,0.04,-0.32830142602665585,-0.03308908189084488,-0.0013132057041066235,-0.42845341832271816,-0.46285570591766967,0.08,0.002,0.06,0.17486940486113534,0.06546808117779802,0.00034973880972227067,0.7115041593524343,0.7773219793399546,0.5,0,0,0.5797863958861711,-2.323188811127018,0.0,0.0,-2.323188811127018,0.002,8e-05,0.0,-1.1408511205626017,-0.0073176364268458015,-9.126808964500814e-05,-0.0,-0.007408904516490809,0.8183510147224753,0,-0.8183510147224753,-0.6617816378168977,0,0.6617816378168977,-3.658818213422901,0.5,4.158818213422901,-4.646377622254036,-5.211495991996031,-0.5651183697419955,-0.47049993162981196,-0.7727190164619164,2.323188811127018,0.4,0.03348255157470703,1.949700117111206,GUIDED_NOGPS
0.05,0.004,0.04,-0.3662024922456436,-0.05670159567932849,-0.0014648099689825744,-0.5652050850797086,-0.6233714907280197,0.08,0.002,0.06,0.24228048411005776,0.16135971427483084,0.0004845609682201155,2.1518689912902187,2.3137132665332696,0.5,0,0,0.4849482067391054,-1.4188193611509996,0.0,0.0,-1.4188193611509996,0.002,8e-05,0.0,-1.481274437738673,-0.020371506362175267,-0.00011850195501909386,-0.0,-0.02049000831719436,2.0169964284353856,0,-2.0169964284353856,-1.1340319135865697,0,1.1340319135865697,-10.185753181087634,0.5,10.685753181087634,-2.837638722301999,-3.309897297378446,-0.4722585750764469,-0.6424208048981191,-2.3084966113508982,1.4188193611509996,0.4,0.03342151641845703,1.9831058979034424,GUIDED_NOGPS
0.05,0.004,0.04,-0.4359463866616516,-0.09605728599257882,-0.0017437855466466063,-0.8672646301752951,-0.9650657017145206,0.08,0.002,0.06,0.34369151550445504,0.22347518221106144,0.0006873830310089101,1.2832614205317154,1.507423985773786,0.5,0,0,0.4539514511630695,-0.4269139600162527,0.0,0.0,-0.4269139600162527,0.002,8e-05,0.0,-2.0282155588402246,-0.030131772898930466,-0.000162257244707218,-0.0,-0.030294030143637685,2.793439777638268,0,-2.793439777638268,-1.9211457198515762,0,1.9211457198515762,-15.065886449465232,0.5,15.565886449465232,-0.8538279200325054,-1.2616991916130784,-0.407871271580573,-0.9757720524493617,-1.5005158390269084,0.4269139600162527,0.4,0.03630328178405762,2.019411563873291,GUIDED_NOGPS
0.05,0.004,0.04,-0.523231873190722,-0.1303503045256804,-0.002092927492762888,-0.8193995289067122,-0.9518427609251554,0.08,0.002,0.06,0.4627634448812654,0.28451121251748107,0.0009255268897625309,1.3672488039859925,1.6526855433932361,0.5,0,0,0.49229375304634915,0.572595849028866,0.0,0.0,0.572595849028866,0.002,8e-05,0.0,-2.671541030482838,-0.03842914760396639,-0.00021372328243862707,-0.0,-0.038642870886405015,3.5563901564685136,0,-3.5563901564685136,-2.6070060905136074,0,2.6070060905136074,-19.214573801983192,0.5,19.714573801983192,1.145191698057732,0.8423811189212129,-0.302810579136519,-0.9605639388927384,-1.6476319571328684,-0.572595849028866,0.4,0.03348112106323242,2.0528993606567383,GUIDED_NOGPS
0.05,0.004,0.04,-0.6313772142744867,-0.16171847117446947,-0.002525508857097947,-0.7505176871275802,-0.9147616671591476,0.08,0.002,0.06,0.6063542846324674,0.34355678528932876,0.001212708569264935,1.324434274642681,1.6692037685012746,0.5,0,0,0.596711520254763,1.5614432861529337,0.0,0.0,1.5614432861529337,0.002,8e-05,0.0,-3.447819445898036,-0.04643327480911034,-0.0002758255556718429,-0.0,-0.04670910036478218,4.29445981611661,0,-4.29445981611661,-3.234369423489389,0,3.234369423489389,-23.21663740455517,0.5,23.71663740455517,3.1228865723058674,2.909151336452391,-0.21373523585347637,-0.920982058273794,-1.665779750393312,-1.5614432861529337,0.4,0.03343629837036133,2.0863540172576904,GUIDED_NOGPS
0.05,0.004,0.04,-0.7599837657230276,-0.19147066014255942,-0.0030399350628921105,-0.7087254822704117,-0.9032360774758632,0.08,0.002,0.06,0.7713169972212903,0.39295689524404914,0.0015426339944425807,1.103210321434908,1.4977098506733997,0.5,0,0,0.7640250062657254,2.4909791341454466,0.0,0.0,2.4909791341454466,0.002,8e-05,0.0,-4.356381522787663,-0.0541070353518216,-0.00034851052182301303,-0.0,-0.05445554587364461,4.911961190550614,0,-4.911961190550614,-3.829413202851188,0,3.829413202851188,-27.053517675910797,0.5,27.553517675910797,4.981958268290893,4.847071672991346,-0.13488659529954733,-0.9067595025069918,-1.495579290131885,-2.4909791341454466,0.4455444541263554,0.033583879470825195,2.119947910308838,GUIDED_NOGPS
0.05,0.004,0.04,-0.9059679404273301,-0.21899056798554903,-0.0036238717617093205,-0.660520937878743,-0.8831353776260014,0.08,0.002,0.06,0.9544991905200297,0.4396659858408314,0.0019089983810400596,1.0510231982949663,1.4925981825168377,0.5,0,0,0.9850509538897934,3.3156058119162903,0.0,0.0,3.3156058119162903,0.002,8e-05,0.0,-5.374919995354096,-0.061116300879668684,-0.0004299935996283277,-0.0,-0.06154629447929701,5.495824823010392,0,-5.495824823010392,-4.37981135971098,0,4.37981135971098,-30.558150439834343,0.5,31.058150439834343,6.631211623832581,6.570309259822431,-0.06090236401014981,-0.8847214308427723,-1.491658613582446,-3.3156058119162903,0.438453705520703,0.03333115577697754,2.153251886367798,GUIDED_NOGPS
0.05,0.004,0.04,-1.087807955574282,-0.2715773160651054,-0.004351231822297128,-1.2566094777320767,-1.5325380256194792,0.08,0.002,0.06,1.1715116067275273,0.518571444234055,0.0023430232134550545,1.767674672376234,2.288589139823744,0.5,0,0,1.2507305261209303,3.9679135036118547,0.0,0.0,3.9679135036118547,0.002,8e-05,0.0,-6.617104751256763,-0.07420791332257852,-0.0005293683801005411,-0.0,-0.07473728170267906,6.482143052925687,0,-6.482143052925687,-5.431546321302108,0,5.431546321302108,-37.10395666128926,0.5,37.60395666128926,7.935827007223709,8.002539790539762,0.06671278331605315,-1.5298722509311387,-2.2903720105519385,-3.9679135036118547,0.42526271829732093,0.033478498458862305,2.186753749847412,GUIDED_NOGPS
0.05,0.004,0.04,-1.2885483413608692,-0.30017690579565276,-0.005154193365443476,-0.6842618195597348,-0.989592918720831,0.08,0.002,0.06,1.4049831792264884,0.5585943173267824,0.002809966358452977,0.8977223610698389,1.4591266447550744,0.5,0,0,1.549826909674631,4.472534343202331,0.0,0.0,4.472534343202331,0.002,8e-05,0.0,-7.960385159222357,-0.08034691273488141,-0.0006368308127377885,-0.0,-0.0809837435476192,6.982428966584781,0,-6.982428966584781,-6.003538115913055,0,6.003538115913055,-40.17345636744071,0.5,40.67345636744071,8.945068686404662,9.080328018195505,0.13525933179084293,-0.9861455739692786,-1.4614587292008683,-4.472534343202331,0.41901625645238083,0.03343701362609863,2.2201671600341797,GUIDED_NOGPS
0.05,0.004,0.04,-1.5050612201199043,-0.32403029830746544,-0.006020244880479617,-0.5711787260359583,-0.9012292692239035,0.08,0.002,0.06,1.652343590758003,0.5923140897477486,0.0033046871815160064,0.7569684523422056,1.35258722927147,0.5,0,0,1.8693170290485481,4.781446687161463,0.0,0.0,4.781446687161463,0.002,8e-05,0.0,-9.396120425741312,-0.08594809313277793,-0.000751689634059305,-0.0,-0.08669978276683724,7.403926121846857,0,-7.403926121846857,-6.480605966149309,0,6.480605966149309,-42.974046566388964,0.5,43.474046566388964,9.562893374322925,9.755937380195567,0.19304400587264187,-0.8966669532711933,-1.3556160162101505,-4.781446687161463,0.4133002172331628,0.03340935707092285,2.25358247756958,GUIDED_NOGPS
0.05,0.004,0.04,-1.7378219187802009,-0.34773115589935566,-0.0069512876751208034,-0.5665235860637884,-0.9212060296382649,0.08,0.002,0.06,1.91321457114941,0.6235620915332853,0.00382642914229882,0.700240881061805,1.327629401737389,0.5,0,0,2.19532247936176,4.870334756657091,0.0,0.0,4.870334756657091,0.002,8e-05,0.0,-10.927553903582062,-0.09151495703486144,-0.000874204312286565,-0.0,-0.092389161347148,7.794526144166067,0,-7.794526144166067,-6.954623117987113,0,6.954623117987113,-45.75747851743072,0.5,46.25747851743072,9.740669513314183,9.999444309209432,0.2587747958952494,-0.9152004531219241,-1.3317764482092698,-4.870334756657091,0.40761083865285197,0.03346848487854004,2.287060499191284,GUIDED_NOGPS
0.05,0.004,0.04,-1.986411437624845,-0.3717492577736854,-0.00794564575049938,-0.5746798392088166,-0.9543747427330014,0.08,0.002,0.06,2.187019918514483,0.6551325905002051,0.004374039837028966,0.7081740380513735,1.3676806683886076,0.5,0,0,2.513117796727605,4.752419728063327,0.0,-0.0,4.752419728063327,0.002,8e-05,0.0,-12.545970665701098,-0.0968094283109724,-0.001003677653256088,-0.0,-0.09781310596422849,8.189157381252564,0,-8.189157381252564,-7.434985155473707,0,7.434985155473707,-48.404714155486204,0.5,48.904714155486204,9.504839456126653,9.800063584670868,0.2952241285442144,-0.9473149481500215,-1.372580033827577,-4.752419728063327,0.4021868940357715,0.03343510627746582,2.32049822807312,GUIDED_NOGPS
0.05,0.004,0.04,-2.2501408591789285,-0.3941904124290769,-0.009000563436715714,-0.5366765956936292,-0.9398675715594218,0.08,0.002,0.06,2.4731630294050455,0.6843066365884937,0.004946326058810091,0.6540868208029473,1.3433397834502512,0.5,0,0,2.808434052086,4.414025398105374,0.0,-0.0,4.414025398105374,0.002,8e-05,0.0,-14.245175898407709,-0.1015905479995762,-0.0011396140718726167,-0.0,-0.10273016207144882,8.553832957356171,0,-8.553832957356171,-7.883808248581537,0,7.883808248581537,-50.7952739997881,0.5,51.2952739997881,8.828050796210748,9.166626023425668,0.338575227214919,-0.9319130741160918,-1.3488702117552558,-4.414025398105374,0.3972698379285512,0.03345203399658203,2.35394287109375,GUIDED_NOGPS
0.05,0.004,0.04,-2.533604144828101,-0.4166075157862623,-0.010134416579312404,-0.5271445983206138,-0.9538865306861886,0.08,0.002,0.06,2.7766735625221455,0.7137137011718581,0.005553347125044291,0.6482958151662153,1.3675628634631176,0.5,0,0,3.071983237113098,3.8733965497571567,0.0,-0.0,3.8733965497571567,0.002,8e-05,0.0,-16.05514744688728,-0.10640499685580201,-0.0012844117957509825,-0.0,-0.10768940865155299,8.921421264648226,0,-8.921421264648226,-8.332150315725245,0,8.332150315725245,-53.202498427901006,0.5,53.702498427901006,7.7467930995143135,8.127187352021913,0.3803942525075998,-0.9447861441322019,-1.3738656560245552,-3.8733965497571567,0.39231059134844704,0.034020423889160156,2.38800048828125,GUIDED_NOGPS
0.05,0.004,0.04,-2.8395148472658254,-0.4574334332316172,-0.011358059389063301,-0.9767629276408765,-1.4455544202615571,0.08,0.002,0.06,3.098863203855695,0.7708409682299201,0.0061977264077113904,1.2813504901889752,2.0583891848266065,0.5,0,0,3.2808826600381567,3.123708306614946,0.0,-0.0,3.123708306614946,0.002,8e-05,0.0,-17.98199841414687,-0.11525011008186593,-0.0014385598731317497,-0.0,-0.11668866995499769,9.635512102874001,0,-9.635512102874001,-9.148668664632345,0,9.148668664632345,-57.62505504093296,0.5,58.12505504093296,6.247416613229892,6.7277855841685845,0.4803689709386922,-1.4282462409914993,-2.070436256744583,-3.123708306614946,0.3833113300450023,0.03343772888183594,2.421403646469116,GUIDED_NOGPS
0.05,0.004,0.04,-3.157469706198703,-0.47524672381851263,-0.012629878824794811,-0.4260080450545387,-0.9138846476978462,0.08,0.002,0.06,3.4303842037864656,0.7928384280607421,0.006860768407572932,0.4931936290585711,1.2928928255268861,0.5,0,0,3.43050147714633,2.2363505590355337,0.0,-0.0,2.2363505590355337,0.002,8e-05,0.0,-19.97114574635645,-0.11892703964300848,-0.001597691659708516,-0.0,-0.120524731302717,9.910480350759276,0,-9.910480350759276,-9.504934476370252,0,9.504934476370252,-59.463519821504235,0.5,59.963519821504235,4.472701118071067,5.030401940639225,0.5577008225681572,-0.9012569026022774,-1.3017269310836512,-2.2363505590355337,0.379475268697283,0.03345155715942383,2.4548697471618652,GUIDED_NOGPS
0.05,0.004,0.04,-3.4863531058006707,-0.4914765129703465,-0.013945412423202684,-0.3880553503516901,-0.8934772757452392,0.08,0.002,0.06,3.772129860314915,0.8171161635844838,0.00754425972062983,0.5442021463746233,1.3688625696797367,0.5,0,0,3.515460019550063,1.2696027898691238,0.0,-0.0,1.2696027898691238,0.002,8e-05,0.0,-22.02377346643497,-0.12269616715363445,-0.0017619018773147978,-0.0,-0.12445806903094925,10.213952044806048,0,-10.213952044806048,-9.82953025940693,0,9.82953025940693,-61.348083576817224,0.5,61.848083576817224,2.5392055797382476,3.1102156249790487,0.571010045240801,-0.8797910395959515,-1.3776988435757724,-1.2696027898691238,0.37554193096905075,0.033458709716796875,2.4883317947387695,GUIDED_NOGPS
0.05,0.004,0.04,-3.8275439290930975,-0.5102247732065202,-0.01531017571637239,-0.44858542136438995,-0.9741203702872825,0.08,0.002,0.06,4.115041875512704,0.8204778944321218,0.008230083751025408,0.07540816936834946,0.9041161475514967,0.5,0,0,3.530986587657047,0.23218794733736903,0.0,-0.0,0.23218794733736903,0.002,8e-05,0.0,-24.135897816103878,-0.12634081501894912,-0.0019308718252883104,-0.0,-0.12827168684423743,10.255973680401523,0,-10.255973680401523,-10.204495464130403,0,10.204495464130403,-63.17040750947455,0.5,63.67040750947455,0.46437589467473805,1.0522740443667222,0.5878981496919842,-0.9647923369474395,-0.9140635922294962,-0.23218794733736903,0.3717283131557626,0.03343534469604492,2.521759271621704,GUIDED_NOGPS
0.05,0.004,0.04,-4.180255912333702,-0.5268339288170484,-0.016721023649334806,-0.3969365202388044,-0.9404914727051876,0.08,0.002,0.06,4.458914290325419,0.8218089043331714,0.008917828580650837,0.029821265314908384,0.8605479982287306,0.5,0,0,3.475607840592038,-0.8271735658417434,0.0,-0.0,-0.8271735658417434,0.002,8e-05,0.0,-26.303565959291134,-0.12951089597291926,-0.002104285276743291,-0.0,-0.13161518124966254,10.272611304164643,0,-10.272611304164643,-10.536678576340968,0,10.536678576340968,-64.75544798645963,0.5,65.25544798645963,-1.6543471316834868,-1.0522740443666747,0.6020730873168121,-0.931396940335346,-0.8703831380608219,0.8271735658417434,0.36838481875033746,0.03347468376159668,2.555239200592041,GUIDED_NOGPS
0.05,0.004,0.04,-4.547486177737814,-0.5423733999695508,-0.018189944710951256,-0.3672113808348265,-0.9277747255153286,0.08,0.002,0.06,4.807653048017879,0.8241003796467544,0.009615306096035758,0.05076522990581729,0.8844809156486075,0.5,0,0,3.3480834436212925,-1.8834460903699646,0.0,-0.0,-1.8834460903699646,0.002,8e-05,0.0,-28.54651178290331,-0.13250696000901213,-0.0022837209426322647,-0.0,-0.1347906809516444,10.30125474558443,0,-10.30125474558443,-10.847467999391016,0,10.847467999391016,-66.25348000450606,0.5,66.75348000450606,-3.766892180739929,-3.110215624979003,0.6566765557609262,-0.9175768282424118,-0.8950559735146388,1.8834460903699646,0.36520931904835563,0.033854007720947266,2.589090347290039,GUIDED_NOGPS
0.05,0.004,0.04,-4.905619431988811,-0.5341401955885288,-0.019622477727955244,0.1964714684804931,-0.35729120483599086,0.08,0.002,0.06,5.202932117444573,0.9432665051881631,0.010405864234889145,2.6659665158993566,3.619638885322409,0.5,0,0,3.1575428454773875,-2.841830272728922,0.0,-0.0,-2.841830272728922,0.002,8e-05,0.0,-30.850431164562206,-0.13744782809551798,-0.0024680344931649768,-0.0,-0.13991586258868297,11.790831314852039,0,-11.790831314852039,-10.682803911770575,0,10.682803911770575,-68.72391404775898,0.5,69.22391404775898,-5.683660545457844,-5.030401940639183,0.6532586048186613,-0.3159995145734486,-3.6234771935228944,2.841830272728922,0.36008413741131706,0.033524274826049805,2.622620105743408,GUIDED_NOGPS
0.05,0.004,0.04,-5.254923016414241,-0.5217689326511874,-0.021019692065656966,0.29567131612378034,-0.24711730859306408,0.08,0.002,0.06,5.604991931539616,0.9609168845255401,0.011209983863079233,0.3954763133722352,1.3676031817608547,0.5,0,0,2.9098631328736335,-3.69969233202077,0.0,-0.0,-3.69969233202077,0.002,8e-05,0.0,-33.19626137151783,-0.1401624693061737,-0.0026557009097214266,-0.0,-0.14281817021589513,12.011461056569251,0,-12.011461056569251,-10.435378653023747,0,10.435378653023747,-70.08123465308685,0.5,70.58123465308685,-7.39938466404154,-6.727785584168561,0.6715990798729791,-0.2310701811374634,-1.3704057787231463,3.69969233202077,0.35718182978410484,0.03347301483154297,2.656092882156372,GUIDED_NOGPS
0.05,0.004,0.04,-5.60733507095811,-0.5277089381802222,-0.02242934028383244,-0.14231495069911934,-0.6924532291631741,0.08,0.002,0.06,6.012416910555837,0.9761382463174992,0.012024833821111674,0.3418916251015412,1.3300547052401521,0.5,0,0,2.6154302925741435,-4.408896901127133,0.0,-0.0,-4.408896901127133,0.002,8e-05,0.0,-35.57695326484839,-0.1425958476692627,-0.0028461562611878715,-0.0,-0.14544200393045056,12.20172807896874,0,-12.20172807896874,-10.554178763604444,0,10.554178763604444,-71.29792383463135,0.5,71.79792383463135,-8.817793802254267,-8.127187352021895,0.6906064502323719,-0.6763716935944205,-1.338304272433661,4.408896901127133,0.3545579960695494,0.03339076042175293,2.6894888877868652,GUIDED_NOGPS
0.05,0.004,0.04,-5.964843110774344,-0.5340204567880326,-0.023859372443097375,-0.1508432672653299,-0.7087230964964598,0.08,0.002,0.06,6.427829359273957,0.9928224080618293,0.012855658718547915,0.37382447456617945,1.3795025413465567,0.5,0,0,2.28436096615688,-4.945281594582628,0.0,-0.0,-4.945281594582628,0.002,8e-05,0.0,-38.00583237544746,-0.14512357627445185,-0.003040466590035797,-0.0,-0.14816404286448764,12.410280100772866,0,-12.410280100772866,-10.68040913576065,0,10.68040913576065,-72.56178813722593,0.5,73.06178813722593,-9.890563189165256,-9.16662602342566,0.7239371657395961,-0.6912368540266379,-1.3883469669806952,4.945281594582628,0.35183595713551236,0.03347325325012207,2.722975730895996,GUIDED_NOGPS
