D-kp,D-ki,D-kd,D-I-Tot,D-P,D-I,D-D,D-PID,E-kp,E-ki,E-kd,E-I-Tot,E-P,E-I,E-D,E-PID,N-kp,N-ki,N-kd,N-I-Tot,N-P,N-I,N-D,N-PID,Y-kp,Y-ki,Y-kd,Y-I-Tot,Y-P,Y-I,Y-D,Y-PID,errorN,desiredN,actualN,errorE,desiredE,actualE,errorD,desiredD,actualD,errorY,desiredY,actualY,roll,pitch,yaw-rate,thrust,dt,Time,Mode
0.002,8e-05,0.0,-0.011208093430354282,-0.0009294033551592236,-8.966474744283426e-07,-0.0,-0.000930300002633652,0.1,0.0,0.0,-0.0008839007206342968,-0.003664763773115709,-0.0,-0.0,-0.003664763773115709,0.08,0.002,0.06,-0.0005417753773909974,-0.001797015189492157,-1.083550754781995e-06,-0.055879885708178804,-0.05767798444842574,0.6,0,0.4,-0.10449860583632842,-2.599586329572778,-0.0,-71.85475007395677,-74.45433640352954,-0.022462689868651964,-3.3244845250592547,-3.3020218351906028,-0.03664763773115709,33.504311780325686,33.54095941805684,-0.4647016775796118,72.8934154703805,73.35811714796012,-4.332643882621297,0,4.332643882621297,-0.008011681081992572,0.05723629399066667,10.0,0.49906969999736633,0.024118900299072266,0.024342775344848633,GUIDED_NOGPS
0.002,8e-05,0.0,-0.017714169791761047,-0.0020272239883332476,-1.4171335833408839e-06,-0.0,-0.0020286411219165887,0.1,0.0,0.0,-0.0011037995807628871,-0.0034259069483425723,-0.0,0.0,-0.0034259069483425723,0.08,0.002,0.06,0.0009657847519487529,0.01878958615475888,1.931569503897506e-06,2.405462011494247,2.4242535292185097,0.6,0,0.4,-0.1335198132817809,-2.7128095937885237,-0.0,-11.759720426742906,-14.47253002053143,0.234869826934486,-3.2013706963077446,-3.4362405232422306,-0.03425906948342572,33.56083145453708,33.595090524020506,-1.0136119941666237,73.39819646992815,74.41180846409478,-4.521349322980873,0,4.521349322980873,0.1876900118475392,-2.4169793896968774,10.0,0.4979713588780834,0.006418704986572266,0.030727624893188477,GUIDED_NOGPS
0.002,8e-05,0.0,-0.033494045877813225,-0.0014275520865179771,-2.6795236702250584e-06,0.0,-0.0014302316101882022,0.1,0.0,0.0,-0.001282040106300082,-0.0008062409132527648,-0.0,0.0,-0.0008062409132527648,0.08,0.002,0.06,0.007497082287561055,0.02363457703669635,1.4994164575122111e-05,0.16436623468126946,0.18801580588254094,0.6,0,0.4,-0.2332647484360404,-2.70707620622426,-0.0,0.17289340202562137,-2.5341828041986387,0.29543221295870437,-3.0785706943462614,-3.3740029073049658,-0.008062409132527648,33.61737645746132,33.625438866593846,-0.7137760432589886,73.9020964172436,74.61587246050259,-4.511793677040433,0,4.511793677040433,0.013986388884099038,-0.18749659786794604,2.5341828041986387,0.4985697683898118,0.022107601165771484,0.052811384201049805,GUIDED_NOGPS
0.002,8e-05,0.0,-0.0509019740918599,-0.0009101340996078307,-4.072157927348792e-06,0.0,-0.0009142062575351795,0.1,0.0,0.0,-0.0010007253315101263,0.0007353952926266061,-0.0,0.0,0.0007353952926266061,0.08,0.002,0.06,0.0211606188839327,0.028574682580694174,4.2321237767865404e-05,0.09685583608736334,0.1254728399058254,0.6,0,0.4,-0.405997789778542,-2.7092867535136955,-0.0,-0.03852448612633584,-2.7478112396400314,0.35718353225867716,-2.9563874788150795,-3.3135710110737566,0.007353952926266061,33.67397079807996,33.66661684515369,-0.4550670498039153,74.40425637466153,74.85932342446544,-4.515477922522826,0,4.515477922522826,0.010611388732729918,-0.12502548855906223,2.7478112396400314,0.4990857937424648,0.0382535457611084,0.0910654067993164,GUIDED_NOGPS
0.002,8e-05,0.0,-0.05374028479989503,-0.0004896751724885178,-4.299222783991603e-06,0.0,-0.0004939743952725094,0.1,0.0,0.0,-0.0007288304257890737,0.0023454124398853086,-0.0,0.0,0.0023454124398853086,0.08,0.002,0.06,0.026265013352562774,0.035225110976045075,5.253002670512555e-05,0.4302580839366225,0.46553572493937273,0.6,0,0.4,-0.4584775807241136,-2.716198470873964,-0.0,-0.3974777885780278,-3.113676259451992,0.4403138872005634,-2.8351122955608967,-3.27542618276146,0.023454124398853082,33.73063706603577,33.707182941636916,-0.2448375862442589,74.90384132324569,75.14867890948994,-4.526997451456607,0,4.526997451456607,0.039082284920470285,-0.4638982508694505,3.113676259451992,0.4995060256047275,0.011592626571655273,0.10265922546386719,GUIDED_NOGPS
0.002,8e-05,0.0,-0.05430569420170773,-9.203806941806647e-05,-4.344455536136619e-06,0.0,-9.638252495420309e-05,0.1,0.0,0.0,-3.1316712114856974e-05,0.005677108957985411,-0.0,0.0,0.005677108957985411,0.08,0.002,0.06,0.032653153277382226,0.04159478522768701,6.530630655476446e-05,0.3888239117510933,0.4304840032853351,0.6,0,0.4,-0.5143683838505293,-2.7293930388256595,-0.0,-0.7159429121542682,-3.4453359509799277,0.5199348153460877,-2.7150248320435995,-3.234959647389687,0.056771089579854106,33.78739645403768,33.73062536445783,-0.046019034709033235,75.40003993591053,75.44605897061956,-4.548988398042766,0,4.548988398042766,0.039801531650192214,-0.42867766996776024,3.4453359509799277,0.4999036174750458,0.01228642463684082,0.11494326591491699,GUIDED_NOGPS
0.002,8e-05,0.0,-0.05287489583042236,0.0002915611588143463,-4.2299916664337895e-06,0.0,0.0002873311671479125,0.1,0.0,0.0,0.0009571425204328395,0.010071171629285659,0.0,0.0,0.010071171629285659,0.08,0.002,0.06,0.03846271404417511,0.047353765655934445,7.692542808835022e-05,0.4400764219159001,0.4875071129999229,0.6,0,0.4,-0.5590918157510603,-2.7340572702831145,-0.0,-0.3168181615723212,-3.050875431855436,0.5919220706991806,-2.59639337274303,-3.1883154434422107,0.10071171629285658,33.844268780265644,33.74355706397279,0.14578057940717315,75.89206435054292,75.74628377113575,-4.556762117138525,0,4.556762117138525,0.04877016379106196,-0.4851660384314828,3.050875431855436,0.500287331167148,0.009814739227294922,0.12479996681213379,GUIDED_NOGPS
0.002,8e-05,0.0,-0.04043667750228899,0.0007329928819934822,-3.2349342001831197e-06,0.0,0.0007297579477932991,0.1,0.0,0.0,0.00545681879666869,0.013258453078829292,0.0,0.0,0.013258453078829292,0.08,0.002,0.06,0.06048470871012157,0.051910860258583824,0.00012096941742024315,0.10070728635098053,0.1527391160269846,0.6,0,0.4,-0.7136214173561332,-2.731961163061661,-0.0,0.04117502021291223,-2.690786142848749,0.6488857532322978,-2.479474954565753,-3.1283607077980506,0.1325845307882929,33.901272510775534,33.76868797998724,0.36649644099674106,76.37914994312388,76.01265350212714,-4.553268605102769,0,4.553268605102769,0.02534194229996694,-0.15120453069671333,2.690786142848749,0.5007297579477933,0.03393816947937012,0.158705472946167,GUIDED_NOGPS
0.002,8e-05,0.0,-0.029777865168944685,0.0005058990517709106,-2.3822292135155752e-06,-0.0,0.000503516822557395,0.1,0.0,0.0,0.012166129253402387,0.015922195137444816,0.0,0.0,0.015922195137444816,0.08,0.002,0.06,0.08940877292224794,0.054912897237152196,0.00017881754584449588,0.05343211372930814,0.10852382851230483,0.6,0,0.4,-0.9076264588028256,-2.7624175218740326,-0.0,-0.48184990227515007,-3.2442674241491827,0.6864112154644024,-2.36451552225182,-3.0509267377162224,0.15922195137444817,33.958424781904085,33.79920283052964,0.2529495258854553,76.86055510085012,76.60760557496467,-4.604029203123388,0,4.604029203123388,0.02458191938677667,-0.10689558874071947,3.2442674241491827,0.5005035168225574,0.042138099670410156,0.20085811614990234,GUIDED_NOGPS
0.002,8e-05,0.0,-0.028925780358518723,6.722095170283638e-05,-2.3140624286814982e-06,-0.0,6.490688927415489e-05,0.1,0.0,0.0,0.016842503920839694,0.01844595466424437,0.0,0.0,0.01844595466424437,0.08,0.002,0.06,0.10790468446404965,0.05836568197148584,0.0002158093689280993,0.10214629152535802,0.16072778286577197,0.6,0,0.4,-1.025257365428885,-2.783969880575031,-0.0,-0.5667550325175484,-3.3507249130925794,0.7295710246435729,-2.251750083781539,-2.981321108425112,0.18445954664244368,34.015741422673756,33.83128187603131,0.03361047585141819,77.33556099525589,77.30195051940447,-4.6399498009583855,0,4.6399498009583855,0.03138740155890864,-0.1587088669602361,3.3507249130925794,0.5000649068892742,0.025351762771606445,0.2266230583190918,GUIDED_NOGPS
0.002,8e-05,0.0,-0.029208201848239943,-1.6851891510810902e-05,-2.3366561478591958e-06,-0.0,-1.91885476586701e-05,0.1,0.0,0.0,0.02374743770781615,0.02060062695340932,0.0,0.0,0.02060062695340932,0.08,0.002,0.06,0.1347632758952347,0.06410532985691798,0.0002695265517904694,0.12843028106373156,0.19280513747244,0.6,0,0.4,-1.1811082888332314,-2.789854471409653,-0.0,-0.11704313108803993,-2.906897602497693,0.8013166232114748,-2.14140286578224,-2.9427194889937147,0.20600626953409318,34.07323697719765,33.86723070766356,-0.00842594575540545,77.80347135533455,77.81189730108996,-4.649757452349422,0,4.649757452349422,0.03616248478003675,-0.19050060777113975,2.906897602497693,0.49998081145234136,0.033518075942993164,0.25973939895629883,GUIDED_NOGPS
0.002,8e-05,0.0,-0.03538698200742816,-0.0003720096798461725,-2.830958560594253e-06,-0.0,-0.0003748406384067667,0.1,0.0,0.0,0.03115405764705934,0.022296749854765353,0.0,0.0,0.022296749854765353,0.08,0.002,0.06,0.1632680495775117,0.06864818917930013,0.00032653609915502343,0.10256803923460131,0.17154276451305644,0.6,0,0.4,-1.33612438654926,-2.7999453320857106,-0.0,-0.2025155857498435,-3.002460917835554,0.8581023647412516,-2.0336874689350397,-2.8917898336762913,0.22296749854765352,34.13092472708441,33.90795722853676,-0.18600483992308625,78.26361224066031,78.4496170805834,-4.666575553476185,0,4.666575553476185,0.036179056599786354,-0.16916010455901645,3.002460917835554,0.49962515936159324,0.0332183837890625,0.2929389476776123,GUIDED_NOGPS
0.002,8e-05,0.0,-0.047896008108572974,-0.0007319158837695455,-3.8316806486858385e-06,-0.0,-0.0007357475644182314,0.1,0.0,0.0,0.03963233902843609,0.024803644823833793,0.0,0.0,0.024803644823833793,0.08,0.002,0.06,0.1917941040875454,0.06676354251194265,0.0003835882081750908,-0.04135222498474615,0.02579490573537159,0.6,0,0.4,-1.4966341575437063,-2.817477154683429,-0.0,-0.3419349443339255,-3.1594120990173544,0.8345442813992832,-1.9288070233816108,-2.763351304780894,0.24803644823833793,34.18881671384314,33.9407802656048,-0.3659579418847727,78.71533181450988,79.08128975639465,-4.695795257805715,0,4.695795257805715,0.0268320983088398,-0.02367776295996645,3.1594120990173544,0.49926425243558176,0.03418159484863281,0.327129602432251,GUIDED_NOGPS
0.002,8e-05,0.0,-0.06794974125828215,-0.0011397756419987105,-5.435979300662573e-06,-0.0,-0.001145211621299373,0.1,0.0,0.0,0.048940017576510106,0.02645059953039848,0.0,0.0,0.02645059953039848,0.08,0.002,0.06,0.2212990150914433,0.0670777428432476,0.0004425980301828866,0.006696718542175064,0.07421705941560555,0.6,0,0.4,-1.66210257429016,-2.8213730010230216,-0.0,-0.07380821531978603,-2.8951812163428077,0.838471785540595,-1.8269543441309462,-2.665426129671541,0.2645059953039848,34.246923761288265,33.98241776598428,-0.5698878209993552,79.15800011698416,79.72788793798351,-4.70228833503837,0,4.70228833503837,0.0324457591590431,-0.07179887768210874,2.8951812163428077,0.4988547883787006,0.035188913345336914,0.3623490333557129,GUIDED_NOGPS
0.002,8e-05,0.0,-0.09341489287875222,-0.001645702908289394,-7.473191430300179e-06,-0.0,-0.0016531760997196942,0.1,0.0,0.0,0.05708313320465586,0.02631272193369512,0.0,-0.0,0.02631272193369512,0.08,0.002,0.06,0.24660843799603446,0.06542555332398681,0.0004932168759920689,-0.04004020578912042,0.025878564410858465,0.6,0,0.4,-1.8080980493332215,-2.830517345307949,-0.0,-0.19698650935981057,-3.0275038546677595,0.8178194165498351,-1.728312086466127,-2.546131503015962,0.26312721933695116,34.305255497944465,34.042128278607514,-0.822851454144697,79.59100883812997,80.41386029227466,-4.717528908846582,0,4.717528908846582,0.028351923058839077,-0.023626846814430818,3.0275038546677595,0.4983468239002803,0.030947446823120117,0.3932631015777588,GUIDED_NOGPS
0.002,8e-05,0.0,-0.12827038880642516,-0.0019931497711803557,-1.0261631104514013e-05,-0.0,-0.0020034114022848696,0.1,0.0,0.0,0.06653162498046337,0.027014762980317644,0.0,0.0,0.027014762980317644,0.08,0.002,0.06,0.27353031760307267,0.061579199205610884,0.0005470606352061453,-0.08248010421542683,-0.020353844374609797,0.6,0,0.4,-1.973493057360306,-2.837346136927268,-0.0,-0.1301641160763369,-2.9675102530036046,0.769739990070136,-1.6330529013510882,-2.402792891421224,0.2701476298031764,34.36382037945158,34.093672749648405,-0.9965748855901779,80.01377109106164,81.01034597665182,-4.728910228212113,0,4.728910228212113,0.025244803423546295,0.02251169251333806,2.9675102530036046,0.4979965885977151,0.034975290298461914,0.428236722946167,GUIDED_NOGPS
0.002,8e-05,0.0,-0.17027681817787016,-0.002603458241115476,-1.3622145454229613e-05,-0.0,-0.0026170803865697054,0.1,0.0,0.0,0.07550136109873704,0.02779614188491948,0.0,0.0,0.02779614188491948,0.08,0.002,0.06,0.29481357233636396,0.05276341337482368,0.0005896271446727279,-0.20489301235997737,-0.15153997184048096,0.6,0,0.4,-2.126468922675248,-2.8443237133362875,-0.0,-0.14415117778314862,-2.988474891119436,0.659542667185296,-1.5413395908373864,-2.2008822580226823,0.2779614188491948,34.42262571096949,34.1446642921203,-1.301729120557738,80.4257211850828,81.72745030564055,-4.740539522227146,0,4.740539522227146,0.015177238330977469,0.15331875294870176,2.988474891119436,0.4973829196134303,0.03226971626281738,0.4605097770690918,GUIDED_NOGPS
0.002,8e-05,0.0,-0.2226422228459945,-0.003087057539072106,-1.781137782767956e-05,-0.0,-0.0031048689168997855,0.1,0.0,0.0,0.08539565995961665,0.029164550609215214,0.0,0.0,0.029164550609215214,0.08,0.002,0.06,0.3144686329708204,0.04634838859515412,0.0006289372659416408,-0.14181751340595494,-0.09484018754485918,0.6,0,0.4,-2.2861166902460086,-2.823477719300516,-0.0,0.40963929942823807,-2.413838419872278,0.5793548574394265,-1.4533252634709637,-2.03268012091039,0.2916455060921521,34.48167766958304,34.19003216349089,-1.543528769536053,80.826314398808,82.36984316834405,-4.705796198834194,0,4.705796198834194,0.021285614091072436,0.09691313026905836,2.413838419872278,0.49689513108310024,0.033925771713256836,0.4944608211517334,GUIDED_NOGPS
0.002,8e-05,0.0,-0.2845701418282581,-0.0036800390793542874,-2.2765611346260653e-05,-0.0,-0.003702804690700548,0.1,0.0,0.0,0.09552779159013751,0.030104871090660623,0.0,0.0,0.030104871090660623,0.08,0.002,0.06,0.3301680850889926,0.03731731875949001,0.0006603361701779852,-0.2012502426397949,-0.16327258771012693,0.6,0,0.4,-2.4431772833996983,-2.7999767962379645,-0.0,0.46551063824087696,-2.3344661579970873,0.46646648449362504,-1.3691534896989177,-1.8356199741925427,0.30104871090660623,34.54098132670691,34.239932615800306,-1.8400195396771437,81.21502675328436,83.0550462929615,-4.666627993729941,0,4.666627993729941,0.016721540218869256,0.16518060192908585,2.3344661579970873,0.49629719530929944,0.03365612030029297,0.5280992984771729,GUIDED_NOGPS
0.002,8e-05,0.0,-0.355082581058768,-0.004230689868026843,-2.840660648470144e-05,-0.0,-0.004259096474511545,0.1,0.0,0.0,0.10614846630571165,0.03186159874848471,0.0,0.0,0.03186159874848471,0.08,0.002,0.06,0.3412223860545709,0.02652996810409924,0.0006824447721091417,-0.2427121491894907,-0.21549973631328231,0.6,0,0.4,-2.5977787821930045,-2.782789824026947,-0.0,0.34373485486491573,-2.439054969162031,0.3316246013012405,-1.2889584572762658,-1.6205830585775063,0.3186159874848471,34.60054067049056,34.28192468300571,-2.1153449340134216,81.59135478511337,83.70669971912679,-4.637983040044912,0,4.637983040044912,0.014332023614970976,0.2173704002963687,2.439054969162031,0.49574090352548844,0.033333778381347656,0.561431884765625,GUIDED_NOGPS
0.002,8e-05,0.0,-0.43584465089074476,-0.004738327622161848,-3.486757207125958e-05,-0.0,-0.004773195194233107,0.1,0.0,0.0,0.11760296423361435,0.03360189012162209,0.0,0.0,0.03360189012162209,0.08,0.002,0.06,0.3479454079249219,0.01577764428225164,0.0006958908158498439,-0.23656541248332277,-0.2200918773852213,0.6,0,0.4,-2.754653592798838,-2.761163439204172,-0.0,0.4229415152700936,-2.3382219239340785,0.1972205535281455,-1.2128651266727108,-1.4100856802008563,0.3360189012162209,34.66035862822308,34.32433972700686,-2.3691638110809237,81.95481531957243,84.32397913065336,-4.601939065340287,0,4.601939065340287,0.01583500672601373,0.22207830617303426,2.3382219239340785,0.4952268048057669,0.034088850021362305,0.5955421924591064,GUIDED_NOGPS
0.002,8e-05,0.0,-0.5259009358483835,-0.005281958779267314,-4.2072074867870685e-05,-0.0,-0.005324030854135184,0.1,0.0,0.0,0.1290175395175621,0.03347424122648164,0.0,-0.0,0.03347424122648164,0.08,0.002,0.06,0.3504839340891256,0.005955560154728765,0.0007009678681782512,-0.21603091130372717,-0.20937438328082017,0.6,0,0.4,-2.9098282747487385,-2.730380030769087,-0.0,0.6018335996425301,-2.1285464311265567,0.07444450193410956,-1.1409893864794118,-1.2154338884135214,0.3347424122648164,34.72043708873814,34.38569467647332,-2.6409793896336566,82.30494524373668,84.94592463337034,-4.550633384615145,0,4.550633384615145,0.01675694117813652,0.21137020159489117,2.1285464311265567,0.4946759691458648,0.034099578857421875,0.629631757736206,GUIDED_NOGPS
0.002,8e-05,0.0,-0.6218380148865132,-0.005807740122074676,-4.9747041190921066e-05,-0.0,-0.005857487163265598,0.1,0.0,0.0,0.13972844879469967,0.032420299938468136,0.0,-0.0,0.032420299938468136,0.08,0.002,0.06,0.3468697187450262,-0.008751745904376084,0.0006937394374900524,-0.3338759073009726,-0.34193391376785864,0.6,0,0.4,-3.058004129281491,-2.6910351996975184,-0.0,0.7939389590955472,-1.8970962406019711,-0.10939682380470106,-1.0734382088157441,-0.9640413850110431,0.32420299938468133,34.780776924818866,34.456573925434185,-2.9038700610373382,82.64130127960054,85.54517134063788,-4.485058666162531,0,4.485058666162531,0.00558208954086345,0.34342206904778766,1.8970962406019711,0.4941425128367344,0.033037662506103516,0.6626601219177246,GUIDED_NOGPS
0.002,8e-05,0.0,-0.7270452361069764,-0.00625255678458754,-5.816361888855811e-05,-0.0,-0.006310720403476099,0.1,0.0,0.0,0.15040523639117773,0.03172653927626712,0.0,-0.0,0.03172653927626712,0.08,0.002,0.06,0.3372559721341913,-0.022854133356842114,0.0006745119442683826,-0.3142939381509685,-0.33647355956354225,0.6,0,0.4,-3.2067529744646204,-2.652082025435451,-0.0,0.771673690544912,-1.8804083348905392,-0.2856766669605264,-1.0103098047360728,-0.7246331377755464,0.3172653927626712,34.84137801560274,34.52411262284007,-3.12627839229377,82.96345975719952,86.08973814949329,-4.4201367090590855,0,4.4201367090590855,0.005700347284557764,0.3379179421407578,1.8804083348905392,0.4936892795965239,0.033652544021606445,0.696321964263916,GUIDED_NOGPS
0.002,8e-05,0.0,-0.8373397625524122,-0.006650930170125974,-6.698718100419297e-05,-0.0,-0.006717917351130167,0.1,0.0,0.0,0.1603109965245463,0.02986663121566835,0.0,-0.0,0.02986663121566835,0.08,0.002,0.06,0.32265263722648313,-0.03522414533242665,0.0006453052744529663,-0.27972405512095794,-0.3143028951789316,0.6,0,0.4,-3.350610401164169,-2.602447456645229,-0.0,0.9976803675487163,-1.6047670890965127,-0.4403018166553331,-0.9516937796365141,-0.5113919629811811,0.2986663121566835,34.90223926898653,34.603572956829844,-3.325465085062987,83.27101638773178,86.59648147279476,-4.3374124277420485,0,4.3374124277420485,0.00601041349189033,0.31566152839344824,1.6047670890965127,0.49328208264886986,0.03316664695739746,0.7294864654541016,GUIDED_NOGPS
0.002,8e-05,0.0,-0.9599570172909453,-0.006904573235491881,-7.679656138327563e-05,-0.0,-0.006981369796875156,0.1,0.0,0.0,0.17037412936802793,0.02833273255238993,0.0,-0.0,0.02833273255238993,0.08,0.002,0.06,0.30311591325756404,-0.0440044891602359,0.0006062318265151281,-0.18540781776955909,-0.22880607510327985,0.6,0,0.4,-3.503028030237619,-2.5747893750233124,-0.0,0.5191418628070178,-2.0556475122162947,-0.5500561145029488,-0.8976712886617029,-0.3476151741587541,0.2833273255238993,34.963358644031125,34.680031318507226,-3.4522866177459406,83.56358603667995,87.01587265442589,-4.291315625038854,0,4.291315625038854,0.011132296084994046,0.23028468408022498,2.0556475122162947,0.49301863020312486,0.03551769256591797,0.7650032043457031,GUIDED_NOGPS
0.002,8e-05,0.0,-1.0954044058683692,-0.007109653453722075,-8.763235246946954e-05,-0.0,-0.007197285806191544,0.1,0.0,0.0,0.18130651666669492,0.028692131288661216,0.0,0.0,0.028692131288661216,0.08,0.002,0.06,0.2741317691393231,-0.06085528041484212,0.0005482635382786462,-0.33168769669407305,-0.39199471357063653,0.6,0,0.4,-3.6637174319383736,-2.530383136457293,-0.0,0.7769633427502123,-1.7534197937070808,-0.7606910051855265,-0.8483151921115621,-0.08762418692603569,0.28692131288661216,35.02473317336654,34.73781186047993,-3.5548267268610374,83.8408024969327,87.39562922379373,-4.217305227428822,0,4.217305227428822,-0.00021262032598869454,0.39304331651588753,1.7534197937070808,0.49280271419380844,0.03810238838195801,0.80312180519104,GUIDED_NOGPS
0.002,8e-05,0.0,-1.1908345773052906,-0.007192832558130476,-9.526676618442326e-05,-0.0,-0.0072880993243149,0.1,0.0,0.0,0.18873367204524535,0.027990248899659065,0.0,-0.0,0.027990248899659065,0.08,0.002,0.06,0.24873194620554437,-0.07657815997515773,0.0004974638924110888,-0.44440363424693374,-0.5204843303296803,0.6,0,0.4,-3.7731752962675316,-2.4750414206599274,-0.0,1.3904187366054428,-1.0846226840544846,-0.9572269996894716,-0.8036902108480657,0.15353678884140584,0.27990248899659065,35.08635898559672,34.80645649660013,-3.596416279065238,84.10231826190648,87.69873454097171,-4.125069034433213,0,4.125069034433213,-0.009522706811247967,0.521149412555735,1.0846226840544846,0.4927119006756851,0.0265347957611084,0.8296804428100586,GUIDED_NOGPS
0.002,8e-05,0.0,-1.3206215087032702,-0.0071236223027634086,-0.00010564972069626163,0.0,-0.00722927202345967,0.1,0.0,0.0,0.19896662389077321,0.028082828989298748,0.0,0.0,0.028082828989298748,0.08,0.002,0.06,0.20718473837289775,-0.0912161534743845,0.0004143694767457955,-0.3012886269700174,-0.3920904109676561,0.6,0,0.4,-3.9205545970521025,-2.426764689000862,-0.0,0.8832558580095369,-1.5435088309913252,-1.1402019184298062,-0.7638530817020062,0.3763488367278002,0.28082828989298747,35.14823132770448,34.86740303781149,-3.561811151381704,84.34780429866717,87.90961545004888,-4.044607815001437,0,4.044607815001437,0.0003575311917595157,0.39309465504923186,1.5435088309913252,0.4927707279765403,0.0364384651184082,0.866081953048706,GUIDED_NOGPS
0.002,8e-05,0.0,-1.4562952290284212,-0.0072853728145060755,-0.0001165036183222737,-0.0,-0.0074018764328283495,0.1,0.0,0.0,0.208352350955967,0.025199618850748354,0.0,-0.0,0.025199618850748354,0.08,0.002,0.06,0.15772832773030537,-0.10622790876083846,0.00031545665546061074,-0.3022865268228976,-0.40819897892827545,0.6,0,0.4,-4.066474325824856,-2.3506681085033554,-0.0,1.3620715873955367,-0.9885965211078187,-1.3278488595104807,-0.728852712879763,0.5989961466307177,0.2519961885074835,35.21034458745643,34.95834839894895,-3.642686407253038,84.57694982105183,88.21963622830486,-3.9177801808389257,0,3.9177801808389257,-0.0027494204610755343,0.4089668297985032,0.9885965211078187,0.49259812356717164,0.03724551200866699,0.9033362865447998,GUIDED_NOGPS
0.002,8e-05,0.0,-1.5595794226683617,-0.0075408248593645906,-0.00012476635381346895,-0.0,-0.00766559121317806,0.1,0.0,0.0,0.21421675894868616,0.021408151634081208,0.0,-0.0,0.021408151634081208,0.08,0.002,0.06,0.11576053430106235,-0.12256348966122246,0.0002315210686021247,-0.447250506846219,-0.5695824754388393,0.6,0,0.4,-4.171083830913343,-2.29127593108895,-0.0,1.445416418894479,-0.8458595121944712,-1.5320436207652808,-0.6987303393700666,0.8333132813952143,0.21408151634081207,35.272692315807845,35.05861079946703,-3.7704124296822954,84.78946206279028,88.55987449247257,-3.8187932184815834,0,3.8187932184815834,-0.016574245927191276,0.569743626252518,0.8458595121944712,0.49233440878682194,0.027393341064453125,0.9307351112365723,GUIDED_NOGPS
0.002,8e-05,0.0,-1.6904422969673187,-0.007494247366515737,-0.0001352353837573855,0.0,-0.007629482750273122,0.1,0.0,0.0,0.22116476651910982,0.01989490438603099,0.0,-0.0,0.01989490438603099,0.08,0.002,0.06,0.054147269779683156,-0.14113859193614356,0.00010829453955936632,-0.3989091980412548,-0.5399394954378389,0.6,0,0.4,-4.300774565167975,-2.2281363958785123,-0.0,1.2052903927329284,-1.022846003145584,-1.7642323992017945,-0.6735196783507669,1.0907127208510277,0.19894904386030987,35.33526724930757,35.13631820544726,-3.7471236832578683,84.98506605062686,88.73218973388472,-3.713560659797521,0,3.713560659797521,-0.015117935108654414,0.5400943565639692,1.022846003145584,0.49237051724972686,0.034923553466796875,0.965665340423584,GUIDED_NOGPS
0.002,8e-05,0.0,-1.8156844059155985,-0.007632340663850954,-0.0001452547524732479,-0.0,-0.007777595416324202,0.1,0.0,0.0,0.2266302296861857,0.016653455106732197,0.0,-0.0,0.016653455106732197,0.08,0.002,0.06,-0.01218251969873086,-0.161687328235533,-2.436503939746172e-05,-0.46959532111124935,-0.6313070143861799,0.6,0,0.4,-4.41860289239793,-2.154161904864029,-0.0,1.502685533374073,-0.6514763714899559,-2.0210916029441623,-0.6532470845955975,1.3678445183485648,0.16653455106732196,35.398061332502934,35.23152678143561,-3.816170331925477,85.16350437744212,88.9796747093676,-3.5902698414400485,0,3.5902698414400485,-0.022912325099441348,0.6311108534470959,0.6514763714899559,0.4922224045836758,0.03281879425048828,0.9984867572784424,GUIDED_NOGPS
0.002,8e-05,0.0,-1.9443892579389572,-0.0076668031367397305,-0.0001555511406351166,-0.0,-0.007822354277374847,0.1,0.0,0.0,0.23121261987081124,0.013648391217945744,0.0,-0.0,0.013648391217945744,0.08,0.002,0.06,-0.08774468137967911,-0.18004611608245755,-0.00017548936275935822,-0.41010462126748837,-0.5903262267127053,0.6,0,0.4,-4.534628871759007,-2.073461089906766,-0.0,1.60241889751368,-0.4710421923930861,-2.250576451030719,-0.6379317058809444,1.6126447451497747,0.13648391217945743,35.461065740344644,35.324581828165186,-3.8334015683698652,85.32453697537444,89.15793854374431,-3.455768483177944,0,3.455768483177944,-0.021960096577744427,0.5900754923617778,0.4710421923930861,0.4921776457226252,0.033574581146240234,1.032073736190796,GUIDED_NOGPS
0.002,8e-05,0.0,-2.073564223721462,-0.007684493772562746,-0.00016588513789771698,-0.0,-0.007850378910460464,0.1,0.0,0.0,0.23471659401366737,0.01042240163056647,0.0,-0.0,0.01042240163056647,0.08,0.002,0.06,-0.1697962241580453,-0.1952466766884696,-0.0003395924483160906,-0.3390999930078441,-0.5346862621446298,0.6,0,0.4,-4.646863711762227,-2.0030226224827725,-0.0,1.3967720989630883,-0.6062505235196842,-2.44058345860587,-0.6275856383926106,1.812997820213259,0.10422401630566469,35.52427090059169,35.42004688428602,-3.842246886281373,85.46794088894177,89.31018777522314,-3.338371037471288,0,3.338371037471288,-0.020731458357763542,0.5343858456361891,0.6062505235196842,0.4921496210895395,0.03361964225769043,1.065669298171997,GUIDED_NOGPS
0.002,8e-05,0.0,-2.210975646700827,-0.0077135036744073494,-0.00017687805173606617,-0.0,-0.007890381726143416,0.1,0.0,0.0,0.23734759381317327,0.007384475824801485,0.0,-0.0,0.007384475824801485,0.08,0.002,0.06,-0.26659921629714683,-0.21735899952676138,-0.0005331984325942936,-0.4654729927960356,-0.6833651907553913,0.6,0,0.4,-4.761384779039369,-1.9285703926636568,-0.0,1.3931096746442764,-0.5354607180193804,-2.7169874940845173,-0.6222140821325874,2.09477341195193,0.07384475824801484,35.58766651621624,35.51382175796822,-3.8567518372036744,85.5935100481633,89.45026188536697,-3.2142839877727614,0,3.2142839877727614,-0.030943712621496814,0.6827041826944944,0.5354607180193804,0.4921096182738566,0.0356287956237793,1.1013052463531494,GUIDED_NOGPS
0.002,8e-05,0.0,-2.336584833500305,-0.007765908485783541,-0.00018692678668002442,-0.0,-0.007952835272463566,0.1,0.0,0.0,0.23862034078013009,0.003934440116519511,0.0,-0.0,0.003934440116519511,0.08,0.002,0.06,-0.3633633433586161,-0.23930139971870998,-0.0007267266867172321,-0.5087287289378617,-0.7487568553432888,0.6,0,0.4,-4.861166723728062,-1.8507343389372153,-0.0,1.6040962330222013,-0.246638105915014,-2.9912674964838746,-0.6218154963258127,2.369452000158062,0.03934440116519511,35.65124158780855,35.611897186643354,-3.8829542428917705,85.70105504168112,89.58400928457289,-3.0845572315620258,0,3.0845572315620258,-0.036361625554854816,0.7478837746800032,0.246638105915014,0.49204716472753646,0.0323488712310791,1.1336743831634521,GUIDED_NOGPS
0.002,8e-05,0.0,-2.4746392070780514,-0.007926653132301653,-0.00019797113656624412,-0.0,-0.008124624268867897,0.1,0.0,0.0,0.23948707664420635,0.002488263998383644,0.0,-0.0,0.002488263998383644,0.08,0.002,0.06,-0.47768411298457053,-0.26255773378519875,-0.000955368225969141,-0.500739912733112,-0.7642530147442799,0.6,0,0.4,-4.963959804697054,-1.7706177851357874,-0.0,1.5333478534133935,-0.23726993172239386,-3.2819716723149845,-0.6263817548269448,2.6555899174880397,0.02488263998383644,35.71498443598186,35.690101795998025,-3.963326566150826,85.7904028898819,89.75372945603273,-2.951029641892979,0,2.951029641892979,-0.0368606262304531,0.7633676415969863,0.23726993172239386,0.4918753757311321,0.03483295440673828,1.1685163974761963,GUIDED_NOGPS
0.002,8e-05,0.0,-2.608694315520192,-0.008126080348580133,-0.00020869554524161537,-0.0,-0.008334775893821748,0.1,0.0,0.0,0.23980441103706066,0.000961800263961976,0.0,-0.0,0.000961800263961976,0.08,0.002,0.06,-0.595699442379982,-0.2861515865156833,-0.0011913988847599638,-0.5363247955874266,-0.8236677809878699,0.6,0,0.4,-5.05688381097325,-1.6898452063948985,-0.0,1.632076222080388,-0.05776898431451061,-3.576894831446041,-0.6358983015271242,2.940996529918917,0.00961800263961976,35.77888272377731,35.76926472113769,-4.063040174290066,85.86139681801866,89.92443699230873,-2.816408677324831,0,2.816408677324831,-0.03951094617252425,0.8227201368811761,0.05776898431451061,0.49166522410617824,0.03299379348754883,1.201488971710205,GUIDED_NOGPS
0.002,8e-05,0.0,-2.7454131734405927,-0.008159078755749562,-0.00021963305387524742,-0.0,-0.008378711809624809,0.1,0.0,0.0,0.23971075047163531,-0.0002794727593681046,0.0,-0.0,-0.0002794727593681046,0.08,0.002,0.06,-0.725081389782964,-0.3088491271768177,-0.001450162779565928,-0.5079521160236827,-0.8182514059800663,0.6,0,0.4,-5.147045003790614,-1.614186113237177,-0.0,1.5050557254309573,-0.10913038780621975,-3.860614089710221,-0.650344305760743,3.210269783949478,-0.0027947275936810456,35.84292347906881,35.84571820666249,-4.079539377874781,85.91389602933232,89.9934354072071,-2.6903101887286285,0,2.6903101887286285,-0.03868585537670954,0.8173364338429743,0.10913038780621975,0.4916212881903752,0.03351330757141113,1.2350003719329834,GUIDED_NOGPS
0.002,8e-05,0.0,-2.8829684915120763,-0.008193608146170135,-0.00023063747932096612,-0.0,-0.0084242456254911,0.1,0.0,0.0,0.2400033525366872,0.0008714554614854819,0.0,0.0,0.0008714554614854819,0.08,0.002,0.06,-0.8637820394903363,-0.33047323484238644,-0.0017275640789806725,-0.4830223956613648,-0.815223194582732,0.6,0,0.4,-5.233207975204078,-1.5397128247081515,-0.0,1.478689815168023,-0.061023009540128514,-4.130915435529831,-0.6696928177122121,3.461222617817618,0.00871455461485482,35.90709311696797,35.898378562353116,-4.096804073085067,85.9477754781735,90.04457955125856,-2.5661880411802525,0,2.5661880411802525,-0.03562977972671487,0.8144446790402169,0.061023009540128514,0.4915757543745089,0.033576250076293945,1.2685701847076416,GUIDED_NOGPS
0.002,8e-05,0.0,-3.017808401213669,-0.008270288919580138,-0.00024142467209709354,-0.0,-0.008511713591677232,0.1,0.0,0.0,0.2407277255645411,0.0022214395719935,0.0,0.0,0.0022214395719935,0.08,0.002,0.06,-1.0085367271433878,-0.3551361290596229,-0.0020170734542867756,-0.5672539603287203,-0.92440716284263,0.6,0,0.4,-5.311709037401641,-1.4444383705934332,-0.0,1.9478586716345523,0.5034203010411191,-4.439201613245286,-0.6939109238227248,3.745290689422561,0.022214395719935,35.971377462229,35.949163066509065,-4.1351444597900695,85.96292564312411,90.09807010291418,-2.4073972843223888,0,2.4073972843223888,-0.03660991768678519,0.9236846060401243,-0.5034203010411191,0.49148828640832276,0.0326082706451416,1.3011863231658936,GUIDED_NOGPS
0.002,8e-05,0.0,-3.1596927051328425,-0.00834434127842573,-0.00025277541641062745,-0.0,-0.008597116694836357,0.1,0.0,0.0,0.24249444427235256,0.0051951144114418925,0.0,0.0,0.0051951144114418925,0.08,0.002,0.06,-1.168766475340238,-0.37693012263636605,-0.002337532950680476,-0.4806465070506322,-0.8599141626376787,0.6,0,0.4,-5.388117959512265,-1.3481028666234194,-0.0,1.8885253692634425,0.5404225026400231,-4.7116265329545755,-0.7229599021970232,3.9886666307575522,0.05195114411441892,36.0357617716536,35.98381062753918,-4.172170639212865,85.95925230011912,90.13142293933198,-2.2468381110390325,0,2.2468381110390325,-0.028521533030289065,0.8594567344969789,-0.5404225026400231,0.49140288330516363,0.03400731086730957,1.3351919651031494,GUIDED_NOGPS
0.002,8e-05,0.0,-3.3257455713075106,-0.00845946485294573,-0.00026605964570460087,-0.0,-0.008725524498650331,0.1,0.0,0.0,0.2464893306296837,0.010175855891522902,0.0,0.0,0.010175855891522902,0.08,0.002,0.06,-1.3652545383732975,-0.4003987167564166,-0.002730509076746595,-0.44834760688002273,-0.8514768327131859,0.6,0,0.4,-5.471061632626977,-1.2676548806150734,-0.0,1.3661249893994962,0.09847010878442286,-5.004983959455207,-0.7567953780101693,4.248188581445038,0.101758558915229,36.100230756495854,35.998472197580625,-4.229732426472864,85.93667629556816,90.16640872204103,-2.112758134358456,0,2.112758134358456,-0.021221802057463143,0.8512731522888747,-0.09847010878442286,0.4912744755013497,0.039258480072021484,1.3744628429412842,GUIDED_NOGPS
0.002,8e-05,0.0,-3.456864357545473,-0.008626292873951514,-0.00027654914860363787,-0.0,-0.008902842022555152,0.1,0.0,0.0,0.2502957970195564,0.012521353665638203,0.0,0.0,0.012521353665638203,0.08,0.002,0.06,-1.526764150065889,-0.42502809929614854,-0.003053528300131778,-0.6076368035852904,-1.0357184311815706,0.6,0,0.4,-5.529695853807693,-1.157262003835884,-0.0,2.420912399659422,1.2636503958235379,-5.312851241201857,-0.7953674789143053,4.517483762287552,0.12521353665638202,36.16476860486716,36.03955506821078,-4.313146436975757,85.89513331947728,90.20827975645304,-1.9287700063931401,0,1.9287700063931401,-0.022344946163130423,1.035553067866539,-1.2636503958235379,0.49109715797744485,0.030399799346923828,1.4048683643341064,GUIDED_NOGPS
0.002,8e-05,0.0,-3.599108366574089,-0.008692001195299497,-0.00028792866932592716,-0.0,-0.008979929864625424,0.1,0.0,0.0,0.2562108469624036,0.018072332720579,0.0,0.0,0.018072332720579,0.08,0.002,0.06,-1.709445545247545,-0.44651916551606585,-0.00341889109049509,-0.49246460680692544,-0.9424026634134863,0.6,0,0.4,-5.588484218024072,-1.0777013433353073,-0.0,1.6205518036514968,0.5428504603161894,-5.581489568950823,-0.8386209904454258,4.742868578505397,0.18072332720578999,36.229359004141116,36.048635676935326,-4.346000597649748,85.83457367857059,90.18057427622034,-1.7961689055588457,0,1.7961689055588457,-0.011475147056651615,0.9425060796720753,-0.5428504603161894,0.4910200701353746,0.0327298641204834,1.437612533569336,GUIDED_NOGPS
0.002,8e-05,0.0,-3.7424893903016416,-0.008808512901799674,-0.00029939915122413136,-0.0,-0.009107912053023805,0.1,0.0,0.0,0.26383848847209923,0.0234299410416142,0.0,0.0,0.0234299410416142,0.08,0.002,0.06,-1.9004780359680045,-0.46943789782712714,-0.003800956071936009,-0.5279986082009744,-1.0012374621000375,0.6,0,0.4,-5.641300379858816,-0.9734171876793741,-0.0,2.13554138631818,1.1621241986388058,-5.867973722839089,-0.8864955114301387,4.981478211408951,0.234299410416142,36.293985163358414,36.05968575294227,-4.404256450899837,85.75496206941193,90.15921852031177,-1.6223619794656237,0,1.6223619794656237,-0.004926260388317328,1.001499450628069,-1.1621241986388058,0.4908920879469762,0.03255510330200195,1.470139980316162,GUIDED_NOGPS
0.002,8e-05,0.0,-3.895560032194257,-0.009050952717968897,-0.0003116448025755406,-0.0,-0.009362597520544438,0.1,0.0,0.0,0.27367100783022746,0.029069476258995766,0.0,0.0,0.029069476258995766,0.08,0.002,0.06,-2.107797554265156,-0.49034593032829804,-0.004215595108530312,-0.4636036291497322,-0.9581651545865606,0.6,0,0.4,-5.691906260705229,-0.897686380214011,-0.0,1.4926353592643087,0.5949489790502976,-6.1293241291037255,-0.9389256093924399,5.190398519711286,0.29069476258995763,36.358629835631746,36.06793507304179,-4.525476358984449,85.6562773515266,90.18175371051105,-1.4961439670233518,0,1.4961439670233518,0.004042189226038034,0.9585974956258339,-0.5949489790502976,0.4906374024794556,0.03382420539855957,1.5040032863616943,GUIDED_NOGPS
0.002,8e-05,0.0,-4.055989933722324,-0.009259235304947197,-0.0003244791946977859,-0.0,-0.009583714499644983,0.1,0.0,0.0,0.2861092265740443,0.035893680986663415,0.0,0.0,0.035893680986663415,0.08,0.002,0.06,-2.3307208576611016,-0.5146420465110342,-0.004661441715322203,-0.5258452163286395,-1.0451487045549959,0.6,0,0.4,-5.740043551785072,-0.8334752452111146,-0.0,1.2353183592472572,0.4018431140361426,-6.433025581387927,-0.9958409759604687,5.437184605427459,0.3589368098666341,36.42327534055072,36.06433853068408,-4.629617652473598,85.538512320523,90.1681299729966,-1.389125408685191,0,1.389125408685191,0.010546180584331037,1.0457116949919043,-0.4018431140361426,0.49041628550035504,0.0346529483795166,1.5386221408843994,GUIDED_NOGPS
0.002,8e-05,0.0,-4.21545937345874,-0.009567080642573018,-0.0003372367498766992,-0.0,-0.009904317392449716,0.1,0.0,0.0,0.300587459596757,0.043429770343209384,0.0,0.0,0.043429770343209384,0.08,0.002,0.06,-2.555318442844464,-0.5389730378755984,-0.0051106368856889284,-0.5473851844668932,-1.0914688592281805,0.6,0,0.4,-5.781421149166493,-0.7447122375264303,-0.0,1.7750587071736856,1.0303464696472553,-6.737162973444979,-1.057166582273283,5.679996391171696,0.43429770343209384,36.48790358658673,36.05360588315464,-4.783540321286509,85.40167348121435,90.18521380250085,-1.2411870625440506,0,1.2411870625440506,0.019777157130501228,1.0921535055443283,-1.0303464696472553,0.49009568260755026,0.03333711624145508,1.5719683170318604,GUIDED_NOGPS
0.002,8e-05,0.0,-4.385124603805233,-0.009847267465606024,-0.00035080996830441863,-0.0,-0.010198077433910442,0.1,0.0,0.0,0.31893239797371964,0.05323645701275695,0.0,0.0,0.05323645701275695,0.08,0.002,0.06,-2.79545286475307,-0.5574902707887911,-0.005590905729506141,-0.40302337914214736,-0.9661045556604446,0.6,0,0.4,-5.819504419242272,-0.6630989961265098,-0.0,1.5789277413308271,0.9158287452043173,-6.968628384859889,-1.122822834387625,5.845805550472264,0.5323645701275694,36.552496093497915,36.020131523370345,-4.923633732803012,85.24578082074032,90.16941455354333,-1.105164993544183,0,1.105164993544183,0.03459274279930972,0.9669516404499023,-0.9158287452043173,0.48980192256608956,0.03445935249328613,1.6064283847808838,GUIDED_NOGPS
0.002,8e-05,0.0,-4.561069399819545,-0.01017259698119105,-0.00036488555198556366,-0.0,-0.010537482533176613,0.1,0.0,0.0,0.3407216031043519,0.06298930328021513,0.0,0.0,0.06298930328021513,0.08,0.002,0.06,-3.0446104230661923,-0.5762215156010243,-0.006089220846132385,-0.4061190116459314,-0.9884297480930881,0.6,0,0.4,-5.853022817032846,-0.5813797734904579,-0.0,1.5749195890305634,0.9935398155401055,-7.202768945012803,-1.1927257286846844,6.0100432163281186,0.6298930328021513,36.61703401473399,35.98714098193184,-5.086298490595524,85.0708675816888,90.15716607228433,-0.9689662891507631,0,0.9689662891507631,0.04626511268231752,0.9893536064479601,-0.9935398155401055,0.4894625174668234,0.0345919132232666,1.6410984992980957,GUIDED_NOGPS
0.002,8e-05,0.0,-4.7671328763633145,-0.010424282082961185,-0.0003813706301090652,-0.0,-0.01080565271307025,0.1,0.0,0.0,0.36976835814474,0.07347045998017165,0.0,0.0,0.07347045998017165,0.08,0.002,0.06,-3.3396760838892146,-0.5970679972995999,-0.0066793521677784295,-0.39546601605746495,-0.9992133655248434,0.6,0,0.4,-5.887817684878975,-0.5280579414911968,-0.0,0.8991433566386187,0.3710854151474219,-7.463349966244999,-1.2667870072768634,6.196562958968135,0.7347045998017165,36.68149815984119,35.946793560039474,-5.212141041480592,84.87698003521751,90.0891210766981,-0.8800965691519947,0,0.8800965691519947,0.05811389642777973,1.000223991601463,-0.3710854151474219,0.48919434728692973,0.0395352840423584,1.6806044578552246,GUIDED_NOGPS
0.002,8e-05,0.0,-4.9291557821226935,-0.010702026342226077,-0.0003943324625698155,-0.0,-0.011096358804795892,0.1,0.0,0.0,0.3950890529816112,0.08362482510655056,0.0,0.0,0.08362482510655056,0.08,0.002,0.06,-3.573409200324538,-0.6175467493111872,-0.0071468184006490765,-0.5072526839416575,-1.1319462516534937,0.6,0,0.4,-5.911913424764331,-0.47747553059838976,-0.0,1.1136991017637636,0.6362235711653739,-7.71933436638984,-1.3449143134145505,6.37442005297529,0.8362482510655056,36.74586901686717,35.90962076580166,-5.351013171113038,84.66417725417568,90.01519042528872,-0.7957925509973163,0,0.7957925509973163,0.0678954366067866,1.1329985161925278,-0.6362235711653739,0.48890364119520413,0.030278921127319336,1.710838794708252,GUIDED_NOGPS
0.002,8e-05,0.0,-5.1159095470718485,-0.010941271845698168,-0.00040927276376574793,-0.0,-0.011350544609463916,0.1,0.0,0.0,0.42766858690392784,0.0954362385538147,0.0,0.0,0.0954362385538147,0.08,0.002,0.06,-3.84459602111028,-0.6355167678670903,-0.00768919204222056,-0.3948009926585135,-1.0380069525678244,0.6,0,0.4,-5.93587844527903,-0.42120886448064326,-0.0,1.0988245940012826,0.6776157295206393,-7.943959598338629,-1.427011346892881,6.516948251445748,0.9543623855381469,36.81012677476589,35.855764389227744,-5.470635922849084,84.43253088622578,89.90316680907486,-0.7020147741344055,0,0.7020147741344055,0.08271124504592417,1.039098339499874,-0.6776157295206393,0.48864945539053606,0.03413748741149902,1.7450048923492432,GUIDED_NOGPS
0.002,8e-05,0.0,-5.309222844416164,-0.01130591132110618,-0.00042473782755329315,-0.0,-0.011730649148659473,0.1,0.0,0.0,0.46488056381093457,0.10881696106096683,0.0,0.0,0.10881696106096683,0.08,0.002,0.06,-4.123827491540458,-0.6532331269737169,-0.008247654983080915,-0.38855239346708037,-1.050033175423878,0.6,0,0.4,-5.957328197383794,-0.37634606385752184,-0.0,0.8745989928084894,0.49825292895096757,-8.165414087171461,-1.5129780194585054,6.652436067712956,1.0881696106096683,36.87425134580254,35.78608173519287,-5.65295566055309,84.1821249269652,89.83508058751829,-0.6272434397625364,0,0.6272434397625364,0.0973154704610755,1.0511615003006132,-0.49825292895096757,0.48826935085134054,0.03419685363769531,1.7791688442230225,GUIDED_NOGPS
0.002,8e-05,0.0,-5.509865162699333,-0.011739950590019504,-0.00044078921301594665,-0.0,-0.012180739803035452,0.1,0.0,0.0,0.5069713597753276,0.12314048929079249,0.0,0.0,0.12314048929079249,0.08,0.002,0.06,-4.410996111792611,-0.6721105381181509,-0.008821992223585222,-0.4142070002968493,-1.0951395306385856,0.6,0,0.4,-5.976521669641864,-0.33691359513097396,-0.0,0.7690887254050683,0.4321751302740944,-8.401381726476886,-1.602710610216354,6.798671116260532,1.2314048929079249,36.93822238795842,35.706817495050494,-5.869975295009752,83.91305549304789,89.78303078805764,-0.5615226585516233,0,0.5615226585516233,0.11240192093599236,1.0962937470586869,-0.4321751302740944,0.48781926019696453,0.03418111801147461,1.8133752346038818,GUIDED_NOGPS
0.002,8e-05,0.0,-5.717327907128829,-0.012265387997823864,-0.00045738623257030633,-0.0,-0.01272277423039417,0.1,0.0,0.0,0.5534546789823884,0.13740682623984385,0.0,0.0,0.13740682623984385,0.08,0.002,0.06,-4.702868652588908,-0.6902309074569957,-0.009405737305177816,-0.40173482933522187,-1.1013714740973954,0.6,0,0.4,-5.993209622546955,-0.2959821309120494,-0.0,0.8066352529056391,0.5106531219935897,-8.627886343212445,-1.6961019210364094,6.931784422176035,1.3740682623984384,37.002019327335844,35.627951064937406,-6.1326939989119325,83.62543059530606,89.75812459421799,-0.4933035515200823,0,0.4933035515200823,0.12791929418480089,1.1025136797464414,-0.5106531219935897,0.4872772257696058,0.0338289737701416,1.8472168445587158,GUIDED_NOGPS
0.002,8e-05,0.0,-5.933143959205478,-0.012776712382078358,-0.0004746515167364383,-0.0,-0.013251363898814796,0.1,0.0,0.0,0.6042910929437403,0.15048052113606972,0.0,0.0,0.15048052113606972,0.08,0.002,0.06,-5.001502410979281,-0.707186995928876,-0.010003004821958563,-0.3764370110199471,-1.0936270117707818,0.6,0,0.4,-6.008208899108666,-0.2663955355371424,-0.0,0.5838605235534245,0.31746498801628215,-8.83983744911095,-1.7930414319604635,7.046796017150487,1.5048052113606971,37.065621380563066,35.56081616920237,-6.388356191039179,83.31936991187192,89.7077261029111,-0.4439925592285707,0,0.4439925592285707,0.1420014277812822,1.0947602580584253,-0.31746498801628215,0.4867486361011852,0.0337827205657959,1.8809785842895508,GUIDED_NOGPS
0.002,8e-05,0.0,-6.1995697713831435,-0.013330758766261625,-0.0004959655817106516,-0.0,-0.013826724347972276,0.1,0.0,0.0,0.6700060583162881,0.16440418132806373,0.0,0.0,0.16440418132806373,0.08,0.002,0.06,-5.363516729757998,-0.7245432436333833,-0.010727033459515995,-0.32566094480268315,-1.0609312218955824,0.6,0,0.4,-6.025516991610867,-0.25980591441017675,-0.0,0.10990507874922839,-0.14990083566094836,-9.056790545417291,-1.893415456608892,7.163375088808399,1.6440418132806371,37.12900757719913,35.484965763918495,-6.665379383130812,82.99500456129925,89.66038394443007,-0.4330098573502946,0,0.4330098573502946,0.1563816304731469,1.0621433886634915,0.14990083566094836,0.4861732756520277,0.03997159004211426,1.920945405960083,GUIDED_NOGPS
0.002,8e-05,0.0,-6.3854441506092545,-0.01392018091428767,-0.0005108355320487404,-0.0,-0.01443101644633641,0.1,0.0,0.0,0.7175504046880409,0.17803042724389187,0.0,0.0,0.17803042724389187,0.08,0.002,0.06,-5.610753463813612,-0.7406249491814458,-0.011221506927627224,-0.4516361767515583,-1.2034826328606314,0.6,0,0.4,-6.036936968480246,-0.2565735171043065,-0.0,0.0806916934471366,-0.17588182365716987,-9.257811864768072,-1.9971072975874202,7.260704567180653,1.7803042724389186,37.19215678213885,35.41185250969993,-6.960090457143835,82.65247687568521,89.61256733282904,-0.42762252850717747,0,0.42762252850717747,0.1690434546215099,1.204777818135537,0.17588182365716987,0.48556898355366357,0.02670574188232422,1.9476706981658936,GUIDED_NOGPS
0.002,8e-05,0.0,-6.689284663956794,-0.014551676863299804,-0.0005351427731165436,-0.0,-0.015086819636416348,0.1,0.0,0.0,0.7972113461703197,0.19075801747188947,0.0,0.0,0.19075801747188947,0.08,0.002,0.06,-6.002277857186442,-0.750043026677506,-0.012004555714372884,-0.16914567146542353,-0.9311932538573024,0.6,0,0.4,-6.052622257085925,-0.22536222913404758,-0.0,0.4982620344982399,0.27289980536419234,-9.375537833468824,-2.103997401893886,7.271540431574938,1.9075801747188947,37.25504771801763,35.347467543298734,-7.275838431649902,82.29194017379194,89.56777860544184,-0.3756037152234126,0,0.3756037152234126,0.1846495049009747,0.9324237543086197,-0.27289980536419234,0.48491318036358366,0.04176020622253418,1.989412784576416,GUIDED_NOGPS
0.002,8e-05,0.0,-6.871351718916635,-0.01525671941514557,-0.0005497081375133309,-0.0,-0.0158064275526589,0.1,0.0,0.0,0.8460243080891384,0.20451961064066992,0.0,0.0,0.20451961064066992,0.08,0.002,0.06,-6.229447494382969,-0.7614476798369245,-0.012458894988765937,-0.35837948548410015,-1.1322860603097906,0.6,0,0.4,-6.061827913161501,-0.23142261263307237,-0.0,-0.1692811669729668,-0.4007037796060392,-9.518095997961556,-2.2139635163250064,7.30413248163655,2.0451961064066992,37.31765898761642,35.27246288120972,-7.628359707572784,81.91355853416825,89.54191824174103,-0.38570435438845396,0,0.38570435438845396,0.19689269842340812,1.1336371812956854,0.4007037796060392,0.4841935724473411,0.023867130279541016,2.013278007507324,GUIDED_NOGPS
0.002,8e-05,0.0,-7.153147523307419,-0.015994712391681248,-0.0005722518018645936,-0.0,-0.016566964193545843,0.1,0.0,0.0,0.9226062907869025,0.21733942957092298,0.0,0.0,0.21733942957092298,0.08,0.002,0.06,-6.570607678332845,-0.7745692358434281,-0.01314121535666569,-0.27929201462353226,-1.067002465823626,0.6,0,0.4,-6.07506647138659,-0.22542592330137767,-0.0,0.11345723826522783,-0.11196868503614985,-9.68211544804285,-2.3268808428831464,7.355234605159704,2.1733942957092296,37.37996909626659,35.20657480055736,-7.997356195840624,81.51750656827133,89.51486276411195,-0.3757098721689628,0,0.3757098721689628,0.2103380724745033,1.068404691578815,0.11196868503614985,0.48343303580645414,0.03523612022399902,2.048551321029663,GUIDED_NOGPS
0.002,8e-05,0.0,-7.443500335279758,-0.01695135832782586,-0.0005954800268223807,-0.0,-0.01754683835464824,0.1,0.0,0.0,1.0017378081438537,0.2309925460391341,0.0,0.0,0.2309925460391341,0.08,0.002,0.06,-6.909183042647346,-0.790667365331534,-0.013818366085294692,-0.35243996713895465,-1.1569256985557834,0.6,0,0.4,-6.087175877685367,-0.2120911630716596,-0.0,0.25950302476736103,0.04741186169570144,-9.883342066644175,-2.442622194183084,7.440719872461092,2.309925460391341,37.44195647425485,35.13203101386351,-8.475679163912929,81.10396919358844,89.57964835750137,-0.35348527178609934,0,0.35348527178609934,0.22385056315572482,1.1583287761595555,-0.04741186169570144,0.48245316164535174,0.03425717353820801,2.082822322845459,GUIDED_NOGPS
0.002,8e-05,0.0,-7.740428105466202,-0.017857321760260392,-0.0006192342484372962,-0.0,-0.018476556008697687,0.1,0.0,0.0,1.0832489425524636,0.24510515693166968,0.0,0.0,0.24510515693166968,0.08,0.002,0.06,-7.245203389947301,-0.8083344250303065,-0.014490406779894603,-0.39843827515772584,-1.221263106967927,0.6,0,0.4,-6.0985308891666214,-0.20486809989334362,-0.0,0.1447990344463087,-0.060069065447034914,-10.104180312878832,-2.5610581488587787,7.543122164020053,2.4510515693166965,37.503599499228145,35.05254792991145,-8.928660880130195,80.67314140675855,89.60180228688874,-0.3414468331555727,0,0.3414468331555727,0.2378228871736403,1.2227020850280115,0.060069065447034914,0.4815234439913023,0.033255577087402344,2.116037368774414,GUIDED_NOGPS
0.002,8e-05,0.0,-8.050511038174662,-0.018902298289974313,-0.000644040883053973,-0.0,-0.019546339173028286,0.1,0.0,0.0,1.1681352860980876,0.25872868468275384,0.0,0.0,0.25872868468275384,0.08,0.002,0.06,-7.580499525098479,-0.8175706423754637,-0.015160999050196959,-0.21113593765575914,-1.0438675790814198,0.6,0,0.4,-6.1092464311346,-0.1959621274685507,-0.0,0.18096593908528916,-0.014996188383261555,-10.219633029693297,-2.6820572069701427,7.537575822723154,2.5872868468275385,37.564876518598545,34.97758967177101,-9.451149144987156,80.22522805669408,89.67637720168123,-0.3266035457809179,0,0.3266035457809179,0.25277414751777677,1.0453254446733962,0.014996188383261555,0.4804536608269717,0.03280901908874512,2.1490702629089355,GUIDED_NOGPS
0.002,8e-05,0.0,-8.388266618812537,-0.019907388534495425,-0.0006710613295050031,-0.0,-0.02057844986400043,0.1,0.0,0.0,1.2610943872950888,0.27395149798135704,0.0,0.0,0.27395149798135704,0.08,0.002,0.06,-7.930041024575213,-0.8240821277767705,-0.015860082049150428,-0.14392064548833608,-0.983862855314257,0.6,0,0.4,-6.119565688023374,-0.1824657841781315,-0.0,0.2651591516463771,0.0826933674682456,-10.301026597209631,-2.805485945409787,7.495540651799844,2.7395149798135705,37.62576587194816,34.88625089213459,-9.953694267247712,79.76044361770252,89.71413788495023,-0.30410964029688586,0,0.30410964029688586,0.26872560049836014,0.9853030462503136,-0.0826933674682456,0.4794215501359996,0.03393268585205078,2.1827945709228516,GUIDED_NOGPS
0.002,8e-05,0.0,-8.734464944537223,-0.02088019588568645,-0.0006987571955629779,-0.0,-0.021578953081249425,0.1,0.0,0.0,1.356797542263617,0.28860633835217087,0.0,0.0,0.28860633835217087,0.08,0.002,0.06,-8.272844922125485,-0.8270187345641538,-0.01654568984425097,-0.06641813420614281,-0.9099825586145476,0.6,0,0.4,-6.128688172102902,-0.1650608108625765,-0.0,0.3499143171313733,0.18485350626879676,-10.337734182051921,-2.93120917330981,7.40652500874211,2.8860633835217087,37.68624591343404,34.800182529912334,-10.440097942843224,79.2790119626082,89.71910990545142,-0.27510135143762754,0,0.27510135143762754,0.28423381600434167,0.9113577855921,-0.18485350626879676,0.4784210469187506,0.03316044807434082,2.215947151184082,GUIDED_NOGPS
0.002,8e-05,0.0,-9.102571360388305,-0.02183835998288322,-0.0007282057088310645,-0.0,-0.022566565691714287,0.1,0.0,0.0,1.458767276906078,0.3024739146874872,0.0,0.0,0.3024739146874872,0.08,0.002,0.06,-8.622808166891634,-0.8304797733352024,-0.017245616333783267,-0.0769988724817421,-0.9247242621507278,0.6,0,0.4,-6.138620317366134,-0.17677097245853302,-0.0,-0.23157318407411087,-0.4083441565326439,-10.38099716669003,-3.0590900874485687,7.321907079241461,3.0247391468748717,37.74629503419309,34.72155588731822,-10.91917999144161,78.78116613587383,89.70034612731544,-0.29461828743088836,0,0.29461828743088836,0.297714949973063,0.926267368873112,0.4083441565326439,0.4774334343082857,0.033711910247802734,2.249683141708374,GUIDED_NOGPS
0.002,8e-05,0.0,-9.491652262623731,-0.022839438848032984,-0.0007593321810098985,-0.0,-0.023598771029042884,0.1,0.0,0.0,1.566006172681816,0.3147515321528864,0.0,0.0,0.3147515321528864,0.08,0.002,0.06,-8.978342567894295,-0.8348090243873162,-0.01795668513578859,-0.09529926561652506,-0.9480649751396298,0.6,0,0.4,-6.1493569880143975,-0.18907599778884074,-0.0,-0.2407724391340155,-0.42984843692285624,-10.435112804841452,-3.1889904276574086,7.246122377184045,3.1475153215288643,37.805891684746925,34.65837636321806,-11.419719424016492,78.26714812672236,89.68686755073885,-0.31512666298140124,0,0.31512666298140124,0.3095324425348781,0.9497817597203523,0.42984843692285624,0.4764012289709571,0.03407096862792969,2.283752679824829,GUIDED_NOGPS
0.002,8e-05,0.0,-9.976640903776124,-0.023766675984811827,-0.0007981312723020899,-0.0,-0.024564807257113918,0.1,0.0,0.0,1.700102067131343,0.3285658058612157,0.0,0.0,0.3285658058612157,0.08,0.002,0.06,-9.407107862176868,-0.8404589269169661,-0.01881421572435374,-0.10382671214388653,-0.9630998547852063,0.6,0,0.4,-6.162610136768227,-0.1948395893122368,-0.0,-0.09414750547550783,-0.28898709478774465,-10.505736586462076,-3.320770632227479,7.184965954234597,3.2856580586121567,37.86501439740683,34.579356338794675,-11.883337992405913,77.73720864225855,89.62054663466446,-0.324732648853728,0,0.324732648853728,0.3231020412949447,0.9649465736399893,0.28898709478774465,0.4754351927428861,0.04081249237060547,2.324549436569214,GUIDED_NOGPS
0.002,8e-05,0.0,-10.296504394781326,-0.024849593802016786,-0.0008237203515825062,-0.0,-0.025673314153599292,0.1,0.0,0.0,1.788076567410005,0.3417286840067355,0.0,0.0,0.3417286840067355,0.08,0.002,0.06,-9.678054897646788,-0.8419746501395653,-0.019356109795293577,-0.0441576337918895,-0.9054883937267484,0.6,0,0.4,-6.171081611886619,-0.19743989687697894,-0.0,-0.06733767014285799,-0.2647775670198369,-10.524683126744566,-3.454289993316449,7.0703931334281185,3.417286840067355,37.92364180867863,34.50635496861128,-12.424796901008392,77.19160688059067,89.61640378159906,-0.3290664947949649,0,0.3290664947949649,0.3365225907089507,0.9074360972483727,0.2647775670198369,0.4743266858464007,0.025743961334228516,2.350332736968994,GUIDED_NOGPS
0.002,8e-05,0.0,-10.733208628393893,-0.02592671149725567,-0.0008586566902715115,-0.0,-0.02678536818752718,0.1,0.0,0.0,1.9064102496423925,0.35126786088921946,0.0,0.0,0.35126786088921946,0.08,0.002,0.06,-10.031626178471614,-0.839647512993254,-0.02006325235694323,0.05180996263865645,-0.8079008027115407,0.6,0,0.4,-6.183372778216247,-0.2189144268812669,-0.0,-0.42497408322530944,-0.6438885101065763,-10.495593912415675,-3.589406812355328,6.906187100060346,3.5126786088921946,37.98175268166758,34.469074072775385,-12.963355748627833,76.63061030395218,89.59396605258002,-0.36485737813544483,0,0.36485737813544483,0.3461160915065986,0.8101212676604879,0.6438885101065763,0.4732146318124728,0.033687591552734375,2.383986473083496,GUIDED_NOGPS
0.002,8e-05,0.0,-11.28242381426818,-0.027019828173987008,-0.0009025939051414544,-0.0,-0.027922422079128463,0.1,0.0,0.0,2.0532648204856545,0.3612414016222964,0.0,0.0,0.3612414016222964,0.08,0.002,0.06,-10.456977742494772,-0.8370435828460921,-0.020913955484989543,0.048039739452062566,-0.8099177988790192,0.6,0,0.4,-6.198190989062833,-0.21870417345613888,-0.0,0.0034479572342899986,-0.21525621622184887,-10.463044785576152,-3.725978555455189,6.737066230120962,3.6124140162229637,38.03932592848331,34.426911912260344,-13.509914086993504,76.05449441182347,89.56440849881697,-0.36450695576023145,0,0.36450695576023145,0.3560815533916645,0.8121995558489649,0.21525621622184887,0.4720775779208715,0.04065275192260742,2.4246747493743896,GUIDED_NOGPS
0.002,8e-05,0.0,-11.669362800761244,-0.028156484018108986,-0.0009335490240608995,-0.0,-0.029090033042169883,0.1,0.0,0.0,2.15518713995219,0.37083031942033956,0.0,0.0,0.37083031942033956,0.08,0.002,0.06,-10.743729616203536,-0.8346457535767999,-0.021487459232407073,0.06543128618695446,-0.7907019266222525,0.6,0,0.4,-6.208437556359229,-0.22368434176374738,-0.0,-0.12079770907515364,-0.34448205083890104,-10.433071919709999,-3.863862008813939,6.569209910896059,3.7083031942033955,38.096340632644676,34.38803743844128,-14.078242009054492,75.46354251405349,89.54178452310798,-0.3728072362729123,0,0.3728072362729123,0.36567763467295034,0.7930980582913624,0.34448205083890104,0.4709099669578301,0.027484893798828125,2.4521384239196777,GUIDED_NOGPS
0.002,8e-05,0.0,-12.156485832553418,-0.02931968258216324,-0.0009725188666042735,-0.0,-0.030292201448767514,0.1,0.0,0.0,2.2808594340281267,0.37820750931468583,0.0,0.0,0.37820750931468583,0.08,0.002,0.06,-11.09018172493164,-0.8341109079122992,-0.02218036344986328,0.012072031158056596,-0.844219240204106,0.6,0,0.4,-6.220472132070129,-0.21730646068393386,-0.0,0.12796045119507385,-0.08934600948886001,-10.42638634890374,-4.0029134341231245,6.423472914780616,3.782075093146858,38.152776071484695,34.37070097833784,-14.65984129108162,74.85804550398142,89.51788679506303,-0.3621774344732231,0,0.3621774344732231,0.3728635196507178,0.8465930789620801,0.08934600948886001,0.46970779855123246,0.033228397369384766,2.4853599071502686,GUIDED_NOGPS
0.002,8e-05,0.0,-12.666850579826024,-0.030644928970967072,-0.001013348046386082,-0.0,-0.03165827701735315,0.1,0.0,0.0,2.4088560994640633,0.38427896340475276,0.0,0.0,0.38427896340475276,0.08,0.002,0.06,-11.43719851977104,-0.8334670516657724,-0.022874397039542083,0.014497667389674422,-0.8418437813156401,0.6,0,0.4,-6.232207288744192,-0.21139178087533825,-0.0,0.1183826166083854,-0.09300916426695285,-10.418338145822155,-4.142988723974657,6.275349421847497,3.842789634047527,38.208611738555454,34.36582210450793,-15.322464485483536,74.23830163155836,89.5607661170419,-0.35231963479223044,0,0.35231963479223044,0.379095117604632,0.8441908348611568,0.09300916426695285,0.46834172298264687,0.03330826759338379,2.5186760425567627,GUIDED_NOGPS
0.002,8e-05,0.0,-13.208354474409555,-0.0319689204175844,-0.0010566683579527644,-0.0,-0.033025588775537164,0.1,0.0,0.0,2.5409866410308846,0.390031430090707,0.0,0.0,0.390031430090707,0.08,0.002,0.06,-11.786854863933844,-0.8257104668575813,-0.023573709727867688,0.1717228940495543,-0.6775612825358946,0.6,0,0.4,-6.2435583085512745,-0.2010400215958544,-0.0,0.2037132585120991,0.0026732369162446867,-10.321380835719767,-4.283943557267577,6.03743727845219,3.9003143009070698,38.26382736603297,34.3635130651259,-15.9844602087922,73.6046162764691,89.5890764852613,-0.33506670265975735,0,0.33506670265975735,0.3860623932754146,0.6798305940076157,-0.0026732369162446867,0.4669744112244628,0.033876895904541016,2.552549362182617,GUIDED_NOGPS
0.002,8e-05,0.0,-13.763615904757105,-0.03348769502706767,-0.0011010892723805684,-0.0,-0.03458878429944824,0.1,0.0,0.0,2.6720041257904676,0.3950817878792876,0.0,0.0,0.3950817878792876,0.08,0.002,0.06,-12.126108863058588,-0.8184133698817576,-0.024252217726117176,0.16503236904756724,-0.6776332185603076,0.6,0,0.4,-6.254670413277572,-0.20105057933711654,-0.0,-0.00021224501963573698,-0.20126282435675227,-10.23016712352197,-4.425633554614871,5.804533568907099,3.9508178787928756,38.318402947122124,34.36758506832925,-16.743847513533836,72.95730172125369,89.70114923478752,-0.33508429889519425,0,0.33508429889519425,0.39111203520868965,0.6799321833280233,0.20126282435675227,0.4654112157005518,0.03316211700439453,2.585714101791382,GUIDED_NOGPS
