D-kp,D-ki,D-kd,D-I-Tot,D-P,D-I,D-D,D-PID,E-kp,E-ki,E-kd,E-I-Tot,E-P,E-I,E-D,E-PID,N-kp,N-ki,N-kd,N-I-Tot,N-P,N-I,N-D,N-PID,Y-kp,Y-ki,Y-kd,Y-I-Tot,Y-P,Y-I,Y-D,Y-PID,errorN,desiredN,actualN,errorE,desiredE,actualE,errorD,desiredD,actualD,errorY,desiredY,actualY,roll,pitch,yaw-rate,thrust,dt,Time,Mode
0.002,8e-05,0.0,-0.00913526462793234,-0.001337524940482254,-7.308211702345872e-07,-0.0,-0.0013382557616524887,0.04,0.006,0.0,9.87228625235503e-05,0.00028908695303101693,5.923371751413018e-07,0.0,0.00028967929020615825,0.08,0.002,0.06,-0.0025397484478976683,-0.014874125840766545,-5.0794968957953365e-06,-0.8166641207250822,-0.8315433260627445,0.6,0,0.4,-0.07566556248758788,-3.3235351492715446,-0.0,-162.20333450541926,-165.5268696546908,-0.18592657300958182,1.4161859256870215,1.6021124986966033,0.007227173825775424,60.27474881633534,60.267521642509564,-0.668762470241127,52.737316979094544,53.40607944933567,-5.5392252487859075,0,5.5392252487859075,-0.0799782123261493,0.8276882701758533,10.0,0.4986617442383475,0.013659954071044922,0.013887405395507812,GUIDED_NOGPS
0.002,8e-05,0.0,-0.07970769537256453,-0.00510339870971076,-6.376615629805163e-06,-0.0,-0.005109775325340566,0.04,0.006,0.0,-0.005422606844270082,-0.00798542620800447,-3.253564106562049e-05,-0.0,-0.00801796184907009,0.08,0.002,0.06,-0.01939622443810869,-0.048758597039117293,-3.8792448876217375e-05,-0.9188749315860544,-0.9676723210740479,0.6,0,0.4,-0.23871500576150106,-3.537243834355686,-0.0,-5.15140079586648,-8.688644630222166,-0.6094824629889661,1.6209396672024754,2.2304221301914415,-0.19963565520011173,60.18407378348857,60.38370943868868,-2.55169935485538,53.389199326962725,55.940898681818105,-5.89540639059281,0,5.89540639059281,-0.10736787681645674,0.9617308083413854,8.688644630222166,0.49489022467465943,0.027657032012939453,0.04150533676147461,GUIDED_NOGPS
0.002,8e-05,0.0,-0.10149594113646168,-0.004894832692045895,-8.119675290916935e-06,0.0,-0.004902952367336812,0.04,0.006,0.0,-0.00735549211588807,-0.008684636771599799,-4.413295269532842e-05,-0.0,-0.008728769724295126,0.08,0.002,0.06,-0.0238507335300414,-0.04002906331511458,-4.77014670600828e-05,0.7354241741440709,0.6953474093618962,0.6,0,0.4,-0.2916981956689153,-3.570877429481958,-0.0,-2.5186488586413587,-6.0895262881233165,-0.5003632914389322,1.8251659121449433,2.3255292035838755,-0.21711591928999496,60.0931835159734,60.310299435263396,-2.4474163460229477,54.04021144831816,56.48762779434111,-5.95146238246993,0,5.95146238246993,0.06341601714990243,-0.6925045991876468,6.0895262881233165,0.4950970476326632,0.008902549743652344,0.050383567810058594,GUIDED_NOGPS
0.002,8e-05,0.0,-0.18060222166570328,-0.00395249075416244,-1.4448177733256263e-05,0.0,-0.003966938931895697,0.04,0.006,0.0,-0.016216470672101232,-0.008854653658837607,-9.72988240326074e-05,-0.0,-0.008951952482870213,0.08,0.002,0.06,-0.036345421410078564,-0.024971538538580234,-7.269084282015713e-05,0.28212706561502526,0.2570828362336249,0.6,0,0.4,-0.5303101601978506,-3.5766246775483213,-0.0,-0.09571909542539357,-3.672343772973715,-0.3121442317322529,2.0283554445552037,2.3404996762874566,-0.22136634147094014,60.00187139862232,60.22323774009326,-1.97624537708122,54.689504589651165,56.665749966732385,-5.961041129247202,0,5.961041129247202,0.017795072066121423,-0.25662240266458014,3.672343772973715,0.4960330610681043,0.04002857208251953,0.09044528007507324,GUIDED_NOGPS
0.002,8e-05,0.0,-0.20728458005590464,-0.002860236982313083,-1.658276640447237e-05,0.0,-0.002876819748717555,0.04,0.006,0.0,-0.021133272422215753,-0.010541210784084001,-0.00012679963453329454,-0.0,-0.010668010418617296,0.08,0.002,0.06,-0.03825088593859101,-0.008170312433759222,-7.650177187718202e-05,0.6753828815061835,0.6671360673005471,0.6,0,0.4,-0.641564038993528,-3.5777848483666834,-0.0,-0.041455149652973006,-3.6192399980196566,-0.10212890542199027,2.2300187531983755,2.3321476586203658,-0.2635302696021,59.90994009884085,60.17347036844295,-1.4301184911565414,55.33625322414599,56.76637171530253,-5.962974747277806,0,5.962974747277806,0.058695655015165736,-0.6646346054952845,3.6192399980196566,0.49712318025128244,0.018657445907592773,0.10907483100891113,GUIDED_NOGPS
0.002,8e-05,0.0,-0.21327839662775713,-0.0018939196039315363,-1.7062271730220573e-05,0.0,-0.0019109818756617568,0.04,0.006,0.0,-0.023248048799566295,-0.01336449452859256,-0.00013948829279739777,-0.0,-0.013503982821389957,0.08,0.002,0.06,-0.03792569797103153,0.0041101015310730914,-7.585139594206306e-05,1.4551319142972736,1.4591661644324045,0.6,0,0.4,-0.6793321988747236,-3.580182553766879,-0.0,-0.25254144319377336,-3.8327239969606524,0.051376269138413644,2.4296857700241707,2.378309500885757,-0.33411236321481397,59.817201434036875,60.15131379725169,-0.9469598019657681,55.979654833440435,56.9266146354062,-5.966970922944799,0,5.966970922944799,0.1382570015238878,-1.4526641919266956,3.8327239969606524,0.49808901812433826,0.006329536437988281,0.11542868614196777,GUIDED_NOGPS
0.002,8e-05,0.0,-0.22600075931496202,-0.000984383425110579,-1.8080060745196965e-05,0.0,-0.001002463485855776,0.04,0.006,0.0,-0.03294030184740346,-0.014998618553555047,-0.00019764181108442076,-0.0,-0.015196260364639468,0.08,0.002,0.06,-0.03436024505398032,0.011034971540584096,-6.872049010796064e-05,0.2009275151756109,0.21189376622608702,0.6,0,0.4,-0.833481054945763,-3.5781461976877105,-0.0,0.05252051633388769,-3.525625681353823,0.1379371442573012,2.626905608627151,2.48896846436985,-0.3749654638388762,59.7234762390499,60.09844170288878,-0.4921917125552895,56.61892968938547,57.11112140194076,-5.963576996146184,0,5.963576996146184,0.006900941667859924,-0.21232586158695393,3.525625681353823,0.49899753651414425,0.025848388671875,0.1412656307220459,GUIDED_NOGPS
0.002,8e-05,0.0,-0.2284901582195203,-0.0008205662920338171,-1.8279212657561623e-05,0.0,-0.0008388455046913787,0.04,0.006,0.0,-0.035243976970007994,-0.01518694452660725,-0.00021146386182004797,-0.0,-0.015398408388427298,0.08,0.002,0.06,-0.0331276128044604,0.016252220125554225,-6.625522560892081e-05,0.6448994049550439,0.6610853698549892,0.6,0,0.4,-0.8698772956932137,-3.5991252658728183,-0.0,-2.305069998954023,-5.904195264826841,0.2031527515694278,2.8212463027069865,2.6180935511375587,-0.3796736131651812,59.62859423358039,60.00826784674557,-0.4102831460169085,57.25332063580487,57.66360378182178,-5.998542109788031,0,5.998542109788031,0.05377141337261417,-0.6590748154201587,5.904195264826841,0.4991611544953086,0.006067514419555664,0.14732670783996582,GUIDED_NOGPS
0.002,8e-05,0.0,-0.22659624711042994,0.00013049098875568177,-1.8127699768834398e-05,0.0,0.00011236328898684737,0.04,0.006,0.0,-0.046406046519774716,-0.015381392348538725,-0.0002784362791186483,-0.0,-0.01565982862765737,0.08,0.002,0.06,-0.022273603231888844,0.02991376805997547,-4.454720646377769e-05,0.35298163335237015,0.38285085420588183,0.6,0,0.4,-1.0438960501267054,-3.5969818043305724,-0.0,0.04922836041335453,-3.547753443917218,0.37392210074969334,3.0122945445287055,2.638372443779012,-0.3845348087134681,59.53239388961901,59.91692869833248,0.06524549437784088,57.882092870254866,57.816847375877025,-5.994969673884287,0,5.994969673884287,0.024411196650760785,-0.38239259966283196,3.547753443917218,0.5001123632889869,0.029027462005615234,0.17636442184448242,GUIDED_NOGPS
0.002,8e-05,0.0,-0.23381591283464287,-0.00040819962559790214,-1.870527302677143e-05,-0.0,-0.00042690489862467357,0.04,0.006,0.0,-0.057552630054836074,-0.012604548186900502,-0.0003453157803290165,0.0,-0.01294986396722952,0.08,0.002,0.06,-0.009419215546028413,0.029071463644422656,-1.8838431092056825e-05,-0.017858947363466767,0.011193677849863831,0.6,0,0.4,-1.2567635650549907,-3.6106563606234583,-0.0,-0.2577196309912774,-3.8683759916147356,0.3633932955552832,3.199655423382952,2.836262127827669,-0.31511370467251254,59.43472229887598,59.749836003548495,-0.20409981279895106,58.50453372578373,58.70863353858268,-6.017760601039098,0,6.017760601039098,-0.011704994332680185,-0.012489616016844007,3.8683759916147356,0.4995730951013753,0.03537321090698242,0.21173524856567383,GUIDED_NOGPS
0.002,8e-05,0.0,-0.2546300006500872,-0.001273355432590222,-2.0370400052006977e-05,-0.0,-0.001293725832642229,0.04,0.006,0.0,-0.06503530916918755,-0.009155443356512478,-0.00039021185501512533,0.0,-0.009545655211527605,0.08,0.002,0.06,0.00041612845331595247,0.024068100075307478,8.322569066319049e-07,-0.11478512003110843,-0.09071618769889432,0.6,0,0.4,-1.4541153907257405,-3.622051875311791,-0.0,-0.23238332076192375,-3.8544351960737147,0.30085125094134346,3.3829521640462445,3.082100913104901,-0.22888608391281196,59.335435040210335,59.56432112412315,-0.6366777162951109,59.119952452691436,59.75663016898655,-6.036753125519652,0,6.036753125519652,-0.019033015157753543,0.08920925163929531,3.8544351960737147,0.49870627416735774,0.03269171714782715,0.24448084831237793,GUIDED_NOGPS
0.002,8e-05,0.0,-0.2868647825339325,-0.002003177683861381,-2.2949182602714603e-05,-0.0,-0.0020261268664640954,0.04,0.006,0.0,-0.06896029752854117,-0.0048782393621922895,-0.00041376178517124704,0.0,-0.0052920011473635365,0.08,0.002,0.06,0.010772304610053811,0.025742703694497424,2.1544609220107622e-05,0.03902456139647337,0.0647888097001909,0.6,0,0.4,-1.648236658364001,-3.6190043974585584,-0.0,0.06312683868059198,-3.5558775587779663,0.3217837961812178,3.561825865241226,3.2400420690600082,-0.12195598405480723,59.234396047059214,59.35635203111402,-1.0015888419306904,59.72768000028927,60.72926884221996,-6.031673995764264,0,6.031673995764264,0.0015451893230179654,-0.06498621029470235,3.5558775587779663,0.4979738731335359,0.03218364715576172,0.27660703659057617,GUIDED_NOGPS
0.002,8e-05,0.0,-0.3339253669040145,-0.002758257137388171,-2.671402935232116e-05,-0.0,-0.002784971166740492,0.04,0.006,0.0,-0.06836331693065952,0.000699789863228375,-0.0004101799015839571,0.0,0.0002896099616444179,0.08,0.002,0.06,0.023439193604707836,0.029696645246266657,4.6878387209415675e-05,0.08690383618235883,0.1166473598158349,0.6,0,0.4,-1.853670302495557,-3.612187286474227,-0.0,0.1331853771090153,-3.479001909365212,0.3712080655783332,3.735935238096923,3.36472717251859,0.017494746580709375,59.13147747486719,59.11398272828648,-1.3791285686940853,60.32706879865947,61.70619736735355,-6.020312144123712,0,6.020312144123712,0.01252210775795581,-0.11597364891747125,3.479001909365212,0.4972150288332595,0.03412342071533203,0.3107414245605469,GUIDED_NOGPS
0.002,8e-05,0.0,-0.39483093502529587,-0.0036260162097537718,-3.158647480202367e-05,-0.0,-0.0036576026845557955,0.04,0.006,0.0,-0.061861824836768435,0.007741333492888885,-0.0003711709490206106,0.0,0.007370162543868274,0.08,0.002,0.06,0.038096039358066255,0.03490384339225518,7.619207871613251e-05,0.11625405607716127,0.15123409154813258,0.6,0,0.4,-2.0556470343316073,-3.607408614129847,-0.0,0.09483283667003271,-3.5125757774598143,0.4362980424031897,3.904956344609001,3.4686583022058115,0.1935333373222221,59.026559568515516,58.833026231193294,-1.8130081048768858,60.91749254041484,62.73050064529173,-6.012347690216412,0,6.012347690216412,0.023170302233166525,-0.14963023369872716,3.5125757774598143,0.4963423973154442,0.03359365463256836,0.3443284034729004,GUIDED_NOGPS
0.002,8e-05,0.0,-0.47197851409801445,-0.004626178946394262,-3.775828112784116e-05,-0.0,-0.0046639372275221035,0.04,0.006,0.0,-0.04878166286009783,0.015687120886803997,-0.000292689977160587,0.0,0.01539443090964341,0.08,0.002,0.06,0.05432145359698517,0.03891848358733846,0.00010864290719397034,0.09027718775045528,0.1293043142449877,0.6,0,0.4,-2.255494519355677,-3.5951752685722207,-0.0,0.24452547676755676,-3.350649791804664,0.4864810448417307,4.068582336100017,3.5821012912582866,0.3921780221700999,58.91953052975149,58.52735250758139,-2.313089473197131,61.49834596245841,63.81143543565554,-5.991958780953701,0,5.991958780953701,0.02880825752481307,-0.12699085984346417,3.350649791804664,0.4953360627724779,0.03335261344909668,0.3776998519897461,GUIDED_NOGPS
0.002,8e-05,0.0,-0.5699512115822517,-0.005804631488267575,-4.559609692658014e-05,-0.0,-0.005850227585194155,0.04,0.006,0.0,-0.02783563221062705,0.024819973764976168,-0.0001670137932637623,0.0,0.024652959971712407,0.08,0.002,0.06,0.07301890662540873,0.044311048847727366,0.00014603781325081748,0.11981088194759844,0.16426796860857662,0.6,0,0.4,-2.45685035375758,-3.578945298215527,-0.0,0.3205280634477097,-3.2584172347678173,0.553888110596592,4.226523191679678,3.6726350810830857,0.6204993441244042,58.81028638461768,58.18978704049328,-2.9023157441337872,62.06904462774301,64.9713603718768,-5.964908830359212,0,5.964908830359212,0.04159010140761562,-0.160816657753665,3.2584172347678173,0.49414977241480584,0.03375673294067383,0.4114670753479004,GUIDED_NOGPS
0.002,8e-05,0.0,-0.6874891681061395,-0.007026001314016924,-5.499913344849116e-05,-0.0,-0.007081000447465415,0.04,0.006,0.0,0.0002495010202720055,0.033576589013530056,1.497006121632033e-06,0.0,0.03357808601965169,0.08,0.002,0.06,0.09422633876133615,0.050708196895925504,0.0001884526775226723,0.14339954063094382,0.19429619020439198,0.6,0,0.4,-2.655223524625062,-3.557412942339283,-0.0,0.42904256960778486,-3.128370372731498,0.6338524611990688,4.378505456705094,3.744652995506025,0.8394147253382513,58.69873085088126,57.85931612554301,-3.5130006570084618,62.62902470703095,66.14202536403941,-5.929021570565472,0,5.929021570565472,0.05346855384954412,-0.18978833245993493,3.128370372731498,0.4929189995525346,0.03345799446105957,0.44490885734558105,GUIDED_NOGPS
0.002,8e-05,0.0,-0.8422059423170516,-0.008185437223710408,-6.737647538536413e-05,-0.0,-0.008252813699095772,0.04,0.006,0.0,0.03986176761884187,0.04191448835269284,0.00023917060571305125,0.0,0.04215365895840589,0.08,0.002,0.06,0.12059630732399987,0.05580512478023913,0.00024119261464799975,0.10112167081659039,0.1571679882114775,0.6,0,0.4,-2.8781603451837663,-3.5384049832551905,-0.0,0.33521134909735906,-3.2031936341578313,0.6975640597529891,4.524271981241036,3.8267079214880466,1.047862208817321,58.5847752054633,57.53691299664598,-4.092718611855204,63.177742760653615,67.27046137250882,-5.897341638758651,0,5.897341638758651,0.05807900698798714,-0.15200505395977484,3.2031936341578313,0.49174718630090425,0.037802934646606445,0.48273634910583496,GUIDED_NOGPS
0.002,8e-05,0.0,-0.9862038767566381,-0.009408895452072245,-7.889631014053105e-05,-0.0,-0.009487791762212776,0.04,0.006,0.0,0.07916756495112579,0.051365200368892375,0.00047500538970675474,0.0,0.05184020575859913,0.08,0.002,0.06,0.14489217759089001,0.06350016176216379,0.00028978435518178005,0.18854905474304148,0.2523390008603871,0.6,0,0.4,-3.0559510424318126,-3.4850793296477094,-0.0,1.1614414277511944,-2.323637901896515,0.7937520220270473,4.663581658520189,3.869829636493142,1.2841300092223094,58.468338151868046,57.18420814264574,-4.704447726036122,63.714675520271115,68.41912324630724,-5.808465549412849,0,5.808465549412849,0.0771115834864668,-0.2457970341166101,2.323637901896515,0.49051220823778724,0.0306088924407959,0.5133531093597412,GUIDED_NOGPS
0.002,8e-05,0.0,-1.273707792265796,-0.010469833888299461,-0.00010189662338126368,-0.0,-0.010571730511680725,0.04,0.006,0.0,0.1612296176017219,0.05976795538683774,0.0009673777056103313,0.0,0.06073533309244807,0.08,0.002,0.06,0.19506569522390615,0.07308539005864223,0.0003901313904478123,0.13089701909080642,0.20437254053989645,0.6,0,0.4,-3.3690517742319113,-3.420592703699314,-0.0,0.7827884830726745,-2.6378042206266397,0.9135673757330278,4.796209163403408,3.8826417876703805,1.4941988846709435,58.34934568761224,56.8551468029413,-5.234916944149731,64.2393196706319,69.47423661478163,-5.700987839498857,0,5.700987839498857,0.08073666322956509,-0.1973284247723526,2.6378042206266397,0.4894282694883193,0.05492043495178223,0.568246603012085,GUIDED_NOGPS
0.002,8e-05,0.0,-1.359318266947987,-0.012748574749748371,-0.00010874546135583898,-0.0,-0.01285732021110421,0.04,0.006,0.0,0.1869168074955196,0.07650350303224826,0.0011215008449731176,0.0,0.07762500387722138,0.08,0.002,0.06,0.20840137804735,0.0794346485963245,0.0004168027560947,0.35455940426802107,0.43441085562044024,0.6,0,0.4,-3.443821852142066,-3.340287263284174,-0.0,3.9861941105704584,0.6459068472862843,0.9929331074540562,4.921944690839975,3.929011583385919,1.9125875758062065,58.227730971654395,56.31514339584819,-6.374287374874186,64.75119163133239,71.12547900620658,-5.567145438806957,0,5.567145438806957,0.11940201455499391,-0.42483125076673756,-0.6459068472862843,0.4871426797888958,0.013430595397949219,0.5817050933837891,GUIDED_NOGPS
0.002,8e-05,0.0,-1.5642853418723504,-0.012711728851449892,-0.00012514282734978803,0.0,-0.01283687167879968,0.04,0.006,0.0,0.25255159566521573,0.08141128332376439,0.0015153095739912944,0.0,0.08292659289775568,0.08,0.002,0.06,0.24427680302756027,0.08899744994599783,0.0004885536060551206,0.22240109392359292,0.31188709747564586,0.6,0,0.4,-3.6205653737244976,-3.2884048183377765,-0.0,1.0725553076467835,-2.215849510690993,1.1124681243249728,5.040593694327854,3.9281255700028814,2.03528208309411,58.10343419182411,56.06815210873,-6.3558644257249455,65.24982733857661,71.60569176430155,-5.480674697229627,0,5.480674697229627,0.11233583116969122,-0.30254097642605,2.215849510690993,0.48716312832120034,0.032248497009277344,0.6140992641448975,GUIDED_NOGPS
0.002,8e-05,0.0,-1.7922872706795965,-0.01389176934927292,-0.00014338298165436774,-0.0,-0.014035152330927288,0.04,0.006,0.0,0.3283263029724114,0.0923364781979663,0.001969957817834468,0.0,0.09430643601580077,0.08,0.002,0.06,0.2814684027502462,0.09064083409835014,0.0005629368055004925,0.03754822445388548,0.1287519953577361,0.6,0,0.4,-3.797279728112036,-3.230071427070322,-0.0,1.1847180724706996,-2.045353354599622,1.1330104262293768,5.151976624373942,4.0189661981445655,2.3084119549491575,57.97640243225133,55.66799047730217,-6.94588467463646,65.73478202693578,72.68066670157224,-5.383452378450537,0,5.383452378450537,0.10597007271478064,-0.11933618006047005,2.045353354599622,0.4859648476690727,0.032825469970703125,0.6467554569244385,GUIDED_NOGPS
0.002,8e-05,0.0,-2.0451154467994117,-0.015130528642126053,-0.00016360923574395295,-0.0,-0.015294137877870005,0.04,0.006,0.0,0.41609003106218845,0.10504458972743891,0.0024965401863731307,0.0,0.10754112991381204,0.08,0.002,0.06,0.3215784686980723,0.09601564366363072,0.0006431569373961445,0.12062101521110437,0.21727981581213124,0.6,0,0.4,-3.9737150879880105,-3.1676377693229973,-0.0,1.245449592520785,-1.9221881768022124,1.200195545795384,5.255928666954333,4.055733121158949,2.6261147431859726,57.84658954079568,55.220474797609704,-7.565264321063026,66.20563001110801,73.77089433217104,-5.279396282204996,0,5.279396282204996,0.1270773869328009,-0.20646295239781945,1.9221881768022124,0.48470586212213,0.03341960906982422,0.6801774501800537,GUIDED_NOGPS
0.002,8e-05,0.0,-2.3262874382470513,-0.016335780149140163,-0.0001861029950597641,-0.0,-0.016521883144199927,0.04,0.006,0.0,0.5170026952856481,0.11725827231446857,0.0031020161717138887,0.0,0.12036028848618247,0.08,0.002,0.06,0.36704816849195954,0.10566956053567914,0.0007340963369839191,0.2103306895735371,0.31673434644620013,0.6,0,0.4,-4.152321331957749,-3.1130472701759224,-0.0,1.0572157723428008,-2.055831497833122,1.3208695066959892,5.352299481974561,4.031429975278572,2.9314568078617143,57.713955996475754,54.78249918861404,-8.167890074570082,66.66196446767792,74.829854542248,-5.188412116959871,0,5.188412116959871,0.14850979291384703,-0.30455227247857614,2.055831497833122,0.48347811685580006,0.0344240665435791,0.7146062850952148,GUIDED_NOGPS
0.002,8e-05,0.0,-2.6115440829230985,-0.01759683914830788,-0.0002089235266338479,-0.0,-0.017805762674941727,0.04,0.006,0.0,0.622505732548476,0.13016488912854443,0.003735034395290856,0.0,0.13389992352383528,0.08,0.002,0.06,0.41316345306280705,0.11378991655646964,0.0008263269061256142,0.18784741923424822,0.30246366269684344,0.6,0,0.4,-4.315623416563248,-3.022121204555723,-0.0,1.86967464909152,-1.152446555464203,1.4223739569558704,5.440952941729875,4.018578984774004,3.2541222282136104,57.5784687768984,54.32434654868479,-8.79841957415394,67.10339721687615,75.90181679103009,-5.036868674259538,0,5.036868674259538,0.15993818509657962,-0.2895396928224022,1.152446555464203,0.4821942373250583,0.03242135047912598,0.747016429901123,GUIDED_NOGPS
0.002,8e-05,0.0,-2.9204156565403823,-0.018711112219034164,-0.0002336332525232306,-0.0,-0.018944745471557396,0.04,0.006,0.0,0.7402014235000526,0.14259760166990532,0.004441208541000315,0.0,0.14703881021090562,0.08,0.002,0.06,0.4619430394087995,0.11820062344084313,0.000923886078817599,0.10019847874667064,0.21932298826633137,0.6,0,0.4,-4.477646438963164,-2.9445548374888637,-0.0,1.5662960731689477,-1.378258764319916,1.4775077930105391,5.521766869365467,4.044259076354928,3.564940041747633,57.44010122568801,53.87516118394038,-9.355556109517082,67.52955850433916,76.88511461385625,-4.907591395814773,0,4.907591395814773,0.16526260917319466,-0.20593993031847896,1.378258764319916,0.4810552545284426,0.033014774322509766,0.7802488803863525,GUIDED_NOGPS
0.002,8e-05,0.0,-3.3672857208408113,-0.019927796482648943,-0.00026938285766726493,-0.0,-0.02019717934031621,0.04,0.006,0.0,0.9143911256623205,0.15535687938716905,0.005486346753973923,0.0,0.16084322614114296,0.08,0.002,0.06,0.530965931503946,0.12312072400456807,0.001061931863007892,0.082277912424248,0.20646056829182396,0.6,0,0.4,-4.691657770970847,-2.863096866360605,-0.0,1.2108500137690354,-1.6522468525915697,1.5390090500571008,5.5946327773367575,4.055623727279657,3.883921984679226,57.298832919915824,53.4149109352366,-9.963898241324472,67.94009678286875,77.90399502419322,-4.7718281106010085,0,4.7718281106010085,0.17746073860071732,-0.19236474705663104,1.6522468525915697,0.47980282065968377,0.04484891891479492,0.8249185085296631,GUIDED_NOGPS
0.002,8e-05,0.0,-3.626740826861778,-0.021710828924350892,-0.00029013926614894226,-0.0,-0.022000968190499834,0.04,0.006,0.0,1.0162271250818342,0.17042979000449462,0.0060973627504910055,0.0,0.17652715275498562,0.08,0.002,0.06,0.5686084464153317,0.12599485345374256,0.0011372168928306635,0.09018862704385892,0.21732069739043214,0.6,0,0.4,-4.802974098720526,-2.794436908940542,-0.0,1.9151220576091323,-0.8793148513314097,1.5749356681717819,5.659455605869625,4.084519937697843,4.260744750112366,57.15464953752924,52.89390478741687,-10.855414462175446,68.33467849419172,79.19009295636717,-4.657394848234237,0,4.657394848234237,0.19359013991071686,-0.20226956988977576,0.8793148513314097,0.47799903180950015,0.023900985717773438,0.8487949371337891,GUIDED_NOGPS
0.002,8e-05,0.0,-3.9990317499300723,-0.022248362296630887,-0.0003199225399944058,-0.0,-0.022568284836625294,0.04,0.006,0.0,1.1635480928439634,0.17608005253788406,0.006981288557063781,0.0,0.18306134109494784,0.08,0.002,0.06,0.6222269432516432,0.1281711338630923,0.0012444538865032863,0.04877100676457217,0.17818659451416777,0.6,0,0.4,-4.956604773624301,-2.754322523067339,-0.0,0.7990877876351505,-1.9552347354321884,1.6021391732886539,5.716153461420679,4.114014288132025,4.402001313447101,57.007542724781075,52.605541411333974,-11.124181148315444,68.71298785071947,79.83716899903492,-4.590537538445565,0,4.590537538445565,0.19673514050515745,-0.16296380444274505,1.9552347354321884,0.4774317151633747,0.03346681594848633,0.8823027610778809,GUIDED_NOGPS
0.002,8e-05,0.0,-4.391459792818412,-0.023265474295711984,-0.000351316783425473,-0.0,-0.02361679107913746,0.04,0.006,0.0,1.3194933771599824,0.1849073260457166,0.007916960262959894,0.0,0.1928242863086765,0.08,0.002,0.06,0.676887092425396,0.12962318250671737,0.001353774184850792,0.032282288122558796,0.16325924481412696,0.6,0,0.4,-5.107736168652591,-2.687991072523501,-0.0,1.310841299945921,-1.3771497725775799,1.620289781333967,5.764657355137506,4.144367573803539,4.622683151142915,56.857509963658906,52.23482681251599,-11.632737147855991,69.07472661730769,80.70746376516368,-4.4799851208725014,0,4.4799851208725014,0.2049874636593453,-0.14769876827596795,1.3771497725775799,0.47638320892086256,0.033734798431396484,0.9160723686218262,GUIDED_NOGPS
0.002,8e-05,0.0,-4.776417009247492,-0.02425749816257556,-0.00038211336073979937,-0.0,-0.02463961152331536,0.04,0.006,0.0,1.4725593125649512,0.19290437941552313,0.008835355875389708,0.0,0.20173973529091282,0.08,0.002,0.06,0.7292727218138935,0.13204005581965234,0.001458545443627787,0.05711085944647346,0.19060946070975357,0.6,0,0.4,-5.246912990699835,-2.631005234608536,-0.0,1.1969588649684366,-1.4340463696400996,1.6505006977456542,5.804910941318927,4.154410243573273,4.822609485388078,56.704554439314315,51.88194495392624,-12.12874908128778,69.41961389301592,81.5483629743037,-4.385008724347561,0,4.385008724347561,0.2157228476524826,-0.17462686021346904,1.4340463696400996,0.47536038847668466,0.031739234924316406,0.9477424621582031,GUIDED_NOGPS
0.002,8e-05,0.0,-5.220351069242374,-0.02517756733630506,-0.00041762808553938994,-0.0,-0.025595195421844453,0.04,0.006,0.0,1.6486571249020041,0.19974653568790274,0.009891942749412025,0.0,0.20963847843731476,0.08,0.002,0.06,0.7868008824175542,0.13050759271312848,0.0015736017648351084,-0.03259241900870843,0.09948877546925516,0.6,0,0.4,-5.396524871423945,-2.5455558881555165,-0.0,1.6154100860451874,-0.930145802110329,1.631344908914106,5.836870255875259,4.205525346961153,4.993663392197568,56.54868490749223,51.55502151529466,-12.58878366815253,69.74738589286721,82.33616956101974,-4.242593146925861,0,4.242593146925861,0.2164241550147411,-0.08370718733800381,0.930145802110329,0.47440480457815554,0.03526425361633301,0.9830257892608643,GUIDED_NOGPS
0.002,8e-05,0.0,-5.645585912602506,-0.026229849692191266,-0.0004516468730082005,-0.0,-0.026681496565199466,0.04,0.006,0.0,1.8172814828838708,0.20802583012045317,0.010903688897303225,0.0,0.2189295190177564,0.08,0.002,0.06,0.8391858787330064,0.1292509869250408,0.001678371757466013,-0.02906680401889433,0.10186255466361249,0.6,0,0.4,-5.529991661967513,-2.469797978355294,-0.0,1.5576636597262796,-0.9121343186290143,1.61563733656301,5.8605034547885575,4.244866118225548,5.2006457530113295,56.38991556196019,51.18926980894886,-13.114924846095633,70.05779572960776,83.1727205757034,-4.11632996392549,0,4.11632996392549,0.22567663047731834,-0.08588464819947463,0.9121343186290143,0.47331850343480053,0.03242373466491699,1.0154304504394531,GUIDED_NOGPS
0.002,8e-05,0.0,-6.0989073621200145,-0.027211185325076857,-0.0004879125889696012,-0.0,-0.02769909791404646,0.04,0.006,0.0,1.9958670757762058,0.2143964583963225,0.011975202454657234,0.0,0.22637166085097973,0.08,0.002,0.06,0.8924504439980588,0.12789087815982675,0.0017849008879961177,-0.030615834287037617,0.09905994476078525,0.6,0,0.4,-5.662843559557668,-2.3923802480303116,-0.0,1.5490319356989781,-0.8433483123313334,1.5986359769978344,5.875790552572886,4.277154575575052,5.359911459908062,56.22826590193766,50.8683544420296,-13.605592662538427,70.35061319546652,83.95620585800495,-3.9873004133838528,0,3.9873004133838528,0.23271189451386382,-0.08307933343623514,0.8433483123313334,0.47230090208595354,0.03331875801086426,1.048752784729004,GUIDED_NOGPS
0.002,8e-05,0.0,-6.6661658203038465,-0.028170692354165396,-0.0005332932656243078,-0.0,-0.028703985619789704,0.04,0.006,0.0,2.217025872649451,0.2196598865385107,0.013302155235896706,0.0,0.2329620417744074,0.08,0.002,0.06,0.9569155473304577,0.12805637834794303,0.0019138310946609153,0.003082096981136649,0.1330523064237406,0.6,0,0.4,-5.819255770680144,-2.330281840524673,-0.0,1.0279588949781284,-1.3023229455465444,1.600704729349288,5.882723160734562,4.282018431385274,5.491497163462768,56.06376059952531,50.57226343606254,-14.085346177082698,70.62562454391484,84.71097072099754,-3.8838030675411215,0,3.8838030675411215,0.24143910207558647,-0.11696747044076931,1.3023229455465444,0.4712960143802103,0.04027295112609863,1.0890352725982666,GUIDED_NOGPS
0.002,8e-05,0.0,-7.148319937473898,-0.029418923681659777,-0.0005718655949979119,-0.0,-0.02999078927665769,0.04,0.006,0.0,2.4027433724327865,0.22663330076045582,0.01441646023459672,0.0,0.24104976099505254,0.08,0.002,0.06,1.0089054495660121,0.12688780716521733,0.002017810899132024,-0.0267379027915695,0.10216771527277986,0.6,0,0.4,-5.942718640606259,-2.2599483973258545,-0.0,1.4304791241708756,-0.8294692731549789,1.5860975895652167,5.881304226232417,4.2952066366672,5.665832519011396,55.89642936713433,50.230596848122936,-14.709461840829889,70.88263227142608,85.59209411225596,-3.7665806622097575,0,3.7665806622097575,0.24724067330063867,-0.08611201301606315,0.8294692731549789,0.4700092107233423,0.03277850151062012,1.121814489364624,GUIDED_NOGPS
0.002,8e-05,0.0,-7.652862432874713,-0.03028535905474189,-0.000612228994629977,-0.0,-0.030897588049371868,0.04,0.006,0.0,2.5941590546953486,0.22979601198605906,0.015564954328172093,0.0,0.24536096631423115,0.08,0.002,0.06,1.060182770224736,0.12311764274927142,0.002120365540449472,-0.0848645932254131,0.04037341506430779,0.6,0,0.4,-6.06545368021193,-2.210165512482446,-0.0,0.9960789930197095,-1.2140865194627368,1.5389705343658928,5.871547769938046,4.3325772355721535,5.744900299651476,55.7263068249157,49.98140652526423,-15.142679527370944,71.12145489923525,86.26413442660619,-3.683609187470744,0,3.683609187470744,0.24744792385104822,-0.024526341276553933,1.2140865194627368,0.46910241195062813,0.03331923484802246,1.1551454067230225,GUIDED_NOGPS
0.002,8e-05,0.0,-8.22388511640203,-0.0311206175365042,-0.0006579108093121625,-0.0,-0.03177852834581636,0.04,0.006,0.0,2.807423777873978,0.23245766150910044,0.01684454266724387,0.0,0.2493022041763443,0.08,0.002,0.06,1.1148262951842858,0.11912242999581046,0.0022296525903685717,-0.08165184917177264,0.0397002334144064,0.6,0,0.4,-6.198328705206195,-2.172498371232627,-0.0,0.6842837890362214,-1.4882145821964055,1.4890303749476308,5.853478625096075,4.3644482501484445,5.811441537727511,55.55343236818952,49.74199083046201,-15.5603087682521,71.34192675509864,86.90223552335074,-3.620830618721045,0,3.620830618721045,0.251311758800974,-0.023876713105096155,1.4882145821964055,0.46822147165418365,0.0366973876953125,1.1918284893035889,GUIDED_NOGPS
0.002,8e-05,0.0,-8.727610283681184,-0.03202583686801205,-0.0006982088226944947,-0.0,-0.03272404569070655,0.04,0.006,0.0,2.991678626323835,0.2342910818003753,0.01795007175794301,0.0,0.25224115355831833,0.08,0.002,0.06,1.159343516998259,0.11321263071545687,0.002318687033996518,-0.1408999489971969,-0.025368631247743523,0.6,0,0.4,-6.309445740053068,-2.1193795321870774,-0.0,1.1257297857346593,-0.9936497464524181,1.4151578839432108,5.827132175784402,4.411974291841191,5.857277045009383,55.37785003487426,49.520572989864874,-16.012918434006025,71.54389775505344,87.55681618905946,-3.532299220311796,0,3.532299220311796,0.25019896017080917,0.04086131825162999,0.9936497464524181,0.4672759543092935,0.03145742416381836,1.223311424255371,GUIDED_NOGPS
0.002,8e-05,0.0,-9.268895404096273,-0.03280090075413551,-0.000741511632327702,-0.0,-0.033542412386463216,0.04,0.006,0.0,3.185416212593923,0.23480295688592803,0.019112497275563536,0.0,0.2539154541614916,0.08,0.002,0.06,1.2032878675741348,0.10651793131419332,0.0024065757351482697,-0.1521325099916057,-0.04320800294226412,0.6,0,0.4,-6.423451800539983,-2.0725684123001127,-0.0,0.9455564419387694,-1.1270119703613433,1.3314741414274165,5.79255409537446,4.461079953947044,5.870073922148201,55.199608372916096,49.329534450767895,-16.400450377067756,71.72723318517735,88.12768356224511,-3.4542806871668548,0,3.4542806871668548,0.25085076815138524,0.05842843056385473,1.1270119703613433,0.4664575876135368,0.0330042839050293,1.256295919418335,GUIDED_NOGPS
0.002,8e-05,0.0,-9.841480520853231,-0.03363179517220186,-0.0007873184416682586,-0.0,-0.03441911361387012,0.04,0.006,0.0,3.3854670110617064,0.23500671886865548,0.02031280206637024,0.0,0.25531952093502575,0.08,0.002,0.06,1.2454837086162556,0.09913788126978261,0.0024909674172325113,-0.16255508844258043,-0.06092623975556531,0.6,0,0.4,-6.539038709182259,-2.0367601893301237,-0.0,0.7010863451639406,-1.335673844166183,1.2392235158722826,5.749800084991475,4.510576569119192,5.875167971716387,55.0187603077182,49.14359233600182,-16.81589758610093,71.8918134833483,88.70771106944923,-3.394600315550206,0,3.394600315550206,0.2512639579366555,0.07593739463038149,1.335673844166183,0.4655808863861299,0.03405022621154785,1.2903447151184082,GUIDED_NOGPS
0.002,8e-05,0.0,-10.489156432248121,-0.034360173358131504,-0.0008391325145798498,-0.0,-0.035199305872711355,0.04,0.006,0.0,3.606130446055082,0.2341304886218123,0.021636782676330492,-0.0,0.2557672712981428,0.08,0.002,0.06,1.290419834498265,0.09535714070472956,0.0025808396689965298,-0.07521522277876072,0.022722757594965365,0.6,0,0.4,-6.665262788218117,-2.0089127114370466,-0.0,0.492450082496823,-1.5164626289402237,1.1919642588091195,5.698935611974716,4.506971353165596,5.853262215545307,54.835363009570024,48.98210079402472,-17.180086679065752,72.0375340210039,89.21762070006966,-3.348187852395078,0,3.348187852395078,0.25665778132360134,-0.00774622915125814,1.5164626289402237,0.46480069412728864,0.037699222564697266,1.3280656337738037,GUIDED_NOGPS
0.002,8e-05,0.0,-11.088799612742225,-0.035037345757618625,-0.0008871039690193781,-0.0,-0.035924449726638004,0.04,0.006,0.0,3.804817803341533,0.23218733611467626,0.022828906820049198,-0.0,0.25501624293472547,0.08,0.002,0.06,1.3289650207239991,0.09008830991590891,0.0026579300414479984,-0.11544731022425371,-0.0227010702668968,0.6,0,0.4,-6.777108126036691,-1.9605478224390056,-0.0,0.9419920565409623,-1.0185557658980433,1.1261038739488614,5.640035648337746,4.513931774388885,5.804683402866907,54.64947776107658,48.844794358209676,-17.518672878809312,72.16430488490128,89.6829777637106,-3.2675797040650094,0,3.2675797040650094,0.25330770397175606,0.03719986371430284,1.0185557658980433,0.464075550273362,0.03422880172729492,1.3622863292694092,GUIDED_NOGPS
0.002,8e-05,0.0,-11.733780083512173,-0.035460010073040706,-0.0009387024066809739,-0.0,-0.03639871247972168,0.04,0.006,0.0,4.013718120755569,0.22970020629989818,0.024082308724533416,-0.0,0.2537825150244316,0.08,0.002,0.06,1.3661167677255925,0.08170178060336668,0.0027322335354511853,-0.17290431302454362,-0.08847029888572576,0.6,0,0.4,-6.894480469360457,-1.9358839523878988,-0.0,0.4519935719440631,-1.4838903804438357,1.0212722575420834,5.573184409228697,4.551912151686613,5.742505157497455,54.46116982458777,48.718664667090316,-17.730005036520353,72.27205065887655,90.0020556953969,-3.2264732539798313,0,3.2264732539798313,0.24840087734932872,0.10261365819977014,1.4838903804438357,0.4636012875202783,0.036377906799316406,1.3986966609954834,GUIDED_NOGPS
0.002,8e-05,0.0,-12.338366660582604,-0.03618929226859646,-0.0009870693328466085,-0.0,-0.037176361601443074,0.04,0.006,0.0,4.202971348557206,0.2265660745190789,0.025217828091343236,-0.0,0.25178390261042216,0.08,0.002,0.06,1.3959044682903674,0.07132118658482832,0.002791808936580735,-0.2330102700171871,-0.15889727449577806,0.6,0,0.4,-7.000374603654471,-1.9015806441149186,-0.0,0.6844415098143021,-1.2171391343006164,0.8915148323103539,5.498475091390501,4.6069602590801475,5.664151862976972,54.27050830962767,48.6063564466507,-18.09464613429823,72.3607102056045,90.45535633990274,-3.1693010735248643,0,3.1693010735248643,0.2426139269112575,0.17257450543061156,1.2171391343006164,0.46282363839855695,0.03341245651245117,1.4320764541625977,GUIDED_NOGPS
0.002,8e-05,0.0,-12.877906557989522,-0.03687340073410394,-0.0010302325246391618,-0.0,-0.0379036332587431,0.04,0.006,0.0,4.365678530807789,0.22239568055215642,0.026194071184846734,-0.0,0.24858975173700315,0.08,0.002,0.06,1.4186705492181442,0.06223545871061603,0.0028373410984362884,-0.2328523477668159,-0.16777954795776356,0.6,0,0.4,-7.092164895821014,-1.881948068803191,-0.0,0.4472451560987635,-1.4347029127044277,0.7779432338827004,5.4160096116211625,4.638066377738462,5.5598920138039105,54.07756604032381,48.5176740265199,-18.43670036705197,72.43023644835823,90.8669368154102,-3.136580114671985,0,3.136580114671985,0.23903707156860465,0.1811301184162428,1.4347029127044277,0.46209636674125687,0.029264450073242188,1.4613676071166992,GUIDED_NOGPS
0.002,8e-05,0.0,-13.492574941723776,-0.03738417343585442,-0.0010794059953379022,-0.0,-0.03846357943119232,0.04,0.006,0.0,4.543885626262946,0.21677135640266784,0.027263313757577675,-0.0,0.24403467016024552,0.08,0.002,0.06,1.4403642613119656,0.05277652255064041,0.002880728522623931,-0.21573493078591838,-0.16007767971265405,0.6,0,0.4,-7.194597457923237,-1.8689866447225816,-0.0,0.2627715684466006,-1.606215076275981,0.6597065318830051,5.325898345234003,4.666191813350998,5.419283910066696,53.88241942283648,48.46313551276978,-18.69208671792721,72.48059615276875,91.17268287069597,-3.114977741204303,0,3.114977741204303,0.2349755133694432,0.17310196965711713,1.606215076275981,0.46153642056880767,0.03288388252258301,1.4942448139190674,GUIDED_NOGPS
0.002,8e-05,0.0,-14.258278440427645,-0.038099903284072784,-0.0011406622752342117,-0.0,-0.039240565559306995,0.04,0.006,0.0,4.755560973639345,0.21065099679745175,0.02853336584183607,-0.0,0.23918436263928783,0.08,0.002,0.06,1.459022587507566,0.03713606766579439,0.002918045175015132,-0.2918393768476814,-0.2517852640068719,0.6,0,0.4,-7.318250644632208,-1.84582196464582,-0.0,0.3842096721185453,-1.4616122925272748,0.4642008458224298,5.228259864517924,4.7640590186954945,5.2662749199362935,53.68514831278804,48.418873392851744,-19.04995164203639,72.51176970858468,91.56172135062107,-3.0763699410763667,0,3.0763699410763667,0.2253271142159045,0.26425871811788015,1.4616122925272748,0.460759434440693,0.04019451141357422,1.5344231128692627,GUIDED_NOGPS
0.002,8e-05,0.0,-14.86563539668012,-0.03884476534061565,-0.0011892508317344096,-0.0,-0.040034016172350056,0.04,0.006,0.0,4.914786734833159,0.20367223149687647,0.029488720408998956,-0.0,0.23316095190587544,0.08,0.002,0.06,1.470588229701691,0.02958817890661038,0.002941176459403382,-0.18102779056610535,-0.1484984352000916,0.6,0,0.4,-7.413258741239932,-1.8229315628278129,-0.0,0.48800093477114137,-1.3349306280566715,0.36985223633262976,5.123220677197666,4.753368440865036,5.091805787421912,53.485835882692186,48.394030095270274,-19.422382670307826,72.52375091143173,91.94613358173956,-3.0382192713796883,0,3.0382192713796883,0.22496249497124712,0.16064772207174732,1.3349306280566715,0.45996598382764997,0.03127098083496094,1.56569242477417,GUIDED_NOGPS
0.002,8e-05,0.0,-15.59365441928053,-0.039365379192319014,-0.0012474923535424425,-0.0,-0.040612871545861455,0.04,0.006,0.0,5.095148155366028,0.19504973058481967,0.030570888932196165,-0.0,0.22562061951701584,0.08,0.002,0.06,1.480642681780548,0.02174653718478176,0.0029612853635610963,-0.1590047050388977,-0.13429688249055483,0.6,0,0.4,-7.524638332733851,-1.8067521798191688,-0.0,0.2916167148847602,-1.5151354649344086,0.271831714809772,5.01091496489404,4.739083250084268,4.876243264620491,53.28456848938328,48.40832522476279,-19.682689596159506,72.51654674457252,92.19923634073203,-3.011253633031948,0,3.011253633031948,0.21825419356831097,0.145963774916142,1.5151354649344086,0.45938712845413854,0.0369877815246582,1.6026899814605713,GUIDED_NOGPS
0.002,8e-05,0.0,-16.129752533939914,-0.03996513635441258,-0.0012903802027151932,-0.0,-0.041255516557127773,0.04,0.006,0.0,5.2200308255270285,0.18619550432325555,0.03132018495316217,-0.0,0.2175156892764177,0.08,0.002,0.06,1.4841957819694414,0.010595085462685035,0.002968391563938883,-0.31174514265901104,-0.2981816656323871,0.6,0,0.4,-7.603869886942076,-1.7719703432545817,-0.0,0.86430748585627,-0.9076628573983117,0.13243856828356293,4.891484321584222,4.759045753300659,4.654887608081388,53.081435541445614,48.426547933364226,-19.98256817720629,72.49017716066605,92.47274533787234,-2.953283905424303,0,2.953283905424303,0.20186397291808417,0.3089924226229938,0.9076628573983117,0.4587444834428722,0.026828289031982422,1.6295831203460693,GUIDED_NOGPS
0.002,8e-05,0.0,-16.909118475049965,-0.040356512419820266,-0.0013527294780039973,-0.0,-0.04170924189782426,0.04,0.006,0.0,5.389500412591067,0.17550680968661794,0.032337002475546404,-0.0,0.20784381216216435,0.08,0.002,0.06,1.4823093782703207,-0.003907210736149267,0.0029646187565406414,-0.2816049235311302,-0.2825475155107388,0.6,0,0.4,-7.7166023141027,-1.751226486884094,-0.0,0.35804733612822204,-1.3931791507558722,-0.04884013420186584,4.7650774920619705,4.813917626263836,4.3876702421654485,52.87652936664273,48.48885912447728,-20.17825620991013,72.44467486352738,92.62293107343751,-2.91871081147349,0,2.91871081147349,0.19318713263823262,0.29276420641603407,1.3931791507558722,0.45829075810217573,0.03862404823303223,1.6682019233703613,GUIDED_NOGPS
0.002,8e-05,0.0,-17.494087247600692,-0.041112920382462566,-0.0013995269798080555,-0.0,-0.04251244736227062,0.04,0.006,0.0,5.507705111354582,0.16615383921800544,0.033046230668127494,-0.0,0.19920006988613292,0.08,0.002,0.06,1.4765560142232772,-0.01617437436641353,0.0029531120284465545,-0.32331143899178877,-0.33653270132975577,0.6,0,0.4,-7.79839919024384,-1.7246605019586145,-0.0,0.6223723808711099,-1.1022881210875046,-0.20217967958016914,4.631850110397912,4.834029789978081,4.153845980450136,52.66994507934669,48.516099098896554,-20.55646019123128,72.3800850898873,92.93654528111858,-2.8744341699310243,0,2.8744341699310243,0.18207323702350453,0.346098632280923,1.1022881210875046,0.4574875526377294,0.028456687927246094,1.696599006652832,GUIDED_NOGPS
0.002,8e-05,0.0,-18.205028881433986,-0.04157095431585623,-0.001456402310514719,-0.0,-0.04302735662637095,0.04,0.006,0.0,5.639668623255871,0.15432628681568503,0.033838011739535226,-0.0,0.18816429855522027,0.08,0.002,0.06,1.4637656197964353,-0.029915755504886336,0.0029275312395928704,-0.30131288228832764,-0.3283011065536211,0.6,0,0.4,-7.896095342152929,-1.7137787722247764,-0.0,0.2120961215919604,-1.501682650632816,-0.3739469438110792,4.49196443839977,4.865911382210849,3.8581571703921256,52.4617804479674,48.603623277575274,-20.785477157928113,72.29646539115193,93.08194254908004,-2.8562979537079607,0,2.8562979537079607,0.1715709096032242,0.33726968851800543,1.501682650632816,0.45697264337362903,0.03420376777648926,1.7308540344238281,GUIDED_NOGPS
0.002,8e-05,0.0,-19.04485638192947,-0.04218452066583089,-0.0015235885105543577,-0.0,-0.04370810917638524,0.04,0.006,0.0,5.7817678671468045,0.14275285072183094,0.03469060720288083,-0.0,0.17744345792471178,0.08,0.002,0.06,1.4412740701585982,-0.045190005802102105,0.0028825481403171966,-0.2877094970118079,-0.3300169546735928,0.6,0,0.4,-8.008966574913114,-1.7008560144103313,-0.0,0.21636996635672545,-1.484486048053606,-0.5648750725262763,4.34558910407264,4.910464176598916,3.568821268045774,52.25213576238188,48.68331449433611,-21.092260332915444,72.19388541516228,93.28614574807773,-2.834760024017219,0,2.834760024017219,0.16090509956215995,0.3383887114949353,1.484486048053606,0.45629189082361477,0.039816856384277344,1.7706332206726074,GUIDED_NOGPS
0.002,8e-05,0.0,-19.692460629321697,-0.042757059309027,-0.0015753968503457358,-0.0,-0.044332456159372736,0.04,0.006,0.0,5.87987380351652,0.12954582545802792,0.03527924282109912,-0.0,0.16482506827912705,0.08,0.002,0.06,1.4167590228483484,-0.06474270890154359,0.002833518045696697,-0.4841012602069956,-0.5460104510628425,0.6,0,0.4,-8.09459149290397,-1.6959754564340581,-0.0,0.10741040673784062,-1.5885650496962176,-0.8092838612692947,4.192898840079239,5.002182701348533,3.2386456364506984,52.04111370136359,48.802468064912894,-21.3785296545135,72.07242668795402,93.45095634246752,-2.8266257607234304,0,2.8266257607234304,0.1376986163324368,0.5534743055130925,1.5885650496962176,0.45566754384062724,0.030292272567749023,1.8009388446807861,GUIDED_NOGPS
0.002,8e-05,0.0,-20.37455499410724,-0.0433573206222288,-0.0016299643995285793,-0.0,-0.04498728502175738,0.04,0.006,0.0,5.970915206220163,0.11574091476801414,0.03582549123732098,-0.0,0.1515664060053351,0.08,0.002,0.06,1.3836871246888784,-0.08408859337441811,0.002767374249377757,-0.4611453483097292,-0.5424665674347695,0.6,0,0.4,-8.183331380485404,-1.6922249866666865,-0.0,0.07946618952009582,-1.6127587971465907,-1.0511074171802264,4.034074222200156,5.085181639380383,2.8935228692003534,51.828819200011694,48.93529633081134,-21.6786603111144,71.93218239551696,93.61084270663136,-2.820374977777811,0,2.820374977777811,0.12469077229101481,0.5492672969687032,1.6127587971465907,0.45501271497824264,0.0314638614654541,1.8324179649353027,GUIDED_NOGPS
0.002,8e-05,0.0,-21.122293384965957,-0.04397453885308056,-0.0016897834707972766,-0.0,-0.045664322323877835,0.04,0.006,0.0,6.057113804506183,0.10138689294945778,0.0363426828270371,-0.0,0.1377295757764949,0.08,0.002,0.06,1.339777147112268,-0.10329393480856566,0.002679554294224536,-0.423550223283661,-0.5241646037980021,0.6,0,0.4,-8.278899271290557,-1.6861059878810916,-0.0,0.11995289311906623,-1.5661530947620252,-1.2911741851070708,3.8693014077941195,5.16047559290119,2.5346723237364444,51.61535931718037,49.080686993443926,-21.98726942654028,71.77325716555478,93.76052659209506,-2.810176646468486,0,2.810176646468486,0.11186563970706295,0.5302867588118898,1.5661530947620252,0.45433567767612215,0.03400778770446777,1.8664076328277588,GUIDED_NOGPS
0.002,8e-05,0.0,-21.88025035972394,-0.044648427328277056,-0.0017504200287779155,-0.0,-0.04639884735705497,0.04,0.006,0.0,6.130638880390501,0.08662177713913707,0.036783833282343005,-0.0,0.12340561042148007,0.08,0.002,0.06,1.2877479165691341,-0.12259394114516987,0.002575495833138268,-0.42633435622960586,-0.5463528015416375,0.6,0,0.4,-8.37395617721768,-1.6798346730801739,-0.0,0.12313994613873319,-1.5566947269414406,-1.5324242643146233,3.698771874258232,5.231196138572855,2.1655444284784267,51.40084310290811,49.235298674429686,-22.324213664138526,71.59576684924463,93.91998051338315,-2.799724455133623,0,2.799724455133623,0.09657172584296851,0.5517284025710518,1.5566947269414406,0.45360115264294504,0.03395223617553711,1.9003517627716064,GUIDED_NOGPS
0.002,8e-05,0.0,-22.63466813553235,-0.045397916725767005,-0.0018107734508425882,-0.0,-0.04720869017660959,0.04,0.006,0.0,6.189353396570431,0.07066420759436312,0.037136120379422585,-0.0,0.1078003279737857,0.08,0.002,0.06,1.2293101728464495,-0.14066221174713597,0.002458620345692899,-0.40772924687901546,-0.5459328382804586,0.6,0,0.4,-8.466811443926453,-1.6763002413655625,-0.0,0.07089610107206663,-1.605404140293496,-1.7582776468391996,3.5226821574882488,5.280959804327448,1.766605189859078,51.18538146584701,49.41877627598793,-22.698958362883502,71.39983830299673,94.09879666588023,-2.793833735609271,0,2.793833735609271,0.0810621860122237,0.550538369800991,1.605404140293496,0.4527913098233904,0.033235788345336914,1.9335997104644775,GUIDED_NOGPS
0.002,8e-05,0.0,-23.417673111851222,-0.046121644852564744,-0.001873413848948098,-0.0,-0.04799505870151284,0.04,0.006,0.0,6.236115686935648,0.055089145380825925,0.037416694121613886,-0.0,0.09250583950243982,0.08,0.002,0.06,1.1634509992569972,-0.15517313460031518,0.0023269019985139947,-0.3205284371868136,-0.4733746697886148,0.6,0,0.4,-8.562169934289722,-1.6850814078684806,-0.0,-0.17241348185842026,-1.8574948897269008,-1.9396641825039396,3.3412335903388195,5.280897772842759,1.3772286345206481,50.96908704069206,49.59185840617141,-23.06082242628237,71.18560917021401,94.24643159649638,-2.8084690131141343,0,2.8084690131141343,0.06920060088672575,0.4773386483163158,1.8574948897269008,0.4520049412984872,0.03395390510559082,1.9675476551055908,GUIDED_NOGPS
0.002,8e-05,0.0,-24.231686332444973,-0.04684520268360589,-0.001938534906595598,-0.0,-0.048783737590201486,0.04,0.006,0.0,6.269959906298501,0.038953650275233544,0.03761975943779101,-0.0,0.07657340971302455,0.08,0.002,0.06,1.0893052225993007,-0.17067899379470292,0.0021786104451986016,-0.3346268363805205,-0.5031272197300248,0.6,0,0.4,-8.657964777672563,-1.6538535520492699,-0.0,0.5990382785832041,-1.0548152734660659,-2.1334874224337863,3.154632041083743,5.288119463517529,0.9738412568808386,50.75207405561044,49.778232798729604,-23.422601341802945,70.95322766305179,94.37582900485474,-2.756422586748783,0,2.756422586748783,0.052289378938516096,0.5062275250898233,1.0548152734660659,0.4512162624097985,0.03475332260131836,2.0023064613342285,GUIDED_NOGPS
0.002,8e-05,0.0,-25.09358033700207,-0.047574212480866636,-0.0020074864269601657,-0.0,-0.0495816989078268,0.04,0.006,0.0,6.289972170931569,0.0220924551010458,0.03773983302558941,-0.0,0.059832288126635214,0.08,0.002,0.06,1.0045961832341064,-0.18702837316431883,0.002009192366468213,-0.33841553193369395,-0.5234347127315446,0.6,0,0.4,-8.756038413361486,-1.6240196445386068,-0.0,0.5489169385649103,-1.0751027059736966,-2.3378546645539853,2.9630876518762372,5.3009423164302225,0.552311377526145,50.53445819967085,49.982146822144706,-23.787106240433317,70.70285234417733,94.48995858461065,-2.706699407564345,0,2.706699407564345,0.03504724995371406,0.5256762230361055,1.0751027059736966,0.4504183010921732,0.03623366355895996,2.0385406017303467,GUIDED_NOGPS
0.002,8e-05,0.0,-25.94968752237537,-0.048379811400354016,-0.00207597500179003,-0.0,-0.05045578640214404,0.04,0.006,0.0,6.293254137487558,0.003709370174993012,0.03775952482492535,-0.0,0.04146889499991836,0.08,0.002,0.06,0.9141014669645683,-0.20455930662185715,0.0018282029339291366,-0.3715115651573024,-0.5742426688452305,0.6,0,0.4,-8.852307280906285,-1.632086402888491,-0.0,-0.1519545894281321,-1.784040992316623,-2.5569913327732143,2.766814577209174,5.323805909982388,0.0927342543748253,50.31635649027274,50.22362223589791,-24.189905700177007,70.4346519085295,94.62455760870651,-2.7201440048141516,0,2.7201440048141516,0.014169970030679008,0.5755636575778017,1.784040992316623,0.44954421359785596,0.03539109230041504,2.073932409286499,GUIDED_NOGPS
0.002,8e-05,0.0,-26.63323683771324,-0.049173532305140245,-0.0021306589470170595,-0.0,-0.05130419125215731,0.04,0.006,0.0,6.282936909002056,-0.014844124830425187,0.037697621454012335,-0.0,0.022853496623587148,0.08,0.002,0.06,0.836362963473067,-0.2236957437900781,0.0016727259269461341,-0.5162426782065836,-0.7382656960697156,0.6,0,0.4,-8.927584215782755,-1.6245935908005724,-0.0,0.17967396011483028,-1.4449196306857421,-2.796196797375976,2.5660307223753476,5.362227519751324,-0.3711031207606297,50.09788714057568,50.46899026133631,-24.58676615257012,70.14880496507843,94.73557111764855,-2.7076559846676207,0,2.7076559846676207,-0.012047633111130763,0.7385210727106205,1.4449196306857421,0.4486958087478427,0.027801513671875,2.1017656326293945,GUIDED_NOGPS
0.002,8e-05,0.0,-27.59431756785804,-0.04973951952678809,-0.0022075454054286433,-0.0,-0.05194706493221673,0.04,0.006,0.0,6.25114621088592,-0.0329057487081144,0.03750687726531552,-0.0,0.0046011285572011215,0.08,0.002,0.06,0.7196922908402456,-0.24152573317121487,0.001439384581680491,-0.34603821920292593,-0.5861245677924602,0.6,0,0.4,-9.032160009309601,-1.6236564404035725,-0.0,0.016167011784773356,-1.607489428618799,-3.019071664640186,2.360957481927728,5.380029146567914,-0.82264371770286,49.879169426928584,50.701813144631444,-24.869759763394043,69.84549981858504,94.71525958197908,-2.7060940673392877,0,2.7060940673392877,-0.02307652216122635,0.5856881879283896,1.607489428618799,0.44805293506778326,0.03864455223083496,2.140395164489746,GUIDED_NOGPS
0.002,8e-05,0.0,-28.353407480082538,-0.050524932043748895,-0.0022682725984066033,-0.0,-0.0527932046421555,0.04,0.006,0.0,6.211321817607415,-0.05301413526056365,0.037267930905644495,-0.0,-0.015746204354919156,0.08,0.002,0.06,0.6219688676039506,-0.26017836562349567,0.0012439377352079014,-0.46556885352689675,-0.7245032814151845,0.6,0,0.4,-9.112906963108067,-1.6123522211426589,-0.0,0.25080248543573813,-1.3615497357069208,-3.2522295702936956,2.1518194781397098,5.404049048433405,-1.3253533815140912,49.660323556299055,50.985676937813146,-25.262466021874445,69.52493425136083,94.78740027323528,-2.6872537019044316,0,2.6872537019044316,-0.049696668392942,0.7229683180358588,1.3615497357069208,0.4472067953578445,0.030048131942749023,2.17044997215271,GUIDED_NOGPS
0.002,8e-05,0.0,-29.197348655449606,-0.05119493578633686,-0.0023357878924359686,-0.0,-0.05353072367877283,0.04,0.006,0.0,6.151373767306955,-0.07273105460966037,0.036908242603841734,-0.0,-0.03582281200581863,0.08,0.002,0.06,0.5069737911805049,-0.27903203327803544,0.0010139475823610097,-0.4288860703878236,-0.7069041560834981,0.6,0,0.4,-9.201812394346408,-1.6179473082316997,-0.0,-0.11313589643568074,-1.7310832046673805,-3.487900415975443,1.9388442994653967,5.42674471544084,-1.818276365241509,49.44147053370267,51.25974689894418,-25.597467893168428,69.18731530502735,94.78478319819578,-2.696578847052833,0,2.696578847052833,-0.06904072796738622,0.7044360422563998,1.7310832046673805,0.4464692763212272,0.03296971321105957,2.2033987045288086,GUIDED_NOGPS
0.002,8e-05,0.0,-30.151390780207905,-0.051946498858165914,-0.0024121112624166325,-0.0,-0.054358610120582546,0.04,0.006,0.0,6.065430832450568,-0.09358988353927856,0.03639258499470341,-0.0,-0.057197298544575156,0.08,0.002,0.06,0.3692516199909771,-0.2999525669897814,0.0007385032399819543,-0.4271621447708946,-0.726376208520694,0.6,0,0.4,-9.300194742258117,-1.6070417827999137,-0.0,0.19793111495067703,-1.4091106678492367,-3.7494070873722674,1.7222622389997901,5.471669326372058,-2.339747088481964,49.22273202963227,51.56247911811423,-25.973249429082955,68.8328590622759,94.80610849135886,-2.6784029713331896,0,2.6784029713331896,-0.09107832082434958,0.7229098607305843,1.4091106678492367,0.4456413898794175,0.036731719970703125,2.2401366233825684,GUIDED_NOGPS
0.002,8e-05,0.0,-30.96368681270247,-0.05268514320603222,-0.0024770949450161977,-0.0,-0.05516223815104842,0.04,0.006,0.0,5.976798232070137,-0.11497338548916985,0.03586078939242082,-0.0,-0.07911259609674903,0.08,0.002,0.06,0.2464738900477363,-0.3185322604472755,0.0004929477800954726,-0.4519013564824371,-0.7699406691496171,0.6,0,0.4,-9.382148960398897,-1.5946537517210815,-0.0,0.2678273130813788,-1.3268264386397026,-3.9816532555909436,1.5023060329391302,5.483959288530074,-2.8743346372292464,49.00423024748726,51.8785648847165,-26.34257160301611,68.46179042862718,94.8043620316433,-2.6577562528684693,0,2.6577562528684693,-0.11472961851987651,0.7654440224510287,1.3268264386397026,0.4448377618489516,0.030835866928100586,2.2710049152374268,GUIDED_NOGPS
0.002,8e-05,0.0,-31.872652967306284,-0.05340618153459534,-0.002549812237384503,-0.0,-0.05595599377197984,0.04,0.006,0.0,5.86018706710857,-0.13702945953169263,0.03516112240265142,-0.0,-0.1018683371290412,0.08,0.002,0.06,0.10317229033221131,-0.3367866321465404,0.00020634458066442262,-0.40219991298624624,-0.7387802005521222,0.6,0,0.4,-9.471954196387154,-1.5829482907545078,-0.0,0.2292509169751718,-1.353697373779336,-4.2098329018317555,1.2792105990410814,5.489043500872837,-3.4257364882923156,48.78608779100287,52.211824279295186,-26.703090767297667,68.07434291419088,94.77743368148855,-2.638247151257513,0,2.638247151257513,-0.13576629005574886,0.7333081598630744,1.353697373779336,0.44404400622802015,0.03403973579406738,2.3050448894500732,GUIDED_NOGPS
0.002,8e-05,0.0,-32.874885080772714,-0.0542202150464108,-0.0026299908064618175,-0.0,-0.05685020585287262,0.04,0.006,0.0,5.712461322893346,-0.15983765659907306,0.034274767937360076,-0.0,-0.125562888661713,0.08,0.002,0.06,-0.06014712161346786,-0.3534196726672608,-0.00012029424322693571,-0.3374394346098234,-0.6909794015203112,0.6,0,0.4,-9.568804335336756,-1.5718620339233687,-0.0,0.19992016532147705,-1.3719418686018916,-4.41774590834076,1.05321277508503,5.47095868342579,-3.9959414149768264,48.568427531679525,52.56436894665635,-27.1101075232054,67.67075841542527,94.78086593863067,-2.6197700565389477,0,2.6197700565389477,-0.1570147248782395,0.6845180410375259,1.3719418686018916,0.4431497941471274,0.03696894645690918,2.3420042991638184,GUIDED_NOGPS
0.002,8e-05,0.0,-33.71886416748947,-0.05499992012884061,-0.002697509133399158,-0.0,-0.05769742926223977,0.04,0.006,0.0,5.5711265000653665,-0.18420844993216037,0.0334267590003922,-0.0,-0.1507816909317682,0.08,0.002,0.06,-0.20187456298283438,-0.3694403369971719,-0.00040374912596566874,-0.391509371688283,-0.7613534578114205,0.6,0,0.4,-9.648804299913685,-1.5640168333405062,-0.0,0.17041710007717903,-1.3935997332633272,-4.6180042124646485,0.8245510573323205,5.442555269796969,-4.605211248304009,48.35137247621208,52.956583724516086,-27.499960064420307,67.25128699689697,94.75124706131727,-2.606694722234177,0,2.606694722234177,-0.18525180782495615,0.7537081489139117,1.3935997332633272,0.44230257073776025,0.03069019317626953,2.3726861476898193,GUIDED_NOGPS
0.002,8e-05,0.0,-34.699128778399405,-0.05574801739068755,-0.0027759303022719525,-0.0,-0.0585239476929595,0.04,0.006,0.0,5.389345677958823,-0.20675887549754948,0.03233607406775294,-0.0,-0.17442280142979655,0.08,0.002,0.06,-0.37174191639352494,-0.3864168130382217,-0.0007434838327870499,-0.36204696837820993,-0.7492072652492187,0.6,0,0.4,-9.740149469637222,-1.5584502552559,-0.0,0.10552446363748479,-1.4529257916184153,-4.830210162977771,0.5934653389865125,5.423675501964284,-5.168971887438737,48.135045633919134,53.30401752135787,-27.874008695343775,66.81618667304039,94.69019536838417,-2.597417092093167,0,2.597417092093167,-0.20819614240699238,0.7405330554726633,1.4529257916184153,0.4414760523070405,0.035167694091796875,2.407928705215454,GUIDED_NOGPS
0.002,8e-05,0.0,-35.61275588034884,-0.056708642498815014,-0.002849020470427908,-0.0,-0.05955766296924292,0.04,0.006,0.0,5.203808896206194,-0.2303245821920197,0.031222853377237167,-0.0,-0.19910172881478255,0.08,0.002,0.06,-0.5343169760255038,-0.40363999343809587,-0.0010686339520510075,-0.400889697464524,-0.805598324854671,0.6,0,0.4,-9.82309662647348,-1.5445537856584355,-0.0,0.2875169839411804,-1.257036801717255,-5.045499917976199,0.36019664865365253,5.405696566629851,-5.758114554800493,47.919569884172326,53.67768443897282,-28.354321249407505,66.3657231899175,94.72004443932501,-2.574256309430726,0,2.574256309430726,-0.235083556586701,0.7958428744722381,1.257036801717255,0.4404423370307571,0.03222179412841797,2.4401073455810547,GUIDED_NOGPS
0.002,8e-05,0.0,-36.53945179792391,-0.05764949710582261,-0.002923156143833913,-0.0,-0.06057265324965652,0.04,0.006,0.0,4.999785984923906,-0.2538441793132648,0.029998715909543436,-0.0,-0.22384546340372136,0.08,0.002,0.06,-0.7005109967045603,-0.4135553651391235,-0.0014010219934091207,-0.23131220069361733,-0.6462685878261499,0.6,0,0.4,-9.90579683033639,-1.5434270528744969,-0.0,0.023364578439310366,-1.5200624744351865,-5.1694420642390435,0.12498688880249165,5.294428953041535,-6.34610448283162,47.705067843825624,54.051172326657245,-28.824748552911302,65.90016980697744,94.72491835988875,-2.5723784214574947,0,2.5723784214574947,-0.25262533300580436,0.6355708616833683,1.5200624744351865,0.43942734675034345,0.032149314880371094,2.472228765487671,GUIDED_NOGPS
0.002,8e-05,0.0,-37.53644450497551,-0.05858391413721523,-0.0030029155603980414,-0.0,-0.061586829697613275,0.04,0.006,0.0,4.762900327991535,-0.2783909829612341,0.028577401967949213,-0.0,-0.24981358099328488,0.08,0.002,0.06,-0.8811782315974998,-0.42464478231447156,-0.0017623564631949996,-0.24435790466571816,-0.6707650434433847,0.6,0,0.4,-9.991973357754025,-1.519135971758949,-0.0,0.4757863657738643,-1.0433496059850846,-5.308059778930894,-0.11192142577522479,5.1961383531556695,-6.9597745740308525,47.49166173464462,54.451436308675476,-29.291957068607616,65.419807078816,94.71176414742362,-2.531893286264915,0,2.531893286264915,-0.27920108647995784,0.6590745952187091,1.0433496059850846,0.43841317030238675,0.03403639793395996,2.5062620639801025,GUIDED_NOGPS
0.002,8e-05,0.0,-38.52770038275845,-0.05964135235306705,-0.003082216030620676,-0.0,-0.06272356838368773,0.04,0.006,0.0,4.510183627170354,-0.30410646003717745,0.027061101763022125,-0.0,-0.27704535827415533,0.08,0.002,0.06,-1.0623670298866958,-0.43606682001682295,-0.0021247340597733916,-0.25771314089945213,-0.6959046949760485,0.6,0,0.4,-10.074701504112985,-1.4932628306466194,-0.0,0.518907095583444,-0.9743557350631754,-5.450835250210287,-0.3502854295044824,5.100549820705805,-7.602661500929436,47.27947325073587,54.882134751665305,-29.820676176533524,64.92492263693555,94.74559881346907,-2.488771384411032,0,2.488771384411032,-0.30700272029731995,0.6832179774866932,0.9743557350631754,0.43727643161631224,0.033240556716918945,2.5394997596740723,GUIDED_NOGPS
