D-kp,D-ki,D-kd,D-I-Tot,D-P,D-I,D-D,D-PID,E-kp,E-ki,E-kd,E-I-Tot,E-P,E-I,E-D,E-PID,N-kp,N-ki,N-kd,N-I-Tot,N-P,N-I,N-D,N-PID,Y-kp,Y-ki,Y-kd,Y-I-Tot,Y-P,Y-I,Y-D,Y-PID,errorN,desiredN,actualN,errorE,desiredE,actualE,errorD,desiredD,actualD,errorY,desiredY,actualY,roll,pitch,yaw-rate,thrust,dt,Time,Mode
0.002,8e-05,0.0,-0.001948475544567503,-0.0008609427200928793,-1.5587804356540025e-07,-0.0,-0.0008610985981364447,0.04,0.002,0.0,-0.0007491128016413312,-0.0066199774988157855,-1.4982256032826624e-06,-0.0,-0.006621475724419068,0.08,0.002,0.06,-0.0019290232992230452,-0.034093906305080496,-3.858046598446091e-06,-5.6492049351207925,-5.683302699472471,0.6,0,0.4,0.04308605207532073,5.7113300151822814,0.0,841.1923212360322,846.9036512512145,-0.4261738288135062,4.282442022165981,4.708615850979487,-0.16549943747039464,28.259683646254885,28.42518308372528,-0.4304713600464396,45.194022206790734,45.624493566837174,9.518883358637137,0,-9.518883358637137,0.65496030927052,3.9460196194673225,-10.0,0.49913890140186357,0.004526376724243164,0.004781484603881836,GUIDED_NOGPS
0.002,8e-05,0.0,-0.06747672758667983,-0.0038905422170620483,-5.3981382069343865e-06,-0.0,-0.0038959403552689827,0.04,0.002,0.0,-0.013284329550034871,-0.014884813325497107,-2.6568659100069743e-05,-0.0,-0.014911381984597176,0.08,0.002,0.06,-0.060714679625622374,-0.13960883775662197,-0.00012142935925124475,-2.3492364889354067,-2.48896675605128,0.6,0,0.4,0.37451449123326713,5.903269021964616,0.0,3.798599767866675,9.701868789831291,-1.7451104719577746,4.741335875233581,6.486446347191356,-0.37212033313742765,28.425834926519762,28.79795525965719,-1.9452711085310241,45.73114519461251,47.67641630314353,9.83878170327436,0,-9.83878170327436,0.4106137351456242,2.454908190248849,-9.701868789831291,0.49610405964473103,0.033685922622680664,0.03837084770202637,GUIDED_NOGPS
0.002,8e-05,0.0,-0.07943536564430281,-0.0029957691835179076,-6.3548292515442255e-06,0.0,-0.003002124012769452,0.04,0.002,0.0,-0.016267931757223256,-0.014948497487928165,-3.253586351444651e-05,-0.0,-0.01498103335144261,0.08,0.002,0.06,-0.07272179577162541,-0.12031653892288141,-0.0001454435915432508,1.8123491795277136,1.691887197013289,0.6,0,0.4,0.4525704799885361,5.866162799859874,0.0,-3.098504365979913,2.7676584338799612,-1.5039567365360176,5.199247793344105,6.703204529880122,-0.37371243719820413,28.591930338725792,28.965642775923996,-1.4978845917589538,46.26753990196274,47.765424493721696,9.776937999766458,0,-9.776937999766458,-0.30206764223100246,-1.6647708125429048,-2.7676584338799612,0.49699787598723055,0.007983684539794922,0.04637432098388672,GUIDED_NOGPS
0.002,8e-05,0.0,-0.13630783518724185,-0.0021230768850246306,-1.0904626814979349e-05,0.0,-0.00213398151183961,0.04,0.002,0.0,-0.03525443805021293,-0.014175509859858267,-7.050887610042586e-05,0.0,-0.014246018735958692,0.08,0.002,0.06,-0.13972264511898408,-0.10004696871409585,-0.00027944529023796817,0.28375233433791947,0.18342592033358565,0.6,0,0.4,0.97405367311109,5.84016619365241,0.0,-0.32348864146818057,5.516677552184229,-1.2505871089261982,5.655229353062203,6.905816461988401,-0.35438774649645666,28.7579149886863,29.112302735182755,-1.0615384425123153,46.802496039160424,47.86403448167274,9.733610322754016,0,-9.733610322754016,-0.045052315142329366,-0.1783768656534934,-5.516677552184229,0.49786601848816037,0.05357551574707031,0.09994363784790039,GUIDED_NOGPS
0.002,8e-05,0.0,-0.1464847898095497,-0.0011958660133401793,-1.1718783184763978e-05,0.0,-0.0012075847965249433,0.04,0.002,0.0,-0.04106852121484421,-0.0136639391907579,-8.213704242968841e-05,0.0,-0.013746076233187588,0.08,0.002,0.06,-0.15553034509409097,-0.07430077798665409,-0.00031106069018818194,1.134511585485711,1.059899746808869,0.6,0,0.4,1.140465418451319,5.866376274394885,0.0,1.0266248902568862,6.893001164651771,-0.928759724833176,6.108368256868157,7.0371279817013335,-0.3415984797689475,28.923735038928523,29.26533351869747,-0.5979330066700896,47.33532277651061,47.9332557831807,9.777293790658142,0,-9.777293790658142,-0.19353750210983134,-1.0421706497375562,-6.893001164651771,0.49879241520347506,0.017020225524902344,0.11696982383728027,GUIDED_NOGPS
0.002,8e-05,0.0,-0.15206172860085226,-0.0006022729168251999,-1.2164938288068182e-05,0.0,-0.0006144378551132681,0.04,0.002,0.0,-0.047659779883732926,-0.01423625660102971,-9.531955976746586e-05,-0.0,-0.014331576160797176,0.08,0.002,0.06,-0.16947615317472295,-0.06024224273937151,-0.0003389523063494459,0.5693361994717062,0.5087550044259852,0.6,0,0.4,1.3225404651860813,5.898874288294867,0.0,1.16985765578614,7.068731944081007,-0.7530280342421438,6.5577878578389805,7.310815892081124,-0.3559064150257427,29.089337702432303,29.445244117458046,-0.30113645841259995,47.86534856134046,48.16648501975306,9.831457147158112,0,-9.831457147158112,-0.10099127463029386,-0.49883645722048575,-7.068731944081007,0.4993855621448867,0.01851963996887207,0.13552594184875488,GUIDED_NOGPS
0.002,8e-05,0.0,-0.15347473341873497,-0.00013992118705900226,-1.2277978673498798e-05,0.0,-0.00015219916573250104,0.04,0.002,0.0,-0.056048782031778745,-0.016614226985495577,-0.0001120975640635575,-0.0,-0.016726324549559135,0.08,0.002,0.06,-0.1819346795989936,-0.0493476535742321,-0.00036386935919798717,0.40455908993041984,0.35484756699698977,0.6,0,0.4,1.5232507543594733,5.962532093452825,0.0,2.101213798789208,8.063745892242034,-0.6168456696779012,7.002646684329536,7.619492354007437,-0.4153556746373894,29.254671236368747,29.670026911006136,-0.06996059352950112,48.391920935035245,48.461881528564746,9.937553489088042,0,-9.937553489088042,-0.07771309493416498,-0.3466370444894397,-8.063745892242034,0.4998478008342675,0.020197153091430664,0.1556851863861084,GUIDED_NOGPS
0.002,8e-05,0.0,-0.15065175476597348,0.0005180787440194337,-1.2052140381277879e-05,0.0,0.0005060266036381558,0.04,0.002,0.0,-0.06091251886265846,-0.01785205613310822,-0.00012182503772531692,-0.0,-0.01797388117083354,0.08,0.002,0.06,-0.1861349478054994,-0.030833668187219488,-0.0003722698956109988,1.274146496828117,1.2429405587452866,0.6,0,0.4,1.6324858668689497,6.014114542067602,0.0,3.1555050508616054,9.169619592929207,-0.3854208523402436,7.442137964653638,7.827558816993881,-0.4463014033277055,29.419684935838937,29.865986339166643,0.25903937200971683,48.91440635007444,48.65536697806472,10.023524236779336,0,-10.023524236779336,-0.23403644722531636,-1.2208403803726924,-9.169619592929207,0.5005060266036382,0.01089787483215332,0.16659331321716309,GUIDED_NOGPS
0.002,8e-05,0.0,-0.13818815435885012,0.0011595530253532189,-1.105505234870801e-05,0.0,0.0011484979730045108,0.04,0.002,0.0,-0.07076462798894192,-0.018331850461063937,-0.00014152925597788385,-0.0,-0.01847337971704182,0.08,0.002,0.06,-0.18789448549286294,-0.0065479546261425275,-0.0003757889709857259,0.8472844436823138,0.8403607000851856,0.6,0,0.4,1.8495791127201726,6.059191287936261,0.0,1.397907381968818,7.457098669905079,-0.08184943282678159,7.875489151765173,7.957338584591954,-0.4582962615265984,29.584329127612605,30.042625389139204,0.5797765126766095,49.43218998706767,48.852413474391064,10.098652146560434,0,-10.098652146560434,-0.1655390192597006,-0.8241020598860129,-7.457098669905079,0.5011484979730045,0.021497249603271484,0.18808817863464355,GUIDED_NOGPS
0.002,8e-05,0.0,-0.12052941699884437,0.0018488794993515114,-9.642353359907551e-06,0.0,0.0018392371459916039,0.04,0.002,0.0,-0.07964900778513555,-0.0186039888750345,-0.0001592980155702711,-0.0,-0.01876328689060477,0.08,0.002,0.06,-0.1839473937616351,0.01653050687634135,-0.00036789478752327024,0.9061228475447528,0.9222854596335709,0.6,0,0.4,2.043523039298144,6.091810686632737,0.0,1.1384229857732342,7.230233672405971,0.20663133595426686,8.3019614479392,8.095330111984934,-0.46509972187586257,29.74855516386682,30.21365488574268,0.9244397496757557,49.944675571790846,49.02023582211509,10.153017811054562,0,-10.153017811054562,-0.1810477731459272,-0.9045353690295074,-7.230233672405971,0.5018392371459917,0.019102096557617188,0.20719122886657715,GUIDED_NOGPS
0.002,8e-05,0.0,-0.08393140962845631,0.002066394770253254,-6.714512770276506e-06,0.0,0.0020596802574829776,0.04,0.002,0.0,-0.09998589048989188,-0.022965200066255277,-0.0001999717809797838,-0.0,-0.02316517184723506,0.08,0.002,0.06,-0.17387924692306794,0.022738687123376452,-0.0003477584938461359,0.13144723016029533,0.15383815878982565,0.6,0,0.4,2.4063690796568022,6.146098222912204,0.0,1.0217266741921935,7.167824897104397,0.28423358904220564,8.720849329453069,8.436615740410863,-0.574130001656382,29.912315415924667,30.48644541758105,1.033197385126627,50.45128519222211,49.41808780709548,10.243497038187007,0,-10.243497038187007,-0.05015326511334171,-0.14726660953870843,-7.167824897104397,0.5020596802574829,0.03542208671569824,0.24263906478881836,GUIDED_NOGPS
0.002,8e-05,0.0,-0.05348522733888361,0.0018709468849948934,-4.278818187110689e-06,-0.0,0.0018666680668077828,0.04,0.002,0.0,-0.1265962166916944,-0.03270459753701957,-0.0002531924333833888,-0.0,-0.03295778997040296,0.08,0.002,0.06,-0.17001176020505135,0.009506429619335819,-0.0003400235204101027,-0.3049255575359187,-0.295759151436993,0.6,0,0.4,2.744911917772105,6.241133903603574,0.0,1.9466776826267171,8.187811586230291,0.11883037024169774,9.131480071267523,9.012649701025826,-0.8176149384254892,30.075563267993946,30.893178206419435,0.9354734424974467,50.95145911557793,50.015985673080486,10.40188983933929,0,-10.40188983933929,0.020983638518975556,0.2968490836990546,-8.187811586230291,0.5018666680668078,0.032546281814575195,0.27516627311706543,GUIDED_NOGPS
0.002,8e-05,0.0,-0.024085440251356845,0.0020783678781810836,-1.926835220108548e-06,0.0,0.002076441042960975,0.04,0.002,0.0,-0.15453994802290102,-0.039508689925133636,-0.00030907989604580204,-0.0,-0.03981776982117944,0.08,0.002,0.06,-0.16592717040336682,0.011550124787085708,-0.00033185434080673366,0.054178330996068835,0.06539660144234781,0.6,0,0.4,3.0429142433885117,6.320030066957556,0.0,1.8591433008054261,8.179173367762981,0.14437655983857134,9.533213271707814,9.388836711869242,-0.9877172481283409,30.238253110905852,31.225970359034193,1.0391839390905417,51.444655605349105,50.40547166625856,10.53338344492926,0,-10.53338344492926,-0.0511018304565976,-0.05701555224433828,-8.179173367762981,0.502076441042961,0.02829122543334961,0.30352354049682617,GUIDED_NOGPS
0.002,8e-05,0.0,0.030531903420306462,0.0021940278899492114,2.442552273624517e-06,0.0,0.002196470442222836,0.04,0.002,0.0,-0.21369040020556007,-0.0475225388374912,-0.00042738080041112013,-0.0,-0.047949919637902315,0.08,0.002,0.06,-0.1615832752877185,0.006979927176276277,-0.00032316655057543697,-0.06884585792683912,-0.06218909730113828,0.6,0,0.4,3.575049147363245,6.412901518360063,0.0,1.2435766178481014,7.656478136208165,0.08724908970345346,9.925440377144815,9.838191287441362,-1.18806347093728,30.400340335853652,31.588403806790932,1.0970139449746057,51.9303507383368,50.83333679336219,10.688169197266772,0,-10.688169197266772,-0.03558422088206447,0.07000315593334476,-7.656478136208165,0.5021964704422228,0.049787282943725586,0.35325145721435547,GUIDED_NOGPS
0.002,8e-05,0.0,0.04717477493357862,0.001631211809260833,3.7739819946862897e-06,-0.0,0.0016349857912555193,0.04,0.002,0.0,-0.24683900180187512,-0.06497964049205165,-0.0004936780036037502,-0.0,-0.06547331849565541,0.08,0.002,0.06,-0.16731095727481257,-0.022455409788118885,-0.00033462191454962517,-1.081888180194806,-1.1046782118974745,0.6,0,0.4,3.7980281018555804,6.556426939205854,0.0,4.689101902198408,11.245528841404262,-0.28069262235148607,10.307584206676124,10.58827682902761,-1.6244910123012914,30.56178132813138,32.18627234043267,0.8156059046304165,52.408038221688585,51.59243231705817,10.927378232009756,0,-10.927378232009756,0.14512175625600632,1.097059881290446,-10.0,0.5016349857912555,0.02040553092956543,0.37364912033081055,GUIDED_NOGPS
0.002,8e-05,0.0,0.07541039153392327,0.001910095072688435,6.032831322713862e-06,0.0,0.0019161279040111488,0.04,0.002,0.0,-0.30067065828063444,-0.07283253859841651,-0.0006013413165612689,-0.0,-0.07343387991497778,0.08,0.002,0.06,-0.17502919509015258,-0.020885066162484377,-0.00035005839018030515,0.039836729053167964,0.018601604500503282,0.6,0,0.4,4.124821300089706,6.632113828824387,0.0,1.7066996974512627,8.33881352627565,-0.2610633270310547,10.67909847680718,10.940161803838235,-1.8208134649604126,30.722533460872523,32.543346925832935,0.9550475363442175,52.877229209934484,51.922181673590266,11.053523048040645,0,-11.053523048040645,-0.07563798145614717,-0.004177340134590221,-8.33881352627565,0.5019161279040112,0.029564619064331055,0.4032254219055176,GUIDED_NOGPS
0.002,8e-05,0.0,0.11280915783336197,0.0019350722601054855,9.024732626668958e-06,0.0,0.0019440969927321545,0.04,0.002,0.0,-0.3823942894325758,-0.08457023976193981,-0.0007647885788651516,-0.0,-0.08533502834080496,0.08,0.002,0.06,-0.18997851491895573,-0.03094007313133858,-0.0003799570298379115,-0.19509833130066176,-0.22641836146183825,0.6,0,0.4,4.557176965274532,6.711233045763627,0.0,1.3645851373328002,8.075818183096427,-0.38675091414173224,11.039467326132364,11.426218240274096,-2.114255994048495,30.882555088788695,32.99681108283719,0.9675361300527427,53.337452122022974,52.36991599197023,11.185388409606045,0,-11.185388409606045,-0.039792479726645735,0.2386711126764069,-8.075818183096427,0.5019440969927321,0.03865361213684082,0.4418830871582031,GUIDED_NOGPS
0.002,8e-05,0.0,0.1426519314137871,0.001927674134869349,1.1412154513102969e-05,-0.0,0.001939086289382452,0.04,0.002,0.0,-0.45883654555175635,-0.09875473506836385,-0.0009176730911035127,-0.0,-0.09967240815946736,0.08,0.002,0.06,-0.20700292300023845,-0.04398721322776183,-0.0004140058460004769,-0.31603925524187476,-0.3604404743156371,0.6,0,0.4,4.907834269562928,6.795142688645381,0.0,1.8066958802535578,8.60183856889894,-0.5498401653470228,11.388204840016122,11.938045005363145,-2.4688683767090964,31.04180554190834,33.510673918617435,0.9638370674346746,53.78825245835706,52.82441539092238,11.325237814408968,0,-11.325237814408968,-0.026949007762324007,0.3729955434771508,-8.60183856889894,0.5019390862893824,0.030962467193603516,0.47284579277038574,GUIDED_NOGPS
0.002,8e-05,0.0,0.18546061195200012,0.002039327843899699,1.483684895616001e-05,0.0,0.002054164692855859,0.04,0.002,0.0,-0.5771338227313876,-0.11270935155060158,-0.001154267645462775,-0.0,-0.11386361919606436,0.08,0.002,0.06,-0.23650202366463663,-0.05621134461381701,-0.00047300404732927327,-0.21837578724965973,-0.275060135910806,0.6,0,0.4,5.3902200710765085,6.893995218916294,0.0,1.569718375548156,8.463713594464451,-0.7026418076727126,11.724854575274076,12.427496382946789,-2.8177337887650395,31.200245119315397,34.01797890808044,1.0196639219498493,54.22919261783027,53.20952869588042,11.489992031527157,0,-11.489992031527157,-0.05679064737184672,0.2922290617217665,-8.463713594464451,0.5020541646928559,0.04198312759399414,0.5148158073425293,GUIDED_NOGPS
0.002,8e-05,0.0,0.21452366998089978,0.0018230522547927706,1.7161893598471983e-05,-0.0,0.0018402141483912426,0.04,0.002,0.0,-0.6829019492529887,-0.13269135088859216,-0.0013658038985059776,-0.0,-0.13405715478709815,0.08,0.002,0.06,-0.2680752823871335,-0.07922043227242967,-0.0005361505647742671,-0.5412382417102413,-0.6209948245474453,0.6,0,0.4,5.761276198746806,6.9826242255514765,0.0,1.8531579416688448,8.835782167220321,-0.9902554034053708,12.04898908485411,13.039244488259481,-3.317283772214804,31.357835082888013,34.675118855102816,0.9115261273963853,54.659851714862725,53.74832558746634,11.637707042585795,0,-11.637707042585795,-0.006032644205899912,0.6352712019824363,-8.835782167220321,0.5018402141483912,0.031883955001831055,0.5467021465301514,GUIDED_NOGPS
0.002,8e-05,0.0,0.24408806262040456,0.00176270727894304,1.9527045009632365e-05,-0.0,0.0017822343239526724,0.04,0.002,0.0,-0.8091059924012651,-0.15049237655723033,-0.0016182119848025304,-0.0,-0.15211058854203285,0.08,0.002,0.06,-0.30862923700878225,-0.09671736114881113,-0.0006172584740175645,-0.39120494033506337,-0.48853955995789206,0.6,0,0.4,6.155698592712982,7.054951880458757,0.0,1.437455357514366,8.492407237973124,-1.2089670143601392,12.360209442517514,13.569176456877653,-3.7623094139307582,31.514537651037195,35.27684706496795,0.88135363947152,55.07982539643716,54.19847175696564,11.758253134097929,0,-11.758253134097929,-0.04936277232633972,0.5092856266366766,-8.492407237973124,0.5017822343239526,0.033544301986694336,0.5802712440490723,GUIDED_NOGPS
0.002,8e-05,0.0,0.2710217876781178,0.0017427989932808855,2.1681743014249426e-05,-0.0,0.001764480736295135,0.04,0.002,0.0,-0.9397937418021909,-0.1691280932006481,-0.0018795874836043819,-0.0,-0.17100768068425248,0.08,0.002,0.06,-0.35362825565332834,-0.11646995612273628,-0.0007072565113066567,-0.4792987587329188,-0.5964759713669617,0.6,0,0.4,6.523297954158092,7.135869201357634,0.0,1.7453041382055112,8.881173339563146,-1.4558744515342035,12.658144767520065,14.114019219054269,-4.228202330016202,31.670315992445524,35.898518322461726,0.8713994966404428,55.48872565913492,54.61732616249448,11.893115335596057,0,-11.893115335596057,-0.04441107938328821,0.6189142649019967,-8.881173339563146,0.5017644807362951,0.030908584594726562,0.6111636161804199,GUIDED_NOGPS
0.002,8e-05,0.0,0.305188966636535,0.001799543361616429,2.4415117330922802e-05,0.0,0.001823958478947352,0.04,0.002,0.0,-1.1181720132364734,-0.18789929048976817,-0.002236344026472947,-0.0,-0.1901356345162411,0.08,0.002,0.06,-0.41887093277981874,-0.13745006769209567,-0.0008377418655596374,-0.41437376802341785,-0.5526615775810731,0.6,0,0.4,6.978335717139036,7.189884069624807,0.0,0.9482989287963166,8.138182998421124,-1.718125846151196,12.942451749293165,14.66057759544436,-4.697482262244204,31.825134219805822,36.522616482050026,0.8997716808082146,55.88618066617207,54.98640898536386,11.983140116041346,0,-11.983140116041346,-0.07124661381305224,0.5800950774377145,-8.138182998421124,0.5018239584789473,0.03797316551208496,0.6491456031799316,GUIDED_NOGPS
0.002,8e-05,0.0,0.3514516109446063,0.001695046443285804,2.8116128875568508e-05,-0.0,0.0017231625721613726,0.04,0.002,0.0,-1.4059648261296696,-0.21089247758918958,-0.0028119296522593393,-0.0,-0.21370440724144893,0.08,0.002,0.06,-0.5294478467861439,-0.1620599147318872,-0.0010588956935722877,-0.3381359381730833,-0.5012547485985428,0.6,0,0.4,7.6343755530401545,7.211118217278275,0.0,0.25933714623353066,7.470455363511806,-2.0257489341485897,13.212814172124919,15.238563106273508,-5.2723119397297395,31.978957383559845,37.251269323289584,0.8475232216429021,56.271834564435366,55.424311342792464,12.018530362130459,0,-12.018530362130459,-0.10464478437462191,0.5347666460898588,-7.470455363511806,0.5017231625721613,0.05458569526672363,0.7037231922149658,GUIDED_NOGPS
0.002,8e-05,0.0,0.35994240251293874,0.0009472791870786778,2.87953922010351e-05,-0.0,0.0009760745792797129,0.04,0.002,0.0,-1.5170263999708282,-0.24781274286914057,-0.0030340527999416565,-0.0,-0.25084679566908225,0.08,0.002,0.06,-0.5767245970672817,-0.21097812242178748,-0.0011534491941345634,-2.0465936379829057,-2.2587252095988277,0.6,0,0.4,7.851681935483779,7.27316687678274,0.0,2.307496038961005,9.580662915743746,-2.6372265302723434,13.468942439841278,16.10616897011362,-6.195318571728514,32.13175146563698,38.327070037365495,0.47363959353933893,56.645347301518306,56.17170770797897,12.121944794637901,0,-12.121944794637901,0.22906295521946887,2.2610382238964557,-9.580662915743746,0.5009760745792797,0.017926692962646484,0.721649169921875,GUIDED_NOGPS
0.002,8e-05,0.0,0.38256647014546785,0.0012266553432058202,3.060531761163743e-05,0.0,0.0012572606608174577,0.04,0.002,0.0,-1.759061801932498,-0.2624585674720785,-0.003518123603864996,-0.0,-0.2659766910759435,0.08,0.002,0.06,-0.6784068938988337,-0.2205246814918934,-0.0013568137877976675,-0.19410199377241086,-0.4159834890521019,0.6,0,0.4,8.298302422401482,7.264600896194488,0.0,-0.15481309593313278,7.109787800261356,-2.756558518648667,13.710573100487132,16.4671316191358,-6.561464186801963,32.2834833731929,38.844947559994864,0.6133276716029101,57.00639444275719,56.39306677115428,12.107668160324147,0,-12.107668160324147,-0.17280778928878915,0.4625184659241072,-7.109787800261356,0.5012572606608174,0.036887407302856445,0.758551836013794,GUIDED_NOGPS
0.002,8e-05,0.0,0.40013171656626284,0.0011422057366685437,3.201053732530103e-05,-0.0,0.0011742162739938448,0.04,0.002,0.0,-1.9812281967434437,-0.2889338692654059,-0.003962456393486888,-0.0,-0.2928963256588928,0.08,0.002,0.06,-0.7759386563154099,-0.2536857972176743,-0.0015518773126308198,-0.808631196559998,-1.0638688710903033,0.6,0,0.4,8.671284673705786,7.27611426978277,0.0,0.24955796322475543,7.525672233007525,-3.171072465220929,13.937468371007407,17.108540836228336,-7.2233467316351465,32.43412093234828,39.657467663983425,0.5711028683342718,57.35466698826712,56.78356411993285,12.126857116304617,0,-12.126857116304617,-0.06286606300636188,1.1016592443135564,-7.525672233007525,0.5011742162739938,0.030756711959838867,0.789299488067627,GUIDED_NOGPS
0.002,8e-05,0.0,0.4183303264002726,0.0011121140229360406,3.3466426112021815e-05,-0.0,0.0011455804490480624,0.04,0.002,0.0,-2.2366707350178037,-0.31220102135317745,-0.004473341470035607,-0.0,-0.31667436282321304,0.08,0.002,0.06,-0.8897262866735862,-0.2781417273345835,-0.0017794525733471724,-0.5604366846224218,-0.8403578645303524,0.6,0,0.4,9.06679114520002,7.250800425789038,0.0,-0.5156416000382927,6.735158825750745,-3.4767715916822937,14.149415661928213,17.626187253610507,-7.805025533829436,32.583632881927464,40.3886584157569,0.5560570114680203,57.68987118997804,57.13381417851002,12.084667376315064,0,-12.084667376315064,-0.13372192221514417,0.888032904833255,-6.735158825750745,0.5011455804490481,0.032727956771850586,0.8220610618591309,GUIDED_NOGPS
0.002,8e-05,0.0,0.4352883805854746,0.0009750936951799929,3.482307044683797e-05,-0.0,0.0010099167656268308,0.04,0.002,0.0,-2.5317115742995457,-0.33929890665792045,-0.005063423148599091,-0.0,-0.34436232980651954,0.08,0.002,0.06,-1.021933572475721,-0.3040784972960284,-0.002043867144951442,-0.5592648024325256,-0.8653871668735055,0.6,0,0.4,9.484720763123645,7.209327161283472,0.0,-0.7949087848612293,6.414418376422242,-3.8009812162003556,14.346227102037915,18.14720831823827,-8.482472666448011,32.73198886719717,41.21446153364518,0.48754684758999645,58.01172836867079,57.52418152108079,12.015545268805788,0,-12.015545268805788,-0.15666398373571935,0.9181158744838153,-6.414418376422242,0.5010099167656268,0.03478240966796875,0.8568210601806641,GUIDED_NOGPS
0.002,8e-05,0.0,0.4500016004611949,0.0008883410031541388,3.6000128036895594e-05,-0.0,0.0009243411311910343,0.04,0.002,0.0,-2.8348259692793802,-0.36602313834946787,-0.005669651938558761,-0.0,-0.37169279028802665,0.08,0.002,0.06,-1.158911115697385,-0.3308120701870911,-0.0023178222313947703,-0.6052854803504947,-0.9384153727689806,0.6,0,0.4,9.878716354565567,7.1364889921355,0.0,-1.4659182421290198,5.67057075000648,-4.1351508773386385,14.527739063068271,18.66288994040691,-9.150578458736696,32.87915943360514,42.029737892341835,0.4441705015770694,58.319974731013126,57.875804229436056,11.894148320225833,0,-11.894148320225833,-0.17030116604366663,0.9948750951980913,-5.67057075000648,0.500924341131191,0.03312516212463379,0.8899402618408203,GUIDED_NOGPS
0.002,8e-05,0.0,0.46725992989439513,0.0008013226490024721,3.7380794391551615e-05,-0.0,0.0008387034433940238,0.04,0.002,0.0,-3.2587996272222295,-0.3937109857649,-0.006517599254444459,-0.0,-0.40022858501934444,0.08,0.002,0.06,-1.3498493765186612,-0.3546186867030008,-0.0026996987530373225,-0.41451247680474446,-0.7718308622607826,0.6,0,0.4,10.387163287053882,7.082320065723214,0.0,-0.8383736825807733,6.243946383142441,-4.43273358378751,14.693811684375522,19.12654526816303,-9.8427746441225,33.025116020518865,42.867890664641365,0.40066132450123604,58.614361186595744,58.21369986209451,11.803866776205357,0,-11.803866776205357,-0.23387783328652328,0.8373810120261929,-6.243946383142441,0.500838703443394,0.043074607849121094,0.933035135269165,GUIDED_NOGPS
0.002,8e-05,0.0,0.4755378046270151,0.00069818261180653,3.804302437016121e-05,-0.0,0.0007362256361766913,0.04,0.002,0.0,-3.510340389371956,-0.42431515809593806,-0.007020680778743912,-0.0,-0.43133583887468196,0.08,0.002,0.06,-1.463608951901194,-0.3837939568985982,-0.002927217903802388,-0.9227760900265064,-1.309497264828907,0.6,0,0.4,10.664278886188946,7.011846604081675,0.0,-1.9813195657594602,5.030527038322214,-4.7974244612324775,14.844328397621517,19.641752858853994,-10.607878952398451,33.169830954964254,43.777709907362706,0.349091305903265,58.89465316496835,58.54556185906508,11.68641100680279,0,-11.68641100680279,-0.1571493488482128,1.3697217873162042,-5.030527038322214,0.5007362256361767,0.023712635040283203,0.9567215442657471,GUIDED_NOGPS
0.002,8e-05,0.0,0.4901095044579871,0.00074722488813714,3.9208760356638974e-05,0.0,0.000786433648493779,0.04,0.002,0.0,-3.9485744065317947,-0.4494456628239607,-0.00789714881306359,-0.0,-0.4573428116370243,0.08,0.002,0.06,-1.6606797193097094,-0.40422513183791153,-0.003321359438619419,-0.3928852480912069,-0.8004317393677378,0.6,0,0.4,11.113244274936648,6.906773738326541,0.0,-1.7960169660108267,5.110756772315714,-5.052814147973894,14.979195451454824,20.03200959942872,-11.236141570599017,33.31327744536431,44.54941901596332,0.37361244406856997,59.16063043267563,58.78701798860706,11.511289563877568,0,-11.511289563877568,-0.28840857456981384,0.8755991724858636,-5.110756772315714,0.5007864336484937,0.039002180099487305,0.995734691619873,GUIDED_NOGPS
0.002,8e-05,0.0,0.4967672382041177,0.00047399253621547644,3.974137905632942e-05,-0.0,0.0005137339152718059,0.04,0.002,0.0,-4.2899728183100505,-0.48611225750131526,-0.0085799456366201,-0.0,-0.4946922031379354,0.08,0.002,0.06,-1.816132311035237,-0.4426933910120752,-0.003632264622070474,-1.0270199529430737,-1.4733456085772194,0.6,0,0.4,11.430928667448443,6.785193130181332,0.0,-2.8852811385385992,3.8999119916427327,-5.53366738765094,15.09834143619182,20.63200882384276,-12.152806437532881,33.455429575277826,45.60823601281071,0.23699626810773822,59.41208691029337,59.17509064218563,11.308655216968887,0,-11.308655216968887,-0.19617313753316645,1.5417469825719248,-3.8999119916427327,0.5005137339152718,0.028092145919799805,1.0238242149353027,GUIDED_NOGPS
0.002,8e-05,0.0,0.5057893130013432,0.0004351453144781061,4.046314504010746e-05,-0.0,0.00047560845951821355,0.04,0.002,0.0,-4.821430343416605,-0.512656472245973,-0.00964286068683321,-0.0,-0.5222993329328062,0.08,0.002,0.06,-2.0585962711560564,-0.4677729171956153,-0.004117192542312113,-0.45360567912775773,-0.9254957888656852,0.6,0,0.4,11.892348211816426,6.6764427447030865,0.0,-1.748386476212729,4.928056268490358,-5.8471614649451915,15.201716808497824,21.048878273443016,-12.816411806149326,33.59626229713807,46.412674103287394,0.21757265723905306,59.648830489464416,59.43125783222536,11.127404574505144,0,-11.127404574505144,-0.3338677176657962,1.008896127205771,-4.928056268490358,0.5004756084595182,0.04146695137023926,1.0652930736541748,GUIDED_NOGPS
0.002,8e-05,0.0,0.5083909589767139,0.00014639835412052094,4.067127671813712e-05,-0.0,0.00018706963083865805,0.04,0.002,0.0,-5.312887968797338,-0.5531005229523359,-0.010625775937594676,-0.0,-0.5637262988899306,0.08,0.002,0.06,-2.2835235977727955,-0.5062793435410038,-0.004567047195545591,-0.8125544597624406,-1.3234008504989898,0.6,0,0.4,12.280078942501536,6.545449459874222,0.0,-2.45706006650319,4.088389393371032,-6.328491794262547,15.289293416068205,21.61778521033075,-13.827513073808397,33.735751425991474,47.56326449979987,0.07319917706026047,59.87068284993474,59.79748367287448,10.909082433123704,0,-10.909082433123704,-0.3030839805570275,1.4061711317941699,-4.088389393371032,0.5001870696308387,0.03554201126098633,1.1008429527282715,GUIDED_NOGPS
0.002,8e-05,0.0,0.5074612693363979,-3.4291903907558206e-05,4.0596901546911834e-05,-0.0,6.304997639353628e-06,0.04,0.002,0.0,-6.110972906775086,-0.5887524355740504,-0.012221945813550173,-0.0,-0.6009743813876006,0.08,0.002,0.06,-2.6483673527918734,-0.5382952093188188,-0.005296734705583747,-0.4428433473226852,-0.9864352913470877,0.6,0,0.4,12.860199201863667,6.41937717476684,0.0,-1.5500723749913006,4.86930479977554,-6.728690116485234,15.361064022309469,22.089754138794703,-14.71881088935126,33.87387363323631,48.59268452258757,-0.017145951953779104,60.07747927658947,60.09462522854325,10.698961957944734,0,-10.698961957944734,-0.40739659793810457,1.0808574388362608,-4.86930479977554,0.5000063049976393,0.05422210693359375,1.1550674438476562,GUIDED_NOGPS
0.002,8e-05,0.0,0.4968210433807847,-0.0006780001410823218,3.974568347046278e-05,-0.0,-0.000638254457611859,0.04,0.002,0.0,-6.613008956298957,-0.6397994061884191,-0.013226017912597915,-0.0,-0.653025424101017,0.08,0.002,0.06,-2.8777714544311457,-0.5847094372812179,-0.005755542908862292,-1.1090760632578196,-1.6995410434479,0.6,0,0.4,13.188011915958308,6.2665135307815865,0.0,-3.246847470492677,3.0196660602889094,-7.3088679660152245,15.417041831020402,22.725909797035627,-15.994985154710477,34.01060644036138,50.005591595071856,-0.3390000705411609,60.26906847648894,60.6080685470301,10.444189217969312,0,-10.444189217969312,-0.3341172307734808,1.789761894495061,-3.0196660602889094,0.49936174554238816,0.0313870906829834,1.1864709854125977,GUIDED_NOGPS
0.002,8e-05,0.0,0.4925394326747667,-0.0005793772393436001,3.9403154613981335e-05,0.0,-0.0005399740847296188,0.04,0.002,0.0,-6.855409621033084,-0.6560214722525549,-0.013710819242066168,-0.0,-0.6697322914946211,0.08,0.002,0.06,-2.986541994940212,-0.5887426934305577,-0.005973083989880424,-0.20466393728465407,-0.7993797147050922,0.6,0,0.4,13.340634850650016,6.195770281350858,0.0,-3.1909353256366924,3.0048349557141654,-7.3592836678819715,15.45726001107316,22.81654367895513,-16.400536806313873,34.145928212684694,50.54646501899857,-0.28968861967180004,60.44531239590468,60.73500101557648,10.32628380225143,0,-10.32628380225143,-0.515592932127489,0.9064839760816564,-3.0048349557141654,0.4994600259152704,0.014780044555664062,1.2012548446655273,GUIDED_NOGPS
0.002,8e-05,0.0,0.4846778295215288,-0.0004949632019699805,3.8774226361722306e-05,0.0,-0.0004561889756082582,0.04,0.002,0.0,-7.389799171823901,-0.6728987917681514,-0.014779598343647803,-0.0,-0.6876783901117992,0.08,0.002,0.06,-3.222921406635575,-0.595293902335074,-0.00644584281327115,-0.15467300083149074,-0.7564127459798358,0.6,0,0.4,13.66442196973155,6.115649928903834,0.0,-1.6814478089331903,4.434202119970644,-7.441173779188425,15.481771221094377,22.9229450002828,-16.822469794203784,34.27981815309219,51.10228794729597,-0.24748160098499028,60.60608603735551,60.8535676383405,10.19274988150639,0,-10.19274988150639,-0.5429705042824339,0.8661667518363834,-4.434202119970644,0.4995438110243917,0.031766414642333984,1.2329976558685303,GUIDED_NOGPS
0.002,8e-05,0.0,0.4737817987346127,-0.0006631781681652172,3.790254389876902e-05,-0.0,-0.0006252756242664481,0.04,0.002,0.0,-7.971977410406595,-0.7086762241394081,-0.01594395482081319,-0.0,-0.7246201789602214,0.08,0.002,0.06,-3.4788020509754234,-0.6229588014233726,-0.006957604101950847,-0.631425704184547,-1.2613421097098705,0.6,0,0.4,13.990536840178144,5.954615950257067,0.0,-3.267067952229521,2.6875479980275463,-7.786985017792157,15.490647134146291,23.277632151938448,-17.716905603485202,34.41225629577636,52.12916189926156,-0.33158908408260857,60.75127727664351,61.08286636072612,9.924359917095112,0,-9.924359917095112,-0.49638738161970297,1.3673543391719738,-2.6875479980275463,0.49937472437573355,0.03286004066467285,1.2658624649047852,GUIDED_NOGPS
0.002,8e-05,0.0,0.45676834694567936,-0.0008596867581711081,3.6541467755654354e-05,-0.0,-0.0008231452904154537,0.04,0.002,0.0,-8.708563978579765,-0.7443918221428433,-0.01741712795715953,-0.0,-0.7618089501000028,0.08,0.002,0.06,-3.8012321699404947,-0.6516935120481766,-0.007602464339880989,-0.5444849727692627,-1.2037809491573204,0.6,0,0.4,14.372655755312657,5.7925206853355435,0.0,-2.7302151760862308,3.0623055092493128,-8.146168900602207,15.483977962407847,23.630146863010054,-18.609795553571082,34.543223499974985,53.15301905354607,-0.42984337908555403,60.88078667989012,61.310630058975676,9.654201142225906,0,-9.654201142225906,-0.5491443199287572,1.3144892414533298,-3.0623055092493128,0.49917685470958456,0.039580583572387695,1.305450439453125,GUIDED_NOGPS
0.002,8e-05,0.0,0.43744609494496817,-0.0012043272954385031,3.4995687595597457e-05,-0.0,-0.0011693316078429056,0.04,0.002,0.0,-9.341786865524652,-0.7893568584200523,-0.018683573731049303,-0.0,-0.8080404321511017,0.08,0.002,0.06,-4.077249146201312,-0.6881491422491925,-0.008154498292402623,-0.8520845005905575,-1.5483881411321527,0.6,0,0.4,14.671527035420775,5.588461020645075,0.0,-4.239578700517851,1.348882320127224,-8.601864278114906,15.46187198185579,24.063736259970696,-19.733921460501307,34.672701443709805,54.40662290421111,-0.6021636477192516,60.994527320572125,61.59669096829138,9.314101701075124,0,-9.314101701075124,-0.5467856418921863,1.658752735464262,-1.348882320127224,0.4988306683921571,0.03208804130554199,1.3375353813171387,GUIDED_NOGPS
0.002,8e-05,0.0,0.40549884436199823,-0.001447132182895885,3.2439907548959864e-05,-0.0,-0.0014146922753469251,0.04,0.002,0.0,-10.25608923928205,-0.8283131510964791,-0.0205121784785641,-0.0,-0.8488253295750432,0.08,0.002,0.06,-4.470138678068696,-0.711877329677032,-0.008940277356137392,-0.40306078428525804,-1.1238783913184274,0.6,0,0.4,15.067775006827748,5.384718697538685,0.0,-3.0763426941284235,2.3083760034102614,-8.8984666209629,15.42445505694581,24.32292167790871,-20.707828777411976,34.800672617525194,55.50850139493717,-0.7235660914479425,61.092424596557706,61.81599068800565,8.974531162564475,0,-8.974531162564475,-0.663113956213743,1.242532478318066,-2.3083760034102614,0.4985853077246531,0.04415249824523926,1.3817040920257568,GUIDED_NOGPS
0.002,8e-05,0.0,0.3846114882189231,-0.00180909050665079,3.076891905751385e-05,-0.0,-0.0017783215875932761,0.04,0.002,0.0,-10.764630621837313,-0.8809132004241778,-0.021529261243674627,-0.0,-0.9024424616678524,0.08,0.002,0.06,-4.686247319815999,-0.748701921894238,-0.009372494639631999,-1.1960409158853849,-1.9541153324192548,0.6,0,0.4,15.265364664506553,5.134075918520883,0.0,-7.236203391431561,-2.102127472910678,-9.358774023677976,15.371870165293624,24.7306441889716,-22.022830010604444,34.92712031822687,56.949950328831314,-0.904545253325395,61.17441604714246,62.07896130046785,8.556793197534805,0,-8.556793197534805,-0.6016450597153036,2.0666379342152115,2.102127472910678,0.4982216784124067,0.023091554641723633,1.4048316478729248,GUIDED_NOGPS
0.002,8e-05,0.0,0.35727125761932926,-0.0018281611861875292,2.8581700609546343e-05,-0.0,-0.001799579485577983,0.04,0.002,0.0,-11.445889309372868,-0.9110754832653538,-0.022891778618745737,-0.0,-0.9339672618840995,0.08,0.002,0.06,-4.9726379690533875,-0.7660041741280955,-0.009945275938106775,-0.43385660902263745,-1.2098060590888398,0.6,0,0.4,15.512803324224302,4.963649651861086,0.0,-3.798635185602212,1.1650144662588744,-9.575052176601194,15.304276922356092,24.879329098957285,-22.776887081633845,35.05202864262054,57.82891572425439,-0.9140805930937645,61.24045117008548,62.15453176317924,8.272749419768477,0,-8.272749419768477,-0.7501750961388377,1.3316016191085218,-1.1650144662588744,0.49820042051442204,0.02991008758544922,1.4346985816955566,GUIDED_NOGPS
0.002,8e-05,0.0,0.32126649921253486,-0.0019861235247537507,2.570131993700279e-05,-0.0,-0.001960422204816748,0.04,0.002,0.0,-12.308329610462172,-0.95149255069904,-0.024616659220924344,-0.0,-0.9761092099199644,0.08,0.002,0.06,-5.331494390509626,-0.7918210949902462,-0.010662988781019251,-0.5340501797188901,-1.3365342634901556,0.6,0,0.4,15.799979837859311,4.7524387447045635,0.0,-3.883662141251746,0.8687766034528175,-9.897763687378077,15.22185110611234,25.119614793490417,-23.787313767476,35.17538248125064,58.96269624872664,-0.9930617623768754,61.290491238645316,62.28355300102219,7.920731241174273,0,-7.920731241174273,-0.7826184635069167,1.4582939922223581,-0.8687766034528175,0.49803957779518326,0.03625631332397461,1.470961093902588,GUIDED_NOGPS
0.002,8e-05,0.0,0.27399489830660845,-0.002247746429118692,2.191959186452868e-05,-0.0,-0.0022258268372541633,0.04,0.002,0.0,-13.360545955807511,-1.00064964485423,-0.026721091911615022,-0.0,-1.027370736765845,0.08,0.002,0.06,-5.764666240904593,-0.8238861906603694,-0.011529332481809186,-0.571756109196257,-1.4071716323384356,0.6,0,0.4,16.11565492121556,4.503068614840181,0.0,-3.952484565712108,0.5505840491280733,-10.298577383254617,15.124784181744854,25.42336156499947,-25.016241121355748,35.29716751213896,60.31340863349471,-1.123873214559346,61.32450911861609,62.44838233317544,7.50511435806697,0,-7.50511435806697,-0.8347721765091389,1.529306394071184,-0.5505840491280733,0.49777417316274586,0.04206132888793945,1.5130388736724854,GUIDED_NOGPS
0.002,8e-05,0.0,0.24002478871643157,-0.0025836107662021704,1.9201983097314528e-05,-0.0,-0.002564408783104856,0.04,0.002,0.0,-14.054919930726987,-1.0562180099008684,-0.028109839861453975,-0.0,-1.0843278497623223,0.08,0.002,0.06,-6.044989259260736,-0.852803334433336,-0.012089978518521472,-0.824739508655317,-1.6896328216071743,0.6,0,0.4,16.301854028602282,4.248435088717003,0.0,-6.455419460074416,-2.2069843713574127,-10.6600416804167,15.01328282632059,25.67332450673729,-26.405450247521713,35.4173701945234,61.82282044204511,-1.2918053831010852,61.34248908536347,62.63429446846455,7.080725147861672,0,-7.080725147861672,-0.867781132780846,1.8104093081985617,2.2069843713574127,0.4974355912168951,0.026296615600585938,1.539311408996582,GUIDED_NOGPS
0.002,8e-05,0.0,0.1480579469120783,-0.0027133996373618885,1.1844635752966265e-05,-0.0,-0.002701555001608922,0.04,0.002,0.0,-15.904615366833285,-1.0914722800284742,-0.03180923073366657,-0.0,-1.1232815107621408,0.08,0.002,0.06,-6.7812732452083,-0.8689360909948828,-0.013562546490416601,-0.17849347225957082,-1.0609921097448702,0.6,0,0.4,16.762925269093564,4.081048709083167,0.0,-1.646195276786055,2.4348534322971123,-10.861701137436034,14.887568453472118,25.749269590908153,-27.286807000711853,35.53597776259657,62.82278476330843,-1.3566998186809442,61.344426640860725,62.70112645954167,6.801747848471946,0,-6.801747848471946,-0.9897179235570224,1.1865597503501137,-2.4348534322971123,0.4972984449983911,0.06778717041015625,1.607116937637329,GUIDED_NOGPS
0.002,8e-05,0.0,0.12116320368205465,-0.0032472538857078207,9.693056294564373e-06,-0.0,-0.0032375608294132564,0.04,0.002,0.0,-16.387797593239593,-1.1667821840003978,-0.03277559518647919,-0.0,-1.199557779186877,0.08,0.002,0.06,-6.970335071801015,-0.913088101702873,-0.01394067014360203,-1.9990819456859805,-2.9261107175324557,0.6,0,0.4,16.86680172721501,3.7625928909245037,0.0,-12.816716437825049,-9.054123546900545,-11.413601271285913,14.74787673807868,26.161478009364593,-29.169554600009945,35.65297821924456,64.8225328192545,-1.6236269428539103,61.330328330724754,62.953955273578664,6.270988151540839,0,-6.270988151540839,-0.8727580884168934,3.0396309177215812,9.054123546900545,0.49676243917058677,0.016564607620239258,1.6236681938171387,GUIDED_NOGPS
0.002,8e-05,0.0,0.0894321328439047,-0.00321154791971081,7.154570627512376e-06,0.0,-0.0032043933490832977,0.04,0.002,0.0,-16.976060512853095,-1.1907789468336107,-0.03395212102570619,-0.0,-1.2247310678593168,0.08,0.002,0.06,-7.198859118543013,-0.9251700715196536,-0.014397718237086026,-0.45856266436381254,-1.3981304541205521,0.6,0,0.4,16.987359911606195,3.6605608577835023,0.0,-3.442270253544664,0.21829060423883817,-11.56462589399567,14.594457140947329,26.159083034943,-29.76947367084027,35.768360329785565,65.53783400062584,-1.605773959855405,61.30021156125213,62.90598552110753,6.100934762972504,0,-6.100934762972504,-1.069200733485617,1.520376514825516,-0.21829060423883817,0.4967956066509167,0.019760608673095703,1.6435470581054688,GUIDED_NOGPS
0.002,8e-05,0.0,0.03745793367988998,-0.0032733545272373163,2.996634694391199e-06,-0.0,-0.003270357892542925,0.04,0.002,0.0,-17.944749022256403,-1.2201673017536319,-0.03588949804451281,-0.0,-1.2560567997981447,0.08,0.002,0.06,-7.572337088547631,-0.9408712966063011,-0.015144674177095262,-0.37082588847372666,-1.3268418592571232,0.6,0,0.4,17.174332398636007,3.532679175814671,0.0,-2.6846787403266297,0.8480004354880415,-11.760891207578764,14.427572433494047,26.18846364107281,-30.5041825438408,35.88211361570859,66.38629615954939,-1.6366772636186582,61.25410441645513,62.890781680073786,5.887798626357785,0,-5.887798626357785,-1.1133223262730827,1.44868954632038,-0.8480004354880415,0.49672964210745707,0.031755924224853516,1.675264835357666,GUIDED_NOGPS
0.002,8e-05,0.0,-0.012401986148443726,-0.003413743948803216,-9.921588918754982e-07,-0.0,-0.0034147361076950914,0.04,0.002,0.0,-18.8698903007713,-1.2668273243085326,-0.0377397806015426,-0.0,-1.3045671049100753,0.08,0.002,0.06,-7.92523584421346,-0.9664724659343042,-0.01585047168842692,-0.6573102993596249,-1.639633236982356,0.6,0,0.4,17.338310386909768,3.368109297811438,0.0,-3.7558519088617306,-0.3877426110502924,-12.080905824178803,14.247498222424841,26.328404046603644,-31.670683107713316,35.994228348412165,67.66491145612548,-1.7068719744016079,61.19204547509776,62.898917449499365,5.613515496352397,0,-5.613515496352397,-1.13792577382429,1.7593798385502444,0.3877426110502924,0.4965852638923049,0.02921128273010254,1.7044146060943604,GUIDED_NOGPS
0.002,8e-05,0.0,-0.0912551299579337,-0.003546270542744608,-7.300410396634696e-06,-0.0,-0.003553570953141243,0.04,0.002,0.0,-20.323856066369352,-1.307787036914294,-0.040647712132738704,-0.0,-1.3484347490470328,0.08,0.002,0.06,-8.47584262320075,-0.9904998109780476,-0.0169516852464015,-0.4052190970098632,-1.4126705932343124,0.6,0,0.4,17.577519248238154,3.2273894134462306,0.0,-2.109536608578037,1.1178528048681935,-12.381247637225595,14.054522474416853,26.435770111642448,-32.69467592285735,36.10469554294297,68.79937146580032,-1.773135271372304,61.11408362773181,62.88721889910411,5.378982355743718,0,-5.378982355743718,-1.2100686757004038,1.5328562481574028,-1.1178528048681935,0.49644642904685876,0.044471025466918945,1.7489089965820312,GUIDED_NOGPS
0.002,8e-05,0.0,-0.15376960164777762,-0.0038257951830658215,-1.230156813182221e-05,-0.0,-0.0038380967511976436,0.04,0.002,0.0,-21.44018834060955,-1.3663583877596468,-0.0428803766812191,-0.0,-1.409238764440866,0.08,0.002,0.06,-8.893879474834446,-1.023330009895308,-0.017787758949668893,-0.7534352455614227,-1.7945530144063997,0.6,0,0.4,17.74183732945821,3.0168086202883186,0.0,-4.295746581190435,-1.278937960902116,-12.791625123691349,13.848945040799473,26.64057016449082,-34.15895969399117,36.21350695173458,70.37246664572575,-1.9128975915329107,61.02027789373285,62.933175485265764,5.028014367147198,0,-5.028014367147198,-1.2465362868387542,1.9111571631637638,1.278937960902116,0.4961619032488024,0.032680511474609375,1.7815721035003662,GUIDED_NOGPS
0.002,8e-05,0.0,-0.222551883323306,-0.00408163154399054,-1.780415066586448e-05,-0.0,-0.004099435694656404,0.04,0.002,0.0,-22.63081747806381,-1.4130701472081524,-0.045261634956127623,-0.0,-1.45833178216428,0.08,0.002,0.06,-9.330491589407053,-1.0363656080702588,-0.01866098317881411,-0.29008111214960336,-1.3451077033986762,0.6,0,0.4,17.903851789233904,2.884245681420881,0.0,-2.6221533591934163,0.2620923222274647,-12.954570100878236,13.631077182235458,26.585647283113694,-35.32675368020381,36.320655058346105,71.64740873854991,-2.0408157719952698,60.910697238336326,62.951513010331595,4.807076135701468,0,-4.807076135701468,-1.3404808738154448,1.462585842796206,-0.2620923222274647,0.49590056430534357,0.03370332717895508,1.8152542114257812,GUIDED_NOGPS
0.002,8e-05,0.0,-0.2986354846610972,-0.00436636204754025,-2.3890838772887778e-05,-0.0,-0.004390252886313137,0.04,0.002,0.0,-23.902158322531477,-1.4592196781342697,-0.047804316645062954,-0.0,-1.5070239947793327,0.08,0.002,0.06,-9.787920774232337,-1.0500561997274027,-0.019575841548464673,-0.29463352862362546,-1.3642655698994928,0.6,0,0.4,18.063864937731235,2.754898531698981,0.0,-2.474368000342811,0.28053053135617034,-13.125702496592535,13.401241093402028,26.526943589994563,-36.48049195335674,36.4261330712009,72.90662502455764,-2.183181023770125,60.78542038967353,62.96860141344366,4.591497552831635,0,-4.591497552831635,-1.3929767751599547,1.480526112542031,-0.28053053135617034,0.4956097471136869,0.03484988212585449,1.850137710571289,GUIDED_NOGPS
0.002,8e-05,0.0,-0.3786119441166843,-0.0046413037025819365,-3.0288955529334746e-05,-0.0,-0.004671592658111271,0.04,0.002,0.0,-25.197681570061892,-1.5036716770096614,-0.050395363140123786,-0.0,-1.5540670401497851,0.08,0.002,0.06,-10.244000763666335,-1.0587144057353828,-0.02048800152733267,-0.18842433703040506,-1.2676267442931206,0.6,0,0.4,18.2163554472339,2.6548615849506105,0.0,-1.9351604813832375,0.719701103567373,-13.233930071692285,13.15976942767199,26.393699499364274,-37.59179192524154,36.529934917325264,74.1217268425668,-2.320651851290968,60.644535655807665,62.96518750709863,4.424769308251018,0,-4.424769308251018,-1.451637662131994,1.3837449280871996,-0.719701103567373,0.4953284073418887,0.034462928771972656,1.8845815658569336,GUIDED_NOGPS
0.002,8e-05,0.0,-0.46220765946572595,-0.0049085605548161056,-3.697661275725808e-05,-0.0,-0.004945537167573364,0.04,0.002,0.0,-26.51544352660553,-1.5475229402655157,-0.05303088705321106,-0.0,-1.6005538273187268,0.08,0.002,0.06,-10.699104083329258,-1.068907512274263,-0.02139820816665852,-0.22444398232109616,-1.3147497027620179,0.6,0,0.4,18.360412259787914,2.5376118314296057,0.0,-2.29488442396872,0.24272740746088584,-13.361343903428288,12.907004821794828,26.268348725223117,-38.68807350663789,36.63205523608707,75.32012874272496,-2.4542802774080528,60.48814074176989,62.94242101917794,4.229353052382677,0,-4.229353052382677,-1.499233608151961,1.4292088452165035,-0.24272740746088584,0.49505446283242666,0.03406119346618652,1.9186429977416992,GUIDED_NOGPS
0.002,8e-05,0.0,-0.5486862186547011,-0.005249279893493423,-4.3894897492376096e-05,-0.0,-0.0052931747909858,0.04,0.002,0.0,-27.833077523677744,-1.599617225976245,-0.05566615504735549,-0.0,-1.6552833810236003,0.08,0.002,0.06,-11.1420706725803,-1.0755293021770367,-0.0222841413451606,-0.15072939287591233,-1.2485428363981097,0.6,0,0.4,18.493672074989732,2.4266757278677957,0.0,-2.2446205678064155,0.18205516006138023,-13.44411627721296,12.643299420577847,26.087415697790806,-39.99043064940612,36.73248937293452,76.72292002234065,-2.6246399467467114,60.3163425665953,62.940982513342014,4.044459546446326,0,-4.044459546446326,-1.5631007132019266,1.3621815026645994,-0.18205516006138023,0.4947068252090142,0.03294873237609863,1.9515900611877441,GUIDED_NOGPS
0.002,8e-05,0.0,-0.6442457238515021,-0.0056107736387619985,-5.153965790812018e-05,-0.0,-0.005662313296670119,0.04,0.002,0.0,-29.236977449851555,-1.6485988873662836,-0.05847395489970311,-0.0,-1.7070728422659867,0.08,0.002,0.06,-11.603000396827003,-1.0825390277185374,-0.023206000793654008,-0.1543409386730168,-1.2600859671852083,0.6,0,0.4,18.6257438911782,2.326377883082058,0.0,-1.9629950378021883,0.36338284527986975,-13.531737846481718,12.369014401567231,25.90075224804895,-41.21497218415709,36.83123337313479,78.04620555729188,-2.805386819380999,60.129257080359054,62.93464389974005,3.8772964718034304,0,-3.8772964718034304,-1.6179586592770163,1.3726340045218448,-0.36338284527986975,0.4943376867033299,0.034062862396240234,1.9856517314910889,GUIDED_NOGPS
0.002,8e-05,0.0,-0.7455178477148583,-0.006051315984394251,-5.964142781718867e-05,-0.0,-0.00611095741221144,0.04,0.002,0.0,-30.659695359321766,-1.7002340423861149,-0.061319390718643535,-0.0,-1.7615534331047584,0.08,0.002,0.06,-12.057356617515435,-1.0859663867899654,-0.02411471323503087,-0.0767981550919201,-1.1868792551169163,0.6,0,0.4,18.751242920881495,2.249684085309221,0.0,-1.5275621979742007,0.7221218873350201,-13.574579834874566,12.084519499729222,25.659099334603788,-42.50585105965287,36.92828397551271,79.43413503516558,-3.025657992197125,59.927009081212326,62.95266707340945,3.749473475515368,0,-3.749473475515368,-1.6801681369298413,1.299533722361891,-0.7221218873350201,0.49388904258778854,0.033471107482910156,2.0191330909729004,GUIDED_NOGPS
0.002,8e-05,0.0,-0.8755879081304764,-0.006547570251153289,-7.004703265043811e-05,-0.0,-0.006617617283803727,0.04,0.002,0.0,-32.3974205929996,-1.7494999246331113,-0.06479484118599921,-0.0,-1.8142947658191106,0.08,0.002,0.06,-12.595629449266921,-1.0838402531431088,-0.025191258898533842,0.04013512805613322,-1.0688963839855095,0.6,0,0.4,18.89568258410333,2.1812756270950295,0.0,-1.1478664767261535,1.033409150368876,-13.548003164288861,11.790192532131172,25.338195696420033,-43.73749811582778,37.023638606189486,80.76113672201727,-3.2737851255766444,59.709732032418366,62.98351715799501,3.635459378491716,0,-3.635459378491716,-1.7428670566006512,1.181786528943405,-1.033409150368876,0.4933823827161963,0.03973078727722168,2.058859348297119,GUIDED_NOGPS
0.002,8e-05,0.0,-0.9847238099824867,-0.0070545043295163765,-7.877790479859894e-05,-0.0,-0.007133282234314976,0.04,0.002,0.0,-33.796061991274634,-1.8081532533540505,-0.06759212398254927,-0.0,-1.8757453773365997,0.08,0.002,0.06,-13.016428610446143,-1.0880120854899058,-0.026032857220892287,-0.10112463744654175,-1.21516958015734,0.6,0,0.4,19.003500630006016,2.0907955825165745,0.0,-1.9495322052043509,0.1412633773122236,-13.600151068623823,11.486418922622676,25.0865699912465,-45.20383133385126,37.11729537232133,82.32112670617259,-3.5272521647581883,59.47756787938852,63.00482004414671,3.4846593041942913,0,-3.4846593041942913,-1.7984177509649937,1.3269330888004123,-0.1412633773122236,0.492866717765685,0.030940771102905273,2.0898234844207764,GUIDED_NOGPS
0.002,8e-05,0.0,-1.1045159209231898,-0.0075344264594338455,-8.83612736738552e-05,-0.0,-0.007622787733107701,0.04,0.002,0.0,-35.2727672954852,-1.8575726614147068,-0.0705455345909704,-0.0,-1.9281181960056772,0.08,0.002,0.06,-13.449349251965234,-1.0891564430018619,-0.02689869850393047,-0.026990751256778595,-1.143045892762571,0.6,0,0.4,19.11138415672951,2.035627785250967,0.0,-1.1566084726910046,0.8790193125599626,-13.614455537523273,11.173591226516674,24.788046764039947,-46.43931653536767,37.209253055838204,83.64856959120587,-3.7672132297169227,59.23066686671833,62.99788009643525,3.392712975418279,0,-3.392712975418279,-1.8570941173668396,1.2551474534774982,-0.8790193125599626,0.4923772122668923,0.031798601150512695,2.121601104736328,GUIDED_NOGPS
0.002,8e-05,0.0,-1.241522144627384,-0.007948238927604266,-9.932177157019073e-05,-0.0,-0.008047560699174457,0.04,0.002,0.0,-36.91619459180934,-1.906826194922856,-0.07383238918361867,-0.0,-1.9806585841064748,0.08,0.002,0.06,-13.916919778555231,-1.0850199824109947,-0.02783383955711046,0.08998927987155589,-1.0228645420965494,0.6,0,0.4,19.225918947317886,1.9933763368700397,0.0,-0.8170543831011637,1.176321953768876,-13.562749780137434,10.852108655270595,24.41485843540803,-47.6706548730714,37.29951110718247,84.97016598025387,-3.9741194638021327,58.96918735522347,62.9433068190256,3.3222938947833995,0,-3.3222938947833995,-1.9180522397776427,1.1359295329187535,-1.176321953768876,0.49195243930082555,0.03447461128234863,2.156096935272217,GUIDED_NOGPS
0.002,8e-05,0.0,-1.3849677135801268,-0.008395430424279312,-0.00011079741708641016,-0.0,-0.008506227841365722,0.04,0.002,0.0,-38.58780015876578,-1.9566792249740643,-0.07717560031753157,-0.0,-2.033854825291596,0.08,0.002,0.06,-14.378942588654727,-1.0816312793595468,-0.028757885177309456,0.07437390948534352,-1.0360152550515127,0.6,0,0.4,19.337020499720893,1.9507302178211485,0.0,-0.831982305098714,1.1187479127224345,-13.520390991994336,10.522376601167394,24.04276759316173,-48.91698062435161,37.388069639047586,86.3050502633992,-4.197715212139656,58.693295638975854,62.89101085111551,3.2512170297019143,0,-3.2512170297019143,-1.971824703481965,1.1496957848925162,-1.1187479127224345,0.49149377215863427,0.03417229652404785,2.1903038024902344,GUIDED_NOGPS
0.002,8e-05,0.0,-1.5456608616483516,-0.008863002836640292,-0.00012365286893186814,-0.0,-0.00898665570557216,0.04,0.002,0.0,-40.40564623872075,-2.0052597334611804,-0.0808112924774415,-0.0,-2.086071025938622,0.08,0.002,0.06,-14.867632145091044,-1.0781435243505604,-0.029735264290182088,0.07213744699858776,-1.0357413416421546,0.6,0,0.4,19.45279157350477,1.915600075701588,0.0,-0.6458656410270991,1.269734434674489,-13.476794054382005,10.184806161996772,23.661600216378776,-50.13149333652951,37.47492942011679,87.6064227566463,-4.4315014183201455,58.403165762339654,62.8346671806598,3.1926667928359804,0,-3.1926667928359804,-2.025148952582452,1.1503148142580362,-1.269734434674489,0.49101334429442783,0.036261558532714844,2.2265219688415527,GUIDED_NOGPS
0.002,8e-05,0.0,-1.7683504260387741,-0.00944277866926494,-0.00014146803408310194,-0.0,-0.00958424670334804,0.04,0.002,0.0,-42.83005741043986,-2.056062048574509,-0.08566011482087973,-0.0,-2.141722163395389,0.08,0.002,0.06,-15.498548158024255,-1.070117548674793,-0.03099709631604851,0.12762303004403233,-0.973491614946809,0.6,0,0.4,19.604182535953033,1.9258441968385123,0.0,0.14479494331328463,2.0706391401517967,-13.37646935843491,9.83981366573617,23.21628302417108,-51.401551214362726,37.56009186880178,88.9616430831645,-4.72138933463247,58.098979337007265,62.820368671639734,3.2097403280641874,0,-3.2097403280641874,-2.083855355722651,1.0918821392333482,-2.0706391401517967,0.49041575329665194,0.04716610908508301,2.2736856937408447,GUIDED_NOGPS
0.002,8e-05,0.0,-1.8985873568314906,-0.009999968508693087,-0.00015188698854651925,-0.0,-0.010151855497239607,0.04,0.002,0.0,-44.21096174614382,-2.120596636684499,-0.08842192349228765,-0.0,-2.2090185601767867,0.08,0.002,0.06,-15.843539768906359,-1.0595781775831805,-0.03168707953781272,0.3034662817299217,-0.7877989753910717,0.6,0,0.4,19.687288517641196,1.914335345682422,0.0,-0.29456096779827834,1.6197743778841436,-13.244727219789755,9.487820195231958,22.732547415021713,-53.01491591711247,37.643559046981416,90.65847496409388,-4.999984254346543,57.78092535903548,62.78090961338202,3.1905589094707034,0,-3.1905589094707034,-2.1617479540640727,0.9095251551950302,-1.6197743778841436,0.4898481445027604,0.026047468185424805,2.299755334854126,GUIDED_NOGPS
0.002,8e-05,0.0,-2.064143392396695,-0.010655010199327606,-0.00016513147139173562,-0.0,-0.010820141670719341,0.04,0.002,0.0,-45.88302214147508,-2.152240539624366,-0.09176604428295017,-0.0,-2.244006583907316,0.08,0.002,0.06,-16.253466766529353,-1.0552986064787713,-0.03250693353305871,0.1032857401058087,-0.9845197999060213,0.6,0,0.4,19.788921348771673,1.9622942442142497,0.0,1.0288612176145076,2.9911554618287575,-13.19123258098464,9.129251112880482,22.32048369386512,-53.80601349060915,37.725333653740385,91.53134714434954,-5.327505099663803,57.44920002588138,62.776705125545185,3.2704904070237495,0,-3.2704904070237495,-2.1841851511056607,1.1109365466649823,-2.9911554618287575,0.4891798583292807,0.031075716018676758,2.3308098316192627,GUIDED_NOGPS
0.002,8e-05,0.0,-2.2558171709335104,-0.011300788529829617,-0.00018046537367468084,-0.0,-0.011481253903504298,0.04,0.002,0.0,-47.74110732211083,-2.1909963748892993,-0.09548221464422166,-0.0,-2.286478589533521,0.08,0.002,0.06,-16.697885835607174,-1.0480903452962522,-0.033395771671214346,0.15937045989009624,-0.9221156570773703,0.6,0,0.4,19.901505671611087,1.9913390875287278,0.0,0.5708129626712093,2.562152050199937,-13.101129316203153,8.764535585309282,21.865664901512435,-54.774909372232486,37.8054190191079,92.58032839134039,-5.650394264914809,57.10400655343848,62.75440081835329,3.3188984792145466,0,-3.3188984792145466,-2.229259316706033,1.0529408930712973,-2.562152050199937,0.4885187460964957,0.03392219543457031,2.364734172821045,GUIDED_NOGPS
0.002,8e-05,0.0,-2.454818824411311,-0.011910889259431528,-0.0001963855059529049,-0.0,-0.012107274765384432,0.04,0.002,0.0,-49.607722743726974,-2.234458778433937,-0.09921544548745395,-0.0,-2.333674223921391,0.08,0.002,0.06,-17.130387008182193,-1.0354634709987471,-0.03426077401636439,0.2834096453885557,-0.7863145996265557,0.6,0,0.4,20.014702852104886,2.0325646412157776,0.0,0.8224940112201564,2.8550586524359343,-12.943293387484339,8.394106108058068,21.337399495542407,-55.861469460848426,37.88381909779639,93.74528855864482,-5.955444629715764,56.74555499307267,62.70099962278844,3.3876077353596297,0,-3.3876077353596297,-2.2831327386095737,0.9228385183064948,-2.8550586524359343,0.4878927252346156,0.03341507911682129,2.3981525897979736,GUIDED_NOGPS
0.002,8e-05,0.0,-2.669423553178981,-0.012556216221757809,-0.00021355388425431848,-0.0,-0.012769770106012128,0.04,0.002,0.0,-51.557046240206176,-2.28104268237664,-0.10311409248041235,-0.0,-2.3841567748570522,0.08,0.002,0.06,-17.562238023146527,-1.0106794478602632,-0.035124476046293054,0.5437791757178898,-0.5020247481886664,0.6,0,0.4,20.133221821383696,2.0803126937463916,0.0,0.9312234562350368,3.0115361499814286,-12.63349309825329,8.018398030259895,20.651891128513185,-57.02606705941599,37.96053846294015,94.98660552235614,-6.278108110878904,56.3740620486583,62.65217015953721,3.4671878229106525,0,-3.4671878229106525,-2.349431895762448,0.6452922919613597,-3.0115361499814286,0.4872302298939879,0.03418302536010742,2.432366132736206,GUIDED_NOGPS
0.002,8e-05,0.0,-2.8966617319878494,-0.0131950659310382,-0.00023173293855902798,-0.0,-0.013426798869597228,0.04,0.002,0.0,-53.5630192542075,-2.3296213967542885,-0.107126038508415,-0.0,-2.4367474352627037,0.08,0.002,0.06,-17.987666007319465,-0.988135062425792,-0.03597533201463893,0.4909078005870549,-0.533202593853376,0.6,0,0.4,20.255387968084637,2.128150782640721,0.0,0.925939969366495,3.054090752007216,-12.3516882803224,7.637849079322358,19.989537359644757,-58.24053491885721,38.03558229983409,96.2761172186913,-6.5975329655191,55.98975089361428,62.58728385913338,3.5469179710678684,0,-3.5469179710678684,-2.3990927396791486,0.6829327168690401,-3.054090752007216,0.48657320113040275,0.034442901611328125,2.466783285140991,GUIDED_NOGPS
0.002,8e-05,0.0,-3.1220810804249446,-0.01385974676332468,-0.0002497664864339956,-0.0,-0.014109513249758676,0.04,0.002,0.0,-55.494269723979826,-2.3748309657691813,-0.11098853944795965,-0.0,-2.485819505217141,0.08,0.002,0.06,-18.381272972826117,-0.9680256648821285,-0.03676254594565224,0.46365445022342816,-0.5411337606043527,0.6,0,0.4,20.373385357974865,2.1764954347761805,0.0,0.9908120732967636,3.167307508072944,-12.100320811026606,7.252898885608495,19.3532196966351,-59.370774144229536,38.10895639967236,97.4797305439019,-6.92987338166234,55.59285098793992,62.52272436960226,3.627492391293634,0,-3.627492391293634,-2.4466019201569256,0.6973258948786036,-3.167307508072944,0.4858904867502413,0.03252863883972168,2.4993326663970947,GUIDED_NOGPS
0.002,8e-05,0.0,-3.359908356417266,-0.014353733623093532,-0.0002687926685133813,-0.0,-0.014622526291606913,0.04,0.002,0.0,-57.49689275941488,-2.417310418089628,-0.11499378551882976,-0.0,-2.5323042036084575,0.08,0.002,0.06,-18.773319681770808,-0.9464572983940244,-0.03754663936354161,0.488148256907935,-0.495855680849631,0.6,0,0.4,20.49694466820529,2.237174964436792,0.0,1.2207428009661232,3.4579177654029154,-11.830716229925304,6.86398850711808,18.694704737043384,-60.43276045224069,38.180667153287054,98.61342760552775,-7.176866811546766,55.18359789525116,62.36046470679793,3.7286249407279874,0,-3.7286249407279874,-2.4946980368523826,0.6594839958397659,-3.4579177654029154,0.48537747370839307,0.03313803672790527,2.5324580669403076,GUIDED_NOGPS
0.002,8e-05,0.0,-3.6086447200110263,-0.014870271239646855,-0.00028869157760088215,-0.0,-0.015158962817247738,0.04,0.002,0.0,-59.55539798383894,-2.4612831508150035,-0.11911079596767787,-0.0,-2.5803939467826815,0.08,0.002,0.06,-19.159488926385382,-0.9234582879416655,-0.03831897785277077,0.5156084519500694,-0.4461688138443668,0.6,0,0.4,20.625373909260176,2.3033756970579677,0.0,1.319231918374948,3.6226076154329157,-11.543228599270819,6.471559954168697,18.014788553439516,-61.53207877037509,38.25072154488692,99.78280031526201,-7.435135619823427,54.762233099816555,62.19736871963998,3.838959495096613,0,-3.838959495096613,-2.5447319341128134,0.6179311568018353,-3.6226076154329157,0.4848410371827523,0.033454179763793945,2.5659167766571045,GUIDED_NOGPS
