D-kp,D-ki,D-kd,D-I-Tot,D-P,D-I,D-D,D-PID,E-kp,E-ki,E-kd,E-I-Tot,E-P,E-I,E-D,E-PID,N-kp,N-ki,N-kd,N-I-Tot,N-P,N-I,N-D,N-PID,Y-kp,Y-ki,Y-kd,Y-I-Tot,Y-P,Y-I,Y-D,Y-PID,errorN,desiredN,actualN,errorE,desiredE,actualE,errorD,desiredD,actualD,errorY,desiredY,actualY,roll,pitch,yaw-rate,thrust,dt,Time,Mode
0.002,8e-05,0.0,-0.00274833928479841,-0.0012851742522534267,-2.198671427838728e-07,-0.0,-0.0012853941193962106,0.04,0.0,0.0,-0.0011936867922303029,-0.011163800183730928,-0.0,-0.0,-0.011163800183730928,0.08,0.002,0.06,-0.0003974247413646676,-0.007433726216198409,-7.948494827293352e-07,-1.3035554212960245,-1.3109899423617057,0.6,0,0.4,-0.023160006587075597,-3.2490141569161333,-0.0,-506.4330257877609,-509.68203994467706,-0.09292157770248011,-16.662539231410136,-16.569617653707656,-0.2790950045932732,44.49915860887964,44.77825361347291,-0.6425871261267133,73.51517644333047,74.15776356945719,-5.415023594860222,0,5.415023594860222,-0.13483125762658157,1.304085806753116,10.0,0.4987146058806038,0.00427699089050293,0.004532575607299805,GUIDED_NOGPS
0.002,8e-05,0.0,-0.06787493482034436,-0.005321969726676457,-5.4299947856275495e-06,-0.0,-0.0053273997214620845,0.04,0.0,0.0,-0.02108135019665433,-0.03250332424175554,-0.0,-0.0,-0.03250332424175554,0.08,0.002,0.06,-0.011558155408612929,-0.03648099228909701,-2.311631081722586e-05,-0.8901240887736196,-0.9266281973735339,0.6,0,0.4,-0.1604047488258748,-3.3645810471165145,-0.0,-3.147938186107506,-6.512519233224021,-0.45601240361371254,-16.747476381386463,-16.29146397777275,-0.8125831060438884,44.92573336924317,45.73831647528706,-2.6609848633382285,74.198807159743,76.85979202308123,-5.607635078527524,0,5.607635078527524,-0.12289373223589775,0.9190176346684654,6.512519233224021,0.49467260027853793,0.024474620819091797,0.028916358947753906,GUIDED_NOGPS
0.002,8e-05,0.0,-0.10426447565631367,-0.003977556757742378,-8.341158052505093e-06,0.0,-0.003985897915794883,0.04,0.0,0.0,-0.029693070390171248,-0.018826072033122046,-0.0,0.0,-0.018826072033122046,0.08,0.002,0.06,-0.022246653162316096,-0.046732226341623,-4.4493306324632193e-05,-0.42019146515844047,-0.46696818480638813,0.6,0,0.4,-0.26277491135200803,-3.356869493757333,-0.0,0.2809703051284926,-3.0758991886288403,-0.5841528292702876,-16.842142536131202,-16.257989706860915,-0.47065180082805114,45.375196383285804,45.845848184113855,-1.9887783788711886,74.93206459287596,76.92084297174715,-5.594782489595555,0,5.594782489595555,-0.06426217886207158,0.46290828354812197,3.0758991886288403,0.4960141020842051,0.018297433853149414,0.04721641540527344,GUIDED_NOGPS
0.002,8e-05,0.0,-0.12079870709923113,-0.002834355495165198,-9.663896567938491e-06,0.0,-0.0028440193917331365,0.04,0.0,0.0,-0.03223481784385656,-0.008714303882278215,-0.0,0.0,-0.008714303882278215,0.08,0.002,0.06,-0.02997089412833118,-0.052964650709260756,-5.9941788256662364e-05,-0.40064395302258826,-0.45366854552010566,0.6,0,0.4,-0.32716598805948954,-3.3114427374905056,-0.0,2.595737550042283,-0.7157051874482225,-0.6620581338657594,-16.945686596731164,-16.283628462865405,-0.2178575970569554,45.845377902333425,46.06323549939038,-1.417177747582599,75.71175221672154,77.12892996430413,-5.519071229150843,0,5.519071229150843,-0.05230641817057173,0.45072733099363543,0.7157051874482225,0.4971559806082669,0.011667013168334961,0.0589139461517334,GUIDED_NOGPS
0.002,8e-05,0.0,-0.12853016800498535,-0.001322839903844681,-1.0282413440398828e-05,0.0,-0.0013331223172850799,0.04,0.0,0.0,-0.030864393178173966,0.0046895469176561734,-0.0,0.0,0.0046895469176561734,0.08,0.002,0.06,-0.03820091699727697,-0.05632572055039702,-7.640183399455395e-05,-0.21565251507746427,-0.2720546374618559,0.6,0,0.4,-0.3905677293615306,-3.254379258588349,-0.0,3.25448828986471,0.00010903127636074927,-0.7040715068799628,-17.057283524732792,-16.35321201785283,0.11723867294140433,46.334174643782454,46.21693597084105,-0.6614199519223405,76.5347435878868,77.19616353980913,-5.423965430980582,0,5.423965430980582,-0.021047340097347676,0.27127979484219117,-0.00010903127636074927,0.4986668776827149,0.011689186096191406,0.07057595252990723,GUIDED_NOGPS
0.002,8e-05,0.0,-0.12601651328796937,0.00030546674685129463,-1.0081321063037551e-05,0.0,0.0002953854257882571,0.04,0.0,0.0,-0.023242424270988674,0.01852488355635046,-0.0,0.0,0.01852488355635046,0.08,0.002,0.06,-0.05233382558073513,-0.06869891205520333,-0.00010466765116147025,-0.563860043837102,-0.6326636235434668,0.6,0,0.4,-0.4776546878116792,-3.1749193368754454,-0.0,3.218734806918045,0.04381547004259945,-0.8587364006900415,-17.176134026209013,-16.31739762551897,0.4631220889087615,46.83954898869925,46.37642689979049,0.1527333734256473,77.39798174117041,77.24524836774476,-5.291532228125742,0,5.291532228125742,-0.039900471220859865,0.631675853790755,-0.04381547004259945,0.5002953854257882,0.016457796096801758,0.08705782890319824,GUIDED_NOGPS
0.002,8e-05,0.0,-0.10078249213295862,0.0019879817779383017,-8.06259937063669e-06,0.0,0.001979919178567665,0.04,0.0,0.0,-0.0019303020728777057,0.03358014984514341,-0.0,0.0,0.03358014984514341,0.08,0.002,0.06,-0.07734389381144204,-0.07881353447746647,-0.00015468778762288407,-0.2988180858492381,-0.37778630811432745,0.6,0,0.4,-0.6102667515518498,-3.134225393140354,-0.0,1.0686474702922257,-2.065577922848128,-0.985169180968331,-17.30146423582608,-16.31629505485775,0.8395037461285852,47.35952817941954,46.520024433290956,0.9939908889691509,78.29847858513928,77.30448769617013,-5.223708988567257,0,5.223708988567257,-0.0009547444005883893,0.37927458328420244,2.065577922848128,0.5019799191785677,0.025386571884155273,0.11243247985839844,GUIDED_NOGPS
0.002,8e-05,0.0,-0.04658310317917369,0.0029385821340022745,-3.7266482543338957e-06,0.0,0.0029348554857479407,0.04,0.0,0.0,0.03529735319915593,0.040368175651011313,0.0,0.0,0.040368175651011313,0.08,0.002,0.06,-0.11986519536183154,-0.09221678654498704,-0.0002397303907236631,-0.2725115390373404,-0.3649680559730511,0.6,0,0.4,-0.7993979966675726,-3.0762950022512534,-0.0,1.0469565245937538,-2.0293384776574994,-1.1527098318123379,-17.43252540091046,-16.279815569098123,1.0092043912752828,47.89220351714784,46.88299912587256,1.4692910670011372,79.23331429770518,77.76402323070404,-5.127158337085422,0,5.127158337085422,0.007590769289810055,0.3671153111867277,2.0293384776574994,0.5029348554857479,0.03688812255859375,0.14931964874267578,GUIDED_NOGPS
0.002,8e-05,0.0,-0.008311719257585858,0.0034464122179178676,-6.649375406068686e-07,0.0,0.0034457472803772608,0.04,0.0,0.0,0.05850272698384082,0.04179377672714736,0.0,0.0,0.04179377672714736,0.08,0.002,0.06,-0.14827969799185953,-0.10235123896311393,-0.00029655939598371907,-0.342235147943378,-0.44488294630247566,0.6,0,0.4,-0.9105192966477096,-3.002006460287196,-0.0,2.2299423436998853,-0.7720641165873108,-1.279390487038924,-17.568593565515645,-16.28920307847672,1.044844418178684,48.4357295595569,47.39088514137821,1.7232061089589337,80.19963672170148,78.47643061274255,-5.00334410047866,0,5.00334410047866,0.0028345555265416045,0.44683276623235346,0.7720641165873108,0.5034457472803773,0.02220940589904785,0.17175602912902832,GUIDED_NOGPS
0.002,8e-05,0.0,0.07648882913470226,0.0046039049306716325,6.1191063307761815e-06,0.0,0.004610024037002409,0.04,0.0,0.0,0.1046969759341061,0.05015862150489113,0.0,0.0,0.05015862150489113,0.08,0.002,0.06,-0.20021609059327689,-0.1127871074006913,-0.00040043218118655376,-0.21246507422338318,-0.325652613805261,0.6,0,0.4,-1.0910892762140412,-2.9409963792131975,-0.0,1.1040990433925133,-1.8368973358206842,-1.4098388425086412,-17.70896925448903,-16.29913041198039,1.2539655376222782,48.98832331838709,47.73435778076481,2.301952465335816,81.19466076045975,78.89270829512394,-4.901660632021996,0,4.901660632021996,0.0221495340746091,0.3287474871839283,1.8368973358206842,0.5046100240370024,0.036838531494140625,0.20836925506591797,GUIDED_NOGPS
0.002,8e-05,0.0,0.15179967719087695,0.005243939990627041,1.2143974175270156e-05,0.0,0.005256083964802311,0.04,0.0,0.0,0.14140160021635406,0.05111530465599089,0.0,0.0,0.05111530465599089,0.08,0.002,0.06,-0.24510862470082234,-0.12503577424147438,-0.0004902172494016447,-0.3198307856841189,-0.4453567771749949,0.6,0,0.4,-1.2273295729123683,-2.845948327357902,-0.0,2.206084484152048,-0.6398638432058541,-1.5629471780184296,-17.852977157538774,-16.290029979520344,1.277882616399772,49.548263457045856,48.270380840646084,2.6219699953135205,82.21566777338647,79.59369777807295,-4.74324721226317,0,4.74324721226317,0.014113360372512977,0.4480583069253023,0.6398638432058541,0.5052560839648023,0.02872300148010254,0.2371528148651123,GUIDED_NOGPS
0.002,8e-05,0.0,0.27734483363597445,0.006247139972574587,2.2187586690877957e-05,0.0,0.006269327559265465,0.04,0.0,0.0,0.1973682064595228,0.05569808233007223,0.0,0.0,0.05569808233007223,0.08,0.002,0.06,-0.31437920191492663,-0.1378764435334594,-0.0006287584038298532,-0.23960738713459678,-0.37811258907188605,0.6,0,0.4,-1.4117088240693714,-2.7524191835787746,-0.0,1.5513399567344233,-1.2010792268443513,-1.7234555441682424,-17.999965813300633,-16.27651026913239,1.3924520582518056,50.11388948820713,48.72143742995532,3.1235699862872934,83.26000497153964,80.13643498525235,-4.587365305964624,0,4.587365305964624,0.025278545218325538,0.38135600367837075,1.2010792268443513,0.5062693275592655,0.04019284248352051,0.2772970199584961,GUIDED_NOGPS
0.002,8e-05,0.0,0.37220259215055324,0.00723747830221896,2.977620737204426e-05,0.0,0.007267254509591005,0.04,0.0,0.0,0.2358621524040308,0.0587403925420287,0.0,0.0,0.0587403925420287,0.08,0.002,0.06,-0.3627647634625137,-0.14766929234893128,-0.0007255295269250274,-0.28019135675653,-0.42858617863238635,0.6,0,0.4,-1.527899055380523,-2.65953241320272,-0.0,2.3623651373284598,-0.2971672758742603,-1.8458661543616408,-18.149307293404817,-16.303441139043176,1.4685098135507175,50.68360097141075,49.21509115786003,3.61873915110948,84.32508481320545,80.70634566209597,-4.432554022004534,0,4.432554022004534,0.02544119613550022,0.4318440595514756,0.2971672758742603,0.507267254509591,0.02621293067932129,0.3035104274749756,GUIDED_NOGPS
0.002,8e-05,0.0,0.5131638715041118,0.00853589440243917,4.105310972032895e-05,0.0,0.008576947512159499,0.04,0.0,0.0,0.28988394641394644,0.06542567309457667,0.0,0.0,0.06542567309457667,0.08,0.002,0.06,-0.4279346613043631,-0.15785423309063673,-0.0008558693226087262,-0.23128047751390451,-0.38999057992714997,0.6,0,0.4,-1.6696912693262949,-2.575863465938282,-0.0,1.6888545608357373,-0.8870089051025449,-1.9731779136329592,-18.300396886542863,-16.327218972909904,1.6356418273644167,51.25585671066189,49.62021488329747,4.2679472012195845,85.40838439947503,81.14043719825544,-4.293105776563804,0,4.293105776563804,0.0360478956759379,0.3937940075078973,0.8870089051025449,0.5085769475121595,0.03302788734436035,0.33654022216796875,GUIDED_NOGPS
0.002,8e-05,0.0,0.6956857554914166,0.009689737782277262,5.565486043931334e-05,0.0,0.009745392642716576,0.04,0.0,0.0,0.353937462097402,0.06800957314782466,0.0,0.0,0.06800957314782466,0.08,0.002,0.06,-0.507501643470029,-0.1689623570543594,-0.001015003286940058,-0.22114089714234528,-0.39111825748364476,0.6,0,0.4,-1.8247197345080743,-2.469049426157842,-0.0,1.890184370093014,-0.5788650560648279,-2.1120294631794927,-18.452652782534464,-16.34062331935497,1.7002393286956163,51.82917395203048,50.128934623334864,4.844868891138631,86.50744486982093,81.6625759786823,-4.115082376929736,0,4.115082376929736,0.03976759131063616,0.3949902936252259,0.5788650560648279,0.5097453926427166,0.037673234939575195,0.37425827980041504,GUIDED_NOGPS
0.002,8e-05,0.0,0.8821681202169587,0.010749618321346304,7.05734496173567e-05,0.0,0.01082019177096366,0.04,0.0,0.0,0.41303913204539394,0.06813731636555957,0.0,0.0,0.06813731636555957,0.08,0.002,0.06,-0.5855583510752298,-0.17998051781717067,-0.0011711167021504596,-0.23817471221294564,-0.41932634673226676,0.6,0,0.4,-1.9606968026822447,-2.351484954857737,-0.0,2.2589681987480383,-0.09251675610969867,-2.2497564727146333,-18.605515756394343,-16.35575928367971,1.7034329091389893,52.40212758125064,50.69869467211165,5.374809160673152,87.61987079767398,82.24506163700083,-3.919141591429562,0,3.919141591429562,0.039317609785549434,0.42300284219622075,0.09251675610969867,0.5108201917709636,0.03469562530517578,0.4089229106903076,GUIDED_NOGPS
0.002,8e-05,0.0,1.059387003003271,0.012227804090348683,8.47509602402617e-05,0.0,0.012312555050588946,0.04,0.0,0.0,0.465320315856938,0.0721462705562712,0.0,0.0,0.0721462705562712,0.08,0.002,0.06,-0.6519291556533267,-0.1831789441260304,-0.0013038583113066534,-0.0827572583277814,-0.26724006076511847,0.6,0,0.4,-2.0697299421769544,-2.256930832880658,-0.0,2.1746916605660154,-0.0822391723146425,-2.28973680157538,-18.75844885239909,-16.46871205082371,1.8036567639067798,52.97334932132007,51.16969255741329,6.113902045174342,88.74332958599983,82.62942754082549,-3.76155138813443,0,3.76155138813443,0.05445874835548866,0.27139745606854254,0.0822391723146425,0.5123125550505889,0.028986215591430664,0.43790531158447266,GUIDED_NOGPS
0.002,8e-05,0.0,1.2878439138868252,0.013800212214971339,0.00010302751311094603,0.0,0.013903239728082285,0.04,0.0,0.0,0.5278020152539742,0.07548563165774795,0.0,0.0,0.07548563165774795,0.08,0.002,0.06,-0.7316919472178594,-0.1927266627552592,-0.0014633838944357188,-0.2162779997701932,-0.41046804641988816,0.6,0,0.4,-2.189038326097359,-2.16208957403711,-0.0,1.9096664570342896,-0.2524231170028206,-2.40908328444074,-18.91093706815402,-16.50185378371328,1.8871407914436986,53.541526930099536,51.65438613865584,6.900106107485669,89.87555086287563,82.97544475538996,-3.6034826233951835,0,3.6034826233951835,0.04953798758348907,0.41440087536672354,0.2524231170028206,0.5139032397280823,0.033109188079833984,0.4714176654815674,GUIDED_NOGPS
0.002,8e-05,0.0,1.544586122443727,0.015265118293238174,0.00012356688979549816,0.0,0.015388685183033672,0.04,0.0,0.0,0.5920643873931628,0.07641694118179203,0.0,0.0,0.07641694118179203,0.08,0.002,0.06,-0.8164351711333464,-0.20154307231233104,-0.0016328703422666929,-0.19657393241863866,-0.3997498750732364,0.6,0,0.4,-2.304456249521438,-2.0587206102162816,-0.0,2.048669064381347,-0.010051545834934394,-2.519288403904138,-19.062487038660045,-16.543198634755907,1.9104235295448007,54.10540339791223,52.194979868367426,7.632559146619087,91.01432587706671,83.38176673044762,-3.431201017027136,0,3.431201017027136,0.05235493823437101,0.4036068284396645,0.010051545834934394,0.5153886851830337,0.03363776206970215,0.5046617984771729,GUIDED_NOGPS
0.002,8e-05,0.0,1.8386211009799653,0.016837283509989674,0.00014708968807839725,0.0,0.01698437319806807,0.04,0.0,0.0,0.6570336769742526,0.07440654534131284,0.0,-0.0,0.07440654534131284,0.08,0.002,0.06,-0.9076085011985903,-0.20883382167665218,-0.0018152170023971806,-0.15655843225496902,-0.3672074709340184,0.6,0,0.4,-2.418526480711419,-1.9595962686042185,-0.0,1.892047731613306,-0.06754853699091257,-2.6104227709581522,-19.21262672038049,-16.60220394942234,1.8601636335328209,54.663776145143196,52.803612511610375,8.418641754994837,92.15750689360326,83.73886513860842,-3.265993781007031,0,3.265993781007031,0.05336534140957494,0.3708501058859581,0.06754853699091257,0.5169843731980681,0.034926652908325195,0.5395894050598145,GUIDED_NOGPS
0.002,8e-05,0.0,2.136392836533435,0.018399581336184384,0.0001709114269226748,0.0,0.018570492763107058,0.04,0.0,0.0,0.714348741762578,0.07083098027429173,0.0,-0.0,0.07083098027429173,0.08,0.002,0.06,-0.9947282922614968,-0.21532838617794198,-0.001989456584522994,-0.15048935163683438,-0.3678071943992993,0.6,0,0.4,-2.5184984641496695,-1.8532074280248119,-0.0,2.191287141322879,0.3380797132980673,-2.6916048272242747,-19.36090507530799,-16.669300248083715,1.7707745068572933,55.21549621983883,53.44472171298154,9.199790668092191,93.3030065893569,84.1032159212647,-3.08867904670802,0,3.08867904670802,0.050910078485698465,0.3710893745812201,-0.3380797132980673,0.5185704927631071,0.03236722946166992,0.5720164775848389,GUIDED_NOGPS
0.002,8e-05,0.0,2.521242209159571,0.019868728773335134,0.0002016993767327657,0.0,0.0200704281500679,0.04,0.0,0.0,0.7802669639521301,0.06806357869144705,0.0,-0.0,0.06806357869144705,0.08,0.002,0.06,-1.1030732801612084,-0.2237423087209632,-0.002206146560322417,-0.1628954957621245,-0.38884395104341013,0.6,0,0.4,-2.6296777236284847,-1.7219650405542655,-0.0,2.258562774333732,0.5365977337794667,-2.79677885901204,-19.50689175503131,-16.71011289601927,1.7015894672861762,55.75946749530622,54.05787802802004,9.934364386667568,94.4487974486175,84.51443306194993,-2.869941734257109,0,2.869941734257109,0.048509187121252836,0.39176412261994076,-0.5365977337794667,0.5200704281500679,0.03873920440673828,0.6107065677642822,GUIDED_NOGPS
0.002,8e-05,0.0,2.8488293208064333,0.021182781399988925,0.00022790634566451467,0.0,0.02141068774565344,0.04,0.0,0.0,0.8272173526015733,0.060719105486529944,0.0,-0.0,0.060719105486529944,0.08,0.002,0.06,-1.1922947559170214,-0.23077330577732455,-0.002384589511834043,-0.17049213977023817,-0.4036500350593968,0.6,0,0.4,-2.7107733198096433,-1.5731665489871973,-0.0,3.2072547092055204,1.634088160218323,-2.8846663222165567,-19.650176784802216,-16.76551046258566,1.5179776371632485,56.29464586771259,54.77666823054934,10.591390699994463,95.59291115866966,85.0015204586752,-2.6219442483119955,0,2.6219442483119955,0.042190331053145444,0.40600509422932446,-1.634088160218323,0.5214106877456535,0.0309295654296875,0.6416280269622803,GUIDED_NOGPS
0.002,8e-05,0.0,3.1953435545799924,0.02272495777178466,0.0002556274843663994,0.0,0.02298058525615106,0.04,0.0,0.0,0.871356252011616,0.057893992651496834,0.0,-0.0,0.057893992651496834,0.08,0.002,0.06,-1.2868055983397666,-0.24792688942598545,-0.0025736111966795333,-0.4218597961389935,-0.6723602967616584,0.6,0,0.4,-2.785169547231956,-1.463707081935011,-0.0,2.3928423174178546,0.9291352354828435,-3.099086117824818,-19.79037024760232,-16.6912841297775,1.4473498162874208,56.820038453684745,55.372688637397324,11.36247888589233,96.73343800536952,85.37095911947719,-2.4395118032250185,0,2.4395118032250185,0.029222743553245556,0.6742151839774734,-0.9291352354828435,0.5229805852561511,0.03049635887145996,0.6721470355987549,GUIDED_NOGPS
0.002,8e-05,0.0,3.6193766012052113,0.024241629402961054,0.00028955012809641696,0.0,0.024531179531057472,0.04,0.0,0.0,0.9185718896097896,0.053985603140553166,0.0,-0.0,0.053985603140553166,0.08,0.002,0.06,-1.401881389567989,-0.2631516299410208,-0.002803762779135978,-0.3263948295944414,-0.5923502223145982,0.6,0,0.4,-2.8643611627343635,-1.3581963552910785,-0.0,2.0106545576230426,0.652458202331964,-3.28939537426276,-19.927101968209932,-16.637706593947172,1.3496400785138292,57.33470278790849,55.98506270939466,12.120814701480526,97.86852626872134,85.74771156724081,-2.2636605921517976,0,2.2636605921517976,0.030546794779502028,0.5940203065142657,-0.652458202331964,0.5245311795310574,0.03498387336730957,0.7071077823638916,GUIDED_NOGPS
0.002,8e-05,0.0,4.088438867436729,0.02564710910577395,0.00032707510939493833,0.0,0.025974184215168887,0.04,0.0,0.0,0.9608668801979018,0.0462516094912479,0.0,-0.0,0.0462516094912479,0.08,0.002,0.06,-1.5270153315234474,-0.27367998606676935,-0.003054030663046895,-0.21587371045977494,-0.49260772718959117,0.6,0,0.4,-2.940399204276501,-1.2472689158871848,-0.0,2.0217416364729033,0.7744727205857185,-3.420999825834617,-20.06002119726694,-16.639021371432325,1.1562902372811976,57.83774602072802,56.68145578344682,12.823554552886975,98.99638161845417,86.17282706556719,-2.0787815264786413,0,2.0787815264786413,0.028352504270964002,0.4939612533073729,-0.7744727205857185,0.5259741842151688,0.03657817840576172,0.7437074184417725,GUIDED_NOGPS
0.002,8e-05,0.0,4.536815359215087,0.027156092747148988,0.00036294522873720695,0.0,0.027519037975886194,0.04,0.0,0.0,0.9922793601855682,0.038050175939407044,0.0,-0.0,0.038050175939407044,0.08,0.002,0.06,-1.643625043640972,-0.2825004624950046,-0.003287250087281944,-0.2003308160256997,-0.4861185286079862,0.6,0,0.4,-3.00380931159812,-1.1521371796519881,-0.0,1.920563261582517,0.7684260819305289,-3.531255781187557,-20.18879629534562,-16.657540514158065,0.951254398485176,58.328324115745396,57.37706971726022,13.578046373574495,100.11526650959851,86.53722013602402,-1.9202286327533138,0,1.9202286327533138,0.021739930437145165,0.4871205345390414,-0.7684260819305289,0.5275190379758862,0.033022165298461914,0.7767195701599121,GUIDED_NOGPS
0.002,8e-05,0.0,5.053922559252269,0.028658132680753113,0.00040431380474018156,0.0,0.029062446485493294,0.04,0.0,0.0,1.0188051643755525,0.029401254358306518,0.0,-0.0,0.029401254358306518,0.08,0.002,0.06,-1.774909989119407,-0.29103299170739744,-0.003549819978238814,-0.17732760797971944,-0.47191041966535574,0.6,0,0.4,-3.0674609236437105,-1.0582736093493832,-0.0,1.733976147452486,0.6757025381031028,-3.637912396342468,-20.313114417015527,-16.67520202067306,0.7350313589576629,58.805641047419925,58.07060968846226,14.329066340376556,101.22349957806304,86.89443323768648,-1.7637893489156389,0,1.7637893489156389,0.014862360744745909,0.4725917775201628,-0.6757025381031028,0.5290624464854933,0.036087989807128906,0.8128373622894287,GUIDED_NOGPS
0.002,8e-05,0.0,5.478086874456306,0.030016941131410194,0.0004382469499565045,0.0,0.0304551880813667,0.04,0.0,0.0,1.0292725983103928,0.01481502978711859,0.0,-0.0,0.01481502978711859,0.08,0.002,0.06,-1.882224842305353,-0.30377507160723244,-0.003764449684610706,-0.3381457213648619,-0.645685242656705,0.6,0,0.4,-3.113589929876823,-0.9793268421581317,-0.0,1.8622818079003378,0.8829549657422061,-3.797188395090405,-20.432681194910323,-16.635492799819918,0.37037574467796475,59.2689479986676,58.898572253989634,15.008470565705096,102.31945503621118,87.31098447050609,-1.6322114035968862,0,1.6322114035968862,-0.003582427992720915,0.6458452476421254,-0.8829549657422061,0.5304551880813667,0.028261661529541016,0.8410842418670654,GUIDED_NOGPS
0.002,8e-05,0.0,6.039345370624236,0.03165970137596341,0.0004831476296499389,0.0,0.03214284900561335,0.04,0.0,0.0,1.035530606926086,0.007060086763364381,0.0,-0.0,0.007060086763364381,0.08,0.002,0.06,-2.0236839217742806,-0.31917929036141857,-0.004047367843548561,-0.3258478283740957,-0.6490744865790629,0.6,0,0.4,-3.1679755315905815,-0.9203416542461591,-0.0,1.1090869582366734,0.18874530399051426,-3.989741129517732,-20.54722042379465,-16.557479294276916,0.17650216908410954,59.71754255846053,59.54104038937642,15.829850687981704,103.40156206843781,87.57171138045611,-1.533902757076932,0,1.533902757076932,-0.010317164758193373,0.6490308852930904,-0.18874530399051426,0.5321428490056134,0.03545570373535156,0.8765361309051514,GUIDED_NOGPS
0.002,8e-05,0.0,6.58522351072295,0.03305797567883968,0.0005268178808578361,0.0,0.03358479355969752,0.04,0.0,0.0,1.0315467184702387,-0.004825226657978589,0.0,-0.0,-0.004825226657978589,0.08,0.002,0.06,-2.1599530755829175,-0.33009435926980785,-0.004319906151165835,-0.24787818196095565,-0.5822924473819293,0.6,0,0.4,-3.213235388461837,-0.822271018623583,-0.0,1.9796950082627096,1.1574239896391267,-4.126179490872598,-20.656473744630965,-16.530294253758367,-0.12063066644946474,60.15076791942636,60.27139858587582,16.52898783941984,104.46830422674593,87.93931638732609,-1.3704516977059717,0,1.3704516977059717,-0.018750309965004135,0.5820104835538222,-1.1574239896391267,0.5335847935596976,0.033025503158569336,0.9095602035522461,GUIDED_NOGPS
0.002,8e-05,0.0,7.142640401623705,0.03451676612616319,0.0005714112321298964,0.0,0.03508817735829309,0.04,0.0,0.0,1.0162178165199554,-0.018984143904710607,0.0,-0.0,-0.018984143904710607,0.08,0.002,0.06,-2.2925771819291128,-0.3284977786766109,-0.004585154363858226,0.03707422566252272,-0.2960087073779464,0.6,0,0.4,-3.254237429468988,-0.7616872846383663,-0.0,1.2505030562422919,0.48881577160392553,-4.106222233457636,-20.760200328646416,-16.65397809518878,-0.47460359761776516,60.568012075447655,61.04261567306542,17.258383063081595,105.51821882632326,88.25983576324167,-1.2694788077306105,0,1.2694788077306105,-0.02553748978101366,0.295515463519326,-0.48881577160392553,0.5350881773582931,0.03229832649230957,0.9418590068817139,GUIDED_NOGPS
0.002,8e-05,0.0,7.729932271904134,0.03586892719546094,0.0006183945817523307,0.0,0.03648732177721327,0.04,0.0,0.0,0.9878862391096879,-0.034607095343451987,0.0,-0.0,-0.034607095343451987,0.08,0.002,0.06,-2.431258192731826,-0.3387984293057042,-0.004862516385463652,-0.2359175902420578,-0.5795785359332256,0.6,0,0.4,-3.2931403300225957,-0.7127999100259798,-0.0,0.9952675830001502,0.2824676729741704,-4.234980366321302,-20.858176561399677,-16.623196195078375,-0.8651773835862997,60.96870701926143,61.83388440284773,17.93446359773047,106.54989634111902,88.61543274338855,-1.1879998500432996,0,1.1879998500432996,-0.04661607172157727,0.578736444523637,-0.2824676729741704,0.5364873217772133,0.03274655342102051,0.97463059425354,GUIDED_NOGPS
0.002,8e-05,0.0,8.359945582238614,0.03715244073939056,0.0006687956465790892,0.0,0.037821236385969646,0.04,0.0,0.0,0.9438795683764206,-0.05190224396013377,0.0,-0.0,-0.05190224396013377,0.08,0.002,0.06,-2.5788745132714532,-0.34820258626622946,-0.005157749026542906,-0.20796428729082034,-0.5613246225835927,0.6,0,0.4,-3.3300872736005624,-0.6536381577652328,-0.0,1.1629402420820614,0.5093020843168286,-4.352532328327868,-20.95019572684781,-16.59766339851994,-1.2975560990033443,61.35232794005843,62.649884039061774,18.576220369695278,107.56197979942048,88.9857594297252,-1.0893969296087214,0,1.0893969296087214,-0.06256500069013318,0.5602363746985317,-0.5093020843168286,0.5378212363859697,0.033915042877197266,1.0085334777832031,GUIDED_NOGPS
0.002,8e-05,0.0,9.046160870339332,0.038404359595994295,0.0007236928696271466,0.0,0.03912805246562144,0.04,0.0,0.0,0.8806045315977657,-0.07082434064163722,0.0,-0.0,-0.07082434064163722,0.08,0.002,0.06,-2.740351888031328,-0.36148627256961763,-0.005480703776062656,-0.27878539417692155,-0.6457523705226018,0.6,0,0.4,-3.365263633690436,-0.5905984341628633,-0.0,1.176015873365458,0.5854174392025947,-4.51857840712022,-21.03606769141311,-16.51748928429289,-1.7706085160409302,61.718392421082676,63.489000937123606,19.202179797997147,108.55316417942964,89.3509843814325,-0.9843307236047723,0,0.9843307236047723,-0.08190724778816888,0.6444403882615131,-0.5854174392025947,0.5391280524656215,0.0357363224029541,1.0442655086517334,GUIDED_NOGPS
0.002,8e-05,0.0,9.671790275375798,0.0396129389680732,0.000773743222030064,0.0,0.04038668219010326,0.04,0.0,0.0,0.8088198186818827,-0.09090376598944488,0.0,-0.0,-0.09090376598944488,0.08,0.002,0.06,-2.886559269430481,-0.37029615484322503,-0.005773118538860963,-0.20918054243309206,-0.5852498158151781,0.6,0,0.4,-3.3933670362735096,-0.5338264293636945,-0.0,1.1982098577317501,0.6643834283680556,-4.628701935540313,-21.115618588049976,-16.486916652509663,-2.272594149736122,62.06645963723081,64.33905378696693,19.806469484036597,109.52219580484,89.7157263208034,-0.8897107156061576,0,0.8897107156061576,-0.09998042348231063,0.5837677247870607,-0.6643834283680556,0.5403866821901032,0.03158712387084961,1.0759074687957764,GUIDED_NOGPS
0.002,8e-05,0.0,10.353833230374414,0.040825669596873414,0.0008283066584299533,0.0,0.041653976255303364,0.04,0.0,0.0,0.7182167503933254,-0.10846621619071187,0.0,-0.0,-0.10846621619071187,0.08,0.002,0.06,-3.0432515523482424,-0.37517093748403596,-0.006086503104696485,-0.10942287285119957,-0.490680313439932,0.6,0,0.4,-3.420278904707485,-0.4832665043460114,-0.0,1.008803907186369,0.5255374028403577,-4.6896367185504495,-21.188690500311747,-16.499053781761297,-2.7116554047677965,62.39612955265156,65.10778495741936,20.412834798436705,110.46787174041303,90.05503694197633,-0.8054441739100191,0,0.8054441739100191,-0.11535308523470626,0.48910710051999323,-0.5255374028403577,0.5416539762553033,0.03341245651245117,1.1092755794525146,GUIDED_NOGPS
0.002,8e-05,0.0,11.059354353620625,0.041898863306493665,0.00088474834828965,0.0,0.04278361165478332,0.04,0.0,0.0,0.6086429605485104,-0.13014542276376914,0.0,-0.0,-0.13014542276376914,0.08,0.002,0.06,-3.2066309332369984,-0.3881051960831883,-0.006413261866473997,-0.2880481082496953,-0.6825665661993576,0.6,0,0.4,-3.4444238700572467,-0.4301699422158807,-0.0,1.051083861008998,0.6209139187931174,-4.851314951039853,-21.255141146417564,-16.40382619537771,-3.2536355690942287,62.70704211834514,65.96067768743937,20.949431653246833,111.389039187555,90.43960753430817,-0.7169499036931345,0,0.7169499036931345,-0.13867605955368012,0.6808846443166466,-0.6209139187931174,0.5427836116547833,0.03367733955383301,1.142974853515625,GUIDED_NOGPS
0.002,8e-05,0.0,11.830060409508478,0.04295695757605688,0.0009464048327606783,0.0,0.04390336240881756,0.04,0.0,0.0,0.4712111542536046,-0.15320113881316616,0.0,-0.0,-0.15320113881316616,0.08,0.002,0.06,-3.388579031711055,-0.4056507244225722,-0.006777158063422111,-0.366726641807761,-0.7791545242937553,0.6,0,0.4,-3.468663788580073,-0.4053191785677294,-0.0,0.46170356459116146,0.05638438602343204,-5.070634055282152,-21.314843563319222,-16.24420950803707,-3.830028470329154,62.998876469762706,66.82890494009186,21.47847878802844,112.28459487989358,90.80611609186514,-0.6755319642795491,0,0.6755319642795491,-0.16237670991393544,0.7772941307758633,-0.05638438602343204,0.5439033624088175,0.03588271141052246,1.178835153579712,GUIDED_NOGPS
0.002,8e-05,0.0,12.616571081769518,0.043963469227738076,0.0010093256865415616,0.0,0.044972794914279635,0.04,0.0,0.0,0.3138558442999596,-0.17591332377171454,0.0,-0.0,-0.17591332377171454,0.08,0.002,0.06,-3.5756279140594915,-0.41821773426509795,-0.007151255828118984,-0.26342109998406665,-0.6887900900772836,0.6,0,0.4,-3.4913760798942595,-0.38086366358341833,-0.0,0.45566208587712254,0.0747984222937042,-5.227721678313724,-21.36768579076802,-16.139964112454297,-4.397833094292864,63.27135012440573,67.66918321869859,21.981734613869037,113.15348447885444,91.1717498649854,-0.6347727726390305,0,0.6347727726390305,-0.18353339107584474,0.6867989371200902,-0.0747984222937042,0.5449727949142796,0.03578019142150879,1.2146499156951904,GUIDED_NOGPS
0.002,8e-05,0.0,13.28004341658384,0.04497716505662629,0.0010624034733267072,0.0,0.046039568529953,0.04,0.0,0.0,0.16489608087552424,-0.2019613332698134,0.0,-0.0,-0.2019613332698134,0.08,0.002,0.06,-3.732955464631173,-0.42661294759170687,-0.007465910929262346,-0.2134185984458667,-0.6474974569668359,0.6,0,0.4,-3.5097100965490435,-0.37286200944486875,-0.0,0.18081222081214066,-0.1920497886327281,-5.332661844896336,-21.41357055538163,-16.080908710485293,-5.049033331745335,63.524218179425475,68.57325151117081,22.488582528313145,113.99470196923806,91.50611944092492,-0.6214366824081146,0,0.6214366824081146,-0.20897214916515897,0.6452689189693974,0.1920497886327281,0.5460395685299531,0.02950263023376465,1.244135856628418,GUIDED_NOGPS
0.002,8e-05,0.0,14.073430993014098,0.0459444239927617,0.0011258744794411279,0.0,0.04707029847220282,0.04,0.0,0.0,-0.030468650802028874,-0.22626822834336735,-0.0,-0.0,-0.22626822834336735,0.08,0.002,0.06,-3.9196254852437113,-0.43239631315370985,-0.007839250970487422,-0.12559123405423603,-0.5658267981784333,0.6,0,0.4,-3.531139455782372,-0.3722869864962367,-0.0,0.011099702483531567,-0.3611872840127051,-5.404953914421373,-21.452414954710928,-16.047461040289555,-5.656705708584184,63.757272509222375,69.41397821780656,22.97221199638085,114.80728905479623,91.83507705841538,-0.6204783108270612,0,0.6204783108270612,-0.2323823995901003,0.563343320769183,0.3611872840127051,0.5470702984722028,0.03453683853149414,1.2786743640899658,GUIDED_NOGPS
0.002,8e-05,0.0,14.927060016934822,0.04672965752028597,0.0011941648013547859,0.0,0.047923822321640754,0.04,0.0,0.0,-0.26277700885816274,-0.2543421019403215,-0.0,-0.0,-0.2543421019403215,0.08,0.002,0.06,-4.1217314829475535,-0.4425502784391425,-0.008243462965895107,-0.2084444648808613,-0.6592382062858989,0.6,0,0.4,-3.5521212194678164,-0.34457730596685243,-0.0,0.5056309961546461,0.1610536901877937,-5.531878480489281,-21.484150141306863,-15.952271660817582,-6.358552548508037,63.97034096304548,70.32889351155352,23.364828760142984,115.59033455380879,92.2255057936658,-0.5742955099447541,0,0.5742955099447541,-0.2609369884917319,0.6566557739663423,-0.1610536901877937,0.5479238223216407,0.036534786224365234,1.3152086734771729,GUIDED_NOGPS
0.002,8e-05,0.0,15.763399827684953,0.04745133159178516,0.0012610719862147964,0.0,0.048712403577999955,0.04,0.0,0.0,-0.512836202191576,-0.28375168915600396,-0.0,-0.0,-0.28375168915600396,0.08,0.002,0.06,-4.319144420714665,-0.44802395629564773,-0.008638288841429332,-0.11645982574475959,-0.5731220708818366,0.6,0,0.4,-3.5729649736050773,-0.35478302352881047,-0.0,-0.1930136060087106,-0.5477966295375211,-5.600299453695596,-21.508721006787297,-15.908421553091701,-7.093792228900099,64.1632865625919,71.257078791492,23.72566579589258,116.34297379466034,92.61730799876776,-0.5913050392146841,0,0.5913050392146841,-0.28965121928945864,0.570163222590602,0.5477966295375211,0.548712403578,0.03525042533874512,1.3504629135131836,GUIDED_NOGPS
0.002,8e-05,0.0,16.422404000220887,0.04794767920350688,0.001313792320017671,0.0,0.04926147152352455,0.04,0.0,0.0,-0.7292645380482762,-0.3149368957186698,-0.0,-0.0,-0.3149368957186698,0.08,0.002,0.06,-4.473417960832021,-0.44898399854868487,-0.008946835921664042,-0.026193952873603155,-0.4841247873439521,0.6,0,0.4,-3.5893547752383346,-0.3577456639901681,-0.0,-0.07185171220280831,-0.42959737619297644,-5.612299981858561,-21.52608586590389,-15.91378588404533,-7.873422392966745,64.33600669960619,72.20942909257293,23.97383960175344,117.06438801141678,93.09054840966334,-0.5962427733169469,0,0.5962427733169469,-0.31995774815071826,0.48082127386801493,0.42959737619297644,0.5492614715235246,0.02748847007751465,1.377976894378662,GUIDED_NOGPS
0.002,8e-05,0.0,17.22775237783484,0.04856165560815296,0.0013782201902267873,0.0,0.049939875798379746,0.04,0.0,0.0,-1.011347847896722,-0.3401865062733026,-0.0,-0.0,-0.3401865062733026,0.08,0.002,0.06,-4.657097580966093,-0.44302747497247397,-0.009314195161932187,0.13468952749374125,-0.31765214264066494,0.6,0,0.4,-3.608985903927364,-0.35512089069594116,-0.0,0.05275701808343174,-0.3023638726125094,-5.537843437155924,-21.536216140608914,-15.99837270345299,-8.504662656832565,64.48843233347976,72.99309499031233,24.28082780407648,117.75380373940206,93.47297593532558,-0.591868151159902,0,0.591868151159902,-0.3434496593165014,0.3141211140468279,0.3023638726125094,0.5499398757983798,0.03316807746887207,1.4111182689666748,GUIDED_NOGPS
0.002,8e-05,0.0,18.05569235908953,0.04880959674947437,0.0014444553887271625,0.0,0.050254052138201534,0.04,0.0,0.0,-1.3270826365292112,-0.3722706491255099,-0.0,-0.0,-0.3722706491255099,0.08,0.002,0.06,-4.848289767541392,-0.45085459041359455,-0.009696579535082784,-0.17303715715014412,-0.6335883270988214,0.6,0,0.4,-3.6298268781095553,-0.3685917706827184,-0.0,-0.26471653940371714,-0.6333083100864356,-5.635682380169932,-21.539096044122125,-15.903413663952193,-9.306766228137747,64.62052718885039,73.92729341698814,24.404798374737183,118.4104922107748,94.00569383603762,-0.6143196178045307,0,0.6143196178045307,-0.37904239189459615,0.6295605368691998,0.6333083100864356,0.5502540521382016,0.03392529487609863,1.4450478553771973,GUIDED_NOGPS
0.002,8e-05,0.0,18.996971598664462,0.04906769507604466,0.001519757727893157,0.0,0.05058745280393782,0.04,0.0,0.0,-1.7157766565634276,-0.40524254336117566,-0.0,-0.0,-0.40524254336117566,0.08,0.002,0.06,-5.0676193436636625,-0.45733492506158596,-0.010135238687327325,-0.12667936535043114,-0.5941495290993444,0.6,0,0.4,-3.6550584395695638,-0.39458680653721917,-0.0,-0.4516961029104379,-0.846282909447657,-5.716686563269825,-21.534722264997615,-15.81803570172779,-10.131063584029391,64.73228695320154,74.86335053723093,24.53384753802233,119.03376875010501,94.49992121208268,-0.6576446775620319,0,0.6576446775620319,-0.4120353862480718,0.589459093032086,0.846282909447657,0.5505874528039378,0.03836655616760254,1.4834420680999756,GUIDED_NOGPS
0.002,8e-05,0.0,19.79699777358079,0.0490574335795244,0.0015837598218864635,-0.0,0.050641193401410864,0.04,0.0,0.0,-2.075360876567795,-0.44099254604899046,-0.0,-0.0,-0.44099254604899046,0.08,0.002,0.06,-5.260569522365853,-0.4732665441517614,-0.010521139044731707,-0.3663463005189965,-0.8501339837154896,0.6,0,0.4,-3.6780615321077077,-0.42316341128401175,-0.0,-0.5841037594554191,-1.007267170739431,-5.915831801897017,-21.52310365119068,-15.607271849293664,-11.024813651224761,64.82373847446183,75.8485521256866,24.5287167897622,119.62299216995068,95.09427538018848,-0.7052723521400196,0,0.7052723521400196,-0.4514234479460538,0.8446413952579142,1.007267170739431,0.5506411934014108,0.03261590003967285,1.5160338878631592,GUIDED_NOGPS
0.002,8e-05,0.0,20.626991067098196,0.04903506149691137,0.0016501592853678559,-0.0,0.050685220782279224,0.04,0.0,0.0,-2.4724959305548335,-0.46924576251230404,-0.0,-0.0,-0.46924576251230404,0.08,0.002,0.06,-5.473778142047632,-0.503844927877041,-0.010947556284095264,-0.6774510731696358,-1.1922435573307721,0.6,0,0.4,-3.70442208577681,-0.46720547515964855,-0.0,-0.8673183777347652,-1.3345238528944137,-6.298061598463013,-21.50426089412465,-15.206199295661635,-11.731144062807601,64.8949389586045,76.6260830214121,24.517530748455684,120.17756416643451,95.66003341797882,-0.7786757919327476,0,0.7786757919327476,-0.4854050634855781,1.185756387279887,1.3345238528944137,0.5506852207822792,0.03385305404663086,1.5498907566070557,GUIDED_NOGPS
0.002,8e-05,0.0,21.434678540865516,0.048930970360981124,0.0017147742832692415,-0.0,0.05064574464425037,0.04,0.0,0.0,-2.8843015140802493,-0.4989565260429805,-0.0,-0.0,-0.4989565260429805,0.08,0.002,0.06,-5.689197130317398,-0.5220167687412729,-0.011378394260634797,-0.4128294524233631,-0.9462246154252708,0.6,0,0.4,-3.7314839493098373,-0.4918350050438901,-0.0,-0.4973651467563814,-0.9892001518002715,-6.525209609265911,-21.478226212757747,-14.953016603491836,-12.473913151074512,64.94597516724673,77.41988831832124,24.46548518049056,120.69692871482043,96.23144353432987,-0.8197250084064835,0,0.8197250084064835,-0.5124425413237333,0.9389894991741149,0.9892001518002715,0.5506457446442503,0.033013343811035156,1.5829071998596191,GUIDED_NOGPS
0.002,8e-05,0.0,22.260442852523706,0.04877834737617334,0.0017808354282018966,-0.0,0.05055918280437524,0.04,0.0,0.0,-3.331684406090246,-0.5285430190800924,-0.0,-0.0,-0.5285430190800924,0.08,0.002,0.06,-5.911804902752788,-0.5259824915748746,-0.011823609805505576,-0.08784652741286009,-0.6256526287932402,0.6,0,0.4,-3.7597368117786187,-0.5006735894553656,-0.0,-0.1740333307578763,-0.6747069202132419,-6.574781144685932,-21.44504303764995,-14.870261892964017,-13.213575477002308,64.97696261524916,78.19053809225147,24.38917368808667,121.18057146509048,96.79139777700381,-0.8344559824256093,0,0.8344559824256093,-0.5375986508717994,0.6178888455984718,0.6747069202132419,0.5505591828043752,0.03385782241821289,1.6168367862701416,GUIDED_NOGPS
0.002,8e-05,0.0,23.081765833658057,0.04848833867118583,0.0018465412666926447,-0.0,0.050334879937878475,0.04,0.0,0.0,-3.8085716009120136,-0.5630785535437769,-0.0,-0.0,-0.5630785535437769,0.08,0.002,0.06,-6.136106632205715,-0.5296828883187982,-0.01227221326441143,-0.0819224415935511,-0.6238775431767607,0.6,0,0.4,-3.790278063248291,-0.540917974555396,-0.0,-0.7919675203571334,-1.3328854949125293,-6.621036103984977,-21.40476569502985,-14.783729591044874,-14.076963838594423,64.98804476831529,79.06500860690971,24.244169335592915,121.6280191375213,97.38384980192839,-0.9015299575923267,0,0.9015299575923267,-0.5728249513189485,0.6149408276311367,1.3328854949125293,0.5503348799378784,0.03387713432312012,1.650731086730957,GUIDED_NOGPS
0.002,8e-05,0.0,24.103569374174437,0.048141294556015624,0.0019282855499339552,-0.0,0.05006958010594958,0.04,0.0,0.0,-4.443833407694524,-0.5985950243438856,-0.0,-0.0,-0.5985950243438856,0.08,0.002,0.06,-6.422628182103108,-0.5399675293074767,-0.012845256364206217,-0.18170662642325358,-0.7345194120949365,0.6,0,0.4,-3.830932681643456,-0.5746210151811504,-0.0,-0.5292954864813026,-1.103916501662453,-6.749594116343459,-21.357459090861493,-14.607864974518034,-14.96487560859714,64.97939224059087,79.94426784918801,24.07064727800781,122.03883891826086,97.96819164025305,-0.957701691968584,0,0.957701691968584,-0.6107883600795068,0.7244117262337316,1.103916501662453,0.5500695801059495,0.0424501895904541,1.6931071281433105,GUIDED_NOGPS
0.002,8e-05,0.0,24.73903840039153,0.047424473836134955,0.0019791230720313225,-0.0,0.04940359690816628,0.04,0.0,0.0,-4.877978348579654,-0.6479968193780519,-0.0,-0.0,-0.6479968193780519,0.08,0.002,0.06,-6.6081100430645705,-0.5536936844653972,-0.013216220086129141,-0.38413891509746007,-0.9510488196489864,0.6,0,0.4,-3.8584172277475774,-0.6153439823993873,-0.0,-1.0130393004716296,-1.6283832828710167,-6.9211710558174655,-21.30319839491122,-14.382027339093755,-16.199920484451297,64.95120199226332,81.15112247671462,23.712236918067475,122.4126378549051,98.70040093683762,-1.0255733039989787,0,1.0255733039989787,-0.6649155278897546,0.9392981827145682,1.6283832828710167,0.5494035969081663,0.02679920196533203,1.7199440002441406,GUIDED_NOGPS
0.002,8e-05,0.0,25.48695661263083,0.04727560412125825,0.0020389565290104667,-0.0,0.04931456065026872,0.04,0.0,0.0,-5.41579045104849,-0.6798976581092603,-0.0,-0.0,-0.6798976581092603,0.08,0.002,0.06,-6.8268062941839585,-0.5529480214029309,-0.013653612588367918,0.01767489638512431,-0.5489267376061745,0.6,0,0.4,-3.8939952843655306,-0.6746623197093228,-0.0,-1.2498292754050129,-1.9244915951143358,-6.911850267536636,-21.24206872481457,-14.330218457277933,-16.997441452731508,64.90369652716126,81.90113797989277,23.637802060629127,122.74906225207458,99.11126019144545,-1.124437199515538,0,1.124437199515538,-0.6905388002881326,0.5354788082249765,1.9244915951143358,0.5493145606502687,0.03164076805114746,1.7515461444854736,GUIDED_NOGPS
0.002,8e-05,0.0,26.26048388731184,0.04678411994929445,0.0021008387109849474,-0.0,0.04888495866027939,0.04,0.0,0.0,-6.010211047602495,-0.7190294485991331,-0.0,-0.0,-0.7190294485991331,0.08,0.002,0.06,-7.055247224596504,-0.5526583607103602,-0.014110494449193007,0.0065696716664306225,-0.5601991834931226,0.6,0,0.4,-3.932005184008401,-0.6896691670837487,-0.0,-0.3025457410515693,-0.992214908135318,-6.9082295088795025,-21.17416483014307,-14.265935321263568,-17.975736214978326,64.83712309035374,82.81285930533207,23.392059974647225,123.04779706699118,99.65573709234395,-1.149448611806248,0,1.149448611806248,-0.7301225327528107,0.5456624967008045,0.992214908135318,0.5488849586602794,0.033067941665649414,1.7846603393554688,GUIDED_NOGPS
0.002,8e-05,0.0,27.042517222276064,0.046279213626245624,0.0021634013777820853,-0.0,0.04844261500402771,0.04,0.0,0.0,-6.648051037303463,-0.7549226311199079,-0.0,-0.0,-0.7549226311199079,0.08,0.002,0.06,-7.2824961727950095,-0.53792605250002,-0.014564992345590019,0.3269360181295299,-0.2255550267160802,0.6,0,0.4,-3.973211049273487,-0.7315449186105792,-0.0,-0.8260418765731293,-1.5575867951837086,-6.72407565625025,-21.099590776471143,-14.375515120220893,-18.873065777997695,64.75175286574988,83.62481864374757,23.13960681312281,123.30856530505477,100.16895849193196,-1.219241531017632,0,1.219241531017632,-0.7595511110453376,0.20944058528300913,1.5575867951837086,0.5484426150040277,0.03379631042480469,1.8184411525726318,GUIDED_NOGPS
0.002,8e-05,0.0,27.821769378984992,0.04544206378717956,0.0022257415503187995,-0.0,0.04766780533749836,0.04,0.0,0.0,-7.3290376757954,-0.7942342667426578,-0.0,-0.0,-0.7942342667426578,0.08,0.002,0.06,-7.5228480907078525,-0.5606445662618056,-0.015045696181415706,-0.4968110174406277,-1.072501279883849,0.6,0,0.4,-4.0188128454905705,-0.7977801721814263,-0.0,-1.287502208287419,-2.085282380468845,-7.00805707827257,-21.01845962944293,-14.01040255117036,-19.855856668566446,64.64788017369816,84.5037368422646,22.72103189358978,123.5311274154198,100.81009552183002,-1.329633620302377,0,1.329633620302377,-0.8189071629653156,1.0537827690111654,2.085282380468845,0.5476678053374984,0.034296512603759766,1.8527231216430664,GUIDED_NOGPS
0.002,8e-05,0.0,28.571705028640896,0.04452106969603201,0.002285736402291272,-0.0,0.046806806098323286,0.04,0.0,0.0,-8.034846380022604,-0.8380281302104646,-0.0,-0.0,-0.8380281302104646,0.08,0.002,0.06,-7.767902864012249,-0.5819219633917271,-0.015535805728024498,-0.47368688283756616,-1.0711446519573178,0.6,0,0.4,-4.067392864478138,-0.8652079997153503,-0.0,-1.3343184891784885,-2.199526488893839,-7.274024542396589,-20.930893138839153,-13.656868596442564,-20.950703255261615,64.52582166858579,85.4765249238474,22.260534848016007,123.71528068657202,101.45474583855601,-1.4420133328589173,0,1.4420133328589173,-0.8647183260985248,1.0497162611630708,2.199526488893839,0.5468068060983233,0.033689022064208984,1.8864116668701172,GUIDED_NOGPS
0.002,8e-05,0.0,29.28979168845442,0.043668381137172675,0.002343183335076354,-0.0,0.04601156447224903,0.04,0.0,0.0,-8.761647693610547,-0.8839667563521642,-0.0,-0.0,-0.8839667563521642,0.08,0.002,0.06,-8.011420052853147,-0.5923519826155078,-0.016022840105706294,-0.2378518918160772,-0.8462267145372913,0.6,0,0.4,-4.117546064069259,-0.914976906364967,-0.0,-1.0088511159735718,-1.923828022338539,-7.404399782693847,-20.83702142264396,-13.432621639950113,-22.099168908804103,64.38591553643835,86.48508444524245,21.834190568586337,123.86085864190505,102.02666807331872,-1.5249615106082783,0,1.5249615106082783,-0.9061738502819714,0.8224024755540876,1.923828022338539,0.5460115644722491,0.032888174057006836,1.919299840927124,GUIDED_NOGPS
0.002,8e-05,0.0,30.00006566645705,0.04278294755406682,0.002400005253316564,-0.0,0.04518295280738339,0.04,0.0,0.0,-9.53529616421092,-0.9320054786762091,-0.0,-0.0,-0.9320054786762091,0.08,0.002,0.06,-8.260314109458477,-0.5996796560228392,-0.016520628218916953,-0.16551683406070414,-0.7817171183024604,0.6,0,0.4,-4.171671225710315,-0.9780594630637535,-0.0,-1.2665805958475014,-2.244640058911255,-7.495995700285491,-20.73698265111179,-13.2409869508263,-23.300136966905228,64.22852069251896,87.52865765942418,21.39147377703341,123.96773043529728,102.57625665826387,-1.6300991051062559,0,1.6300991051062559,-0.9538656226107607,0.7548882296942762,2.244640058911255,0.5451829528073834,0.0332036018371582,1.9525108337402344,GUIDED_NOGPS
0.002,8e-05,0.0,30.721150204634455,0.041826134183593495,0.0024576920163707568,-0.0,0.04428382619996425,0.04,0.0,0.0,-10.38315896457833,-0.9835968289399056,-0.0,-0.0,-0.9835968289399056,0.08,0.002,0.06,-8.520961651929529,-0.6047490139546406,-0.017041923303859056,-0.1102670528840378,-0.7320579901425375,0.6,0,0.4,-4.230751568338777,-1.0280773782654897,-0.0,-0.9670877324588738,-1.9951651107243635,-7.559362674433007,-20.630922730834246,-13.071560056401239,-24.58992072349764,64.05401597892791,88.64393670242555,20.913067091796748,124.03580024668824,103.12273315489149,-1.7134622971091498,0,1.7134622971091498,-1.005046365614611,0.7023200308954821,1.9951651107243635,0.5442838261999643,0.03448009490966797,1.9870080947875977,GUIDED_NOGPS
0.002,8e-05,0.0,31.381645930087796,0.0408228443495895,0.002510531674407024,-0.0,0.04333337602399653,0.04,0.0,0.0,-11.21966927494574,-1.0340333443798502,-0.0,-0.0,-1.0340333443798502,0.08,0.002,0.06,-8.763667519342848,-0.6000307627332846,-0.017527335038685695,0.10935674588174323,-0.508201351890227,0.6,0,0.4,-4.288837545795517,-1.0770250549234526,-0.0,-1.0084261000127694,-2.085451154936222,-7.5003845341660575,-20.518994988806906,-13.018610454640848,-25.850833609496256,63.86279936220193,89.71363297169819,20.41142217479475,124.06500667765539,103.65358450286064,-1.7950417582057543,0,1.7950417582057543,-1.0494449515182134,0.47556163121657224,2.085451154936222,0.5433333760239966,0.03235912322998047,2.019353151321411,GUIDED_NOGPS
0.002,8e-05,0.0,32.060059511967,0.03973874267860629,0.00256480476095736,-0.0,0.042303547439563646,0.04,0.0,0.0,-12.147201252914213,-1.0866219540171569,-0.0,-0.0,-1.0866219540171569,0.08,0.002,0.06,-9.016370355321339,-0.5920926845412933,-0.01803274071064268,0.17436777601084036,-0.43575764924109556,0.6,0,0.4,-4.352817157054508,-1.1243005932114467,-0.0,-0.9230703812539107,-2.047370974465357,-7.401158556766166,-20.40135985649617,-13.000201299730005,-27.16554885042892,63.65528713091376,90.82083598134268,19.869371339303143,124.05532214699087,104.18595080768773,-1.8738343220190778,0,1.8738343220190778,-1.1002896160237046,0.39999345081463317,2.047370974465357,0.5423035474395637,0.034143686294555664,2.0535240173339844,GUIDED_NOGPS
0.002,8e-05,0.0,32.7115404834557,0.03847493673853271,0.0026169232386764564,-0.0,0.04109185997720916,0.04,0.0,0.0,-13.112945433660919,-1.1406916820587385,-0.0,-0.0,-1.1406916820587385,0.08,0.002,0.06,-9.265861156498163,-0.5893736401963706,-0.018531722312996327,0.060217640885835914,-0.5476877216235311,0.6,0,0.4,-4.421455117947673,-1.2160790501026326,-0.0,-1.8067400673163796,-3.0228191174190124,-7.367170502454632,-20.278184553906193,-12.911014051451561,-28.51729205146846,63.43191309327139,91.94920514473985,19.237468369266352,124.00675228627796,104.7692839170116,-2.026798416837721,0,2.026798416837721,-1.1593480915789056,0.5070023239468611,3.0228191174190124,0.5410918599772092,0.03386521339416504,2.0873844623565674,GUIDED_NOGPS
0.002,8e-05,0.0,33.39208221928303,0.03710167642276906,0.0026713665775426427,-0.0,0.0397730430003117,0.04,0.0,0.0,-14.208609899642234,-1.1946655537693227,-0.0,-0.0,-1.1946655537693227,0.08,0.002,0.06,-9.537096290532947,-0.5914863202452135,-0.019074192581065894,-0.04319204508176726,-0.6537525579080466,0.6,0,0.4,-4.499961802578069,-1.2840048406319902,-0.0,-1.2343894911491666,-2.518394331781157,-7.3935790030651685,-20.149642773645663,-12.756063770580495,-29.866638844233066,63.19312777471765,93.05976661895072,18.55083821138453,123.9193353354679,105.36849712408338,-2.1400080677199838,0,2.1400080677199838,-1.218244452912842,0.6086859989201057,2.518394331781157,0.5397730430003117,0.03668522834777832,2.12406849861145,GUIDED_NOGPS
0.002,8e-05,0.0,33.93899838468164,0.0356422103821636,0.0027151198707745313,-0.0,0.03835733025293813,0.04,0.0,0.0,-15.16464717638939,-1.246087934745093,-0.0,-0.0,-1.246087934745093,0.08,0.002,0.06,-9.763729979724102,-0.590783461223877,-0.019527459959448205,0.017176843563321633,-0.5931340776200036,0.6,0,0.4,-4.569506742269194,-1.3596610568345828,-0.0,-1.6434906269080134,-3.0031516837425962,-7.3847932652984625,-20.015914364994657,-12.631121099696195,-31.152198368627324,62.93939761552957,94.0915959841569,17.8211051910818,123.79314153845652,105.97203634737473,-2.2661017613909715,0,2.2661017613909715,-1.2685663415847352,0.543399127851476,3.0031516837425962,0.5383573302529381,0.030689239501953125,2.1547493934631348,GUIDED_NOGPS
0.002,8e-05,0.0,34.52439023972162,0.034166320860542526,0.0027619512191777297,-0.0,0.036928272079720256,0.04,0.0,0.0,-16.275065946982842,-1.2961889947400804,-0.0,-0.0,-1.2961889947400804,0.08,0.002,0.06,-10.017909312916803,-0.5934057728485124,-0.020035818625833608,-0.05739408115622629,-0.6708356726305722,0.6,0,0.4,-4.650797320098393,-1.4233542580781087,-0.0,-1.2391485188286353,-2.662502776906744,-7.4175721606064045,-19.877185017971552,-12.459612857365148,-32.40472486850201,62.67120416841781,95.07592903691982,17.083160430271263,123.62827253866092,106.54511210838966,-2.3722570967968477,0,2.3722570967968477,-1.3228452889890132,0.6166090748266575,2.662502776906744,0.5369282720797203,0.03426718711853027,2.1890223026275635,GUIDED_NOGPS
0.002,8e-05,0.0,35.07148707380655,0.03262701283345555,0.0028057189659045243,-0.0,0.03543273179936007,0.04,0.0,0.0,-17.40732943360532,-1.3504876287823586,-0.0,-0.0,-1.3504876287823586,0.08,0.002,0.06,-10.265409079280035,-0.5904021043672729,-0.02053081815856007,0.0671732525070904,-0.5437596700187426,0.6,0,0.4,-4.734078265188761,-1.4899785348550862,-0.0,-1.324415836462747,-2.8143943713178334,-7.380026304590912,-19.73364594739981,-12.3536196428089,-33.762190719558966,62.389043296126026,96.15123401568499,16.313506416727776,123.42486077459594,107.11135435786817,-2.4832975580918104,0,2.4832975580918104,-1.3727794794839898,0.4847348914001911,2.8143943713178334,0.5354327317993601,0.033536434173583984,2.222623825073242,GUIDED_NOGPS
0.002,8e-05,0.0,35.60303030259519,0.03093520595934561,0.002848242424207615,-0.0,0.033783448383553225,0.04,0.0,0.0,-18.61352778053534,-1.4039871931071037,-0.0,-0.0,-1.4039871931071037,0.08,0.002,0.06,-10.517834615100343,-0.5876350608619616,-0.021035669230200685,0.060389533789908315,-0.548281196302254,0.6,0,0.4,-4.823651106087184,-1.5639109661153827,-0.0,-1.4342608868173405,-2.9981718529327233,-7.34543826077452,-19.58549357697489,-12.24005531620037,-35.09967982767759,62.0934243690304,97.19310419670799,15.467602979672805,123.18306887545117,107.71546589577837,-2.606518276858971,0,2.606518276858971,-1.4274686160433072,0.4838653313048987,2.9981718529327233,0.5337834483835532,0.034364938735961914,2.2569589614868164,GUIDED_NOGPS
0.002,8e-05,0.0,36.08280450076826,0.029240320233858,0.002886624360061461,-0.0,0.03212694459391946,0.04,0.0,0.0,-19.808497779165148,-1.4565729279665807,-0.0,-0.0,-1.4565729279665807,0.08,0.002,0.06,-10.758476905506573,-0.5866474404068667,-0.021516953811013147,0.022571820102911363,-0.5855925741149685,0.6,0,0.4,-4.913217736734745,-1.637618470756687,-0.0,-1.497392625918055,-3.135011096674742,-7.333093005085834,-19.432929223331044,-12.09983621824521,-36.414323199164514,61.78486946273898,98.1991926619035,14.620160116929,122.90308905666728,108.28292893973828,-2.729364117927812,0,2.729364117927812,-1.4828055615479299,0.5155686413914843,3.135011096674742,0.5321269445939194,0.03281593322753906,2.2897472381591797,GUIDED_NOGPS
0.002,8e-05,0.0,36.54459831717937,0.02753473858962204,0.00292356786537435,-0.0,0.03045830645499639,0.04,0.0,0.0,-21.07629628994467,-1.5118652237451906,-0.0,-0.0,-1.5118652237451906,0.08,0.002,0.06,-11.004952311818924,-0.5878498706911871,-0.022009904623637846,-0.02688586527233831,-0.6367456405871632,0.6,0,0.4,-5.007361225273318,-1.6840089156912743,-0.0,-0.9220195456182894,-2.6060284613095637,-7.348123383639839,-19.276158780108233,-11.928035396468394,-37.796630593629764,61.46391255569109,99.26054314932085,13.767369294811019,122.58514251551289,108.81777322070187,-2.806681526152124,0,2.806681526152124,-1.541230684511993,0.561951459376649,2.6060284613095637,0.5304583064549964,0.033542633056640625,2.3232951164245605,GUIDED_NOGPS
0.002,8e-05,0.0,37.130070519942656,0.02570915393611415,0.002970405641595413,-0.0,0.02867955957770956,0.04,0.0,0.0,-22.861728293619016,-1.5680316164724062,-0.0,-0.0,-1.5680316164724062,0.08,0.002,0.06,-11.333957177457526,-0.5778881864253603,-0.022667914354915053,0.16403840761633307,-0.4365176931639423,0.6,0,0.4,-5.137750908352695,-1.717694752106383,-0.0,-0.4930688708904975,-2.2107636229968803,-7.223602330317004,-19.115392402018934,-11.89179007170193,-39.200790411810154,61.13109872675691,100.33188913856706,12.854576968057074,122.22947882666116,109.37490185860409,-2.862824586843972,0,2.862824586843972,-1.5878765155564507,0.35765768277298515,2.2107636229968803,0.5286795595777095,0.04554581642150879,2.368839740753174,GUIDED_NOGPS
0.002,8e-05,0.0,37.37293662148045,0.02334488967902769,0.002989834929718436,-0.0,0.026334724608746127,0.04,0.0,0.0,-23.71385626992388,-1.638172925187305,-0.0,-0.0,-1.638172925187305,0.08,0.002,0.06,-11.48115333335896,-0.5659543260978684,-0.022962306666717922,0.43016705145273737,-0.15874958131184902,0.6,0,0.4,-5.19921431692637,-1.7724044031227348,-0.0,-1.7529422718497216,-3.5253466749724565,-7.074429076223355,-18.950844188915,-11.876415112691644,-40.95432312968262,60.786983352836685,101.7413064825193,11.672444839513844,121.83637533776638,110.16393049825254,-2.9540073385378913,0,2.9540073385378913,-1.6441772119390075,0.07411651721371663,3.5253466749724565,0.5263347246087461,0.02080678939819336,2.389662504196167,GUIDED_NOGPS
0.002,8e-05,0.0,37.751532546794365,0.02180391473019296,0.0030201226037435496,-0.0,0.024824037333936507,0.04,0.0,0.0,-25.171801975002868,-1.6793061789260038,-0.0,-0.0,-1.6793061789260038,0.08,0.002,0.06,-11.722078417983987,-0.5550096712924656,-0.023444156835967973,0.2363697389874164,-0.3420840891410172,0.6,0,0.4,-5.302157671785235,-1.778599277994013,-0.0,-0.11892408627621283,-1.8975233642702258,-6.93762089115582,-18.782731869854544,-11.845110978698724,-41.98265447315009,60.43213130646029,102.41478577961038,10.901957365096479,121.40613656504075,110.50417919994428,-2.9643321299900216,0,2.9643321299900216,-1.694749766992609,0.254782248009927,1.8975233642702258,0.5248240373339365,0.03472733497619629,2.424384117126465,GUIDED_NOGPS
0.002,8e-05,0.0,38.11082833230635,0.01978762384180442,0.003048866266584508,-0.0,0.022836490108388927,0.04,0.0,0.0,-26.751019190726055,-1.739455762594229,-0.0,-0.0,-1.739455762594229,0.08,0.002,0.06,-11.968182959820885,-0.5421520981871586,-0.02393636591964177,0.26554112626569015,-0.3005473378411102,0.6,0,0.4,-5.411142360316361,-1.8006456864756655,-0.0,-0.40472321662597993,-2.2053689031016455,-6.776901227339483,-18.611276487168773,-11.83437525982929,-43.48639406485572,60.06711615338654,103.55351021824227,9.893811920902209,120.93909358883111,111.0452816679289,-3.001076144126109,0,3.001076144126109,-1.7528052582969673,0.20906644587822176,2.2053689031016455,0.522836490108389,0.036315202713012695,2.46238374710083,GUIDED_NOGPS
0.002,8e-05,0.0,38.382064238121345,0.017701866349813685,0.003070565139049708,-0.0,0.02077243148886339,0.04,0.0,0.0,-28.126625402770934,-1.7955437900025484,-0.0,-0.0,-1.7955437900025484,0.08,0.002,0.06,-12.170296698855054,-0.5276278426476871,-0.02434059339771011,0.3554651479738485,-0.19650328807154877,0.6,0,0.4,-5.503990438015431,-1.8178835032856075,-0.0,-0.3750013952064961,-2.1928848984921037,-6.595348033096089,-18.43670208052876,-11.841354047432672,-44.88859475006371,59.692519350202794,104.5811141002665,8.850933174906842,120.43560344919524,111.5846702742884,-3.029805838809346,0,3.029805838809346,-1.8034202010833884,0.10132434240594317,2.1928848984921037,0.5207724314888634,0.030644893646240234,2.491342782974243,GUIDED_NOGPS
0.002,8e-05,0.0,38.70050833442544,0.01576594383574428,0.0030960406667540357,-0.0,0.018861984502498316,0.04,0.0,0.0,-29.992167627031396,-1.8472337388106488,-0.0,-0.0,-1.8472337388106488,0.08,0.002,0.06,-12.430320607985434,-0.5149440539020587,-0.02486064121597087,0.23548705641224185,-0.30431763870578765,0.6,0,0.4,-5.627506813934882,-1.8345627394025599,-0.0,-0.2752590935059754,-2.109821832908535,-6.436800673775734,-18.259235371012537,-11.822434697236803,-46.18084347026622,59.30892944192424,105.48977291219046,7.8829719178721405,119.89604854147896,112.01307662360682,-3.057604565670933,0,3.057604565670933,-1.8608363240271815,0.2053530769402805,2.109821832908535,0.5188619845024983,0.04039645195007324,2.5317630767822266,GUIDED_NOGPS
0.002,8e-05,0.0,38.89736328530549,0.013681577290360594,0.0031117890628244394,-0.0,0.016793366353185034,0.04,0.0,0.0,-31.36183109578341,-1.9038542364050564,-0.0,-0.0,-1.9038542364050564,0.08,0.002,0.06,-12.611371478566685,-0.5033272403403035,-0.025222742957133372,0.30276670443580744,-0.2257832788616294,0.6,0,0.4,-5.715619451733771,-1.8371697418537165,-0.0,-0.06039625516521481,-1.8975659970189314,-6.291590504253794,-18.07910544517164,-11.787514940917845,-47.596355910126405,58.91694125959326,106.51329716971966,6.840788645180297,119.32083601189255,112.48004736671226,-3.0619495697561945,0,3.0619495697561945,-1.9131965904304504,0.12376529746373856,1.8975659970189314,0.5167933663531851,0.02877664566040039,2.5605249404907227,GUIDED_NOGPS
0.002,8e-05,0.0,39.08143582400974,0.011755440460094604,0.0031265148659207795,-0.0,0.014881955326015384,0.04,0.0,0.0,-32.89078450905674,-1.9528736814860697,-0.0,-0.0,-1.9528736814860697,0.08,0.002,0.06,-12.803017795269081,-0.48956501197848923,-0.025606035590538163,0.3295868925730913,-0.1855841549959361,0.6,0,0.4,-5.810569194475173,-1.8191350899297398,-0.0,0.3839161785587614,-1.4352189113709783,-6.119562649731115,-17.896543439098174,-11.776980789367059,-48.82184203715174,58.51715511787903,107.33899715503077,5.877720230047302,118.7103971530874,112.8326769230401,-3.0318918165495665,0,3.0318918165495665,-1.9599560249966137,0.08203337434230379,1.4352189113709783,0.5148819553260153,0.03131699562072754,2.5918526649475098,GUIDED_NOGPS
