D-kp,D-ki,D-kd,D-I-Tot,D-P,D-I,D-D,D-PID,E-kp,E-ki,E-kd,E-I-Tot,E-P,E-I,E-D,E-PID,N-kp,N-ki,N-kd,N-I-Tot,N-P,N-I,N-D,N-PID,Y-kp,Y-ki,Y-kd,Y-I-Tot,Y-P,Y-I,Y-D,Y-PID,errorN,desiredN,actualN,errorE,desiredE,actualE,errorD,desiredD,actualD,errorY,desiredY,actualY,roll,pitch,yaw-rate,thrust,dt,Time,Mode
0.002,8e-05,0.0,-0.007881830455261803,-0.00047357757523764125,-6.305464364209443e-07,-0.0,-0.0004742081216740622,0.05,0.004,0.04,-0.00032142469236505527,-0.00048281781527705905,-1.285698769460221e-06,-0.011603989278292592,-0.012088092792339111,0.08,0.002,0.06,0.00652168087217327,0.015674134740392275,1.3043361744346541e-05,0.3531659983570635,0.3688531764592001,0.5,0,0,0.1983569867075413,2.9795559968462366,0.0,0.0,2.9795559968462366,0.19592668425490345,-16.905783323783872,-17.101710008038776,-0.00965635630554118,28.156410192618733,28.166066548924274,-0.2367887876188206,28.059701604174318,28.29649039179314,5.959111993692473,0,-5.959111993692473,-0.05031663467004853,-0.36560501097069076,-2.9795559968462366,0.49952579187832596,0.033286333084106445,0.03354334831237793,GUIDED_NOGPS
0.002,8e-05,0.0,-0.04037374870140044,-0.001047276031226339,-3.229899896112035e-06,-0.0,-0.001050505931122451,0.05,0.004,0.04,-0.0015803695665998173,-0.0010144544109657262,-6.321478266399269e-06,-0.006854261539989885,-0.00787503742922201,0.08,0.002,0.06,0.03564676933502692,0.03755026936043492,7.129353867005383e-05,0.26441596110796795,0.3020375240070729,0.5,0,0,0.5655874342799752,2.9591331201631648,0.0,-0.0,2.9591331201631648,0.46937836700543656,-16.905783323783872,-17.37516169078931,-0.02028908821931452,28.156410192618733,28.176699280838047,-0.5236380156131695,28.059701604174318,28.583339619787488,5.9182662403263295,0,-5.9182662403263295,-0.038976046476554935,-0.2996156703576971,-2.9591331201631648,0.49894949406887756,0.06205034255981445,0.09550762176513672,GUIDED_NOGPS
0.002,8e-05,0.0,-0.05776644035704466,-0.001811123319398078,-4.621315228563573e-06,-0.0,-0.0018157446346266416,0.05,0.004,0.04,-0.0032740257118841825,-0.004409064738940138,-1.309610284753673e-05,-0.14139405324923052,-0.1458162140910182,0.08,0.002,0.06,0.05615694154240648,0.08543002292023232,0.00011231388308481296,1.869667586163439,1.9552099229667563,0.5,0,0,0.6798065781884419,2.97344653648215,0.0,0.0,2.97344653648215,1.067875286502904,-16.905783323783872,-17.973658610286776,-0.08818129477880277,28.156410192618733,28.244591487397535,-0.905561659699039,28.059701604174318,28.965263263873357,5.9468930729643,0,-5.9468930729643,-0.3476041458389205,-1.929580153545092,-2.97344653648215,0.49818425536537336,0.019206523895263672,0.11471033096313477,GUIDED_NOGPS
0.002,8e-05,0.0,-0.08943395064052836,-0.002285345969116335,-7.154716051242269e-06,-0.0,-0.0022925006851675775,0.05,0.004,0.04,-0.0051960568155862506,-0.0034676755419360107,-2.0784227262345003e-05,0.02717485507997282,0.023686395310774464,0.08,0.002,0.06,0.09342356952594152,0.10757667689354036,0.00018684713905188304,0.5993457403293764,0.7071092643619686,0.5,0,0,0.8447681475407752,2.9761911672535426,0.0,0.0,2.9761911672535426,1.3447084611692546,-16.905783323783872,-18.250491784953127,-0.06935351083872021,28.156410192618733,28.225763703457453,-1.1426729845581676,28.059701604174318,29.202374588732486,5.952382334507085,0,-5.952382334507085,-0.04976988237016357,-0.7057531550607499,-2.9761911672535426,0.49770749931483244,0.027713537216186523,0.14245295524597168,GUIDED_NOGPS
0.002,8e-05,0.0,-0.13783957176969103,-0.002863924311441167,-1.1027165741575283e-05,-0.0,-0.0028749514771827423,0.05,0.004,0.04,-0.007375784346999584,-0.0032240959437721986,-2.950313738799834e-05,0.0057645663183703,0.0025109672372101034,0.08,0.002,0.06,0.14633552280737266,0.12522167949394203,0.0002926710456147453,0.3914882513429416,0.5170026018824984,0.5,0,0,1.044929347037016,2.9606402731352857,0.0,-0.0,2.9606402731352857,1.5652709936742752,-16.905783323783872,-18.471054317458147,-0.06448191887544397,28.156410192618733,28.220892111494177,-1.4319621557205835,28.059701604174318,29.4916637598949,5.921280546270571,0,-5.921280546270571,-0.05083744080747979,-0.514503206911177,-2.9606402731352857,0.49712504852281725,0.033803701400756836,0.17623615264892578,GUIDED_NOGPS
0.002,8e-05,0.0,-0.1981437092672895,-0.0035083658964654347,-1.5851496741383163e-05,-0.0,-0.003524217393206818,0.05,0.004,0.04,-0.009418813985708997,-0.0029714775002799955,-3.767525594283599e-05,0.005878720557119453,0.002869567800896621,0.08,0.002,0.06,0.20974306544583576,0.14755661511969778,0.0004194861308916715,0.48727456585549084,0.6352506671060802,0.5,0,0,1.2473608274108836,2.9442577722920418,0.0,-0.0,2.9442577722920418,1.844457688996222,-16.905783323783872,-18.750241012780094,-0.05942955000559991,28.156410192618733,28.215839742624333,-1.7541829482327174,28.059701604174318,29.813884552407035,5.8885155445840835,0,-5.8885155445840835,-0.0623179438733964,-0.6321931021052636,-2.9442577722920418,0.4964757826067932,0.034377336502075195,0.2106156349182129,GUIDED_NOGPS
0.002,8e-05,0.0,-0.27055467127569227,-0.00429189194575941,-2.1644373702055383e-05,-0.0,-0.004313536319461466,0.05,0.004,0.04,-0.00981001061634344,-0.0005796683339303499,-3.9240042465373764e-05,0.056706256688915956,0.056087348312520234,0.08,0.002,0.06,0.2811896613601527,0.16938930849779382,0.0005623793227203055,0.48526955517873605,0.6552212429992501,0.5,0,0,1.4469909095882136,2.9580836867239357,0.0,0.0,2.9580836867239357,2.1173663562224228,-16.905783323783872,-19.023149680006295,-0.011593366678606998,28.156410192618733,28.16800355929734,-2.145945972879705,28.059701604174318,30.205647577054023,5.9161673734478715,0,-5.9161673734478715,-0.01174714368080041,-0.6575124885000703,-2.9580836867239357,0.49568646368053854,0.03374314308166504,0.24436092376708984,GUIDED_NOGPS
0.002,8e-05,0.0,-0.35896965637182654,-0.0050247528965638895,-2.8717572509746126e-05,-0.0,-0.005053470469073636,0.05,0.004,0.04,-0.007432148155396534,0.0033784350230003923,-2.9728592621586136e-05,0.08997792076088501,0.09332662719126382,0.08,0.002,0.06,0.36675032353505344,0.19450150203737537,0.0007335006470701069,0.5351860056155331,0.7304210082999786,0.5,0,0,1.654020870213779,2.9414538530932286,0.0,-0.0,2.9414538530932286,2.431268775467192,-16.905783323783872,-19.337052099251064,0.06756870046000785,28.156410192618733,28.088841492158725,-2.5123764482819446,28.059701604174318,30.572078052456263,5.882907706186457,0,-5.882907706186457,0.017970034278184402,-0.736139787388846,-2.9414538530932286,0.4949465295309264,0.03519177436828613,0.27954649925231934,GUIDED_NOGPS
0.002,8e-05,0.0,-0.45193358704786035,-0.005796715794727035,-3.615468696382883e-05,-0.0,-0.005832870481690864,0.05,0.004,0.04,-0.0017792728853499706,0.00881204977167247,-7.117091541399882e-06,0.13552404769050577,0.14432898037063685,0.08,0.002,0.06,0.45279097362232557,0.2146007345956818,0.0009055819472446511,0.46997880516145835,0.6854851217043848,0.5,0,0,1.8429212849243402,2.9446958880189893,0.0,0.0,2.9446958880189893,2.6825091824460223,-16.905783323783872,-19.588292506229894,0.1762409954334494,28.156410192618733,27.980169197185283,-2.8983578973635176,28.059701604174318,30.958059501537836,5.889391776037979,0,-5.889391776037979,0.07323067857240972,-0.6966763770709664,-2.9446958880189893,0.49416712951830916,0.032074689865112305,0.3116283416748047,GUIDED_NOGPS
0.002,8e-05,0.0,-0.5591931775977089,-0.006524907606915243,-4.4735454207816714e-05,-0.0,-0.00656964306112306,0.05,0.004,0.04,0.008295039017049845,0.015321230024613898,3.318015606819938e-05,0.15838881923555861,0.1737432294162407,0.08,0.002,0.06,0.5488802440841339,0.23381540375648002,0.0010977604881682679,0.43833122635797606,0.6732443906026243,0.5,0,0,2.037226023677597,2.955028220440553,0.0,0.0,2.955028220440553,2.922692546956,-16.905783323783872,-19.828475870739872,0.30642460049227793,28.156410192618733,27.849985592126455,-3.262453803457621,28.059701604174318,31.32215540763194,5.910056440881106,0,-5.910056440881106,0.10349770414472441,-0.6875557755430861,-2.955028220440553,0.49343035693887694,0.03287696838378906,0.34452128410339355,GUIDED_NOGPS
0.002,8e-05,0.0,-0.6824973260907882,-0.0072736554022870695,-5.4599786087263056e-05,-0.0,-0.007328255188374332,0.05,0.004,0.04,0.023273352174641854,0.022089096301164093,9.309340869856742e-05,0.1596933362129297,0.18187552592279235,0.08,0.002,0.06,0.6563173966425144,0.25350674236445997,0.0013126347932850288,0.4355936515354845,0.6904130286932295,0.5,0,0,2.238318355812034,2.9655862066762686,0.0,0.0,2.9655862066762686,3.1688342795557496,-16.905783323783872,-20.07461760333962,0.4417819260232818,28.156410192618733,27.71462826659545,-3.6368277011435346,28.059701604174318,31.696529305317853,5.931172413352537,0,-5.931172413352537,0.10955896641911549,-0.7055109425063694,-2.9655862066762686,0.4926717448116257,0.033904314041137695,0.3784370422363281,GUIDED_NOGPS
0.002,8e-05,0.0,-0.8197321458744368,-0.008119457111632294,-6.557857166995495e-05,-0.0,-0.008185035683302248,0.05,0.004,0.04,0.043921537984164996,0.030541093611982362,0.00017568615193666,0.2000239582957418,0.2307407380596608,0.08,0.002,0.06,0.771774253910532,0.2732388186349238,0.0015435485078210641,0.4377908989881332,0.7125732661308781,0.5,0,0,2.439382276590742,2.973971700536796,0.0,0.0,2.973971700536796,3.415485232936547,-16.905783323783872,-20.32126855672042,0.6108218722396472,28.156410192618733,27.545588320379085,-4.059728555816147,28.059701604174318,32.119430159990465,5.947943401073592,0,-5.947943401073592,0.15565824541135798,-0.7326475676887229,-2.973971700536796,0.49181496431669774,0.03380393981933594,0.4122180938720703,GUIDED_NOGPS
0.002,8e-05,0.0,-0.9683495049112003,-0.00896146960439534,-7.746796039289604e-05,-0.0,-0.009038937564788237,0.05,0.004,0.04,0.07054665044454292,0.04013665321025215,0.0002821866017781717,0.23144083903627227,0.2718596788483026,0.08,0.002,0.06,0.8924909129977381,0.29116347596690845,0.0017849818259954762,0.40531420645664823,0.6982626642495522,0.5,0,0,2.6358010550792685,2.9609611632278594,0.0,-0.0,2.9609611632278594,3.6395434495863555,-16.905783323783872,-20.545326773370228,0.802733064205043,28.156410192618733,27.35367712841369,-4.48073480219767,28.059701604174318,32.54043640637199,5.921922326455719,0,-5.921922326455719,0.19836693921660747,-0.722584936664348,-2.9609611632278594,0.49096106243521176,0.03316807746887207,0.4454021453857422,GUIDED_NOGPS
0.002,8e-05,0.0,-1.1400077792246064,-0.009804745672363275,-9.120062233796852e-05,-0.0,-0.009895946294701244,0.05,0.004,0.04,0.10587846749711713,0.05045190535215341,0.0004235138699884685,0.23567386821794162,0.2865492874400835,0.08,0.002,0.06,1.0281992658304135,0.31005458733912206,0.002056398531660827,0.40463213151323213,0.7167431173840151,0.5,0,0,2.844450718101165,2.9794032486003905,0.0,0.0,2.9794032486003905,3.875682341739026,-16.905783323783872,-20.781465665522898,1.009038107043068,28.156410192618733,27.147372085575665,-4.902372836181637,28.059701604174318,32.962074440355956,5.958806497200781,0,-5.958806497200781,0.2105934525830797,-0.7426180634612344,-2.9794032486003905,0.49010405370529875,0.03501534461975098,0.48040771484375,GUIDED_NOGPS
0.002,8e-05,0.0,-1.330861333148789,-0.010762200101349343,-0.00010646890665190313,-0.0,-0.010868669008001246,0.05,0.004,0.04,0.15090603220277432,0.06347742175543214,0.0006036241288110973,0.293802679747179,0.35788372563142223,0.08,0.002,0.06,1.1729443903821224,0.3264861381075582,0.002345888780764245,0.34746465361009293,0.6762966804984154,0.5,0,0,3.0568397248615575,2.9941451745119445,0.0,0.0,2.9941451745119445,4.081076726344477,-16.905783323783872,-20.98686005012835,1.2695484351086428,28.156410192618733,26.88686175751009,-5.381100050674672,28.059701604174318,33.44080165484899,5.988290349023889,0,-5.988290349023889,0.2853760467298197,-0.7099425843530325,-2.9941451745119445,0.48913133099199874,0.03546738624572754,0.5158905982971191,GUIDED_NOGPS
0.002,8e-05,0.0,-1.516073554690036,-0.011728044712728257,-0.00012128588437520289,-0.0,-0.011849330597103459,0.05,0.004,0.04,0.20042680475098137,0.07839410242764107,0.0008017072190039255,0.37782279470190505,0.45701860434855,0.08,0.002,0.06,1.3090811985505009,0.3448192694759692,0.0026181623971010017,0.43533530608257226,0.7827727379556424,0.5,0,0,3.2467767616064678,3.006807597536607,0.0,0.0,3.006807597536607,4.310240868449615,-16.905783323783872,-21.216024192233487,1.5678820485528213,28.156410192618733,26.58852814406591,-5.864022356364128,28.059701604174318,33.923723960538446,6.013615195073214,0,-6.013615195073214,0.37249662349065393,-0.8263446190877819,-3.006807597536607,0.48815066940289653,0.03158450126647949,0.547476053237915,GUIDED_NOGPS
0.002,8e-05,0.0,-1.7322293057617795,-0.012535835062991716,-0.00013857834446094237,-0.0,-0.012674413407452659,0.05,0.004,0.04,0.26503010963567664,0.0936658370808175,0.0010601204385427066,0.354270373633414,0.4489963311527742,0.08,0.002,0.06,1.464091082972515,0.35958855308972487,0.00292818216594503,0.32120120988442397,0.6837179451400939,0.5,0,0,3.4536849564600027,2.999882019105262,0.0,-0.0,2.999882019105262,4.494856913621561,-16.905783323783872,-21.400640237405433,1.8733167416163496,28.156410192618733,26.283093451002383,-6.267917531495858,28.059701604174318,34.327619135670176,5.999764038210524,0,-5.999764038210524,0.37507168977599015,-0.7269038185508642,-2.999882019105262,0.4873255865925473,0.03448605537414551,0.5819668769836426,GUIDED_NOGPS
0.002,8e-05,0.0,-1.9774176615280525,-0.013288810944124443,-0.00015819341292224422,-0.0,-0.013447004357046688,0.05,0.004,0.04,0.34657749345395816,0.11049339630774586,0.0013863099738158327,0.36481055965132897,0.47669026593289066,0.08,0.002,0.06,1.6372836845269936,0.37547031657122887,0.0032745673690539874,0.3227871767789874,0.7015320607192702,0.5,0,0,3.674696943004326,2.9946227425789615,0.0,-0.0,2.9946227425789615,4.693378957140361,-16.905783323783872,-21.599162280924233,2.2098679261549172,28.156410192618733,25.946542266463815,-6.644405472062221,28.059701604174318,34.70410707623654,5.989245485157923,0,-5.989245485157923,0.4008891416284617,-0.7474414612373272,-2.9946227425789615,0.4865529956429533,0.03690147399902344,0.6188788414001465,GUIDED_NOGPS
0.002,8e-05,0.0,-2.2416337306908205,-0.014325820749947305,-0.00017933069845526566,-0.0,-0.014505151448402571,0.05,0.004,0.04,0.4426183821794258,0.1301836562123608,0.0017704735287177031,0.4270431163512856,0.5589972460923641,0.08,0.002,0.06,1.815829157341672,0.38723011016895525,0.0036316583146833443,0.23910642860108763,0.6299681970847262,0.5,0,0,3.8951905106083937,2.9887956247528056,0.0,-0.0,2.9887956247528056,4.840376377111941,-16.905783323783872,-21.746159700895813,2.6036731242472158,28.156410192618733,25.552737068371517,-7.162910374973652,28.059701604174318,35.22261197914797,5.977591249505611,0,-5.977591249505611,0.4903532433633572,-0.6847565605381694,-2.9887956247528056,0.4854948485515974,0.03688669204711914,0.65574049949646,GUIDED_NOGPS
0.002,8e-05,0.0,-2.523641941677306,-0.01530980872738575,-0.0002018913553341845,-0.0,-0.015511700082719935,0.05,0.004,0.04,0.5537951984591187,0.15089062355735586,0.002215180793836475,0.449660253887132,0.6027660582383243,0.08,0.002,0.06,1.9991407196714805,0.398068545163334,0.0039982814393429615,0.22065097779559212,0.6227178043982691,0.5,0,0,4.11521431488122,2.9861917380928293,0.0,-0.0,2.9861917380928293,4.975856814541675,-16.905783323783872,-21.881640138325547,3.017812471147117,28.156410192618733,25.138597721471616,-7.654904363692875,28.059701604174318,35.71460596786719,5.972383476185659,0,-5.972383476185659,0.5347011196961091,-0.6820550545773377,-2.9861917380928293,0.48448829991728004,0.036840200424194336,0.6925866603851318,GUIDED_NOGPS
0.002,8e-05,0.0,-2.7741692504621644,-0.016169198352679253,-0.00022193354003697318,-0.0,-0.016391131892716227,0.05,0.004,0.04,0.661281133646474,0.17343033525938464,0.002645124534585896,0.5818911656218388,0.7579666254158094,0.08,0.002,0.06,2.1567500446649928,0.40688840676294574,0.004313500089329986,0.21346488982429868,0.6246667966765744,0.5,0,0,4.299380392342926,2.971550138342839,0.0,-0.0,2.971550138342839,5.086105084536822,-16.905783323783872,-21.991888408320694,3.4686067051876925,28.156410192618733,24.68780348743104,-8.084599176339626,28.059701604174318,36.144300780513944,5.943100276685678,0,-5.943100276685678,0.6892142368707403,-0.6997897883000908,-2.971550138342839,0.48360886810728376,0.030988216400146484,0.7236073017120361,GUIDED_NOGPS
0.002,8e-05,0.0,-3.0552487063902967,-0.01683347877942726,-0.00024441989651122377,-0.0,-0.017077898675938483,0.05,0.004,0.04,0.7911666208647213,0.19446677324960504,0.0031646664834588853,0.5039378368423414,0.7015692765754054,0.08,0.002,0.06,2.3260933490926017,0.4056699074085461,0.004652186698185203,-0.027365371150974545,0.3829567229557567,0.5,0,0,4.49645517430441,2.9506373466130476,0.0,-0.0,2.9506373466130476,5.070873842606826,-16.905783323783872,-21.976657166390698,3.889335464992101,28.156410192618733,24.267074727626632,-8.41673938971363,28.059701604174318,36.47644099388795,5.901274693226095,0,-5.901274693226095,0.6584777634734144,-0.4530588664871267,-2.9506373466130476,0.4829221013240615,0.03339529037475586,0.7569849491119385,GUIDED_NOGPS
0.002,8e-05,0.0,-3.350572219153185,-0.01759034040835346,-0.00026804577753225485,-0.0,-0.017858386185885717,0.05,0.004,0.04,0.9362939468476308,0.21610530115858906,0.0037451757873905233,0.5155418453393349,0.7353923222853145,0.08,0.002,0.06,2.4958183829042158,0.4043729661258129,0.004991636765808431,-0.028968619581993007,0.38039598330962837,0.5,0,0,4.69298088469349,2.926412895807036,0.0,-0.0,2.926412895807036,5.0546620765726615,-16.905783323783872,-21.960445400356534,4.322106023171781,28.156410192618733,23.834304169446952,-8.795170204176731,28.059701604174318,36.85487180835105,5.852825791614072,0,-5.852825791614072,0.6927684890013402,-0.45340356465414644,-2.926412895807036,0.4821416138141143,0.033577919006347656,0.7905569076538086,GUIDED_NOGPS
0.002,8e-05,0.0,-3.688478762933748,-0.018439316804207417,-0.0002950783010346999,-0.0,-0.018734395105242118,0.05,0.004,0.04,1.112970934532537,0.24102840030013298,0.0044518837381301475,0.5440142302920783,0.7894945143303415,0.08,0.002,0.06,2.6846207856007536,0.4121124471596886,0.005369241571201507,0.1583767153712606,0.5758584041021507,0.5,0,0,4.9040266867518545,2.8791543667761825,0.0,-0.0,2.8791543667761825,5.1514055894961075,-16.905783323783872,-22.05718891327998,4.8205680060026594,28.156410192618733,23.335842186616073,-9.219658402103708,28.059701604174318,37.279360006278026,5.758308733552365,0,-5.758308733552365,0.7277334840037349,-0.6521644470473403,-2.8791543667761825,0.4812656048947579,0.036650657653808594,0.82720947265625,GUIDED_NOGPS
0.002,8e-05,0.0,-4.1183881046002915,-0.01938278149822745,-0.00032947104836802336,-0.0,-0.019712252546595473,0.05,0.004,0.04,1.3507034881114541,0.2679587121306325,0.005402813952445817,0.4856692323699961,0.7590307584530744,0.08,0.002,0.06,2.9167700315233813,0.41866483675404537,0.005833540063046763,0.1107822540907818,0.5352806309078739,0.5,0,0,5.15559009260599,2.8354806793211345,0.0,-0.0,2.8354806793211345,5.233310459425567,-16.905783323783872,-22.13909378320944,5.359174242612649,28.156410192618733,22.797235950006083,-9.691390749113726,28.059701604174318,37.751092353288044,5.670961358642269,0,-5.670961358642269,0.7024219124791541,-0.6076647949092563,-2.8354806793211345,0.4802877474534045,0.04435992240905762,0.8715662956237793,GUIDED_NOGPS
0.002,8e-05,0.0,-4.351937793572276,-0.02016962947379806,-0.0003481550234857821,-0.0,-0.020517784497283843,0.05,0.004,0.04,1.4873078012204095,0.2949327819765193,0.005949231204881638,0.9318051273571146,1.2326871405385156,0.08,0.002,0.06,3.03884694324964,0.4217083033014961,0.0060776938864992806,0.0985640242899412,0.5263500214779365,0.5,0,0,5.284986918448267,2.793716022286565,0.0,-0.0,2.793716022286565,5.271353791268702,-16.905783323783872,-22.177137115052574,5.898655639530386,28.156410192618733,22.257754553088347,-10.08481473689903,28.059701604174318,38.14451634107335,5.58743204457313,0,-5.58743204457313,1.1755825189143299,-0.6438692979028319,-2.793716022286565,0.47948221550271614,0.023158550262451172,0.8947341442108154,GUIDED_NOGPS
0.002,8e-05,0.0,-4.6772177671924995,-0.020834608633857336,-0.00037417742137539996,-0.0,-0.021208786055232735,0.05,0.004,0.04,1.6874108122843532,0.3204215030189067,0.006749643249137413,0.6530343956750609,0.980205541943105,0.08,0.002,0.06,3.2038079474684977,0.42263874095866644,0.006407615894936995,0.022348406777393765,0.4513947636309972,0.5,0,0,5.457855001151086,2.768106816040548,0.0,-0.0,2.768106816040548,5.28298426198333,-16.905783323783872,-22.188767585767202,6.408430060378134,28.156410192618733,21.7479801322406,-10.417304316928668,28.059701604174318,38.477005921102986,5.536213632081096,0,-5.536213632081096,0.9320850438601687,-0.543854399726294,-2.768106816040548,0.47879121394476726,0.031224966049194336,0.925957441329956,GUIDED_NOGPS
0.002,8e-05,0.0,-5.097566046767747,-0.021689026989249106,-0.00040780528374141975,-0.0,-0.022096832272990526,0.05,0.004,0.04,1.960740225077168,0.35257959286816515,0.007842960900308673,0.6637140795418985,1.0241366333103723,0.08,0.002,0.06,3.410821813406743,0.4272580185193459,0.006821643626813486,0.08937912965795422,0.5234587918041136,0.5,0,0,5.6672778328472635,2.701436921196123,0.0,-0.0,2.701436921196123,5.340725231491824,-16.905783323783872,-22.246508555275696,7.051591857363302,28.156410192618733,21.10481833525543,-10.844513494624554,28.059701604174318,38.90421509879887,5.402873842392246,0,-5.402873842392246,0.9702986801249278,-0.617564103355392,-2.701436921196123,0.47790316772700947,0.03876137733459473,0.9647488594055176,GUIDED_NOGPS
0.002,8e-05,0.0,-5.407531979352202,-0.022671398568361832,-0.00043260255834817615,-0.0,-0.02310400112671001,0.05,0.004,0.04,2.173992809154041,0.38994078228440315,0.008695971236616163,1.0930625945647205,1.49169934808574,0.08,0.002,0.06,3.559443765049784,0.434817784472377,0.0071188875300995675,0.20734996452957213,0.6492866365320488,0.5,0,0,5.8128138230044,2.661183126951077,0.0,-0.0,2.661183126951077,5.435222305904713,-16.905783323783872,-22.341005629688585,7.798815645688062,28.156410192618733,20.35759454693067,-11.335699284180915,28.059701604174318,39.39540088835523,5.322366253902154,0,-5.322366253902154,1.4250406234785846,-0.7848562307163582,-2.661183126951077,0.47689599887329,0.027344226837158203,0.992088794708252,GUIDED_NOGPS
0.002,8e-05,0.0,-5.814985475584406,-0.023363051156690014,-0.0004651988380467525,-0.0,-0.023828249994736768,0.05,0.004,0.04,2.4679750807112137,0.42141759201128387,0.009871900322844854,0.7219418389571679,1.1532313312912965,0.08,0.002,0.06,3.753471629612784,0.44501598023106254,0.007506943259225568,0.2192835851999228,0.671806508690211,0.5,0,0,5.993975936819056,2.5969219627789353,0.0,-0.0,2.5969219627789353,5.562699752888282,-16.905783323783872,-22.468483076672154,8.428351840225677,28.156410192618733,19.728058352393056,-11.681525578345006,28.059701604174318,39.741227182519324,5.1938439255578706,0,-5.1938439255578706,1.0876806416849256,-0.7734450919711722,-2.5969219627789353,0.47617175000526324,0.03488016128540039,1.0269486904144287,GUIDED_NOGPS
0.002,8e-05,0.0,-6.201526428683571,-0.02424438129183576,-0.0004961221142946857,-0.0,-0.024740503406130446,0.05,0.004,0.04,2.760222012092224,0.45825325744672496,0.011040888048368896,0.9241534805510968,1.3934476260461905,0.08,0.002,0.06,3.9336131816376967,0.45194905624135656,0.007867226363275394,0.16306953083286144,0.6228858134374934,0.5,0,0,6.156282434043369,2.545021797366342,0.0,-0.0,2.545021797366342,5.649363203016957,-16.905783323783872,-22.55514652680083,9.165065148934499,28.156410192618733,18.991345043684234,-12.122190645917879,28.059701604174318,40.1818922500922,5.090043594732684,0,-5.090043594732684,1.332689378204252,-0.7440578232483123,-2.545021797366342,0.47525949659386957,0.031887054443359375,1.0588653087615967,GUIDED_NOGPS
0.002,8e-05,0.0,-6.626113260596852,-0.02499836812174882,-0.0005300890608477481,-0.0,-0.025528457182596567,0.05,0.004,0.04,3.0962388375309855,0.4945909567877973,0.012384955350123942,0.8557808359078699,1.3627567480457912,0.08,0.002,0.06,4.128057170517491,0.45793058547525733,0.008256114341034982,0.1320652736504848,0.598251973466777,0.5,0,0,6.322205752708899,2.4422638010770332,0.0,-0.0,2.4422638010770332,5.7241323184407165,-16.905783323783872,-22.62991564222459,9.891819135755945,28.156410192618733,18.264591056862788,-12.49918406087441,28.059701604174318,40.55888566504873,4.8845276021540665,0,-4.8845276021540665,1.306867783206822,-0.7121151418958315,-2.4422638010770332,0.47447154281740345,0.03396916389465332,1.0928056240081787,GUIDED_NOGPS
0.002,8e-05,0.0,-7.1116898050424355,-0.02555739015396369,-0.0005689351844033949,-0.0,-0.026126325338367083,0.05,0.004,0.04,3.5010635084431154,0.5326792540125835,0.014004254033772461,0.8018817907157647,1.3485652987621206,0.08,0.002,0.06,4.349180745672693,0.4655366118586585,0.008698361491345386,0.1501232293025041,0.6243582026525081,0.5,0,0,6.501743546777774,2.3624068660684876,0.0,-0.0,2.3624068660684876,5.819207648233231,-16.905783323783872,-22.724990972017103,10.65358508025167,28.156410192618733,17.502825112367063,-12.778695076981844,28.059701604174318,40.83839668115616,4.724813732136975,0,-4.724813732136975,1.2925541502264128,-0.7333180067183093,-2.3624068660684876,0.47387367466163294,0.03799891471862793,1.1308190822601318,GUIDED_NOGPS
0.002,8e-05,0.0,-7.512132413630149,-0.02631763073934895,-0.000600970593090412,-0.0,-0.026918601332439365,0.05,0.004,0.04,3.851229139501365,0.575333991573947,0.01540491655800546,1.1213308557577382,1.7120697638896907,0.08,0.002,0.06,4.528706091532456,0.4719459577345407,0.009057412183064911,0.15796158527916346,0.6389649551967691,0.5,0,0,6.6405585365813655,2.2807772976643568,0.0,-0.0,2.2807772976643568,5.8993244716817586,-16.905783323783872,-22.80510779546563,11.506679831478941,28.156410192618733,16.64973036113979,-13.158815369674475,28.059701604174318,41.21851697384879,4.5615545953287135,0,-4.5615545953287135,1.6558298003322156,-0.7731020390134059,-2.2807772976643568,0.47308139866756066,0.030431509017944336,1.1612482070922852,GUIDED_NOGPS
0.002,8e-05,0.0,-8.067169152256758,-0.026810927248284492,-0.0006453735321805407,-0.0,-0.027456300780465032,0.05,0.004,0.04,4.356552072349471,0.610237820608241,0.017426208289397886,0.6744087054421536,1.3020727343397924,0.08,0.002,0.06,4.773774375321758,0.473518775985537,0.009547548750643516,0.028490489525913328,0.5115568142620939,0.5,0,0,6.822041350308539,2.1916218229504154,0.0,-0.0,2.1916218229504154,5.918984699819212,-16.905783323783872,-22.824768023603085,12.204756412164821,28.156410192618733,15.951653780453912,-13.405463624142246,28.059701604174318,41.465165228316565,4.383243645900831,0,-4.383243645900831,1.2591673878702592,-0.6095746624106637,-2.1916218229504154,0.472543699219535,0.041403770446777344,1.2026493549346924,GUIDED_NOGPS
0.002,8e-05,0.0,-8.40667076107021,-0.027546993390776146,-0.0006725336608856169,-0.0,-0.028219527051661763,0.05,0.004,0.04,4.680384401193037,0.65688989321366,0.01872153760477215,1.5141304811119498,2.189741911930382,0.08,0.002,0.06,4.921665212829079,0.4799915897434295,0.009843330425658157,0.19695034557225516,0.6867852657413428,0.5,0,0,6.924738214514811,2.0831932501224615,0.0,-0.0,2.0831932501224615,5.999894871792868,-16.905783323783872,-22.90567819557674,13.137797864273198,28.156410192618733,15.018612328345535,-13.773496695388072,28.059701604174318,41.83319829956239,4.166386500244923,0,-4.166386500244923,2.134057945263246,-0.84406180363925,-2.0831932501224615,0.47178047294833825,0.02464890480041504,1.227308988571167,GUIDED_NOGPS
0.002,8e-05,0.0,-8.873510627932927,-0.027984197925436556,-0.0007098808502346342,-0.0,-0.028694078775671192,0.05,0.004,0.04,5.141410501194785,0.6908924530129599,0.02056564200477914,0.81529829043064,1.526756385448379,0.08,0.002,0.06,5.1215860938169,0.47936141706047125,0.0102431721876338,-0.014165625896748154,0.47543896335135694,0.5,0,0,7.059579699230815,2.0207308033752565,0.0,-0.0,2.0207308033752565,5.9920177132558905,-16.905783323783872,-22.897801037039763,13.817849060259196,28.156410192618733,14.338561132359537,-13.992098962718277,28.059701604174318,42.051800566892595,4.041461606750513,0,-4.041461606750513,1.489451670051518,-0.5818599410173861,-2.0207308033752565,0.4713059212243288,0.03336453437805176,1.2606675624847412,GUIDED_NOGPS
0.002,8e-05,0.0,-9.44435577164362,-0.028586073720518593,-0.0007555484617314896,-0.0,-0.02934162218225008,0.05,0.004,0.04,5.7264530574242745,0.7324258525396453,0.0229058122296971,0.8319431872650218,1.5872748520343642,0.08,0.002,0.06,5.361319542572188,0.4802029492513981,0.010722639085144377,0.015802951233620337,0.5067285395701628,0.5,0,0,7.214643424510792,1.9412721344259016,0.0,-0.0,1.9412721344259016,6.002536865642476,-16.905783323783872,-22.908320189426348,14.648517050792906,28.156410192618733,13.507893141825827,-14.293036860259296,28.059701604174318,42.352738464433614,3.8825442688518033,0,-3.8825442688518033,1.54932071844393,-0.6130420704291082,-1.9412721344259016,0.47065837781774994,0.03993868827819824,1.300853967666626,GUIDED_NOGPS
0.002,8e-05,0.0,-9.848872038473283,-0.029259389104949813,-0.0007879097630778628,-0.0,-0.030047298868027674,0.05,0.004,0.04,6.157992812464315,0.7803511652281809,0.02463197124985726,1.3866096243004495,2.1915927607784877,0.08,0.002,0.06,5.5276063801916555,0.4811130413193871,0.011055212760383312,0.02468572353157552,0.5168539776113459,0.5,0,0,7.316983457381593,1.8506096591914132,0.0,-0.0,1.8506096591914132,6.013913016492339,-16.905783323783872,-22.91969634027621,15.607023304563617,28.156410192618733,12.549386888055116,-14.629694552474906,28.059701604174318,42.689396156649224,3.7012193183828264,0,-3.7012193183828264,2.1536568781175154,-0.6572510286081421,-1.8506096591914132,0.46995270113197235,0.02765035629272461,1.3282654285430908,GUIDED_NOGPS
0.002,8e-05,0.0,-10.501165689913725,-0.02975149655184648,-0.0008400932551930981,-0.0,-0.03059158980703958,0.05,0.004,0.04,6.875831798431163,0.8185264439034505,0.027503327193724652,0.6964787526997822,1.5425085237969574,0.08,0.002,0.06,5.7893767760943655,0.4775800600773474,0.011578753552188731,-0.06042800604921315,0.42873080758032295,0.5,0,0,7.472825378409463,1.7770103870607588,0.0,-0.0,1.7770103870607588,5.969750750966842,-16.905783323783872,-22.875534074750714,16.37052887806901,28.156410192618733,11.785881314549721,-14.87574827592324,28.059701604174318,42.93544988009756,3.5540207741215175,0,-3.5540207741215175,1.5129651161430755,-0.5235257478757989,-1.7770103870607588,0.4694084101929604,0.04384946823120117,1.3721075057983398,GUIDED_NOGPS
0.002,8e-05,0.0,-10.866429695825053,-0.030370270216075065,-0.0008693143756660043,-0.0,-0.03123958459174107,0.05,0.004,0.04,7.29157656636938,0.8641886922104945,0.02916630626547752,1.518654778259315,2.412009776735287,0.08,0.002,0.06,5.931465381310359,0.47256442082415506,0.011862930762620717,-0.15638652826510224,0.32804082332167356,0.5,0,0,7.554674385807493,1.7013560269877317,0.0,-0.0,1.7013560269877317,5.907055260301938,-16.905783323783872,-22.81283858408581,17.28377384420989,28.156410192618733,10.872636348408843,-15.185135108037532,28.059701604174318,43.24483671221185,3.4027120539754634,0,-3.4027120539754634,2.3882870388932216,-0.4706240162665078,-1.7013560269877317,0.4687604154082589,0.02405405044555664,1.3961687088012695,GUIDED_NOGPS
0.002,8e-05,0.0,-11.510638226923648,-0.03078630706272852,-0.000920851058153892,-0.0,-0.031707158120882414,0.05,0.004,0.04,8.042728388011895,0.8974264355199563,0.032170913552047584,0.6353640612937672,1.564961410365771,0.08,0.002,0.06,6.173600115851035,0.4628584645042909,0.01234720023170207,-0.17394050441896136,0.3012651603170316,0.5,0,0,7.6930323990479454,1.6530098852252344,0.0,-0.0,1.6530098852252344,5.785730806303636,-16.905783323783872,-22.69151413008751,17.948528710399124,28.156410192618733,10.207881482219607,-15.39315353136426,28.059701604174318,43.45285513553858,3.306019770450469,0,-3.306019770450469,1.544983308320445,-0.3910134137930343,-1.6530098852252344,0.46829284187911757,0.04185032844543457,1.4380216598510742,GUIDED_NOGPS
0.002,8e-05,0.0,-12.097664958598193,-0.031414828120463804,-0.0009678131966878555,-0.0,-0.03238264131715166,0.05,0.004,0.04,8.746308687917109,0.9413052676245397,0.03498523475166844,0.9392730479309106,1.9155635503071187,0.08,0.002,0.06,6.38565821111292,0.4539328963913991,0.01277131642222584,-0.17911994442578705,0.2875842683878379,0.5,0,0,7.811656291401771,1.5870440766153608,0.0,-0.0,1.5870440766153608,5.6741612048924885,-16.905783323783872,-22.57994452867636,18.826105352490792,28.156410192618733,9.330304840127939,-15.707414060231901,28.059701604174318,43.76711566440622,3.1740881532307217,0,-3.1740881532307217,1.896701369337595,-0.39320775964148214,-1.5870440766153608,0.4676173586828483,0.037372589111328125,1.4754033088684082,GUIDED_NOGPS
0.002,8e-05,0.0,-12.443820421198199,-0.03196744077514289,-0.000995505633695856,-0.0,-0.03296294640883874,0.05,0.004,0.04,9.169336562422414,0.9766651104470182,0.03667734624968966,1.3061919320939546,2.3195343887906623,0.08,0.002,0.06,6.505866816671569,0.44405036396020253,0.013011733633343138,-0.3422442778634134,0.11481781973013228,0.5,0,0,7.8784910320279975,1.5430462924398234,0.0,-0.0,1.5430462924398234,5.550629549502531,-16.905783323783872,-22.456412873286403,19.533302208940363,28.156410192618733,8.62310798367837,-15.983720387571442,28.059701604174318,44.04342199174576,3.0860925848796468,0,-3.0860925848796468,2.309989142316705,-0.2395267728020984,-1.5430462924398234,0.46703705359116127,0.02165675163269043,1.4970629215240479,GUIDED_NOGPS
0.002,8e-05,0.0,-12.970344277703456,-0.03251091033793757,-0.0010376275422162766,-0.0,-0.03354853788015385,0.05,0.004,0.04,9.822408247571982,1.0081193253553653,0.039289632990287926,0.7768728030087171,1.8242817613543703,0.08,0.002,0.06,6.678991831773084,0.42759330075394275,0.013357983663546168,-0.38106115685506053,0.0598901275624284,0.5,0,0,7.976267673513641,1.5093369394425067,0.0,-0.0,1.5093369394425067,5.344916259424284,-16.905783323783872,-22.250699583208156,20.162386507107307,28.156410192618733,7.994023685511426,-16.255455168968783,28.059701604174318,44.3151567731431,3.0186738788850134,0,-3.0186738788850134,1.8185965327869726,-0.15587630713116346,-1.5093369394425067,0.46645146211984617,0.032390594482421875,1.5294630527496338,GUIDED_NOGPS
0.002,8e-05,0.0,-13.54280074652746,-0.03310934316543794,-0.001083424059722197,-0.0,-0.03419276722516014,0.05,0.004,0.04,10.551764188858987,1.0545996711082108,0.04220705675543595,1.0753192962536302,2.172126024117277,0.08,0.002,0.06,6.860361830913522,0.4195981262150525,0.013720723661827045,-0.17340727541660886,0.2599115744602707,0.5,0,0,8.075638308111643,1.436832589310852,0.0,-0.0,1.436832589310852,5.244976577688156,-16.905783323783872,-22.15075990147203,21.091993422164215,28.156410192618733,7.0644167704545175,-16.55467158271897,28.059701604174318,44.61437318689329,2.873665178621704,0,-2.873665178621704,2.1563642086678523,-0.36848187304426927,-1.436832589310852,0.4658072327748399,0.03457975387573242,1.5640344619750977,GUIDED_NOGPS
0.002,8e-05,0.0,-14.095615121293342,-0.03377329133536336,-0.0011276492097034674,-0.0,-0.03490094054506682,0.05,0.004,0.04,11.273605013480472,1.102492155618459,0.04509442005392189,1.170365248062881,2.317951823735262,0.08,0.002,0.06,7.028657588360351,0.41127017720293824,0.014057315176720701,-0.19079341618827933,0.23453407619137961,0.5,0,0,8.164079745712456,1.3507962955357509,0.0,-0.0,1.3507962955357509,5.140877215036728,-16.905783323783872,-22.0466605388206,22.04984311236918,28.156410192618733,6.106567080249553,-16.88664566768168,28.059701604174318,44.946347271856,2.7015925910715017,0,-2.7015925910715017,2.304320991672418,-0.34352824831506323,-1.3507962955357509,0.4650990594549332,0.032736778259277344,1.5967919826507568,GUIDED_NOGPS
0.002,8e-05,0.0,-14.672885048129649,-0.03438170418842312,-0.001173830803850372,-0.0,-0.03555553499227349,0.05,0.004,0.04,12.045039437075989,1.1486493977863508,0.048180157748303955,1.099634380794527,2.2964639363291814,0.08,0.002,0.06,7.1978595272476324,0.403100923189424,0.014395719054495265,-0.18245767396374876,0.23503896828017048,0.5,0,0,8.24937280125955,1.269995399387266,0.0,-0.0,1.269995399387266,5.038761539867799,-16.905783323783872,-21.94454486365167,22.972987955727014,28.156410192618733,5.183422236891719,-17.19085209421156,28.059701604174318,45.25055369838588,2.539990798774532,0,-2.539990798774532,2.2837915891049194,-0.3365797156757245,-1.269995399387266,0.4644444650077265,0.03358006477355957,1.630378246307373,GUIDED_NOGPS
0.002,8e-05,0.0,-15.276264024252919,-0.03496580249619685,-0.0012221011219402337,-0.0,-0.036187903618137084,0.05,0.004,0.04,12.86934192536814,1.1942079167197641,0.051477367701472564,1.0560461919173854,2.301731476338622,0.08,0.002,0.06,7.367039850456203,0.39215988634944354,0.014734079700912407,-0.23776234447316827,0.16913162157718767,0.5,0,0,8.33385183133665,1.2238896272641517,0.0,-0.0,1.2238896272641517,4.901998579368044,-16.905783323783872,-21.807781903151916,23.88415833439528,28.156410192618733,4.272251858223454,-17.482901248098425,28.059701604174318,45.54260285227274,2.4477792545283035,0,-2.4477792545283035,2.292407879164644,-0.26728151849531284,-1.2238896272641517,0.46381209638186294,0.03451251983642578,1.6648788452148438,GUIDED_NOGPS
0.002,8e-05,0.0,-15.951890126034234,-0.035538432014720296,-0.0012761512100827389,-0.0,-0.036814583224803035,0.05,0.004,0.04,13.81448426861354,1.2428796349453386,0.055257937074454165,1.024067332294438,2.3222049043142308,0.08,0.002,0.06,7.548054472623436,0.38086011340294307,0.015096108945246873,-0.2228911513976876,0.17306507095050236,0.5,0,0,8.423585383929929,1.1800127873492774,0.0,-0.0,1.1800127873492774,4.760751417536788,-16.905783323783872,-21.66653474132066,24.85759269890677,28.156410192618733,3.2988174937119616,-17.769216007360146,28.059701604174318,45.828917611534465,2.360025574698555,0,-2.360025574698555,2.313108644800624,-0.26854335544337454,-1.1800127873492774,0.463185416775197,0.03802227973937988,1.7028868198394775,GUIDED_NOGPS
0.002,8e-05,0.0,-16.476302177194345,-0.03614697721986952,-0.0013181041741755477,-0.0,-0.03746508139404507,0.05,0.004,0.04,14.567296952790441,1.2972577043935547,0.05826918781116176,1.4992812108393125,2.854808103044029,0.08,0.002,0.06,7.68246010258474,0.370575560472779,0.01536492020516948,-0.26583735513475065,0.12010312554319785,0.5,0,0,8.48913017551563,1.1294773275557617,0.0,-0.0,1.1294773275557617,4.632194505909737,-16.905783323783872,-21.53797782969361,25.945154087871092,28.156410192618733,2.211256104747639,-18.07348860993476,28.059701604174318,46.13319021410908,2.2589546551115234,0,-2.2589546551115234,2.8478556151988372,-0.23253485964806525,-1.1294773275557617,0.4625349186059549,0.029015541076660156,1.7319138050079346,GUIDED_NOGPS
0.002,8e-05,0.0,-17.104456161724805,-0.03654364317174971,-0.0013683564929379845,-0.0,-0.037911999664687696,0.05,0.004,0.04,15.487950580348542,1.3390043874118223,0.06195180232139417,0.9714661852947187,2.372422375027935,0.08,0.002,0.06,7.8373186292384815,0.3603635337515109,0.015674637258476964,-0.22278653189711767,0.1532516391128702,0.5,0,0,8.566086998718866,1.119264844301146,0.0,-0.0,1.119264844301146,4.504544171893887,-16.905783323783872,-21.41032749567776,26.780087748236443,28.156410192618733,1.3763224443822883,-18.271821585874857,28.059701604174318,46.331523190049175,2.238529688602292,0,-2.238529688602292,2.364625947675005,-0.2458009723456222,-1.119264844301146,0.4620880003353123,0.0343782901763916,1.7662937641143799,GUIDED_NOGPS
0.002,8e-05,0.0,-17.714704180121835,-0.03703852377241661,-0.0014171763344097469,-0.0,-0.038455700106826356,0.05,0.004,0.04,16.40096214938759,1.3853629870512314,0.06560384859755035,1.1254795054053417,2.5764463410541234,0.08,0.002,0.06,7.982318893852196,0.3520270831527793,0.01596463778770439,-0.18974036848765188,0.17825135245283183,0.5,0,0,8.637058236493703,1.0768858719058034,0.0,-0.0,1.0768858719058034,4.400338539409741,-16.905783323783872,-21.306121863193614,27.707259741024625,28.156410192618733,0.4491504515941086,-18.5192618862083,28.059701604174318,46.57896349038262,2.153771743811607,0,-2.153771743811607,2.567927282873178,-0.27495229196721166,-1.0768858719058034,0.46154429989317364,0.032952070236206055,1.7992453575134277,GUIDED_NOGPS
0.002,8e-05,0.0,-18.484900534262554,-0.03749760766284387,-0.0014787920427410044,-0.0,-0.03897639970558488,0.05,0.004,0.04,17.576626768853114,1.4309536265264673,0.07030650707541246,0.8878462760566218,2.3891064096585017,0.08,0.002,0.06,8.15820849426632,0.34253287192778314,0.01631641698853264,-0.17333739263489292,0.18551189628142287,0.5,0,0,8.722514921321176,1.0401312673710978,0.0,-0.0,1.0401312673710978,4.2816608990972895,-16.905783323783872,-21.18744422288116,28.619072530529344,28.156410192618733,-0.46266233791061284,-18.748803831421935,28.059701604174318,46.80850543559625,2.0802625347421957,0,-2.0802625347421957,2.3807979067747134,-0.272112894641932,-1.0401312673710978,0.46102360029441514,0.04107975959777832,1.8403267860412598,GUIDED_NOGPS
0.002,8e-05,0.0,-19.001162408328405,-0.03785427635928313,-0.0015200929926662725,-0.0,-0.0393743693519494,0.05,0.004,0.04,18.38194050264042,1.4762163432013597,0.07352776201056167,1.327533542068046,2.8772776472799677,0.08,0.002,0.06,8.273219210375814,0.33732085599119954,0.016546438420751628,-0.1433117824234718,0.21055551198847938,0.5,0,0,8.777682831153221,1.01128003531397,0.0,-0.0,1.01128003531397,4.216510699889994,-16.905783323783872,-21.122294023673867,29.524326864027195,28.156410192618733,-1.367916671408462,-18.927138179641563,28.059701604174318,46.98683978381588,2.02256007062794,0,-2.02256007062794,2.868053990173837,-0.311972102300208,-1.01128003531397,0.4606256306480506,0.027276277542114258,1.8676214218139648,GUIDED_NOGPS
0.002,8e-05,0.0,-20.172148045394426,-0.03808123173743882,-0.0016137718436315541,-0.0,-0.03969500358107037,0.05,0.004,0.04,20.241000474878415,1.5114466688501356,0.08096400189951367,0.4582854486850803,2.0506961194347295,0.08,0.002,0.06,8.526264631814982,0.32916821620689235,0.017052529263629965,-0.09942347553338149,0.24679726993714085,0.5,0,0,8.90341971935158,1.022261807886754,0.0,0.0,1.022261807886754,4.114602702586154,-16.905783323783872,-21.020386026370026,30.22893337700271,28.156410192618733,-2.0725231843839795,-19.04061586871941,28.059701604174318,47.10031747289373,2.044523615773508,0,-2.044523615773508,2.040585894261063,-0.3198009925811076,-1.022261807886754,0.46030499641892964,0.06149935722351074,1.9291064739227295,GUIDED_NOGPS
0.002,8e-05,0.0,-20.762148658778557,-0.038384097109833426,-0.0016609718927022847,-0.0,-0.04004506900253571,0.05,0.004,0.04,21.19949986934244,1.5589447282858204,0.08479799947736975,1.236046257952583,2.8797889857157735,0.08,0.002,0.06,8.648971874480429,0.31932215741503883,0.017297943748960858,-0.2402108160412886,0.0964092851227111,0.5,0,0,8.964322100368323,0.9905425749297974,0.0,-0.0,0.9905425749297974,3.991526967687985,-16.905783323783872,-20.897310291471857,31.178894565716405,28.156410192618733,-3.0224843730976705,-19.192048554916713,28.059701604174318,47.25175015909103,1.9810851498595947,0,-1.9810851498595947,2.874734890519263,-0.1959047261782031,-0.9905425749297974,0.4599549309974643,0.03074193000793457,1.9598524570465088,GUIDED_NOGPS
0.002,8e-05,0.0,-21.028478457488603,-0.03861946897316316,-0.0016822782765990884,-0.0,-0.040301747249762244,0.05,0.004,0.04,21.641743339919753,1.6032010005326758,0.08656697335967901,2.566973340848055,4.25674131474041,0.08,0.002,0.06,8.70235846637725,0.30965544814410323,0.0174047169327545,-0.5256497497224148,-0.1985895846455571,0.5,0,0,8.990960858503831,0.965696195356912,0.0,-0.0,0.965696195356912,3.8706931018012902,-16.905783323783872,-20.776476425585162,32.064020010653515,28.156410192618733,-3.907609818034781,-19.30973448658158,28.059701604174318,47.3694360907559,1.931392390713824,0,-1.931392390713824,4.004420620384037,0.06366567499693457,-0.965696195356912,0.45969825275023773,0.01379251480102539,1.9736759662628174,GUIDED_NOGPS
0.002,8e-05,0.0,-21.534442884747122,-0.03858207805083476,-0.00172275543077977,0.0,-0.04030483348161453,0.05,0.004,0.04,22.493819529270958,1.624366668469804,0.08997527811708383,0.6455911983955203,2.359933144982408,0.08,0.002,0.06,8.799921471636264,0.2975848325284721,0.017599842943272527,-0.3451646563825171,-0.02997998091077242,0.5,0,0,9.04125363073391,0.9587628887704063,0.0,-0.0,0.9587628887704063,3.7198104066059017,-16.905783323783872,-20.625593730389774,32.487333369396076,28.156410192618733,-4.330923176777342,-19.29103902541738,28.059701604174318,47.3507406295917,1.9175257775408125,0,-1.9175257775408125,2.3596148044249112,-0.04900227322032418,-0.9587628887704063,0.4596951665183855,0.026227951049804688,1.9998760223388672,GUIDED_NOGPS
0.002,8e-05,0.0,-22.24643115651068,-0.03864253695925178,-0.0017797144925208546,-0.0,-0.04042225145177263,0.05,0.004,0.04,23.71846230965727,1.6616602330309993,0.09487384923862908,0.8096301605242225,2.566164242793851,0.08,0.002,0.06,8.933350581146211,0.2896699004834406,0.01786670116229242,-0.1610909895972632,0.14644561204846984,0.5,0,0,9.111222260894296,0.9493714588387174,0.0,-0.0,0.9493714588387174,3.6208737560430073,-16.905783323783872,-20.52665707982688,33.23320466061998,28.156410192618733,-5.076794468001248,-19.32126847962589,28.059701604174318,47.38097008380021,1.8987429176774349,0,-1.8987429176774349,2.559903053587999,-0.23139056703510358,-0.9493714588387174,0.45957774854822736,0.0368499755859375,2.0367250442504883,GUIDED_NOGPS
0.002,8e-05,0.0,-22.931986642268196,-0.03877121131727915,-0.001834558931381456,-0.0,-0.040605770248660605,0.05,0.004,0.04,26.69826156966863,4.213022475683178,0.10679304627867453,57.716352191386676,62.036167713348526,0.08,0.002,0.06,9.055940057664149,0.2773192016164663,0.0181118801153283,-0.26193260372559035,0.0334984780062042,0.5,0,0,9.177910924278272,0.9428851180696248,0.0,-0.0,0.9428851180696248,3.4664900202058284,-16.905783323783872,-20.3722733439897,84.26044951366356,78.15641019261874,-6.104039321044824,-19.385605658639573,28.059701604174318,47.44530726281389,1.8857702361392497,0,-1.8857702361392497,3.9967313446553843,-0.16510816659965039,-0.9428851180696248,0.45939422975133937,0.03536415100097656,2.072089195251465,GUIDED_NOGPS
0.002,8e-05,0.0,-23.600288089851073,-0.03890922439725508,-0.001888023047188086,-0.0,-0.04079724744444317,0.05,0.004,0.04,29.623936593391775,4.258398153378662,0.1184957463735671,1.056728176793101,5.43362207654533,0.08,0.002,0.06,9.16945549387198,0.2643595997547243,0.018338910987743963,-0.2829457006797094,-0.00024718993724115457,0.5,0,0,9.242140715894347,0.9348817752893183,0.0,-0.0,0.9348817752893183,3.3044949969340536,-16.905783323783872,-20.210278320717926,85.16796306757324,78.15641019261874,-7.011552874954508,-19.45461219862754,28.059701604174318,47.51431380280186,1.8697635505786365,0,-1.8697635505786365,3.997878359675168,-0.13026389501259786,-0.9348817752893183,0.4592027525555568,0.03435182571411133,2.1064460277557373,GUIDED_NOGPS
0.002,8e-05,0.0,-24.191299347115766,-0.039004632009099816,-0.0019353039477692615,-0.0,-0.040939935956869074,0.05,0.004,0.04,32.23331018809201,4.305233427641907,0.12893324075236806,1.236384326171962,5.670550994566238,0.08,0.002,0.06,9.265184878922176,0.2527118995073903,0.01853036975784435,-0.2882649799275059,-0.017022710662271234,0.5,0,0,9.29824913087073,0.9257387451875236,0.0,-0.0,0.9257387451875236,3.1588987438423786,-16.905783323783872,-20.06468206762625,86.10466855283813,78.15641019261874,-7.948258360219397,-19.502316004549908,28.059701604174318,47.562017608724226,1.8514774903750473,0,-1.8514774903750473,3.998461726226852,-0.11222119486654358,-0.9257387451875236,0.45906006404313093,0.030304670333862305,2.1367475986480713,GUIDED_NOGPS
0.002,8e-05,0.0,-24.856958827125684,-0.039082809723793806,-0.001988556706170055,-0.0,-0.04107136642996386,0.05,0.004,0.04,35.194837823623295,4.346998147968295,0.14077935129449318,0.9808514213058892,5.468628920568677,0.08,0.002,0.06,9.36889129885761,0.24355625656601804,0.018737782597715223,-0.20158293864340918,0.06071110052032411,0.5,0,0,9.359832427065092,0.9039337377469613,0.0,-0.0,0.9039337377469613,3.0444532070752253,-16.905783323783872,-19.950236530859097,86.93996295936589,78.15641019261874,-8.783552766747157,-19.541404861896904,28.059701604174318,47.60110646607122,1.8078674754939226,0,-1.8078674754939226,3.9960936372403633,-0.18687289833861048,-0.9039337377469613,0.45892863357003616,0.03406405448913574,2.1708149909973145,GUIDED_NOGPS
0.002,8e-05,0.0,-25.627478256867445,-0.0392155504270496,-0.002050198260549396,-0.0,-0.041265748687598997,0.05,0.004,0.04,38.64563077848587,4.390698660904465,0.15458252311394347,0.8896542267912437,5.434935410809652,0.08,0.002,0.06,9.484303999110654,0.2349569597855364,0.01896860799822131,-0.16412280316141564,0.0898027646223421,0.5,0,0,9.429553994980724,0.8871189865273084,0.0,-0.0,0.8871189865273084,2.936961997319205,-16.905783323783872,-19.842745321103077,87.8139732180893,78.15641019261874,-9.657563025470573,-19.6077752135248,28.059701604174318,47.66747681769912,1.7742379730546167,0,-1.7742379730546167,3.9953019160455643,-0.21360509398527877,-0.8871189865273084,0.458734251312401,0.039296627044677734,2.210146427154541,GUIDED_NOGPS
0.002,8e-05,0.0,-26.21569556972896,-0.03936437540014857,-0.002097255645578317,-0.0,-0.041461631045726886,0.05,0.004,0.04,41.300983307411315,4.4425032841971,0.16520393322964527,1.3867369043145752,5.994444121741321,0.08,0.002,0.06,9.567872047415227,0.2236999117836871,0.019135744094830456,-0.2825018835002914,-0.039666227621773825,0.5,0,0,9.481355610161666,0.8666602383720915,0.0,-0.0,0.8666602383720915,2.7962488972960884,-16.905783323783872,-19.70203222107996,88.85006568394199,78.15641019261874,-10.693655491323257,-19.682187700074284,28.059701604174318,47.7418893042486,1.733320476744183,0,-1.733320476744183,3.9993695601282857,-0.08134206250780796,-0.8666602383720915,0.45853836895427313,0.02988576889038086,2.2400875091552734,GUIDED_NOGPS
0.002,8e-05,0.0,-26.882681348480652,-0.039384236960262026,-0.0021506145078784523,-0.0,-0.041534851468140475,0.05,0.004,0.04,44.3364032656217,4.480893847984591,0.1773456130624868,0.9067558016450552,5.564995262692133,0.08,0.002,0.06,9.655776203856387,0.20762290515698964,0.019311552407712776,-0.3559937063702812,-0.12905924880557879,0.5,0,0,9.540130888941675,0.8676420025062941,0.0,0.0,0.8676420025062941,2.5952863144623706,-16.905783323783872,-19.501069638246243,89.61787695969181,78.15641019261874,-11.46146676707308,-19.69211848013101,28.059701604174318,47.75182008430533,1.7352840050125882,0,-1.7352840050125882,4.002073750828944,0.007872904686848939,-0.8676420025062941,0.45846514853185955,0.033870697021484375,2.2738800048828125,GUIDED_NOGPS
0.002,8e-05,0.0,-27.52109734971016,-0.039411135622815285,-0.002201687787976813,-0.0,-0.0416128234107921,0.05,0.004,0.04,47.26678588936821,4.522509883398767,0.18906714355747284,1.027627886915913,5.739204913872153,0.08,0.002,0.06,9.731938636930453,0.18806846779935057,0.019463877273860907,-0.4526804904123401,-0.24514814533912863,0.5,0,0,9.596377402087779,0.8680621074825718,0.0,0.0,0.8680621074825718,2.350855847491882,-16.905783323783872,-19.256639171275754,90.45019766797533,78.15641019261874,-12.2937874753566,-19.705567811407644,28.059701604174318,47.76526941558196,1.7361242149651437,0,-1.7361242149651437,4.005590946967148,0.12384982332665709,-0.8680621074825718,0.4583871765892079,0.03239774703979492,2.3062984943389893,GUIDED_NOGPS
0.002,8e-05,0.0,-28.19300391635233,-0.039563959513322935,-0.0022554403133081863,-0.0,-0.041819399826631125,0.05,0.004,0.04,50.36641914759494,4.562902448903363,0.20146567659037976,0.9513762213990478,5.715744346892791,0.08,0.002,0.06,9.803306269979911,0.1680939752466628,0.019606612539959822,-0.44106021611925544,-0.2533596283326328,0.5,0,0,9.654373728015033,0.8537512523409178,0.0,-0.0,0.8537512523409178,2.101174690583285,-16.905783323783872,-19.006958014367157,91.25804897806725,78.15641019261874,-13.101638785448507,-19.781979756661467,28.059701604174318,47.841681360835786,1.7075025046818355,0,-1.7075025046818355,4.005773257486123,0.13405860986102516,-0.8537512523409178,0.45818060017336887,0.0339655876159668,2.3402462005615234,GUIDED_NOGPS
0.002,8e-05,0.0,-28.850983262983558,-0.03971256888043845,-0.002308078661038685,-0.0,-0.042020647541477135,0.05,0.004,0.04,53.41800137966642,4.604482276150411,0.2136720055186657,1.0038258872648715,5.821980168933948,0.08,0.002,0.06,9.864308747714885,0.14727301769156015,0.01972861749542977,-0.4712460098275234,-0.3042443746405335,0.5,0,0,9.710131548897142,0.841320595297092,0.0,-0.0,0.841320595297092,1.8409127211445018,-16.905783323783872,-18.746696044928374,92.08964552300822,78.15641019261874,-13.933235330389481,-19.856284440219223,28.059701604174318,47.91598604439354,1.682641190594184,0,-1.682641190594184,4.0072088603260525,0.18665955433566356,-0.841320595297092,0.45797935245852284,0.03313708305358887,2.373380422592163,GUIDED_NOGPS
0.002,8e-05,0.0,-29.523063035209095,-0.03985898132072996,-0.0023618450428167276,-0.0,-0.04222082636354669,0.05,0.004,0.04,56.55012569349873,4.6439161569257426,0.22620050277399492,0.9354808058114631,5.805597465511201,0.08,0.002,0.06,9.914294552186183,0.1185801643828998,0.019828589104372366,-0.6381317839777261,-0.4997230304904539,0.5,0,0,9.768592107681389,0.8667789215201916,0.0,0.0,0.8667789215201916,1.4822520547862474,-16.905783323783872,-18.38803537857012,92.87832313851484,78.15641019261874,-14.721912945896106,-19.92949066036498,28.059701604174318,47.9891922645393,1.7335578430403833,0,-1.7335578430403833,4.013286712462367,0.37848760980455637,-0.8667789215201916,0.4577791736364533,0.033722877502441406,2.4071478843688965,GUIDED_NOGPS
0.002,8e-05,0.0,-30.203048382804038,-0.040081584442164336,-0.0024162438706243233,-0.0,-0.04249782831278866,0.05,0.004,0.04,59.72684351736485,4.681273065536163,0.2389073740694594,0.8807978538141754,5.8009782934197975,0.08,0.002,0.06,9.955750198302095,0.09774375205444442,0.01991150039660419,-0.46057412661645275,-0.3429188741654041,0.5,0,0,9.827638216251781,0.8701149204964667,0.0,0.0,0.8701149204964667,1.2217969006805554,-16.905783323783872,-18.127580224464428,93.62546131072325,78.15641019261874,-15.469051118104511,-20.040792221082167,28.059701604174318,48.100493825256486,1.7402298409929333,0,-1.7402298409929333,4.008568919772741,0.22128843099192247,-0.8701149204964667,0.45750217168721136,0.033930063247680664,2.4410457611083984,GUIDED_NOGPS
0.002,8e-05,0.0,-30.882076406133397,-0.04035008117141295,-0.002470566112490672,-0.0,-0.04282064728390362,0.05,0.004,0.04,62.901974140433275,4.716917931548591,0.2516078965617331,0.8472541265048655,5.81577995461519,0.08,0.002,0.06,9.988549019928138,0.07796055947432592,0.019977098039856277,-0.44084341828239626,-0.34290576076821405,0.5,0,0,9.887857435857857,0.8946060824082138,0.0,0.0,0.8946060824082138,0.974506993429074,-16.905783323783872,-17.880290317212946,94.33835863097181,78.15641019261874,-16.181948438353075,-20.175040585706473,28.059701604174318,48.23474218988079,1.7892121648164276,0,-1.7892121648164276,4.008756225571845,0.21784830664249505,-0.8946060824082138,0.4571793527160964,0.03365683555603027,2.474940299987793,GUIDED_NOGPS
0.002,8e-05,0.0,-31.566915729419925,-0.04069454293430581,-0.0025253532583535943,-0.0,-0.0432198961926594,0.05,0.004,0.04,66.0988575872353,4.749132616156236,0.2643954303489412,0.7657047843512576,5.779232830856434,0.08,0.002,0.06,10.014607966969033,0.061939021497152566,0.020029215933938065,-0.35701211743187344,-0.27504388000078284,0.5,0,0,9.948927415496733,0.9072255432430922,0.0,0.0,0.9072255432430922,0.7742377687144071,-16.905783323783872,-17.68002109249828,94.98265232312471,78.15641019261874,-16.826242130505975,-20.347271467152904,28.059701604174318,48.40697307132722,1.8144510864861845,0,-1.8144510864861845,4.006703098579015,0.14825456405521056,-0.9072255432430922,0.4567801038073406,0.03365755081176758,2.5083634853363037,GUIDED_NOGPS
0.002,8e-05,0.0,-32.24459200256051,-0.04085758255431579,-0.002579567360204841,-0.0,-0.043437149914520634,0.05,0.004,0.04,69.27040895430066,4.780376963937343,0.27708163581720263,0.7534975441334479,5.810956143887993,0.08,0.002,0.06,10.034657158434058,0.04835119822821923,0.020069314316868116,-0.30720730879236946,-0.2387867962472821,0.5,0,0,10.008639490116435,0.9000208192908923,0.0,-0.0,0.9000208192908923,0.6043899778527404,-16.905783323783872,-17.510173301636613,95.60753927874686,78.15641019261874,-17.451129086128123,-20.428791277157895,28.059701604174318,48.48849288133221,1.8000416385817846,0,-1.8000416385817846,4.005526798129206,0.11302302212750645,-0.9000208192908923,0.45656285008547937,0.033172607421875,2.541536808013916,GUIDED_NOGPS
0.002,8e-05,0.0,-32.9390460796703,-0.041044902606043786,-0.0026351236863736242,-0.0,-0.043680026292417407,0.05,0.004,0.04,72.52556667555558,4.809808021873605,0.29010226670222233,0.6957954147892271,5.795705703365054,0.08,0.002,0.06,10.049339989792788,0.03471246856858613,0.020098679979585577,-0.3022879854487304,-0.24747683690055872,0.5,0,0,10.06897867439476,0.8915693721387937,0.0,-0.0,0.8915693721387937,0.43390585710732665,-16.905783323783872,-17.3396891808912,96.19616043747209,78.15641019261874,-18.03975024485336,-20.522451303021892,28.059701604174318,48.58215290719621,1.7831387442775875,0,-1.7831387442775875,4.005763685453104,0.12289052488889049,-0.8915693721387937,0.4563199737075826,0.033838748931884766,2.5753731727600098,GUIDED_NOGPS
0.002,8e-05,0.0,-33.62256482790327,-0.0412252368322529,-0.002689805186232262,-0.0,-0.04391504201848516,0.05,0.004,0.04,75.73485262429423,4.839061607351791,0.30293941049717693,0.7057515204365741,5.847752538285542,0.08,0.002,0.06,10.058821534053532,0.02287450980358017,0.020117643068107066,-0.267744660420499,-0.22475250754881176,0.5,0,0,10.128806799982922,0.902107167132569,0.0,0.0,0.902107167132569,0.2859313725447521,-16.905783323783872,-17.191714696328624,96.78123214703582,78.15641019261874,-18.624821954417087,-20.61261841612645,28.059701604174318,48.672320020300766,1.804214334265138,0,-1.804214334265138,4.005093159237237,0.09870397905133821,-0.902107167132569,0.4560849579815148,0.03316020965576172,2.608530282974243,GUIDED_NOGPS
0.002,8e-05,0.0,-34.41988146848478,-0.04132505035412992,-0.0027535905174787827,-0.0,-0.044078640871608704,0.05,0.004,0.04,79.48991666296317,4.865639401674805,0.31795966665185266,0.5510125502456397,5.7346116185722975,0.08,0.002,0.06,10.064005258072935,0.010746930151489949,0.02012801051614587,-0.23571540509496847,-0.20484046442733264,0.5,0,0,10.198871476538539,0.9078658776627708,0.0,0.0,0.9078658776627708,0.13433662689362436,-16.905783323783872,-17.040119950677497,97.3127880334961,78.15641019261874,-19.156377840877365,-20.66252517706496,28.059701604174318,48.72222678123928,1.8157317553255417,0,-1.8157317553255417,4.004482002552365,0.07799684032705026,-0.9078658776627708,0.45592135912839127,0.03858757019042969,2.647237777709961,GUIDED_NOGPS
0.002,8e-05,0.0,-35.02066485143702,-0.041298143063763046,-0.002801653188114962,0.0,-0.04409979625187801,0.05,0.004,0.04,82.33929763746299,4.8966959834096055,0.32935719054985196,0.8539378364645522,6.07999101042401,0.08,0.002,0.06,10.063286381254388,-0.0019766377393290215,0.020126572762508777,-0.32798410080920876,-0.309834165786029,0.5,0,0,10.250512478731814,0.88745692584491,0.0,-0.0,0.88745692584491,-0.024707971741612766,-16.905783323783872,-16.88107535204226,97.9339196681921,78.15641019261874,-19.77750947557337,-20.64907153188152,28.059701604174318,48.70877313605584,1.77491385168982,0,-1.77491385168982,4.007677405109203,0.1857929677503665,-0.88745692584491,0.455900203748122,0.029094934463500977,2.6762313842773438,GUIDED_NOGPS
