D-kp,D-ki,D-kd,D-I-Tot,D-P,D-I,D-D,D-PID,E-kp,E-ki,E-kd,E-I-Tot,E-P,E-I,E-D,E-PID,N-kp,N-ki,N-kd,N-I-Tot,N-P,N-I,N-D,N-PID,Y-kp,Y-ki,Y-kd,Y-I-Tot,Y-P,Y-I,Y-D,Y-PID,errorN,desiredN,actualN,errorE,desiredE,actualE,errorD,desiredD,actualD,errorY,desiredY,actualY,roll,pitch,yaw-rate,thrust,dt,Time,Mode
0.002,8e-05,0.0,-0.001159364166816141,-5.739659664115493e-05,-9.274913334529129e-08,-0.0,-5.7489345774500223e-05,0.05,0.004,0.04,-0.004353121167571341,-0.0053877450014545155,-1.7412484670285363e-05,-0.10669235275853557,-0.11209751024466037,0.08,0.002,0.06,-0.004953994558894518,-0.009810288625366412,-9.907989117789036e-06,-0.1821290912985289,-0.19194928791301308,0.5,0,0,-0.004773048394302381,-0.0590747802282067,-0.0,-0.0,-0.0590747802282067,-0.12262860781708015,0,0.12262860781708015,-0.1077549000290903,0,0.1077549000290903,-0.028698298320577464,0.5,0.5286982983205775,-0.1181495604564134,0.0,0.1181495604564134,-0.1124930900347109,0.1917177238228301,0.0590747802282067,0.4,0.040398359298706055,0.04094123840332031,GUIDED_NOGPS
0.002,8e-05,0.0,-0.003568565792889439,-0.00013395715482469094,-2.8548526343115514e-07,-0.0,-0.0001342426400881221,0.05,0.004,0.04,-0.008278912832524774,-0.00545707627975477,-3.31156513300991e-05,-0.0015419914515993757,-0.0070321833826842445,0.08,0.002,0.06,-0.009425688272424154,-0.009945458456097893,-1.885137654484831e-05,-0.002818407623135961,-0.012782717455778702,0.5,0,0,0.06616561272612635,0.9860882032374616,0.0,0.0,0.9860882032374616,-0.12431823070122365,0,0.12431823070122365,-0.10914152559509538,0,0.10914152559509538,-0.06697857741234547,0.5,0.5669785774123455,1.9721764064749232,2.0928640278329307,0.12068762135800747,-0.007059093231720289,0.012767876543413582,-0.9860882032374616,0.4,0.03596973419189453,0.07674527168273926,GUIDED_NOGPS
0.002,8e-05,0.0,-0.0067975676750998805,-0.00018810299320226088,-5.438054140079905e-07,-0.0,-0.00018864679861626887,0.05,0.004,0.04,-0.012005924916626127,-0.005427854754303695,-4.8023699666504506e-05,0.0006809108949196849,-0.004794967559050515,0.08,0.002,0.06,-0.013666275679845715,-0.009881284847387713,-2.733255135969143e-05,0.0014018938734767772,-0.008506723525270628,0.5,0,0,0.20253344342911445,1.9860004784335619,0.0,0.0,1.9860004784335619,-0.1235160605923464,0,0.1235160605923464,-0.10855709508607389,0,0.10855709508607389,-0.09405149660113044,0.5,0.5940514966011304,3.9720009568671237,4.093032540812346,0.12103158394522215,-0.0048129264472627185,0.008496575665583086,-1.9860004784335619,0.4,0.034332275390625,0.1111142635345459,GUIDED_NOGPS
0.002,8e-05,0.0,-0.013735346494941847,-0.000240818255176944,-1.098827719595348e-06,-0.0,-0.00024191708289653937,0.05,0.004,0.04,-0.018304137087684122,-0.005465454092564052,-7.321654835073649e-05,-0.0005220464515110145,-0.0060607170924258024,0.08,0.002,0.06,-0.020492650827804385,-0.009478052241233634,-4.098530165560877e-05,0.005248749734934376,-0.004270287807954867,0.5,0,0,0.5361967392376166,2.8954588636994885,0.0,0.0,2.8954588636994885,-0.11847565301542043,0,0.11847565301542043,-0.10930908185128103,0,0.10930908185128103,-0.120409127588472,0.5,0.620409127588472,5.790917727398977,5.911915622135862,0.12099789473688542,-0.006069721614637523,0.004257479202297094,-2.8954588636994885,0.4,0.05761837959289551,0.16872262954711914,GUIDED_NOGPS
0.002,8e-05,0.0,-0.016935732695287222,-0.000281424643415938,-1.354858615622978e-06,-0.0,-0.00028277950203156095,0.05,0.004,0.04,-0.02077931441060163,-0.005441342480933266,-8.311725764240652e-05,0.000848097858270382,-0.004676361880305291,0.08,0.002,0.06,-0.023109971169506343,-0.00920611948382061,-4.621994233901269e-05,0.008967110666184705,-0.0002852287599749183,0.5,0,0,0.7033256293961727,3.674102543647493,0.0,0.0,3.674102543647493,-0.11507649354775763,0,0.11507649354775763,-0.10882684961866532,0,0.10882684961866532,-0.140712321707969,0.5,0.640712321707969,7.348205087294986,7.468952709129846,0.12074762183486068,-0.0046769525987729555,0.00027537296512214786,-3.674102543647493,0.4,0.022744178771972656,0.19240045547485352,GUIDED_NOGPS
0.002,8e-05,0.0,-0.01988209266067879,-0.00026673996888120356,-1.5905674128543033e-06,0.0,-0.0002683305362940579,0.05,0.004,0.04,-0.023130636268804176,-0.0053217489262491376,-9.252254507521671e-05,0.00433081923859192,-0.0010834522327324344,0.08,0.002,0.06,-0.025523647877411973,-0.00874060274397558,-5.1047295754823946e-05,0.01580406698754825,0.007012416947817847,0.5,0,0,0.892853474306202,4.289585458603672,0.0,0.0,4.289585458603672,-0.10925753429969473,0,0.10925753429969473,-0.10643497852498274,0,0.10643497852498274,-0.13336998444060177,0.5,0.6333699844406018,8.579170917207344,8.695180719384028,0.11600980217668493,-0.0010692516092202565,-0.007014596295356972,-4.289585458603672,0.4,0.02209162712097168,0.21353387832641602,GUIDED_NOGPS
0.002,8e-05,0.0,-0.025230209540263917,-0.00028206304802785745,-2.0184167632211137e-06,-0.0,-0.00028408146479107856,0.05,0.004,0.04,-0.027108462493171323,-0.005244826425040559,-0.00010843384997268529,0.0016227764382367826,-0.0037304838367764616,0.08,0.002,0.06,-0.029544644975993448,-0.008482796642432719,-5.9089289951986896e-05,0.005098820980259648,-0.0034430649521250568,0.5,0,0,1.2502570101821506,4.712421819440679,0.0,0.0,4.712421819440679,-0.10603495803040898,0,0.10603495803040898,-0.10489652850081119,0,0.10489652850081119,-0.1410315240139287,0.5,0.6410315240139287,9.424843638881358,9.536288510260055,0.11144487137869719,-0.0037371738122895463,0.0034358023542892524,-4.712421819440679,0.4,0.03792142868041992,0.2521815299987793,GUIDED_NOGPS
0.002,8e-05,0.0,-0.03045520949546538,-0.0003373105980729918,-2.4364167596372305e-06,-0.0,-0.00033974701483262905,0.05,0.004,0.04,-0.030399397733724135,-0.0053113270034829746,-0.00012159759093489654,-0.0017172325419280055,-0.007150157136345876,0.08,0.002,0.06,-0.03289944929286713,-0.008663051178907689,-6.579889858573426e-05,-0.004363763111845661,-0.013092613189339084,0.5,0,0,1.5551966690257095,4.921501415435369,0.0,0.0,4.921501415435369,-0.10828813973634611,0,0.10828813973634611,-0.10622654006965948,0,0.10622654006965948,-0.1686552990364959,0.5,0.6686552990364959,9.843002830870738,9.95502238601579,0.11201955514505098,-0.007175740954273673,0.013078608831112472,-4.921501415435369,0.4,0.030980348587036133,0.28263020515441895,GUIDED_NOGPS
0.002,8e-05,0.0,-0.037951169484972715,-0.00037929046618005935,-3.0360935587978175e-06,-0.0,-0.00038232655973885715,0.05,0.004,0.04,-0.034635003556963126,-0.00535796919107114,-0.0001385400142278525,-0.0009440251601522222,-0.006440534365451216,0.08,0.002,0.06,-0.037170439147952004,-0.0086443670214516,-7.4340878295904e-05,0.0003545271120187717,-0.008364180787728732,0.5,0,0,1.9432902382776824,4.909317519340794,0.0,-0.0,4.909317519340794,-0.10805458776814499,0,0.10805458776814499,-0.1071593838214228,0,0.1071593838214228,-0.18964523309002967,0.5,0.6896452330900297,9.818635038681588,9.932836109684285,0.11420107100269716,-0.0064571929181468195,0.008351327007141028,-4.909317519340794,0.4,0.03952622413635254,0.32204318046569824,GUIDED_NOGPS
0.002,8e-05,0.0,-0.046716319923564106,-0.00042454031681633353,-3.7373055938851287e-06,-0.0,-0.00042827762241021865,0.05,0.004,0.04,-0.0391738295005554,-0.005495954169773855,-0.0001566953180022216,-0.0026733225851516326,-0.00832597207292771,0.08,0.002,0.06,-0.041406646853990745,-0.008207233745599013,-8.281329370798149e-05,0.007939711105998528,-0.00035033593330846546,0.5,0,0,2.329726791170548,4.679266424003161,0.0,-0.0,4.679266424003161,-0.10259042181998766,0,0.10259042181998766,-0.10991908339547708,0,0.10991908339547708,-0.21227015840816676,0.5,0.7122701584081668,9.358532848006321,9.470712338657458,0.11217949065113603,-0.008326642037431968,0.0003340338393188106,-4.679266424003161,0.4,0.041292428970336914,0.36345696449279785,GUIDED_NOGPS
0.002,8e-05,0.0,-0.0519104305504866,-0.00045811542380282865,-4.152834444038928e-06,-0.0,-0.0004622682582468676,0.05,0.004,0.04,-0.04161476967921303,-0.005382212782622437,-0.00016645907871685211,0.004012751173123642,-0.0015359206882156473,0.08,0.002,0.06,-0.04367360778135975,-0.007997748531601342,-8.73472155627195e-05,0.006928645812832186,-0.0011564499343318761,0.5,0,0,2.5219856365802165,4.239260037520517,0.0,-0.0,4.239260037520517,-0.09997185664501676,0,0.09997185664501676,-0.10764425565244874,0,0.10764425565244874,-0.22905771190141433,0.5,0.7290577119014143,8.478520075041034,8.589119101584899,0.11059902654386541,-0.001538150140470519,0.0011534829675706316,-4.239260037520517,0.4,0.02267599105834961,0.3860809803009033,GUIDED_NOGPS
0.002,8e-05,0.0,-0.05968978492294049,-0.0004609100845682923,-4.77518279383524e-06,-0.0,-0.0004656852673621275,0.05,0.004,0.04,-0.045177347045018384,-0.005276876962851598,-0.00018070938818007354,0.0024963686842991075,-0.0029612176667325636,0.08,0.002,0.06,-0.047039187518003074,-0.007976135636810128,-9.407837503600615e-05,0.0004801941470196219,-0.007590019864826512,0.5,0,0,2.7656583647958755,3.6092718107350743,0.0,-0.0,3.6092718107350743,-0.0997016954601266,0,0.0997016954601266,-0.10553753925703195,0,0.10553753925703195,-0.23045504228414615,0.5,0.7304550422841461,7.218543621470149,7.327103244279351,0.10855962280920219,-0.0029755933268720237,0.007584395557412917,-3.6092718107350743,0.4,0.03375649452209473,0.4198634624481201,GUIDED_NOGPS
0.002,8e-05,0.0,-0.06869517796898503,-0.0005056711056836998,-5.495614237518803e-06,-0.0,-0.0005111667199212186,0.05,0.004,0.04,-0.04893857287869174,-0.005280011700530649,-0.00019575429151476694,-7.040875440259207e-05,-0.005546174746448008,0.08,0.002,0.06,-0.050642389558172324,-0.008093084445456585,-0.00010128477911634464,-0.0024625924046683123,-0.010656961629241242,0.5,0,0,2.9662541678751353,2.815965417055083,0.0,-0.0,2.815965417055083,-0.10116355556820732,0,0.10116355556820732,-0.10560023401061298,0,0.10560023401061298,-0.2528355528418499,0.5,0.7528355528418499,5.631930834110166,5.740560997021648,0.10863016291148153,-0.005566369875223788,0.010646427189318438,-2.815965417055083,0.4,0.03561758995056152,0.45556068420410156,GUIDED_NOGPS
0.002,8e-05,0.0,-0.07804697710395944,-0.0005510964315984504,-6.243758168316756e-06,-0.0,-0.0005573401897667671,0.05,0.004,0.04,-0.05248603550057603,-0.0052262510238214955,-0.00020994414200230414,0.0012672349637592472,-0.004168960202064552,0.08,0.002,0.06,-0.053941105886987605,-0.0077756622931171105,-0.00010788221177397521,0.007014567983382871,-0.0008689765215082156,0.5,0,0,3.0950569751289465,1.8975698267505796,0.0,-0.0,1.8975698267505796,-0.09719577866396388,0,0.09719577866396388,-0.1045250204764299,0,0.1045250204764299,-0.27554821579922517,0.5,0.7755482157992252,3.7951396535011592,3.8997622619605226,0.10462260845936316,-0.004170540009824346,0.0008613625182145855,-1.8975698267505796,0.4,0.03393888473510742,0.4893805980682373,GUIDED_NOGPS
0.002,8e-05,0.0,-0.08772953309948643,-0.0005907654972399457,-7.018362647958915e-06,-0.0,-0.0005977838598879045,0.05,0.004,0.04,-0.05586577645874301,-0.00515523573686561,-0.00022346310583497202,0.0017331531603643547,-0.0036455456823362275,0.08,0.002,0.06,-0.05698476483156584,-0.007428157154591107,-0.00011396952966313168,0.007950924039953525,0.00040879735569928667,0.5,0,0,3.1536033446815592,0.8930280169905788,0.0,-0.0,0.8930280169905788,-0.09285196443238883,0,0.09285196443238883,-0.1031047147373122,0,0.1031047147373122,-0.2953827486199728,0.5,0.7953827486199728,1.7860560339811575,1.8862382729548939,0.10018223897373629,-0.003644825323729676,-0.00041517100034311517,-0.8930280169905788,0.4,0.032779693603515625,0.5222287178039551,GUIDED_NOGPS
0.002,8e-05,0.0,-0.10991115264020608,-0.0006217518215276978,-8.792892211216488e-06,-0.0,-0.0006305447137389142,0.05,0.004,0.04,-0.06309484074426439,-0.005065775155881512,-0.00025237936297705754,0.0010030336888554243,-0.004315120830003146,0.08,0.002,0.06,-0.06351736683043226,-0.007324365445281457,-0.00012703473366086453,0.0010909824044455399,-0.006360417774496781,0.5,0,0,3.1314488375491925,-0.1552479648669358,0.0,-0.0,-0.1552479648669358,-0.09155456806601821,0,0.09155456806601821,-0.10131550311763024,0,0.10131550311763024,-0.3108759107638489,0.5,0.8108759107638489,-0.3104959297338716,-0.21082952277810635,0.09966640695576522,-0.004326178286852074,0.006352901972644569,0.1552479648669358,0.4,0.07135200500488281,0.5936102867126465,GUIDED_NOGPS
0.002,8e-05,0.0,-0.11712721096963243,-0.0006626456992960317,-9.370176877570594e-06,-0.0,-0.0006720158761736023,0.05,0.004,0.04,-0.06521869094549175,-0.004875792771980698,-0.000260874763781967,0.006978380932455162,0.0018417133966924975,0.08,0.002,0.06,-0.06554054311775868,-0.007431475769798268,-0.00013108108623551738,-0.003688450431544831,-0.011251007287578618,0.5,0,0,3.0792966453381023,-1.1972750322919765,0.0,-0.0,-1.1972750322919765,-0.09289344712247835,0,0.09289344712247835,-0.09751585543961394,0,0.09751585543961394,-0.33132284964801584,0.5,0.8313228496480158,-2.394550064583953,-2.298559420348432,0.09599064423552091,0.0018228614143603284,0.011254077016119093,1.1972750322919765,0.4,0.021779537200927734,0.6153783798217773,GUIDED_NOGPS
0.002,8e-05,0.0,-0.12453165121769501,-0.0006238055929981594,-9.962532097415602e-06,0.0,-0.000633768125095575,0.05,0.004,0.04,-0.06750061038274281,-0.0048061502964416875,-0.00027000244153097127,0.0023468818328482893,-0.0027292709051243698,0.08,0.002,0.06,-0.06764202363785142,-0.0070817793545084814,-0.00013528404727570283,0.0110478935139419,0.0038308301121577166,0.5,0,0,2.975446235966742,-2.187284387160592,0.0,-0.0,-2.187284387160592,-0.08852224193135602,0,0.08852224193135602,-0.09612300592883374,0,0.09612300592883374,-0.3119027964990797,0.5,0.8119027964990797,-4.374568774321184,-4.284483301829301,0.09008547249188309,-0.00272324436549449,-0.003835116575487011,2.187284387160592,0.4,0.02373957633972168,0.6390500068664551,GUIDED_NOGPS
0.002,8e-05,0.0,-0.13763183904722773,-0.0006259638774205571,-1.101054712377822e-05,-0.0,-0.0006369744245443353,0.05,0.004,0.04,-0.07143869225747836,-0.00470431613650575,-0.0002857547690299134,0.0019463692104829398,-0.003043701695052724,0.08,0.002,0.06,-0.07133218950447281,-0.007053060808755486,-0.00014266437900894562,0.0005145948808334636,-0.006681130306930968,0.5,0,0,2.7173658136907477,-3.082952395728717,0.0,-0.0,-3.082952395728717,-0.08816326010944357,0,0.08816326010944357,-0.094086322730115,0,0.094086322730115,-0.3129819387102786,0.5,0.8129819387102786,-6.165904791457434,-6.080642162619563,0.08526262883787117,-0.003053640602159721,0.0066765935370890995,3.082952395728717,0.4,0.04185605049133301,0.6809296607971191,GUIDED_NOGPS
0.002,8e-05,0.0,-0.14746062577038999,-0.0006630732151370202,-1.17968500616312e-05,-0.0,-0.0006748700651986514,0.05,0.004,0.04,-0.07420478092062194,-0.004665172199999109,-0.00029681912368248773,0.0010562970410747487,-0.003905694282606848,0.08,0.002,0.06,-0.0739656116772555,-0.007106275702595924,-0.000147931223354511,-0.00134625100784826,-0.008600457933798693,0.5,0,0,2.489424891027318,-3.8443585334790895,0.0,-0.0,-3.8443585334790895,-0.08882844628244904,0,0.08882844628244904,-0.09330344399998218,0,0.09330344399998218,-0.3315366075685101,0.5,0.8315366075685101,-7.688717066958179,-7.607481923646012,0.08123514331216727,-0.003917884260330855,0.008594911716991656,3.8443585334790895,0.4,0.02964615821838379,0.7106716632843018,GUIDED_NOGPS
0.002,8e-05,0.0,-0.15869192645904223,-0.000673671489401255,-1.269535411672338e-05,-0.0,-0.0006863668435179784,0.05,0.004,0.04,-0.07721195995219006,-0.004509385941246265,-0.00030884783980876025,0.0037377242003079794,-0.0010805095807470458,0.08,0.002,0.06,-0.07673117036796516,-0.006635306430997271,-0.00015346234073593032,0.01059356055864004,0.0038047917869068392,0.5,0,0,2.193432429882854,-4.438526037153544,0.0,-0.0,-4.438526037153544,-0.08294133038746589,0,0.08294133038746589,-0.0901877188249253,0,0.0901877188249253,-0.3368357447006275,0.5,0.8368357447006275,-8.877052074307088,-8.79737697910487,0.07967509520221712,-0.0010752176218877642,-0.0038062906564504395,4.438526037153544,0.4,0.03334355354309082,0.7439501285552979,GUIDED_NOGPS
0.002,8e-05,0.0,-0.17342691973663346,-0.0007091123479777404,-1.3874153578930678e-05,-0.0,-0.0007229865015566711,0.05,0.004,0.04,-0.08086265764552313,-0.004392188656463926,-0.0003234506305820925,0.0022560184513964253,-0.0024596208356495925,0.08,0.002,0.06,-0.080235949637235,-0.006746612529658182,-0.00016047189927447,-0.0020087011785164936,-0.008915785607449146,0.5,0,0,1.7912794319763097,-4.838340459670961,0.0,-0.0,-4.838340459670961,-0.08433265662072727,0,0.08433265662072727,-0.08784377312927852,0,0.08784377312927852,-0.3545561739888702,0.5,0.8545561739888702,-9.676680919341923,-9.597625417490859,0.07905550185106479,-0.0024719203024050535,0.008912383388954755,4.838340459670961,0.4,0.04155898094177246,0.7856636047363281,GUIDED_NOGPS
0.002,8e-05,0.0,-0.18986953046886254,-0.0007482930657432865,-1.5189562437509004e-05,-0.0,-0.0007634826281807955,0.05,0.004,0.04,-0.08462052560103511,-0.004275456280760749,-0.0003384821024041405,0.0021249673475566247,-0.0024889710356082654,0.08,0.002,0.06,-0.08401219484649085,-0.006874183548221423,-0.0001680243896929817,-0.002177129368366594,-0.009219337306280998,0.5,0,0,1.3495543153801743,-5.0256593538646985,0.0,-0.0,-5.0256593538646985,-0.08592729435276779,0,0.08592729435276779,-0.08550912561521498,0,0.08550912561521498,-0.37414653287164323,0.5,0.8741465328716432,-10.051318707729397,-9.972783253900806,0.07853545382859067,-0.002501605659860141,0.009215917008395701,5.0256593538646985,0.4,0.04394698143005371,0.8298075199127197,GUIDED_NOGPS
0.002,8e-05,0.0,-0.206300727308313,-0.0007690175984433219,-1.6504058184665043e-05,-0.0,-0.000785521656627987,0.05,0.004,0.04,-0.08833573833690528,-0.004347011364664046,-0.0003533429533476211,-0.0013395766435615115,-0.0060399309615731785,0.08,0.002,0.06,-0.08747475457202065,-0.00648222863035839,-0.0001749495091440413,0.006879145032272959,0.00022196689277052817,0.5,0,0,0.9230272168742772,-4.99061097266627,0.0,0.0,-4.99061097266627,-0.08102785787947987,0,0.08102785787947987,-0.08694022729328092,0,0.08694022729328092,-0.3845087992216609,0.5,0.8845087992216609,-9.98122194533254,-9.9062342875998,0.07498765773274137,-0.006039635282561955,-0.0002298716504688425,4.99061097266627,0.4,0.042732954025268555,0.8759844303131104,GUIDED_NOGPS
0.002,8e-05,0.0,-0.21942946229662338,-0.0007610413189840538,-1.755435698372987e-05,0.0,-0.0007785956759677836,0.05,0.004,0.04,-0.0913590633912969,-0.004381372784888253,-0.00036543625356518763,-0.000796739688717298,-0.005543548727170738,0.08,0.002,0.06,-0.09008329999537092,-0.006048445189529374,-0.00018016659999074185,0.00942952012101399,0.0032009083314938746,0.5,0,0,0.5962216810269656,-4.73603352253622,0.0,0.0,-4.73603352253622,-0.07560556486911718,0,0.07560556486911718,-0.08762745569776506,0,0.08762745569776506,-0.38052065949202685,0.5,0.8805206594920268,-9.47206704507244,-9.4009260539328,0.07114099113964002,-0.005539570064684157,-0.0032077889792812707,4.73603352253622,0.4,0.03450202941894531,0.9067234992980957,GUIDED_NOGPS
0.002,8e-05,0.0,-0.2273126932957713,-0.0007273274009887734,-1.8185015463661706e-05,0.0,-0.0007455124164524351,0.05,0.004,0.04,-0.09314918951202232,-0.004129042327219845,-0.0003725967580480893,0.009312265794880691,0.004810626709612757,0.08,0.002,0.06,-0.09166539928556582,-0.0058387438600645625,-0.00018333079857113163,0.007255346330712202,0.0012332716720765075,0.5,0,0,0.4109308968056604,-4.2738524511529645,0.0,0.0,-4.2738524511529645,-0.07298429825080703,0,0.07298429825080703,-0.0825808465443969,0,0.0825808465443969,-0.3636637004943867,0.5,0.8636637004943867,-8.547704902305929,-8.479239274368842,0.06846562793708678,0.004812096973462552,-0.0012275223315193066,4.2738524511529645,0.4,0.021677255630493164,0.928394079208374,GUIDED_NOGPS
0.002,8e-05,0.0,-0.242000466167472,-0.00071697480324784,-1.936003729339776e-05,0.0,-0.0007363348405412378,0.05,0.004,0.04,-0.09636132959519737,-0.003919967179939562,-0.0003854453183807895,0.004082351051985912,-0.00022306144633443999,0.08,0.002,0.06,-0.09456765656762216,-0.0056668777818212925,-0.00018913531313524432,0.003146077234866164,-0.0027099358600903727,0.5,0,0,0.11396393502437974,-3.6240659297720437,0.0,0.0,-3.6240659297720437,-0.07083597227276615,0,0.07083597227276615,-0.07839934359879125,0,0.07839934359879125,-0.35848740162392,0.5,0.85848740162392,-7.248131859544087,-7.181996586895462,0.06613527264862554,-0.00022618931708869673,0.0027096765798669607,3.6240659297720437,0.4,0.04097151756286621,0.9693856239318848,GUIDED_NOGPS
0.002,8e-05,0.0,-0.255785130213354,-0.0007705911880833409,-2.046281041706832e-05,-0.0,-0.0007910539985004093,0.05,0.004,0.04,-0.09908269799210412,-0.003803252838090193,-0.0003963307919684165,0.0026098290985608445,-0.0015897545314977647,0.08,0.002,0.06,-0.09710787372700774,-0.0056801354093947674,-0.00019421574745401548,-0.00027792328531746303,-0.006152274442166246,0.5,0,0,-0.08745298313578279,-2.8149054222234,-0.0,0.0,-2.8149054222234,-0.0710016926174346,0,0.0710016926174346,-0.07606505676180386,0,0.07606505676180386,-0.38529559404167046,0.5,0.8852955940416705,-5.6298108444468,-5.566654461310076,0.06315638313672359,-0.0015965351354082311,0.006150518339421214,2.8149054222234,0.4,0.03577685356140137,1.0051469802856445,GUIDED_NOGPS
0.002,8e-05,0.0,-0.26870780754979556,-0.0007998175710030088,-2.1496624603983646e-05,-0.0,-0.0008213141956069925,0.05,0.004,0.04,-0.10155594648976435,-0.003826891971346995,-0.0004062237859590574,-0.0005852345810338968,-0.004818350338339949,0.08,0.002,0.06,-0.09934280861786018,-0.005533033594240299,-0.00019868561723572037,0.003414190421531245,-0.0023175287899447746,0.5,0,0,-0.20920578924130745,-1.8838981874040897,-0.0,0.0,-1.8838981874040897,-0.06916291992800373,0,0.06916291992800373,-0.0765378394269399,0,0.0765378394269399,-0.39990878550150444,0.5,0.8999087855015044,-3.7677963748081793,-3.7047583816978453,0.06303799311033406,-0.004820897214316852,0.0023122261403668133,1.8838981874040897,0.4,0.03231406211853027,1.037306308746338,GUIDED_NOGPS
0.002,8e-05,0.0,-0.28543593952128915,-0.0008223640926711502,-2.2834875161703135e-05,-0.0,-0.0008451989678328533,0.05,0.004,0.04,-0.10468637385757079,-0.0038473379250983184,-0.00041874549543028316,-0.0004020536957540983,-0.0046681371162827,0.08,0.002,0.06,-0.10207773938391256,-0.005378027532962487,-0.0002041554787678251,0.0028575684472378635,-0.0027246145644924486,0.5,0,0,-0.28006453865318315,-0.8708636933760785,-0.0,0.0,-0.8708636933760785,-0.06722534416203109,0,0.06722534416203109,-0.07694675850196636,0,0.07694675850196636,-0.4111820463355751,0.5,0.9111820463355751,-1.741727386752157,-1.6787740091854046,0.0629533775667523,-0.004671127951030209,0.0027194838345842125,0.8708636933760785,0.4,0.04068303108215332,1.0781733989715576,GUIDED_NOGPS
0.002,8e-05,0.0,-0.3022395511605177,-0.0008675942846768092,-2.417916409284142e-05,-0.0,-0.0008917734487696507,0.05,0.004,0.04,-0.1076964826013206,-0.00388540451660444,-0.00043078593040528243,-0.0007861728284825826,-0.005102363275492306,0.08,0.002,0.06,-0.10450913497472136,-0.005021456014728413,-0.00020901826994944273,0.006903859820592221,0.0016733855359143653,0.5,0,0,-0.26609978887473884,0.18025495582204842,-0.0,0.0,0.18025495582204842,-0.06276820018410516,0,0.06276820018410516,-0.0777080903320888,0,0.0777080903320888,-0.4337971423384046,0.5,0.9337971423384046,0.36050991164409685,0.42156532334096364,0.06105541169686678,-0.005100577189175559,-0.0016788217547321492,-0.18025495582204842,0.4,0.03873610496520996,1.116884708404541,GUIDED_NOGPS
0.002,8e-05,0.0,-0.3149093955385444,-0.0008902190143838181,-2.5192751643083554e-05,-0.0,-0.0009154117660269016,0.05,0.004,0.04,-0.10980237390797987,-0.003699146626190921,-0.0004392094956319195,0.0052348019652931725,0.0010964458434703315,0.08,0.002,0.06,-0.10632660537052334,-0.005108023922467773,-0.00021265321074104667,-0.0022809395444900395,-0.007601616677698859,0.5,0,0,-0.19656977108871185,1.2213438077209968,-0.0,0.0,1.2213438077209968,-0.06385029903084716,0,0.06385029903084716,-0.07398293252381842,0,0.07398293252381842,-0.445109507191909,0.5,0.945109507191909,2.4426876154419936,2.5032330106138545,0.06054539517186072,0.001088412479078084,0.007602771065718072,-1.2213438077209968,0.4,0.028464555740356445,1.1453580856323242,GUIDED_NOGPS
0.002,8e-05,0.0,-0.3292261474700428,-0.0008941223489348693,-2.6338091797603428e-05,-0.0,-0.0009204604407324728,0.05,0.004,0.04,-0.11195590913903992,-0.003362361778220556,-0.0004478236365561597,0.008413273088581627,0.004603087673804912,0.08,0.002,0.06,-0.10840184427117493,-0.005184185601118855,-0.00021680368854234985,-0.001783693483868338,-0.007184682773529543,0.5,0,0,-0.05528178191716654,2.2059603560708805,-0.0,0.0,2.2059603560708805,-0.06480232001398568,0,0.06480232001398568,-0.06724723556441112,0,0.06724723556441112,-0.44706117446743465,0.5,0.9470611744674347,4.411920712141761,4.474029437436339,0.06210872529457848,0.004595296762174753,0.007189668306433414,-2.2059603560708805,0.4,0.03202414512634277,1.1773498058319092,GUIDED_NOGPS
0.002,8e-05,0.0,-0.3443417706333837,-0.0009084392164508051,-2.75473416506707e-05,-0.0,-0.0009359865581014758,0.05,0.004,0.04,-0.11417318437161095,-0.0033314203343889647,-0.0004566927374864438,0.0007438243382091483,-0.00304428873366626,0.08,0.002,0.06,-0.11043887505254908,-0.004896969518016741,-0.00022087775010509817,0.0064730631016459905,0.0013552158335241515,0.5,0,0,0.1506600744122646,3.094243230607607,0.0,0.0,3.094243230607607,-0.06121211897520926,0,0.06121211897520926,-0.06662840668777929,0,0.06662840668777929,-0.4542196082254025,0.5,0.9542196082254025,6.188486461215214,6.246665612729069,0.05817915151385605,-0.0030429110542482484,-0.0013583063591457176,-3.094243230607607,0.4,0.03327822685241699,1.210707664489746,GUIDED_NOGPS
0.002,8e-05,0.0,-0.3602495890567859,-0.0009244058333790446,-2.8819967124542874e-05,-0.0,-0.0009532258005035875,0.05,0.004,0.04,-0.11637236939279319,-0.0031948746964417353,-0.0004654894775711728,0.0031738754084643843,-0.00048648876554852364,0.08,0.002,0.06,-0.11250990154884523,-0.004813907031883954,-0.00022501980309769045,0.0018100403054754563,-0.0032288865295061883,0.5,0,0,0.41524823715851006,3.8438149496014336,0.0,0.0,3.8438149496014336,-0.06017383789854942,0,0.06017383789854942,-0.0638974939288347,0,0.0638974939288347,-0.4622029166895223,0.5,0.9622029166895223,7.687629899202867,7.742629306011935,0.05499940680906771,-0.0004895880160676612,0.003228418051299177,-3.8438149496014336,0.4,0.03441739082336426,1.24509596824646,GUIDED_NOGPS
0.002,8e-05,0.0,-0.37719190685841086,-0.0009434827176057101,-3.017535254867287e-05,-0.0,-0.000973658070154383,0.05,0.004,0.04,-0.11862636002788371,-0.0031380021829850455,-0.00047450544011153485,0.0012668451667938502,-0.00234566245630273,0.08,0.002,0.06,-0.11471422566492627,-0.004910170454539501,-0.00022942845132985253,-0.00201026676241661,-0.007149865668285963,0.5,0,0,0.7326909640419064,4.419432602890201,0.0,0.0,4.419432602890201,-0.06137713068174376,0,0.06137713068174376,-0.0627600436597009,0,0.0627600436597009,-0.47174135880285506,0.5,0.9717413588028551,8.838865205780403,8.895662450393434,0.05679724461303117,-0.002352748956779487,0.007147536903004802,-4.419432602890201,0.4,0.03591442108154297,1.2809817790985107,GUIDED_NOGPS
0.002,8e-05,0.0,-0.3937953557744005,-0.000966871854637646,-3.150362846195204e-05,-0.0,-0.000998375483099598,0.05,0.004,0.04,-0.12081723231060781,-0.003189537243120129,-0.0004832689292424313,-0.0012004204529743217,-0.004873226625336883,0.08,0.002,0.06,-0.11677696842388897,-0.004804803934628231,-0.00023355393684777796,0.0023009358561313863,-0.0027374220153446233,0.5,0,0,1.0624159905963193,4.800235323970791,0.0,0.0,4.800235323970791,-0.06006004918285289,0,0.06006004918285289,-0.06379074486240258,0,0.06379074486240258,-0.483435927318823,0.5,0.983435927318823,9.600470647941583,9.654695793623906,0.05422514568232388,-0.004875815158767178,0.0027328087327000996,-4.800235323970791,0.4,0.03434467315673828,1.315337896347046,GUIDED_NOGPS
0.002,8e-05,0.0,-0.4122727382731762,-0.000982645280741296,-3.2981819061854095e-05,-0.0,-0.00101562709980315,0.05,0.004,0.04,-0.1231747624646427,-0.0031343940087579826,-0.0004926990498585708,0.0011730284636228016,-0.002454064594993752,0.08,0.002,0.06,-0.1188295756392609,-0.0043663864046423325,-0.0002376591512785218,0.008743302457682608,0.004139256901761754,0.5,0,0,1.4360851968148396,4.968023502156007,0.0,0.0,4.968023502156007,-0.054579830058029154,0,0.054579830058029154,-0.06268788017515965,0,0.06268788017515965,-0.491322640370648,0.5,0.991322640370648,9.936047004312014,9.986110817918139,0.05006381360612386,-0.0024504468654241492,-0.004141399629946031,-4.968023502156007,0.4,0.037607431411743164,1.3530457019805908,GUIDED_NOGPS
0.002,8e-05,0.0,-0.4290822791794896,-0.0010034774361160545,-3.432658233435917e-05,-0.0,-0.0010378040184504137,0.05,0.004,0.04,-0.12524594212145612,-0.003091074978398495,-0.0005009837684858245,0.0010344046815423844,-0.0025576540653419353,0.08,0.002,0.06,-0.12071801079669114,-0.004509348781412079,-0.00024143602159338228,-0.003200403868140779,-0.00795118867114624,0.5,0,0,1.7651854406195278,4.911565858920363,0.0,-0.0,4.911565858920363,-0.05636685976765099,0,0.05636685976765099,-0.0618214995679699,0,0.0618214995679699,-0.5017387180580273,0.5,1.0017387180580273,9.823131717840726,9.875228745343794,0.052097027503068896,-0.0025648827419270056,0.007948859800140486,-4.911565858920363,0.4,0.03350257873535156,1.3865578174591064,GUIDED_NOGPS
0.002,8e-05,0.0,-0.453089780105603,-0.0010221884006984263,-3.6247182408448244e-05,-0.0,-0.0010584355831068746,0.05,0.004,0.04,-0.128106361762235,-0.0030447648288474795,-0.00051242544704894,0.0007887151245162316,-0.0027684751513801877,0.08,0.002,0.06,-0.12334749783767832,-0.004478318940994494,-0.00024669499567535666,0.0004954442631492013,-0.00422956967352065,0.5,0,0,2.2008707491585837,4.637638775001767,0.0,-0.0,4.637638775001767,-0.055978986762431175,0,0.055978986762431175,-0.06089529657694959,0,0.06089529657694959,-0.5110942003492132,0.5,1.0110942003492132,9.275277550003533,9.32696067890069,0.05168312889715716,-0.002772289268812167,0.004227070675657556,-4.637638775001767,0.4,0.04697275161743164,1.4333109855651855,GUIDED_NOGPS
0.002,8e-05,0.0,-0.4736232452673415,-0.0010500060357189578,-3.7889859621387326e-05,-0.0,-0.001087895895340345,0.05,0.004,0.04,-0.13041786451994136,-0.002955044153598665,-0.0005216714580797654,0.0018351943970096021,-0.0016415212146688285,0.08,0.002,0.06,-0.12541397054286746,-0.004226873147821614,-0.0002508279410857349,0.004821755578174992,0.0003440544892676428,0.5,0,0,2.5261393315228458,4.158260332852022,0.0,-0.0,4.158260332852022,-0.05283591434777017,0,0.05283591434777017,-0.059100883071973295,0,0.059100883071973295,-0.5250030178594789,0.5,1.025003017859479,8.316520665704044,8.365590083745087,0.04906941804104324,-0.001641225956563835,-0.00034546019929098857,-4.158260332852022,0.4,0.03911113739013672,1.4730393886566162,GUIDED_NOGPS
0.002,8e-05,0.0,-0.49216764038063365,-0.001069600734345831,-3.93734112304507e-05,-0.0,-0.0011089741455762817,0.05,0.004,0.04,-0.13240912416542874,-0.002871289095808664,-0.000529636496661715,0.0019323244736767068,-0.0014686011187936723,0.08,0.002,0.06,-0.12732341058764038,-0.0044052954256017605,-0.00025464682117528074,-0.003859129635357671,-0.008519071882134712,0.5,0,0,2.768342544990829,3.492439810029002,0.0,-0.0,3.492439810029002,-0.055066192820022,0,0.055066192820022,-0.05742578191617327,0,0.05742578191617327,-0.5348003671729156,0.5,1.0348003671729156,6.984879620058004,7.033697242732391,0.04881762267438639,-0.0014758590747444055,0.008517817500427847,-3.492439810029002,0.4,0.03467535972595215,1.5072805881500244,GUIDED_NOGPS
0.002,8e-05,0.0,-0.5100103328711383,-0.0010748370098337358,-4.0800826629691064e-05,-0.0,-0.0011156378364634268,0.05,0.004,0.04,-0.13425724070835898,-0.002783245942119615,-0.000537028962833436,0.0021214744377358904,-0.0011988004672171607,0.08,0.002,0.06,-0.1292243443510938,-0.004580461078482646,-0.0002584486887021876,-0.003956967116963834,-0.008795876884148669,0.5,0,0,2.9456915442572216,2.670859066953295,0.0,-0.0,2.670859066953295,-0.05725576348103307,0,0.05725576348103307,-0.055664918842392296,0,0.055664918842392296,-0.5374185049168678,0.5,1.0374185049168678,5.34171813390659,5.390273323461356,0.04855518955476594,-0.0012062540834835507,0.008794857804841431,-2.670859066953295,0.4,0.033200740814208984,1.5406527519226074,GUIDED_NOGPS
0.002,8e-05,0.0,-0.5266652310844704,-0.0010778371911523022,-4.2133218486757635e-05,-0.0,-0.00111997040963906,0.05,0.004,0.04,-0.13592386538275517,-0.002696429054604403,-0.0005436954615310207,0.0022473741714993146,-0.0009927503446361089,0.08,0.002,0.06,-0.13106117131423273,-0.00475487844890614,-0.00026212234262846547,-0.004232843235157297,-0.009249844026691902,0.5,0,0,3.052614034298636,1.7298970378125034,0.0,-0.0,1.7298970378125034,-0.05943598061132675,0,0.05943598061132675,-0.05392858109208805,0,0.05392858109208805,-0.5389185955761511,0.5,1.038918595576151,3.4597940756250067,3.508107587104019,0.04831351147901215,-0.0010005497353482668,0.009249003621579868,-1.7298970378125034,0.4,0.030904293060302734,1.5712368488311768,GUIDED_NOGPS
0.002,8e-05,0.0,-0.5447619533186299,-0.0010828611805923966,-4.358095626549039e-05,-0.0,-0.001126442136857887,0.05,0.004,0.04,-0.13767710006835443,-0.002622726034220603,-0.0005507084002734177,0.0017640794533581663,-0.0014093549811358545,0.08,0.002,0.06,-0.13291004634062076,-0.00442527650684326,-0.00026582009268124153,0.007395948769538345,0.002704852170013843,0.5,0,0,3.1001835925910486,0.7116099173411017,0.0,-0.0,0.7116099173411017,-0.05531595633554075,0,0.05531595633554075,-0.05245452068441206,0,0.05245452068441206,-0.5414305902961982,0.5,1.0414305902961982,1.4232198346822034,1.4705634627465556,0.047343628064352127,-0.0014071194749833021,-0.00270601579958502,-0.7116099173411017,0.4,0.03342390060424805,1.604764699935913,GUIDED_NOGPS
0.002,8e-05,0.0,-0.5688766928395305,-0.0010892096039917015,-4.551013542716244e-05,-0.0,-0.001134719739418864,0.05,0.004,0.04,-0.13977017134603717,-0.0023634853442178836,-0.0005590806853841487,0.004683732105862733,0.0017611660762607007,0.08,0.002,0.06,-0.1356461883624897,-0.004943420044859984,-0.0002712923767249794,-0.008776275356897035,-0.013990987778481997,0.5,0,0,3.0700712010050295,-0.3400275802919584,0.0,-0.0,-0.3400275802919584,-0.0617927505607498,0,0.0617927505607498,-0.04726970688435767,0,0.04726970688435767,-0.5446048019958507,0.5,1.0446048019958507,-0.6800551605839168,-0.6321137211366181,0.04794143944729869,0.0017494586984256148,0.013992456511574623,0.3400275802919584,0.4,0.04427933692932129,1.6491034030914307,GUIDED_NOGPS
0.002,8e-05,0.0,-0.5897439116954019,-0.0010963318366597398,-4.717951293563215e-05,-0.0,-0.001143511349595372,0.05,0.004,0.04,-0.14137114251260882,-0.002102814552827807,-0.0005654845700504353,0.005478098245139551,0.0028097991222613083,0.08,0.002,0.06,-0.1382502816020314,-0.0054726034050995125,-0.0002765005632040628,-0.010425932342762827,-0.016175036311066402,0.5,0,0,2.965181048619426,-1.377692137686001,0.0,-0.0,-1.377692137686001,-0.0684075425637439,0,0.0684075425637439,-0.04205629105655614,0,0.04205629105655614,-0.5481659183298699,0.5,1.04816591832987,-2.755384275372002,-2.706793812973938,0.048590462398063854,0.0027960806547067014,0.0161774133823721,1.377692137686001,0.4,0.03806734085083008,1.6873304843902588,GUIDED_NOGPS
0.002,8e-05,0.0,-0.6121863905465936,-0.0011116756380665862,-4.89749112437275e-05,-0.0,-0.0011606505493103136,0.05,0.004,0.04,-0.1431184320236643,-0.002163775217266727,-0.0005724737280946573,-0.0012078609673458719,-0.003944109912707256,0.08,0.002,0.06,-0.14085950972931172,-0.005169866238909872,-0.00028171901945862345,0.005623468578635847,0.0001718833202673511,0.5,0,0,2.7750740389384645,-2.3542110999559984,0.0,-0.0,-2.3542110999559984,-0.06462332798637341,0,0.06462332798637341,-0.04327550434533454,0,0.04327550434533454,-0.5558378190332931,0.5,1.055837819033293,-4.708422199911997,-4.661586686741114,0.046835513170882144,-0.003943968091744563,-0.00017510731167633275,2.3542110999559984,0.4,0.04037594795227051,1.7275974750518799,GUIDED_NOGPS
0.002,8e-05,0.0,-0.63505093315894,-0.0011312329922811993,-5.0804074652715206e-05,-0.0,-0.0011820370669339145,0.05,0.004,0.04,-0.1449201297744687,-0.002228494105900224,-0.0005796805190978748,-0.0012807978412207833,-0.004088972466218883,0.08,0.002,0.06,-0.14332017661600246,-0.00486970172538745,-0.00028664035323200496,0.005569037721947158,0.000412695643327703,0.5,0,0,2.5141354825189524,-3.227511577473992,0.0,-0.0,-3.227511577473992,-0.06087127156734313,0,0.06087127156734313,-0.04456988211800448,0,0.04456988211800448,-0.5656164961405996,0.5,1.0656164961405996,-6.455023154947984,-6.409912168353249,0.04511098659473472,-0.004088646269056661,-0.0004159149072188271,3.227511577473992,0.4,0.04042410850524902,1.7678332328796387,GUIDED_NOGPS
0.002,8e-05,0.0,-0.6515172482494402,-0.0011214719935266548,-5.212137985995522e-05,0.0,-0.00117359337338661,0.05,0.004,0.04,-0.1461900809557032,-0.0021623154225353445,-0.0005847603238228129,0.0018028937149392496,-0.0009441820314189078,0.08,0.002,0.06,-0.14508030380035822,-0.004795082157607205,-0.00029016060760071646,0.0019057942299478383,-0.0031794485352600833,0.5,0,0,2.2816318102143462,-3.9587842733579315,0.0,-0.0,-3.9587842733579315,-0.05993852697009006,0,0.05993852697009006,-0.04324630845070689,0,0.04324630845070689,-0.5607359967633274,0.5,1.0607359967633274,-7.917568546715863,-7.874334777772317,0.04323376894354584,-0.0009465808840124555,0.0031787351772118457,3.9587842733579315,0.4,0.02936553955078125,1.7973017692565918,GUIDED_NOGPS
0.002,8e-05,0.0,-0.6727167459159726,-0.0011060170890952997,-5.3817339673277817e-05,0.0,-0.0011598344287685775,0.05,0.004,0.04,-0.14769825262060013,-0.001967102783405402,-0.0005907930104824005,0.0040738420934561086,0.0015159462995683061,0.08,0.002,0.06,-0.14739856721135175,-0.0048379239733233066,-0.0002947971344227035,-0.0008381763518980298,-0.005970897459644039,0.5,0,0,1.9354717601741245,-4.514952865026937,0.0,-0.0,-4.514952865026937,-0.06047404966654133,0,0.06047404966654133,-0.039342055668108035,0,0.039342055668108035,-0.5530085445476498,0.5,1.0530085445476498,-9.029905730053875,-8.989993441398719,0.03991228865515555,0.001511786599856247,0.0059719520203408835,4.514952865026937,0.4,0.03833484649658203,1.8355724811553955,GUIDED_NOGPS
0.002,8e-05,0.0,-0.6899092995610984,-0.0011020049594101936,-5.5192743964887873e-05,0.0,-0.0011571977033750815,0.05,0.004,0.04,-0.14880585515579522,-0.0017748722965106709,-0.0005952234206231809,0.004928620943239303,0.0025585252261054515,0.08,0.002,0.06,-0.14930947658654536,-0.004899403897556121,-0.00029861895317309076,-0.0014777730843651932,-0.006675795935094405,0.5,0,0,1.631431219497205,-4.872082859295212,0.0,-0.0,-4.872082859295212,-0.061242548719451506,0,0.061242548719451506,-0.035497445930213416,0,0.035497445930213416,-0.5510024797050967,0.5,1.0510024797050967,-9.744165718590423,-9.707474268578167,0.03669145001225558,0.002554249611450228,0.006677433011423423,4.872082859295212,0.4,0.031202316284179688,1.8669002056121826,GUIDED_NOGPS
0.002,8e-05,0.0,-0.7082555319814141,-0.0010893601277715127,-5.6660442558513134e-05,0.0,-0.0011460205703300258,0.05,0.004,0.04,-0.14996856882808135,-0.0017259864117941629,-0.0005998742753123254,0.001161095802144686,-0.0011647648849618024,0.08,0.002,0.06,-0.1513140468351228,-0.004761084133435867,-0.00030262809367024565,0.003079924650125484,-0.001983787576980628,0.5,0,0,1.293508274688146,-5.016285822347955,0.0,-0.0,-5.016285822347955,-0.05951355166794833,0,0.05951355166794833,-0.03451972823588326,0,0.03451972823588326,-0.5446800638857563,0.5,1.0446800638857563,-10.03257164469591,-9.994999153428735,0.03757249126717459,-0.001166065530272364,0.0019830233399870468,5.016285822347955,0.4,0.03368258476257324,1.900658130645752,GUIDED_NOGPS
0.002,8e-05,0.0,-0.7326853154857105,-0.0010844792628508988,-5.861482523885684e-05,0.0,-0.0011430940880897556,0.05,0.004,0.04,-0.15137660993888763,-0.0015626329492875084,-0.0006055064397555506,0.0029006142043330576,0.0007324748152899986,0.08,0.002,0.06,-0.15428530524801096,-0.00527596674408807,-0.00030857061049602194,-0.008571190069438918,-0.01415572742402301,0.5,0,0,0.8484920707444332,-4.938754826917601,0.0,0.0,-4.938754826917601,-0.06594958430110087,0,0.06594958430110087,-0.031252658985750165,0,0.031252658985750165,-0.5422396314254494,0.5,1.0422396314254494,-9.877509653835203,-9.839833266128725,0.037676387706476994,0.0007231661766019733,0.01415620602206997,4.938754826917601,0.4,0.04505348205566406,1.9456582069396973,GUIDED_NOGPS
0.002,8e-05,0.0,-0.7560571476200766,-0.0010806571237377662,-6.048457180960613e-05,0.0,-0.0011411416955473723,0.05,0.004,0.04,-0.15258865422973608,-0.0014010500863399524,-0.0006103546169189443,0.002988480679038654,0.000977075975779757,0.08,0.002,0.06,-0.1574174857808145,-0.005792978806534966,-0.000314834971561629,-0.008964521348757337,-0.015072335126853933,0.5,0,0,0.4467990312525985,-4.643329224117979,0.0,0.0,-4.643329224117979,-0.07241223508168708,0,0.07241223508168708,-0.028021001726799045,0,0.028021001726799045,-0.5403285618688831,0.5,1.0403285618688831,-9.286658448235958,-9.248849094149707,0.03780935408625109,0.0009671295642225203,0.015072976615275686,4.643329224117979,0.4,0.043254852294921875,1.9887864589691162,GUIDED_NOGPS
0.002,8e-05,0.0,-0.7702580218645517,-0.0010833635017979222,-6.162064174916414e-05,-0.0,-0.0011449841435470863,0.05,0.004,0.04,-0.1533842483194125,-0.0015173671426195645,-0.00061353699327765,-0.00354946184975711,-0.005680365985654325,0.08,0.002,0.06,-0.15921858287514806,-0.005496120370066382,-0.0003184371657502961,0.008492582650219148,0.00267802511440247,0.5,0,0,0.22962922880451528,-4.141890027588489,0.0,0.0,-4.141890027588489,-0.06870150462582977,0,0.06870150462582977,-0.03034734285239129,0,0.03034734285239129,-0.5416817508989611,0.5,1.041681750898961,-8.283780055176978,-8.24822205135675,0.03555800382022789,-0.005678702898119183,-0.0026815498576833858,4.141890027588489,0.4,0.02621626853942871,2.0150814056396484,GUIDED_NOGPS
0.002,8e-05,0.0,-0.7891007900111413,-0.0010651109527946131,-6.312806320089131e-05,0.0,-0.0011282390159955045,0.05,0.004,0.04,-0.15454404421387039,-0.0016389727090296317,-0.0006181761768554816,-0.002749562478220024,-0.005006711364105137,0.08,0.002,0.06,-0.16149640620851718,-0.005150272108701197,-0.0003229928124170344,0.007331063998650827,0.0018577990775325952,0.5,0,0,-0.015058178700421282,-3.457815164376442,-0.0,0.0,-3.457815164376442,-0.06437840135876496,0,0.06437840135876496,-0.03277945418059263,0,0.03277945418059263,-0.5325554763973066,0.5,1.0325554763973066,-6.915630328752884,-6.882271136822208,0.03335919193067588,-0.005005628853406907,-0.0018607138086983543,3.457815164376442,0.4,0.03538179397583008,2.050563335418701,GUIDED_NOGPS
0.002,8e-05,0.0,-0.8119930026613658,-0.0010610422804823232,-6.495944021290927e-05,0.0,-0.0011260017206952324,0.05,0.004,0.04,-0.1559614475254032,-0.0016423978592751136,-0.0006238457901016128,-6.350158078625337e-05,-0.0023297452301629796,0.08,0.002,0.06,-0.1641720200118053,-0.004960532937392544,-0.0003283440400236106,0.0032978673703072453,-0.0019910096071089093,0.5,0,0,-0.24122311093140908,-2.620657067165861,-0.0,0.0,-2.620657067165861,-0.0620066617174068,0,0.0620066617174068,-0.03284795718550227,0,0.03284795718550227,-0.5305211402411616,0.5,1.0305211402411616,-5.241314134331722,-5.211495991996031,0.02981814233569082,-0.0023307810853179694,0.001989796880435568,2.620657067165861,0.4,0.04315042495727539,2.093648910522461,GUIDED_NOGPS
0.002,8e-05,0.0,-0.8319631106063586,-0.0010597523170388318,-6.65570488485087e-05,0.0,-0.0011263093658873404,0.05,0.004,0.04,-0.15709172658334483,-0.001499510986437155,-0.0006283669063333793,0.003033027061877785,0.0009051491691072504,0.08,0.002,0.06,-0.16653809721755708,-0.005022418122115148,-0.0003330761944351142,-0.0012315212832249476,-0.00658701559977521,0.5,0,0,-0.36711331263574887,-1.6701516250705966,-0.0,0.0,-1.6701516250705966,-0.06278022652643934,0,0.06278022652643934,-0.0299902197287431,0,0.0299902197287431,-0.5298761585194158,0.5,1.0298761585194158,-3.340303250141193,-3.309897297378446,0.030405952762746973,0.0009016534181078358,0.006587495020387642,1.6701516250705966,0.4,0.037688255310058594,2.1314022541046143,GUIDED_NOGPS
0.002,8e-05,0.0,-0.8566087363246165,-0.0010568414402456986,-6.852869890596933e-05,0.0,-0.001125370139151668,0.05,0.004,0.04,-0.1583569804493885,-0.0013563996440506764,-0.0006334279217975541,0.0024547317066683444,0.00046490414082011374,0.08,0.002,0.06,-0.16950126551982095,-0.005082604259359516,-0.0003390025310396419,-0.0009678269791458627,-0.00638943376954502,0.5,0,0,-0.42740747733802575,-0.6463760810012594,-0.0,0.0,-0.6463760810012594,-0.06353255324199394,0,0.06353255324199394,-0.027127992881013526,0,0.027127992881013526,-0.5284207201228492,0.5,1.0284207201228492,-1.2927521620025189,-1.2616991916130784,0.031052970389440434,0.0004614411492736531,0.006389684798275341,0.6463760810012594,0.4,0.04664015769958496,2.178124189376831,GUIDED_NOGPS
0.002,8e-05,0.0,-0.8716920179691672,-0.0010590222058800998,-6.973536143753338e-05,-0.0,-0.0011287575673176332,0.05,0.004,0.04,-0.15916392843965896,-0.0014164288992698454,-0.0006366557137586358,-0.0016859014046856715,-0.0037389860177141528,0.08,0.002,0.06,-0.1712356696535122,-0.004871015565005644,-0.0003424713393070244,0.0055709973577322235,0.0003575104534195546,0.5,0,0,-0.4042584048963808,0.40633368684204785,-0.0,0.0,0.40633368684204785,-0.06088769456257055,0,0.06088769456257055,-0.028328577985396907,0,0.028328577985396907,-0.5295111029400499,0.5,1.0295111029400499,0.8126673736840957,0.8423811189212129,0.02971374523711726,-0.0037388001090427237,-0.00035944945345390487,-0.40633368684204785,0.4,0.02848529815673828,2.2065083980560303,GUIDED_NOGPS
0.002,8e-05,0.0,-0.8842510179122604,-0.0010322708178076528,-7.074008143298083e-05,0.0,-0.0011030108992406338,0.05,0.004,0.04,-0.1598846433346542,-0.0014809558034754467,-0.0006395385733386168,-0.0021214822988049648,-0.004241976675619028,0.08,0.002,0.06,-0.17263731575954866,-0.0046082598254994665,-0.00034527463151909734,0.00809882604106731,0.0031452915840487457,0.5,0,0,-0.33416317685703323,1.4403467374084982,-0.0,0.0,1.4403467374084982,-0.05760324781874333,0,0.05760324781874333,-0.02961911606950893,0,0.02961911606950893,-0.5161354089038264,0.5,1.0161354089038264,2.8806934748169963,2.909151336452391,0.0284578616353947,-0.00424041393838094,-0.0031473981153277027,-1.4403467374084982,0.4,0.024332761764526367,2.230832099914551,GUIDED_NOGPS
0.002,8e-05,0.0,-0.906331533263509,-0.0010175061675013293,-7.250652266108073e-05,0.0,-0.00109001269016241,0.05,0.004,0.04,-0.16108446936446125,-0.0013822485184752352,-0.000644337877457845,0.0018194370859074555,-0.00020714931002562454,0.08,0.002,0.06,-0.1750861614472627,-0.004513872164432328,-0.0003501723228945254,0.0016310765239862413,-0.003232967963340613,0.5,0,0,-0.12494907011038967,2.410231832869714,-0.0,0.0,2.410231832869714,-0.0564234020554041,0,0.0564234020554041,-0.027644970369504702,0,0.027644970369504702,-0.5087530837506646,0.5,1.0087530837506646,4.820463665739428,4.847071672991346,0.026608007251918104,-0.00020865066933713355,0.003232871415137943,-2.410231832869714,0.4,0.043401241302490234,2.2742557525634766,GUIDED_NOGPS
0.002,8e-05,0.0,-0.9285337230408701,-0.0010355254580547211,-7.428269784326961e-05,-0.0,-0.0011098081558979908,0.05,0.004,0.04,-0.16213234395925796,-0.0012218398620158022,-0.0006485293758370319,0.002992628188872988,0.0011222589510201542,0.08,0.002,0.06,-0.17745449950065884,-0.004418436869812132,-0.0003549089990013177,0.0016691880086013415,-0.003104157860212108,0.5,0,0,0.1556760279594224,3.27213707447793,0.0,0.0,3.27213707447793,-0.05523046087265164,0,0.05523046087265164,-0.024436797240316045,0,0.024436797240316045,-0.5177627290273605,0.5,1.0177627290273605,6.54427414895586,6.570309259822431,0.02603511086657147,0.0011208483108249984,0.003104667492402724,-3.27213707447793,0.4,0.042881011962890625,2.317120313644409,GUIDED_NOGPS
0.002,8e-05,0.0,-0.947973686707666,-0.0010454012688791302,-7.583789493661329e-05,-0.0,-0.0011212391638157435,0.05,0.004,0.04,-0.16306184671330776,-0.0012496208521340889,-0.000652247386853231,-0.0005975789423923801,-0.0024994471813797,0.08,0.002,0.06,-0.17940774736317142,-0.004201505370905163,-0.00035881549472634286,0.0043746313284887635,-0.0001856895371427419,0.5,0,0,0.45243283275892765,3.989590021917098,0.0,0.0,3.989590021917098,-0.05251881713631454,0,0.05251881713631454,-0.024992417042681778,0,0.024992417042681778,-0.522700634439565,0.5,1.022700634439565,7.979180043834196,8.002539790539762,0.023359746705566228,-0.0024995226801033522,0.00018467048589356663,-3.989590021917098,0.4,0.03719139099121094,2.368208169937134,GUIDED_NOGPS
0.002,8e-05,0.0,-0.9699810643495227,-0.00105068873478558,-7.759848514796183e-05,-0.0,-0.0011282872199335418,0.05,0.004,0.04,-0.16417754873645055,-0.0013316620069081268,-0.0006567101949458023,-0.0015667421809663499,-0.003555114382820279,0.08,0.002,0.06,-0.18157698013441936,-0.004142589767793227,-0.00036315396026883874,0.0010547933316986076,-0.003450950396363458,0.5,0,0,0.8319805674742861,4.530145931839067,0.0,0.0,4.530145931839067,-0.05178237209741534,0,0.05178237209741534,-0.026633240138162532,0,0.026633240138162532,-0.52534436739279,0.5,1.02534436739279,9.060291863678135,9.080328018195505,0.020036154517371254,-0.0035563209519594765,0.00344970697302695,-4.530145931839067,0.4,0.04189133644104004,2.396228075027466,GUIDED_NOGPS
0.002,8e-05,0.0,-0.9937073722850606,-0.0010650586042848177,-7.949658978280485e-05,-0.0,-0.0011445551940676227,0.05,0.004,0.04,-0.16529453988537607,-0.0012535252401103655,-0.0006611781595415043,0.0014030035522602713,-0.0005116998473915985,0.08,0.002,0.06,-0.18376859046734043,-0.003935198765284313,-0.00036753718093468084,0.0034911179439531762,-0.0008116180022658178,0.5,0,0,1.2657392959850078,4.867787133581187,0.0,0.0,4.867787133581187,-0.04918998456605391,0,0.04918998456605391,-0.025070504802207308,0,0.025070504802207308,-0.5325293021424089,0.5,1.032529302142409,9.735574267162374,9.755937380195567,0.020363113033192423,-0.0005119882668405721,0.000811436091161916,-4.867787133581187,0.4,0.04455399513244629,2.4406614303588867,GUIDED_NOGPS
0.002,8e-05,0.0,-1.0106825501539027,-0.0010766040620567012,-8.085460401231222e-05,-0.0,-0.0011574586660690134,0.05,0.004,0.04,-0.16602870192525898,-0.001164055305418275,-0.000664114807701036,0.002269754010607555,0.00044158389748824383,0.08,0.002,0.06,-0.18537043887711538,-0.004063713542414688,-0.0003707408777542308,-0.0030565113697607915,-0.007490965789929711,0.5,0,0,1.5804928236635982,4.9905946356449205,0.0,0.0,4.9905946356449205,-0.0507964192801836,0,0.0507964192801836,-0.0232811061083655,0,0.0232811061083655,-0.5383020310283506,0.5,1.0383020310283506,9.981189271289841,9.999444309209432,0.018255037919590572,0.00043919717463398534,0.007491106102987174,-4.9905946356449205,0.4,0.031534671783447266,2.472344160079956,GUIDED_NOGPS
0.002,8e-05,0.0,-1.0318781862391717,-0.0010648796029800551,-8.255025489913374e-05,0.0,-0.0011474298578791889,0.05,0.004,0.04,-0.16688996888824587,-0.0010817623235222444,-0.0006675598755529835,0.0016537766082971026,-9.554559077812525e-05,0.08,0.002,0.06,-0.18739290195838904,-0.004064383204852815,-0.0003747858039167781,-1.2616568837104091e-05,-0.004451785577606697,0.5,0,0,1.9698730985292403,4.890666064928407,0.0,-0.0,4.890666064928407,-0.05080479006066018,0,0.05080479006066018,-0.021635246470444888,0,0.021635246470444888,-0.5324398014900276,0.5,1.0324398014900276,9.781332129856814,9.800063584670868,0.018731454814053656,-9.700098814004956e-05,0.004451754103407328,-4.890666064928407,0.4,0.03980851173400879,2.5122103691101074,GUIDED_NOGPS
0.002,8e-05,0.0,-1.0535999961945475,-0.0010755458352239998,-8.42879996955638e-05,-0.0,-0.0011598338349195635,0.05,0.004,0.04,-0.16771999802589194,-0.0010274631625354729,-0.0006708799921035678,0.001075439598734293,-0.0006229035559047478,0.08,0.002,0.06,-0.1892448716216795,-0.0036679784279584,-0.000378489743243359,0.007360427855590129,0.0033139596843883698,0.5,0,0,2.3394863883730794,4.575309738825422,0.0,-0.0,4.575309738825422,-0.04584973034948,0,0.04584973034948,-0.02054926325070946,0,0.02054926325070946,-0.5377729176119999,0.5,1.0377729176119999,9.150619477650844,9.166626023425668,0.01600654577482276,-0.0006219777208805341,-0.003314133573717043,-4.575309738825422,0.4,0.040392160415649414,2.5524420738220215,GUIDED_NOGPS
0.002,8e-05,0.0,-1.071299787350413,-0.0010776980060420373,-8.570398298803306e-05,-0.0,-0.0011634019890300704,0.05,0.004,0.04,-0.168361331917759,-0.0009762322198972146,-0.0006734453276710361,0.001247731891132696,-0.0004019456564355547,0.08,0.002,0.06,-0.19058143769983044,-0.0032552126399284353,-0.0003811628753996609,0.009424621090264526,0.00578824557493643,0.5,0,0,2.60600539652414,4.056926450817386,0.0,-0.0,4.056926450817386,-0.04069015799910544,0,0.04069015799910544,-0.019524644397944293,0,0.019524644397944293,-0.5388490030210187,0.5,1.0388490030210187,8.113852901634772,8.127187352021913,0.013334450387140994,-0.00040059854680389844,-0.005788338963018422,-4.056926450817386,0.4,0.03284740447998047,2.585775136947632,GUIDED_NOGPS
0.002,8e-05,0.0,-1.0880536801427676,-0.0010695970159827687,-8.704429441142142e-05,0.0,-0.00115664131039419,0.05,0.004,0.04,-0.16906348965075124,-0.0011206736029438227,-0.000676253958603005,-0.0036885534414205505,-0.0054854810029673785,0.08,0.002,0.06,-0.1917473130304166,-0.0029772585752057446,-0.0003834946260608332,0.006654397620280377,0.003293644419013799,0.5,0,0,2.816356577737152,3.357294309483715,0.0,-0.0,3.357294309483715,-0.03721573219007181,0,0.03721573219007181,-0.022413472058876453,0,0.022413472058876453,-0.5347985079913844,0.5,1.0347985079913844,6.71458861896743,6.7277855841685845,0.013196965201154034,-0.005484722230719649,-0.0032949078051846036,-3.357294309483715,0.4,0.03132748603820801,2.6167571544647217,GUIDED_NOGPS
0.002,8e-05,0.0,-1.1064723617567878,-0.0010633880942952875,-8.851778894054303e-05,0.0,-0.0011519058832358306,0.05,0.004,0.04,-0.16993885178968715,-0.0012634586126304963,-0.0006797554071587487,-0.0032974320861069617,-0.005240646105896207,0.08,0.002,0.06,-0.19291878457342543,-0.0027053595208314553,-0.0003858375691468509,0.005886704257615262,0.002795507167636956,0.5,0,0,2.99016474678492,2.5086694793069713,0.0,-0.0,2.5086694793069713,-0.03381699401039319,0,0.03381699401039319,-0.025269172252609925,0,0.025269172252609925,-0.5316940471476437,0.5,1.0316940471476437,5.0173389586139425,5.030401940639225,0.013062982025281937,-0.005240008616296287,-0.0027967019206013603,-2.5086694793069713,0.4,0.03464150428771973,2.6514346599578857,GUIDED_NOGPS
0.002,8e-05,0.0,-1.1365029214378906,-0.0010602109069786235,-9.092023371503125e-05,0.0,-0.0011511311406936548,0.05,0.004,0.04,-0.17117132785438813,-0.0010877957156492089,-0.0006846853114175525,0.0024806693089801744,0.000708188281913413,0.08,0.002,0.06,-0.19466265092419557,-0.002462646244402773,-0.00038932530184839116,0.003213317521436338,0.00036134597518517383,0.5,0,0,3.1655773443951287,1.5482091508006623,0.0,-0.0,1.5482091508006623,-0.030783078055034663,0,0.030783078055034663,-0.021755914312984178,0,0.021755914312984178,-0.5301054534893117,0.5,1.0301054534893117,3.0964183016013247,3.1102156249790487,0.013797323377724146,0.0007082752766411517,-0.00036117542679547855,-1.5482091508006623,0.4,0.05665016174316406,2.7080416679382324,GUIDED_NOGPS
0.002,8e-05,0.0,-1.1581659121991117,-0.0010772369784371922,-9.265327297592894e-05,-0.0,-0.0011698902514131213,0.05,0.004,0.04,-0.17196255088493007,-0.000983630002991861,-0.0006878502035397203,0.002071942120949013,0.0004004619144174319,0.08,0.002,0.06,-0.19598512113931285,-0.0026305025641359075,-0.0003919702422786257,-0.0031301258793279734,-0.006152598685742507,0.5,0,0,3.207394495344548,0.5198610597231423,0.0,-0.0,0.5198610597231423,-0.032881282051698844,0,0.032881282051698844,-0.01967260005983722,0,0.01967260005983722,-0.5386184892185961,0.5,1.0386184892185961,1.0397221194462847,1.0522740443667222,0.01255192492043748,0.0003991140401516694,0.006152686268261458,-0.5198610597231423,0.4,0.04021954536437988,2.7482681274414062,GUIDED_NOGPS
0.002,8e-05,0.0,-1.1725487838300912,-0.0010549754909859534,-9.38039027064073e-05,0.0,-0.0011487793936923608,0.05,0.004,0.04,-0.1725646316197499,-0.0011040570254788361,-0.0006902585264789995,-0.0035333015669144225,-0.005327617118872258,0.08,0.002,0.06,-0.19682365003005714,-0.0024602247754570475,-0.0003936473000601143,0.004683667272549933,0.0018297951970327711,0.5,0,0,3.1783812265549236,-0.5320267098211665,0.0,-0.0,-0.5320267098211665,-0.030752809693213094,0,0.030752809693213094,-0.022081140509576724,0,0.022081140509576724,-0.5274877454929767,0.5,1.0274877454929767,-1.064053419642333,-1.0522740443666747,0.01177937527565821,-0.005327240820734718,-0.0018308904572045335,0.5320267098211665,0.4,0.027266740798950195,2.775425672531128,GUIDED_NOGPS
0.002,8e-05,0.0,-1.189888126581821,-0.001033545670649913,-9.51910501265457e-05,0.0,-0.0011287367207764587,0.05,0.004,0.04,-0.1733844644650287,-0.00122169378047791,-0.0006935378578601148,-0.0028047881763330848,-0.004720019814671109,0.08,0.002,0.06,-0.1977865050093447,-0.0022957146866643807,-0.0003955730100186894,0.003677230428030433,0.0009859427313473625,0.5,0,0,3.0736534452527264,-1.5606264105780172,0.0,-0.0,-1.5606264105780172,-0.028696433583304756,0,0.028696433583304756,-0.024433875609558196,0,0.024433875609558196,-0.5167728353249565,0.5,1.0167728353249565,-3.1212528211560344,-3.110215624979003,0.011037196177031389,-0.004719829799610368,-0.0009868519560169815,1.5606264105780172,0.4,0.033553123474121094,2.809094190597534,GUIDED_NOGPS
0.002,8e-05,0.0,-1.2108013203461998,-0.0010305318208207281,-9.686410562769599e-05,0.0,-0.001127395926448424,0.05,0.004,0.04,-0.17447519567033024,-0.0013436890937002107,-0.000697900782681321,-0.0024046074202346127,-0.004446197296616144,0.08,0.002,0.06,-0.19875818200989787,-0.0019152389250756622,-0.00039751636401979575,0.0070307119954824545,0.004717956706386996,0.5,0,0,2.8691375036674964,-2.519464363540686,0.0,-0.0,-2.519464363540686,-0.023940486563445777,0,0.023940486563445777,-0.026873781874004212,0,0.026873781874004212,-0.5152659104103641,0.5,1.015265910410364,-5.038928727081372,-5.030401940639183,0.008526786442189523,-0.004445495118715836,-0.0047186183394350096,2.519464363540686,0.4,0.04058718681335449,2.8497369289398193,GUIDED_NOGPS
0.002,8e-05,0.0,-1.2347722253502027,-0.0010341357478146458,-9.878177802801623e-05,-0.0,-0.001132917525842662,0.05,0.004,0.04,-0.17584159821948644,-0.0014737091921972973,-0.0007033663928779458,-0.002243693874182312,-0.004420769459257555,0.08,0.002,0.06,-0.19963999799309637,-0.0015217071379951697,-0.00039927999598619277,0.006366550754759152,0.00444556362077779,0.5,0,0,2.556968234272771,-3.366846191209274,0.0,-0.0,-3.366846191209274,-0.01902133922493962,0,0.01902133922493962,-0.029474183843945945,0,0.029474183843945945,-0.5170678739073229,0.5,1.017067873907323,-6.733692382418548,-6.727785584168561,0.005906798249986184,-0.004420311128930159,-0.004446019347882267,3.366846191209274,0.4,0.04635930061340332,2.8960416316986084,GUIDED_NOGPS
0.002,8e-05,0.0,-1.2503140842878635,-0.001037741375429495,-0.00010002512674302908,-0.0,-0.0011377665021725242,0.05,0.004,0.04,-0.17670368186763322,-0.001439049013299283,-0.0007068147274705329,0.000925714275661054,-0.0012201494651087616,0.08,0.002,0.06,-0.20015559473165304,-0.001377070968879281,-0.0004003111894633061,0.0036215488526150485,0.0018441666942724613,0.5,0,0,2.3133987262038813,-4.065828890384599,0.0,-0.0,-4.065828890384599,-0.01721338711099101,0,0.01721338711099101,-0.02878098026598566,0,0.02878098026598566,-0.5188706877147475,0.5,1.0188706877147475,-8.131657780769197,-8.127187352021895,0.004470428747301613,-0.0012200055726849168,-0.0018442618892355726,4.065828890384599,0.4,0.0299532413482666,2.927053689956665,GUIDED_NOGPS
