D-kp,D-ki,D-kd,D-I-Tot,D-P,D-I,D-D,D-PID,E-kp,E-ki,E-kd,E-I-Tot,E-P,E-I,E-D,E-PID,N-kp,N-ki,N-kd,N-I-Tot,N-P,N-I,N-D,N-PID,Y-kp,Y-ki,Y-kd,Y-I-Tot,Y-P,Y-I,Y-D,Y-PID,errorN,desiredN,actualN,errorE,desiredE,actualE,errorD,desiredD,actualD,errorY,desiredY,actualY,roll,pitch,yaw-rate,thrust,dt,Time,Mode
0.002,8e-05,0.0,0.002074115831097998,0.0008920248476634356,1.6592926648783983e-07,0.0,0.0008921907769299235,0.02,0.006,0.0,-0.0014034004498241503,-0.006035670976979475,-8.420402698944902e-06,-0.0,-0.0060440913796784195,0.08,0.002,0.06,-0.0002677385531917789,-0.004605903653858974,-5.354771063835579e-07,-0.7428310735322472,-0.7474375126632126,0.6,0,0.4,0.024872373236047674,3.20909391089816,0.0,460.050087220569,463.2591811314672,-0.05757379567323717,4.756072217853424,4.813646013526661,-0.30178354884897374,41.18637806862194,41.488161617470915,0.4460124238317178,89.10018618534696,88.65417376151524,5.348489851496934,0,-5.348489851496934,0.06365329853075484,0.7447466844256043,-10.0,0.5008921907769299,0.0046503543853759766,0.004872798919677734,GUIDED_NOGPS
0.002,8e-05,0.0,0.009982056022881304,0.0015335817078859578,7.985644818305043e-07,0.0,0.0015343802723677882,0.02,0.006,0.0,-0.007841191448617847,-0.012484766292493248,-4.7047148691707085e-05,-0.0,-0.012531813441184954,0.08,0.002,0.06,-0.0011908287818903525,-0.007160571552785911,-2.381657563780705e-06,-0.18578440772044652,-0.1929473609307962,0.6,0,0.4,0.08060592739489761,3.2425115934346342,0.0,2.1602231603085826,5.402734753743217,-0.08950714440982388,4.897513847210907,4.987020991620731,-0.6242383146246624,41.52938037727569,42.153618691900355,0.7667908539429789,88.53028818146787,87.76349732752489,5.404185989057724,0,-5.404185989057724,0.005695874070340504,0.19326998591829625,-5.402734753743217,0.5015343802723677,0.010313034057617188,0.015155315399169922,GUIDED_NOGPS
0.002,8e-05,0.0,0.027602533995972255,0.0011011709850101284,2.2082027196777806e-06,-0.0,0.0011033791877298061,0.02,0.006,0.0,-0.02211959334278881,-0.008923118829231526,-0.00013271756005673287,0.0,-0.009055836389288259,0.08,0.002,0.06,1.0397737463287583e-05,0.0030027693722201577,2.0795474926575165e-08,0.2381797507381863,0.2411825409058814,0.6,0,0.4,0.2529852238676953,3.23179223597995,0.0,-0.22329786636277277,3.008494369617177,0.03753461715275197,5.038469358203839,5.000934741051087,-0.44615594146157633,41.87181687403718,42.317972815498756,0.5505854925050642,87.96027706257972,87.40969157007466,5.386320393299917,0,-5.386320393299917,-0.03165580318115376,-0.23926749953866022,-3.008494369617177,0.5011033791877298,0.032003164291381836,0.047203779220581055,GUIDED_NOGPS
0.002,8e-05,0.0,0.03734921739697598,0.0010216562497016924,2.9879373917580784e-06,-0.0,0.0010246441870934504,0.02,0.006,0.0,-0.03098027633265536,-0.009287848779709408,-0.00018588165799593215,-0.0,-0.00947373043770534,0.08,0.002,0.06,0.0025165425736875294,0.010507855561708085,5.033085147375059e-06,0.2950087440481516,0.30552163269500704,0.6,0,0.4,0.3558791112680145,3.235629355965726,0.0,0.13407013965796205,3.369699495623688,0.13134819452135105,5.178469793830816,5.047121599309465,-0.46439243898547033,42.21314053367543,42.6775329726609,0.5108281248508462,87.39004408406907,86.87921595921823,5.39271559327621,0,-5.39271559327621,-0.038145253582516706,-0.3032790122018907,-3.369699495623688,0.5010246441870935,0.019080162048339844,0.06623482704162598,GUIDED_NOGPS
0.002,8e-05,0.0,0.04972808297777661,0.0007110918287351922,3.978246638222129e-06,-0.0,0.0007150700753734143,0.02,0.006,0.0,-0.0449868020351646,-0.008045911728350461,-0.0002699208122109876,0.0,-0.008315832540561448,0.08,0.002,0.06,0.011644067018380076,0.020972868658557006,2.3288134036760154e-05,0.22543216658876786,0.2464283233813616,0.6,0,0.4,0.543596898231314,3.2349794142256694,0.0,-0.012445089239439495,3.22253432498623,0.26216085823196256,5.317064693090287,5.054903834858324,-0.40229558641752305,42.55282458711008,42.955120173527604,0.3555459143675961,86.81948522052767,86.46393930616007,5.391632357042782,0,-5.391632357042782,-0.03143416501380149,-0.24455667013041515,-3.22253432498623,0.5007150700753734,0.03481650352478027,0.10103654861450195,GUIDED_NOGPS
0.002,8e-05,0.0,0.05751232615219867,0.000631786878041936,4.6009860921758945e-06,-0.0,0.0006363878641341119,0.02,0.006,0.0,-0.05513573249630484,-0.008237102757243377,-0.00033081439497782906,-0.0,-0.008567917152221206,0.08,0.002,0.06,0.02065584967765955,0.02925667096632729,4.1311699355319103e-05,0.25212458750355676,0.2814225701692394,0.6,0,0.4,0.6771938566166205,3.2529098858894954,0.0,0.48509261853187874,3.7380025044213743,0.36570838707909115,5.453821842944631,5.08811345586554,-0.4118551378621689,42.890362259183554,43.30221739704572,0.315893439020968,86.2485011124033,85.93260767338234,5.421516476482492,0,-5.421516476482492,-0.03511900510788088,-0.2793541259498782,-3.7380025044213743,0.5006363878641341,0.024641990661621094,0.12818312644958496,GUIDED_NOGPS
0.002,8e-05,0.0,0.06443212747419565,0.00043130735764100337,5.154570197935652e-06,-0.0,0.000436461927838939,0.02,0.006,0.0,-0.0689431624857627,-0.008606094116655357,-0.00041365897491457617,-0.0,-0.009019753091569934,0.08,0.002,0.06,0.03448101940807403,0.0344686047930788,6.896203881614806e-05,0.12182134838919165,0.15635891522108658,0.6,0,0.4,0.8519286776917557,3.2673371875382426,0.0,0.2997485555079135,3.567085743046156,0.43085755991348496,5.588327030284225,5.15746947037074,-0.4303047058327678,43.22526650643314,43.655571212265905,0.21565367882050168,85.67699701265087,85.46134333383037,5.445561979230405,0,-5.445561979230405,-0.023817500208014316,-0.15479726418379966,-3.567085743046156,0.500436461927839,0.03208756446838379,0.15777039527893066,GUIDED_NOGPS
0.002,8e-05,0.0,0.07034508933192346,0.0004110645844183978,5.627607146553877e-06,-0.0,0.00041669219156495165,0.02,0.006,0.0,-0.08367803755991805,-0.010243572416924423,-0.0005020682253595083,-0.0,-0.010745640642283932,0.08,0.002,0.06,0.04759212647489722,0.03645896528586661,9.518425294979444e-05,0.051888126997301866,0.08844227653611827,0.6,0,0.4,1.0099533411302477,3.2957261098837485,0.0,0.6578587204870932,3.9535848303708416,0.45573706607333264,5.720183793891514,5.264446727818181,-0.5121786208462211,43.55706975486316,44.06924837570938,0.20553229220919889,85.10488273338316,84.89935044117397,5.4928768498062475,0,-5.4928768498062475,-0.019162169550309027,-0.08700756478507793,-3.9535848303708416,0.5004166921915649,0.02876901626586914,0.1865379810333252,GUIDED_NOGPS
0.002,8e-05,0.0,0.07740974432503521,0.0004263375254845698,6.192779546002818e-06,0.0,0.0004325303050305726,0.02,0.006,0.0,-0.10352748787446828,-0.011978738576173242,-0.0006211649272468097,-0.0,-0.012599903503420051,0.08,0.002,0.06,0.06465334779177105,0.041184396888866034,0.0001293066955835421,0.1069388111539248,0.14825251473837436,0.6,0,0.4,1.1933505587713007,3.3202944528534686,0.0,0.4942164695081678,3.8145109223616362,0.5148049611108254,5.84901317640508,5.334208215294255,-0.5989369288086621,43.885323637717065,44.48426056652573,0.2131687627422849,84.5320725925219,84.31890382977961,5.533824088089115,0,-5.533824088089115,-0.02683766901326421,-0.14634652444278232,-3.8145109223616362,0.5004325303050305,0.033141136169433594,0.2196824550628662,GUIDED_NOGPS
0.002,8e-05,0.0,0.0883365993078866,0.0006497607775201289,7.066927944630929e-06,0.0,0.0006568277054647599,0.02,0.006,0.0,-0.12860954826280385,-0.014914940378827027,-0.0007716572895768232,-0.0,-0.01568659766840385,0.08,0.002,0.06,0.08174738187076327,0.04065957822832992,0.00016349476374152654,-0.011703044293012247,0.0291200286990592,0.6,0,0.4,1.3818247591272397,3.362261414413014,0.0,0.8318491647682905,4.194110579181304,0.508244727854124,5.974453476283718,5.466208748429594,-0.7457470189413513,44.209598733249614,44.955345752190965,0.3248803887600644,83.95848536044859,83.63360497168853,5.60376902402169,0,-5.60376902402169,-0.018455154346434455,-0.02744909280638772,-4.194110579181304,0.5006568277054647,0.03363347053527832,0.25331759452819824,GUIDED_NOGPS
0.002,8e-05,0.0,0.1017835083470367,0.0008257930169849033,8.142680667762936e-06,0.0,0.0008339356976526663,0.02,0.006,0.0,-0.15762268569173374,-0.0178173632467346,-0.0009457361141504024,-0.0,-0.018763099360885004,0.08,0.002,0.06,0.09868959774533995,0.04161778300349227,0.0001973791954906799,0.022066748105462698,0.06388191030444565,0.6,0,0.4,1.5658114190335901,3.389661487112508,0.0,0.5608919401537743,3.950553427266282,0.5202222875436533,6.096159999770499,5.575937712226846,-0.89086816233673,44.52948430249896,45.42035246483569,0.41289650849245163,83.38404420665553,82.97114769816308,5.64943581185418,0,-5.64943581185418,-0.02496059896546512,-0.061724556386068136,-3.950553427266282,0.5008339356976527,0.03256726264953613,0.28589916229248047,GUIDED_NOGPS
0.002,8e-05,0.0,0.12132534295281189,0.0009583284525548948,9.706027436224952e-06,0.0,0.0009680344799911197,0.02,0.006,0.0,-0.20027318081384662,-0.02091573478929931,-0.0012016390848830797,-0.0,-0.02211737387418239,0.08,0.002,0.06,0.12012517549778412,0.04204789257821084,0.00024025035099556823,0.007909689356532043,0.05019783228573845,0.6,0,0.4,1.798112723697882,3.4176056800668477,0.0,0.45679292198958593,3.874398602056434,0.5255986572276354,6.213804812856846,5.688206155629211,-1.0457867394649654,44.84458802705881,45.89037476652378,0.47916422627744737,82.80867664639666,82.32951242011922,5.696009466778079,0,-5.696009466778079,-0.02699032624713094,-0.0477548205142782,-3.874398602056434,0.5009680344799912,0.04078316688537598,0.32686495780944824,GUIDED_NOGPS
0.002,8e-05,0.0,0.13715676568562754,0.0011460441783558793,1.0972541254850204e-05,0.0,0.0011570167196107294,0.02,0.006,0.0,-0.23671903626587304,-0.026383327115266867,-0.0014203142175952383,-0.0,-0.027803641332862106,0.08,0.002,0.06,0.13398945670834733,0.04014567493171569,0.00026797891341669465,-0.05163841312283294,-0.011224759277700558,0.6,0,0.4,1.957487174898191,3.4611575673140886,0.0,1.0509139045486842,4.512071471862773,0.5018209366464461,6.327076493246603,5.8252555566001565,-1.3191663557633433,45.154535746850556,46.4737021026139,0.5730220891779396,82.2323144873386,81.65929239816066,5.768595945523481,0,-5.768595945523481,-0.026534630670774387,0.013962487864788358,-4.512071471862773,0.5011570167196108,0.027627944946289062,0.354295015335083,GUIDED_NOGPS
0.002,8e-05,0.0,0.15380892417573683,0.0009560235838276867,1.2304713934058947e-05,-0.0,0.0009683282977617457,0.02,0.006,0.0,-0.28707971555165734,-0.028912766548185972,-0.0017224782933099442,-0.0,-0.030635244841495917,0.08,0.002,0.06,0.1519037165780734,0.0411393031899101,0.00030380743315614676,0.021392092704281388,0.06283520332734763,0.6,0,0.4,2.1604310815281464,3.4953875988077026,0.0,0.6550645752120039,4.150452174019707,0.5142412898738762,6.435679882320102,5.921438592446226,-1.4456383274092985,45.45897119789537,46.90460952530467,0.47801179191384335,81.65489377621142,81.17688198429758,5.8256459980128374,0,-5.8256459980128374,-0.036854899154921864,-0.05940115665513644,-4.150452174019707,0.5009683282977617,0.0348362922668457,0.38913655281066895,GUIDED_NOGPS
0.002,8e-05,0.0,0.17097372281276144,0.0009564817800248023,1.3677897825020916e-05,0.0,0.0009701596778498232,0.02,0.006,0.0,-0.34598398851788725,-0.03282349245640361,-0.0020759039311073237,-0.0,-0.03489939638751094,0.08,0.002,0.06,0.17132437637219888,0.04328744575907521,0.00034264875274439777,0.044888217269925895,0.0885183117817455,0.6,0,0.4,2.3713425141374658,3.5258137323196403,0.0,0.5651496988337751,4.0909634311534155,0.5410930719884401,6.539335837098238,5.998242765109798,-1.6411746228201807,45.7575557500864,47.39873037290658,0.4782408900124011,81.07635474545977,80.59811385544737,5.876356220532734,0,-5.876356220532734,-0.04377869174525805,-0.08448008959498439,-4.0909634311534155,0.5009701596778499,0.03589153289794922,0.4250297546386719,GUIDED_NOGPS
0.002,8e-05,0.0,0.1817363426199543,0.0007244928309011414,1.4538907409596346e-05,-0.0,0.0007390317383107378,0.02,0.006,0.0,-0.4011817300422398,-0.03715672274291549,-0.0024070903802534387,-0.0,-0.03956381312316893,0.08,0.002,0.06,0.18788800969465905,0.04459967484042366,0.0003757760193893181,0.03312508637423839,0.07810053723405136,0.6,0,0.4,2.5483518131760894,3.5746492151644844,0.0,1.0957975489400036,4.670446764104488,0.5574959355052957,6.63778098220654,6.080285046701245,-1.8578361371457746,46.04996814496082,47.907804282106596,0.3622464154505707,80.49664175989362,80.13439534444305,5.957748691940807,0,-5.957748691940807,-0.047456566548173616,-0.07357216536538289,-4.670446764104488,0.5007390317383107,0.029710769653320312,0.4548163414001465,GUIDED_NOGPS
0.002,8e-05,0.0,0.1868023791431941,0.0002945187535579805,1.494419033145553e-05,-0.0,0.00030946294388943605,0.02,0.006,0.0,-0.4699750759514319,-0.03999365262629624,-0.0028198504557085916,-0.0,-0.042813503082004836,0.08,0.002,0.06,0.20840518207916275,0.047711397337924025,0.0004168103641583255,0.06783858252733559,0.11596679022941794,0.6,0,0.4,2.7558148255993933,3.618316659265994,0.0,0.8462158499938207,4.464532509259815,0.5963924667240503,6.7307674618392355,6.134374995115185,-1.999682631314812,46.33590423347205,48.33558686478686,0.14725937677899026,79.91570326333934,79.76844388656035,6.030527765443323,0,-6.030527765443323,-0.054759854176067324,-0.11082712146799854,-4.464532509259815,0.5003094629438894,0.03440213203430176,0.48914432525634766,GUIDED_NOGPS
0.002,8e-05,0.0,0.1862769918692387,-3.0889610797743216e-05,1.4902159349539098e-05,-0.0,-1.5987451448204118e-05,0.02,0.006,0.0,-0.5461740449035122,-0.044800409351348665,-0.0032770442694210733,-0.0,-0.04807745362076974,0.08,0.002,0.06,0.2272457402444877,0.044308458753307536,0.00045449148048897544,-0.07502711832173474,-0.030264168087938227,0.6,0,0.4,2.9624032212070017,3.6438464264311605,0.0,0.5003322378125434,4.144178664243704,0.5538557344163442,6.818062691723326,6.264206957306982,-2.240020467567433,46.61507671376182,48.855097181329256,-0.015444805398871608,79.33349172529053,79.3489365306894,6.0730773773852675,0,-6.0730773773852675,-0.04460577863124182,0.03518076078502133,-4.144178664243704,0.4999840125485518,0.034017086029052734,0.5232224464416504,GUIDED_NOGPS
0.002,8e-05,0.0,0.17657159428240002,-0.000598158651082116,1.4125727542592003e-05,-0.0,-0.000584032923539524,0.02,0.006,0.0,-0.6261168530563544,-0.049269988025288425,-0.003756701118338127,-0.0,-0.05302668914362655,0.08,0.002,0.06,0.24572623351266235,0.04555925432509412,0.0004914524670253247,0.028908173981478543,0.07495888077359798,0.6,0,0.4,3.1594865253368205,3.643964576236324,0.0,0.002427251689926307,3.64639182792625,0.5694906790636765,6.899449111082657,6.32995843201898,-2.4634994012644214,46.88721486893233,49.350714270196754,-0.299079325541058,78.74996358755902,79.04904291310008,6.073274293727207,0,-6.073274293727207,-0.06065973998026952,-0.06892792985351708,-3.64639182792625,0.49941596707646047,0.03245091438293457,0.5556142330169678,GUIDED_NOGPS
0.002,8e-05,0.0,0.1559471046826091,-0.0012379398416732103,1.247576837460873e-05,-0.0,-0.0012254640732986015,0.02,0.006,0.0,-0.7151248635448871,-0.05342510992996338,-0.004290749181269323,-0.0,-0.057715859111232705,0.08,0.002,0.06,0.26167480362951157,0.03829112040778277,0.0005233496072590231,-0.16359518572548054,-0.12478071571043875,0.6,0,0.4,3.362740389835694,3.6599604894913975,0.0,0.3200398928111388,3.9800003823025363,0.47863900509728463,6.974723934601984,6.4960849295047,-2.671255496498169,47.15206430481837,49.823319801316536,-0.6189699208366051,78.16507921092577,78.78404913176237,6.09993414915233,0,-6.09993414915233,-0.04412951146598797,0.1302072717782315,-3.9800003823025363,0.4987745359267014,0.03332066535949707,0.5889384746551514,GUIDED_NOGPS
0.002,8e-05,0.0,0.12036398577889236,-0.0018811230031930677,9.62911886231139e-06,-0.0,-0.0018714938843307563,0.02,0.006,0.0,-0.8248798817760805,-0.05802265115355212,-0.004949279290656483,-0.0,-0.0629719304442086,0.08,0.002,0.06,0.27657164747324314,0.031501224729900204,0.0005531432949464863,-0.13460697104194772,-0.10255260301710103,0.6,0,0.4,3.59468050385818,3.678496129286863,0.0,0.3266325856416978,4.005128714928561,0.3937653091237525,7.04369890439105,6.6499335952672975,-2.901132557677606,47.40938668775947,50.31051924543708,-0.9405615015965338,77.57880282179177,78.5193643233883,6.130826882144772,0,-6.130826882144772,-0.05165925091054809,0.10869140814624863,-4.005128714928561,0.4981285061156692,0.037831783294677734,0.626823902130127,GUIDED_NOGPS
0.002,8e-05,0.0,0.08157226929868627,-0.0024012906651680907,6.525781543894902e-06,-0.0,-0.0023947648836241957,0.02,0.006,0.0,-0.9290844862579967,-0.06450489091856468,-0.00557450691754798,-0.0,-0.07007939783611265,0.08,0.002,0.06,0.2883943017918081,0.02927390899772675,0.0005767886035836162,-0.05170336248312741,-0.021852664881817044,0.6,0,0.4,3.793323486240727,3.6889283273125084,0.0,0.21525849682323234,3.9041868241357407,0.36592386247158437,7.106200041948649,6.740276179477065,-3.225244545928234,47.65895948237201,50.884204028300246,-1.2006453325840454,76.99110245882905,78.19174779141309,6.148213878854181,0,-6.148213878854181,-0.06733587616602511,0.02923252887560159,-3.9041868241357407,0.4976052351163758,0.03230905532836914,0.6594386100769043,GUIDED_NOGPS
0.002,8e-05,0.0,0.031961268199662156,-0.0031560098639311605,2.5569014559729727e-06,-0.0,-0.0031534529624751874,0.02,0.006,0.0,-1.039281822357186,-0.07010216927769676,-0.0062356909341431165,-0.0,-0.07633786021183987,0.08,0.002,0.06,0.29615891292507524,0.019757867233735668,0.0005923178258501505,-0.2270115574728407,-0.20666137241325488,0.6,0,0.4,3.986374012772899,3.684279811789305,0.0,-0.09857195997437723,3.585707851814928,0.24697334042169583,7.162067400126704,6.915094059705008,-3.505108463884838,47.90057568932137,51.40568415320621,-1.5780049319655802,76.40194991963153,77.97995485159711,6.140466352982176,0,-6.140466352982176,-0.053794076942731944,0.21364126248300414,-3.585707851814928,0.4968465470375248,0.03143906593322754,0.6905190944671631,GUIDED_NOGPS
0.002,8e-05,0.0,-0.05209868063097368,-0.00398711923395453,-4.167894450477895e-06,-0.0,-0.0039912871284050085,0.02,0.006,0.0,-1.198512209536779,-0.0755259250315416,-0.0071910732572206745,-0.0,-0.08271699828876228,0.08,0.002,0.06,0.2989683363011852,0.005330246394405194,0.0005979366726023704,-0.2566233028433605,-0.25069511977635295,0.6,0,0.4,4.2460112555378435,3.694522750298476,0.0,0.16194718852538093,3.8564699388238566,0.06662807993006492,7.211154815094327,7.144526735164262,-3.7762962515770795,48.134043583094034,51.91033983467111,-1.9935596169772651,75.81132070736604,77.8048803243433,6.1575379171641265,0,-6.1575379171641265,-0.05534958180994104,0.2581212286485707,-3.8564699388238566,0.496008712871595,0.04216575622558594,0.7327072620391846,GUIDED_NOGPS
0.002,8e-05,0.0,-0.11680422344931865,-0.005046012142368653,-9.344337875945493e-06,-0.0,-0.005055356480244599,0.02,0.006,0.0,-1.3016661981002624,-0.08044384702658264,-0.007809997188601574,-0.0,-0.08825384421518422,0.08,0.002,0.06,0.29918102837730476,0.0006634651388045398,0.0005983620567546095,-0.13647575919993057,-0.13521393200437143,0.6,0,0.4,4.40353828007008,3.6853872663077865,0.0,-0.23747457139721526,3.4479126949105714,0.008293314235056748,7.253329658301901,7.245036344066844,-4.0221923513291316,48.359186449769766,52.3813788010989,-2.5230060711843265,75.21919397742309,77.74220004860742,6.142312110512978,0,-6.142312110512978,-0.07327952925489349,0.14388071107352088,-3.4479126949105714,0.4949446435197554,0.025646209716796875,0.7583460807800293,GUIDED_NOGPS
0.002,8e-05,0.0,-0.22067958367274487,-0.006312717720077046,-1.765436669381959e-05,-0.0,-0.006330372086770866,0.02,0.006,0.0,-1.4407711986279543,-0.08453694888698436,-0.008644627191767727,-0.0,-0.09318157607875209,0.08,0.002,0.06,0.29663781008965184,-0.006182262710216761,0.0005932756201793037,-0.15601082179061737,-0.16159980888065484,0.6,0,0.4,4.603548640842556,3.646511393842549,0.0,-0.787522047149907,2.858989346692642,-0.07727828387770952,7.28847258844514,7.36575087232285,-4.226847444349218,48.57584232479369,52.80268976914291,-3.156358860038523,74.62555248406804,77.78191134410656,6.077518989737582,0,-6.077518989737582,-0.07554865005105332,0.17055704566580623,-2.858989346692642,0.49366962791322916,0.03290987014770508,0.7912716865539551,GUIDED_NOGPS
0.002,8e-05,0.0,-0.3470984479650245,-0.007503508050980543,-2.776787583720196e-05,-0.0,-0.0075312759268177445,0.02,0.006,0.0,-1.594058449507404,-0.09098263360659431,-0.009564350697044423,-0.0,-0.10054698430363873,0.08,0.002,0.06,0.2863895700984697,-0.02433110017645113,0.0005727791401969395,-0.4039545901817896,-0.4277129112180438,0.6,0,0.4,4.805900373254054,3.60313596023721,0.0,-0.8581733881106861,2.744962572126524,-0.30413875220563913,7.316477303429169,7.620616055634808,-4.549131680329715,48.783863730748465,53.33299541107818,-3.7517540254902713,74.0303825270918,77.78213655258207,6.005226600395351,0,-6.005226600395351,-0.05524824227756357,0.43588491852828537,-2.744962572126524,0.49246872407318226,0.03369593620300293,0.8249659538269043,GUIDED_NOGPS
0.002,8e-05,0.0,-0.4931442874382552,-0.008758811903454273,-3.945154299506042e-05,-0.0,-0.008798263446449333,0.02,0.006,0.0,-1.7581137814635166,-0.09838895784673966,-0.0105486826887811,-0.0,-0.10893764053552077,0.08,0.002,0.06,0.26758913649828414,-0.04510076074781715,0.0005351782729965683,-0.4671073245718765,-0.5116729070466971,0.6,0,0.4,5.003988364359032,3.563981269195245,0.0,-0.7827418551404001,2.781239414054845,-0.5637595093477143,7.337250292332585,7.901009801680299,-4.919447892336983,48.98311741512639,53.90256530746337,-4.379405951727136,73.43367389846192,77.81307985018906,5.939968781992075,0,-5.939968781992075,-0.055401551178823734,0.5201992324658355,-2.781239414054845,0.49120173655355065,0.03334832191467285,0.8583226203918457,GUIDED_NOGPS
0.002,8e-05,0.0,-0.6838163352201372,-0.010273909581646536,-5.4705306817610976e-05,-0.0,-0.010328614888464148,0.02,0.006,0.0,-1.9554605354716217,-0.10633560243870065,-0.01173276321282973,-0.0,-0.11806836565153038,0.08,0.002,0.06,0.2380617073704931,-0.06364061026594321,0.0004761234147409862,-0.3746158780660423,-0.43778036491724454,0.6,0,0.4,5.220997405363646,3.5079047374028565,0.0,-1.007183492965158,2.5007212444376985,-0.7955076283242901,7.350710587371535,8.146218215695825,-5.316780121935032,49.17348408810153,54.490264210036564,-5.136954790823268,72.83541982897343,77.9723746197967,5.846507895671428,0,-5.846507895671428,-0.07286023340900942,0.4475300808462867,-2.5007212444376985,0.48967138511153585,0.037117719650268555,0.8954193592071533,GUIDED_NOGPS
0.002,8e-05,0.0,-0.8632229356919328,-0.011861284541976403,-6.905783485535462e-05,-0.0,-0.011930342376831757,0.02,0.006,0.0,-2.1299150961091873,-0.11533885475372742,-0.012779490576655124,-0.0,-0.12811834533038255,0.08,0.002,0.06,0.20645335109358912,-0.08359017042150896,0.00041290670218717824,-0.4946043140347848,-0.5777815777541065,0.6,0,0.4,5.394967703816542,3.450560692375576,0.0,-1.2637476976279762,2.1868129947475996,-1.044877130268862,7.356789515863783,8.401666646132645,-5.766942737686371,49.3548581603019,55.12180089798827,-5.930642270988201,72.23561693489982,78.16625920588803,5.750934487292627,0,-5.750934487292627,-0.0695773184082345,0.5877115438421632,-2.1868129947475996,0.48806965762316823,0.03025078773498535,0.9256713390350342,GUIDED_NOGPS
0.002,8e-05,0.0,-1.0972742921562049,-0.013422424072787863,-8.778194337249639e-05,-0.0,-0.01351020601616036,0.02,0.006,0.0,-2.3452268858989047,-0.12347743649457144,-0.01407136131539343,-0.0,-0.13754879780996487,0.08,0.002,0.06,0.16064776890956592,-0.10507470809189663,0.0003212955378191318,-0.46203733868940866,-0.5667907512434862,0.6,0,0.4,5.5916484929030945,3.3837867867600755,0.0,-1.2764544381870508,2.1073323485730246,-1.3134338511487078,7.35543045219278,8.668864303341488,-6.173871824728572,49.52714748058151,55.70101930531008,-6.711212036393931,71.63426516464395,78.34547720103788,5.639644644600126,0,-5.639644644600126,-0.08118363292031938,0.5775644078542072,-2.1073323485730246,0.4864897939838396,0.034874677658081055,0.9605526924133301,GUIDED_NOGPS
0.002,8e-05,0.0,-1.435361534196835,-0.01505542820359264,-0.00011482892273574681,-0.0,-0.015170257126328386,0.02,0.006,0.0,-2.643025073214408,-0.1326130853452844,-0.01585815043928645,-0.0,-0.14847123578457086,0.08,0.002,0.06,0.0914304573930456,-0.12329317813861096,0.00018286091478609122,-0.30423382672479815,-0.427344143948623,0.6,0,0.4,5.840305604861335,3.3218993480535666,0.0,-0.9186404910620761,2.4032588569914903,-1.541164726732637,7.346588569771736,8.887753296504373,-6.6306542672642195,49.69027307379258,56.3209273410568,-7.52771410179632,71.03136774538896,78.55908184718528,5.536498913422611,0,-5.536498913422611,-0.10654851971912577,0.4396750370082911,-2.4032588569914903,0.4848297428736716,0.04491233825683594,1.0054571628570557,GUIDED_NOGPS
0.002,8e-05,0.0,-1.6134817251492417,-0.01670427236508945,-0.00012907853801193933,-0.0,-0.01683335090310139,0.02,0.006,0.0,-2.7944109169614393,-0.14197101140796392,-0.016766465501768635,-0.0,-0.15873747690973256,0.08,0.002,0.06,0.053524003605818306,-0.14219605875578942,0.00010704800721163661,-0.6647734556911266,-0.8068624664397044,0.6,0,0.4,5.956149076722319,3.259171622267974,0.0,-1.960887590868646,1.2982840313993278,-1.7774507344473678,7.33023059300769,9.107681327455058,-7.098550570398196,49.84416887855762,56.94271944895581,-8.352136182544726,70.42693112974929,78.77906731229402,5.431952703779957,0,-5.431952703779957,-0.08164421093733883,0.8182657570406147,-1.2982840313993278,0.4831666490968986,0.021326303482055664,1.0267884731292725,GUIDED_NOGPS
0.002,8e-05,0.0,-1.9193193346151596,-0.01826639576130404,-0.00015354554676921277,-0.0,-0.01841994130807325,0.02,0.006,0.0,-3.0410570344145214,-0.14731136573604248,-0.018246342206487128,-0.0,-0.1655577079425296,0.08,0.002,0.06,-0.014036341275818327,-0.1614038246680307,-2.8072682551636655e-05,-0.43019969133642,-0.5916315886870023,0.6,0,0.4,6.134369597194696,3.193308925039319,0.0,-1.3112340844176291,1.8820748406216898,-2.0175478083503835,7.306334549265579,9.323882357615963,-7.365568286802123,49.98878148504157,57.354349771843694,-9.13319788065202,69.82096494242148,78.9541628230735,5.322181541732198,0,-5.322181541732198,-0.10996654713442855,0.6044374656677245,-1.8820748406216898,0.48158005869192677,0.033486366271972656,1.0602850914001465,GUIDED_NOGPS
0.002,8e-05,0.0,-2.2602649510876764,-0.019899385816806187,-0.00018082119608701412,-0.0,-0.020080207012893203,0.02,0.006,0.0,-3.311081417884223,-0.15760048309763064,-0.019866488507305338,-0.0,-0.17746697160493596,0.08,0.002,0.06,-0.09331008037772448,-0.18507335402645667,-0.00018662016075544896,-0.5180545012706304,-0.7033144754578424,0.6,0,0.4,6.311222451304729,3.0966198185650184,0.0,-1.8810955384624606,1.2155242801025579,-2.313416925330708,7.2748895208323106,9.588306446163019,-7.880024154881532,50.124069872723965,58.0040940276055,-9.949692908403094,69.21348192683521,79.16317483523831,5.161033030941698,0,-5.161033030941698,-0.11348065239698742,0.7164271902508456,-1.2155242801025579,0.4799197929871068,0.03426694869995117,1.0945522785186768,GUIDED_NOGPS
0.002,8e-05,0.0,-2.6118929030553555,-0.021557968579570173,-0.00020895143224442845,-0.0,-0.021766920011814603,0.02,0.006,0.0,-3.5876510345986095,-0.16956214868095998,-0.021525906207591657,-0.0,-0.19108805488855163,0.08,0.002,0.06,-0.1789874566398405,-0.21011187251785757,-0.000357974913279681,-0.5756577284627634,-0.7861275758939007,0.6,0,0.4,6.472949896942577,2.974605834380902,0.0,-2.4935196634113037,0.4810861709695984,-2.6263984064732195,7.2358953968808315,9.862293803354051,-8.478107434047999,50.250005148171,58.728112582219,-10.778984289785086,68.60449789180416,79.38348218158924,4.957676390634837,0,-4.957676390634837,-0.1224361354264144,0.7997003207725726,-0.4810861709695984,0.47823307998818537,0.03262162208557129,1.1272528171539307,GUIDED_NOGPS
0.002,8e-05,0.0,-3.1105358720618046,-0.02325537140336161,-0.0002488428697649444,-0.0,-0.02350421427312655,0.02,0.006,0.0,-3.976826660144315,-0.18150107944435745,-0.02386095996086589,-0.0,-0.20536203940522335,0.08,0.002,0.06,-0.3080230242157582,-0.24071491906929696,-0.0006160460484315165,-0.5352165210356775,-0.776547486153406,0.6,0,0.4,6.680072946746174,2.89789914754658,0.0,-1.1924647508870116,1.7054343966595684,-3.0089364883662117,7.189362625434198,10.19829911380041,-9.075053972217873,50.36657028280773,59.4416242550256,-11.627685701680804,67.99403165817701,79.62171735985781,4.8298319125776334,0,-4.8298319125776334,-0.13925011762855688,0.7910808872803589,-1.7054343966595684,0.47649578572687346,0.042884111404418945,1.1700623035430908,GUIDED_NOGPS
0.002,8e-05,0.0,-3.4928998362143844,-0.025063108281972887,-0.00027943198689715077,-0.0,-0.025342540268870038,0.02,0.006,0.0,-4.27745871784222,-0.197057634126531,-0.02566475230705332,-0.0,-0.2227223864335843,0.08,0.002,0.06,-0.41509122486292443,-0.2807233063736214,-0.0008301824497258488,-0.9834228351817753,-1.2649763240051226,0.6,0,0.4,6.821720683377983,2.785408323428784,0.0,-2.457841193134019,0.3275671302947649,-3.509041329670268,7.135311965329649,10.644353294999917,-9.85288170632655,50.47375985069017,60.32664155701672,-12.531554140986444,67.38210500548828,79.91365914647473,4.64234720571464,0,-4.64234720571464,-0.11961006526203816,1.2788525302004898,-0.3275671302947649,0.47465745973112994,0.030512094497680664,1.2005956172943115,GUIDED_NOGPS
0.002,8e-05,0.0,-3.944491587885208,-0.02691839821502083,-0.00031555932703081663,-0.0,-0.027233957542051646,0.02,0.006,0.0,-4.630310378541459,-0.2103271700245098,-0.027781862271248757,-0.0,-0.23810903229575855,0.08,0.002,0.06,-0.5429743635927013,-0.3049133860907317,-0.0010859487271854028,-0.5407191863024642,-0.8467185211203814,0.6,0,0.4,6.972568607722435,2.697514612959434,0.0,-1.7463840517133808,0.951130561246053,-3.811417326134146,7.073774238182676,10.885191564316822,-10.51635850122549,50.571579766277424,61.08793826750291,-13.459199107510415,66.76874261860937,80.22794172611978,4.4958576882657235,0,-4.4958576882657235,-0.17100462878786615,0.8627778289932075,-0.951130561246053,0.47276604245794834,0.03355264663696289,1.2341220378875732,GUIDED_NOGPS
0.002,8e-05,0.0,-4.560142013510583,-0.02880854411051848,-0.00036481136108084663,-0.0,-0.029173355471599327,0.02,0.006,0.0,-5.11075862444762,-0.22481937653091394,-0.030664551746685722,-0.0,-0.25548392827759964,0.08,0.002,0.06,-0.7209712407636361,-0.33316509980835846,-0.0014419424815272721,-0.49575053489480925,-0.8303575771846949,0.6,0,0.4,7.158095144546618,2.604440375887996,0.0,-1.451761775091598,1.152678600796398,-4.164563747604481,7.004790080351084,11.169353827955565,-11.240968826545696,50.66004702220382,61.901015848749516,-14.404272055259241,66.15397203439939,80.55824408965863,4.340733959813327,0,-4.340733959813327,-0.19190327976192306,0.8473127373129754,-1.152678600796398,0.4708266445284007,0.042740821838378906,1.2768757343292236,GUIDED_NOGPS
0.002,8e-05,0.0,-5.044911069205097,-0.030790774428344405,-0.00040359288553640775,-0.0,-0.031194367313880814,0.02,0.006,0.0,-5.493805934301242,-0.2432977760139751,-0.03296283560580745,-0.0,-0.27626061161978255,0.08,0.002,0.06,-0.8641206249142244,-0.3636932139261599,-0.0017282412498284487,-0.727138209794527,-1.0925596649705154,0.6,0,0.4,7.287342430549388,2.4627958295020664,0.0,-2.9989161681163554,-0.536120338614289,-4.546165174076998,6.928409694899081,11.47457486897608,-12.164888800698755,50.739189427051045,62.9040782277498,-15.395387214172203,65.53782358835615,80.93321080252835,4.104659715836777,0,-4.104659715836777,-0.1973481422755533,1.109531548804904,0.536120338614289,0.4688056326861192,0.03148794174194336,1.3083546161651611,GUIDED_NOGPS
0.002,8e-05,0.0,-5.564856139577943,-0.03258730594490763,-0.00044518849116623546,-0.0,-0.03303249443607387,0.02,0.006,0.0,-5.904965677425725,-0.2576923814628961,-0.03542979406455435,-0.0,-0.29312217552745046,0.08,0.002,0.06,-1.020431034061024,-0.39186717332181287,-0.0020408620681220484,-0.6621709822014342,-1.0560790175913692,0.6,0,0.4,7.412015731872221,2.344151668053384,0.0,-2.478655155458865,-0.13450348740548135,-4.898339666522661,6.844692603561331,11.743032270083992,-12.884619073144805,50.80904534312026,63.693664416265065,-16.293652972453813,64.92033036126709,81.2139833337209,3.90691944675564,0,-3.90691944675564,-0.22048421135353713,1.0735968581020094,0.13450348740548135,0.46696750556392613,0.03191089630126953,1.3402976989746094,GUIDED_NOGPS
0.002,8e-05,0.0,-6.039966485191611,-0.03441960106136506,-0.00048319731881532894,-0.0,-0.034902798380180386,0.02,0.006,0.0,-6.281162977572006,-0.2725379716720926,-0.037686977865432035,-0.0,-0.3102249495375246,0.08,0.002,0.06,-1.1640737813506852,-0.4162507596573268,-0.0023281475627013703,-0.6624303084500087,-1.0810092156700368,0.6,0,0.4,7.514843258160699,2.2348171107945336,0.0,-2.6402651354671876,-0.40544802467265395,-5.203134495716585,6.753707398707032,11.956841894423617,-13.626898583604628,50.86966342420429,64.49656200780892,-17.20980053068253,64.30152812586017,81.5113286565427,3.724695184657556,0,-3.724695184657556,-0.2393446943898253,1.0988787744544661,0.40544802467265395,0.4650972016198196,0.027606964111328125,1.3678736686706543,GUIDED_NOGPS
0.002,8e-05,0.0,-6.652652133858395,-0.03620569711451781,-0.0005322121707086717,-0.0,-0.03673790928522648,0.02,0.006,0.0,-6.7649398600058746,-0.28588035829662983,-0.040589639160035246,-0.0,-0.32646999745666505,0.08,0.002,0.06,-1.3496951464883227,-0.4387601334407404,-0.0026993902929766454,-0.4988085475886736,-0.9402680713223907,0.6,0,0.4,7.635316974694966,2.13576157720915,0.0,-1.9511771135890894,0.18458446362006042,-5.484501668009255,6.655531495303983,12.140033163313237,-14.294017914831493,50.92110235335965,65.21512026819114,-18.102848557258902,63.68145529345485,81.78430385071375,3.5596026286819167,0,-3.5596026286819167,-0.26746189368920187,0.9587235475421835,-0.18458446362006042,0.46326209071477353,0.033844709396362305,1.4017183780670166,GUIDED_NOGPS
0.002,8e-05,0.0,-7.3761015347235155,-0.03809051637978179,-0.0005900881227778813,-0.0,-0.03868060450255967,0.02,0.006,0.0,-7.342979516050406,-0.3043451132919336,-0.044057877096302434,-0.0,-0.348402990388236,0.08,0.002,0.06,-1.572861428012397,-0.4699993609307077,-0.003145722856024794,-0.6167941591571888,-1.0899392429439212,0.6,0,0.4,7.762058161881634,2.001924638027379,0.0,-2.34889411663385,-0.346969478606471,-5.8749920116338465,6.550250882882661,12.425242894516508,-15.217255664596678,50.96343058067879,66.18068624527547,-19.045258189890895,63.060152860612995,82.10541105050389,3.3365410633789656,0,-3.3365410633789656,-0.28437716477484665,1.1083689932397303,0.346969478606471,0.46131939549744033,0.037985801696777344,1.4397163391113281,GUIDED_NOGPS
0.002,8e-05,0.0,-7.998106159004676,-0.04003493414625899,-0.0006398484927203741,-0.0,-0.04067478263897937,0.02,0.006,0.0,-7.84431092135311,-0.32267878747590817,-0.047065865528118665,-0.0,-0.3697446530040268,0.08,0.002,0.06,-1.76699948533219,-0.49982292971296693,-0.00353399897066438,-0.7198406765769869,-1.2231976052606184,0.6,0,0.4,7.858604291708351,1.864239170643999,0.0,-2.9540126682932155,-1.0897734976492166,-6.247786621412087,6.437959877500286,12.685746498912373,-16.133939373795407,50.99672606106214,67.13066543485755,-20.017467073129495,62.437664355789806,82.4551314289193,3.107065284406665,0,-3.107065284406665,-0.30290143736055664,1.2414403768144844,1.0897734976492166,0.4593252173610206,0.03107309341430664,1.4707915782928467,GUIDED_NOGPS
0.002,8e-05,0.0,-8.755791247587736,-0.0419059885908879,-0.0007004632998070189,-0.0,-0.04260645189069492,0.02,0.006,0.0,-8.459500350282061,-0.3402484960888259,-0.05075700210169237,-0.0,-0.3910054981905183,0.08,0.002,0.06,-2.004621532405867,-0.5256952759746093,-0.004009243064811734,-0.5366046512579451,-1.0663091702973662,0.6,0,0.4,7.964427544391585,1.7558592955369061,0.0,-1.9980885982650136,-0.2422293027281075,-6.571190949682617,6.318760873704889,12.889951823387506,-17.012424804441295,51.0210759919903,68.0335007964316,-20.95299429544395,61.81403578598475,82.7670300814287,2.926432159228177,0,-2.926432159228177,-0.33605659348170613,1.0848808746829968,0.2422293027281075,0.4573935481093051,0.036161184310913086,1.5069503784179688,GUIDED_NOGPS
0.002,8e-05,0.0,-9.643892614857101,-0.043841194811314925,-0.0007715114091885681,-0.0,-0.04461270622050349,0.02,0.006,0.0,-9.18865250410482,-0.3599465421511691,-0.05513191502462892,-0.0,-0.41507845717579805,0.08,0.002,0.06,-2.2827226104954175,-0.5491392758125404,-0.0045654452209908354,-0.43399309552271587,-0.9876978165562471,0.6,0,0.4,8.074830825288997,1.6350200294749881,0.0,-1.9884133349048305,-0.3533933054298424,-6.8642409476567545,6.192764096499389,13.057005044156144,-17.997327107558455,51.03657655129613,69.03390365885458,-21.92059740565746,61.18931558339251,83.10991298904997,2.7250333824583137,0,-2.7250333824583137,-0.36765109073871105,1.0063149496653891,0.3533933054298424,0.4553872937794965,0.040514469146728516,1.547483205795288,GUIDED_NOGPS
0.002,8e-05,0.0,-10.152580941209461,-0.0456823355523608,-0.0008122064752967569,-0.0,-0.04649454202765756,0.02,0.006,0.0,-9.616292274487414,-0.384038368370581,-0.057697753646924484,-0.0,-0.44173612201750545,0.08,0.002,0.06,-2.444320977158945,-0.5804883208995187,-0.00488864195431789,-1.0557281758202577,-1.6411051386740945,0.6,0,0.4,8.129805660469833,1.4810909180922294,0.0,-4.607825626015421,-3.1267347079231915,-7.256104011243984,6.06008735330566,13.316191364549644,-19.201918418529047,51.0433326349369,70.24525105346595,-22.8411677761804,60.563554552053915,83.40472232823431,2.468484863487049,0,-2.468484863487049,-0.37064404782540417,1.6586078100289963,3.1267347079231915,0.45350545797234243,0.022270679473876953,1.5697393417358398,GUIDED_NOGPS
0.002,8e-05,0.0,-11.140986886148463,-0.04730075883942539,-0.0008912789508918771,-0.0,-0.04819203779031726,0.02,0.006,0.0,-10.450074089751704,-0.39901128448745155,-0.06270044453851023,-0.0,-0.4617117290259618,0.08,0.002,0.06,-2.757835788722146,-0.6001375677785514,-0.005515671577444292,-0.35262243189164116,-0.9582756712476368,0.6,0,0.4,8.227264316002497,1.3991827100300258,0.0,-1.3065887945999324,0.09259391543009343,-7.501719597231893,5.920855785928599,13.422575383160492,-19.950564224372577,51.041457594766435,70.99202181913901,-23.650379419712692,59.93680581450681,83.5871852342195,2.3319711833833763,0,-2.3319711833833763,-0.42233775679499663,0.9762688164694304,-0.09259391543009343,0.4518079622096827,0.04179239273071289,1.611530065536499,GUIDED_NOGPS
0.002,8e-05,0.0,-11.777333009613947,-0.04914614957346572,-0.0009421866407691158,-0.0,-0.050088336214234835,0.02,0.006,0.0,-10.997729463839518,-0.4229640432639779,-0.0659863767830371,-0.0,-0.488950420047015,0.08,0.002,0.06,-2.9624743412891736,-0.632184060975248,-0.005924948682578347,-0.928128000945147,-1.5662370106029733,0.6,0,0.4,8.281814334036888,1.2638986457338888,0.0,-3.4827434387416503,-2.2188447930077615,-7.902300762190601,5.775201622520203,13.677502384710804,-21.148202163198896,51.03107297630721,72.1792751395061,-24.57307478673286,59.30912475843708,83.88219954516994,2.1064977428898146,0,-2.1064977428898146,-0.4310497674799013,1.5831509670913302,2.2188447930077615,0.4499116637857652,0.025896072387695312,1.6374235153198242,GUIDED_NOGPS
0.002,8e-05,0.0,-12.654952923809898,-0.05084120212966124,-0.0010123962339047918,-0.0,-0.05185359836356603,0.02,0.006,0.0,-11.758325886758904,-0.44061940540820344,-0.07054995532055343,-0.0,-0.5111693607287568,0.08,0.002,0.06,-3.2497584043444703,-0.6657035412331612,-0.006499516808688941,-0.7281785557910323,-1.4003816138328826,0.6,0,0.4,8.349514599905389,1.1765786688212254,0.0,-1.6861713232815447,-0.5095926544603193,-8.321294265414515,5.623263929543634,13.94455819495815,-22.030970270410172,51.01230825652252,73.0432785269327,-25.42060106483062,58.680568983329536,84.10117004816016,1.9609644480353758,0,-1.9609644480353758,-0.4629509006896516,1.4170530135671267,0.5095926544603193,0.448146401636434,0.034523963928222656,1.6719930171966553,GUIDED_NOGPS
0.002,8e-05,0.0,-13.517635814873477,-0.052541955402078455,-0.0010814108651898784,-0.0,-0.05362336626726833,0.02,0.006,0.0,-12.518857030385128,-0.46320373157088396,-0.07511314218231077,-0.0,-0.5383168737531947,0.08,0.002,0.06,-3.5349051186464724,-0.6946777825828394,-0.007069810237292945,-0.661756761627222,-1.3635043544473544,0.6,0,0.4,8.40837902949235,1.0755466230402937,0.0,-2.0511288286776526,-0.9755822056373589,-8.683472282285493,5.46518836373729,14.148660646022783,-23.1601865785442,50.98530058158859,74.14548716013279,-26.27097770103923,58.05119824711883,84.32217594815806,1.792577705067156,0,-1.792577705067156,-0.4954012723274042,1.3796763245561254,0.9755822056373589,0.4463766337327317,0.032837867736816406,1.7048230171203613,GUIDED_NOGPS
0.002,8e-05,0.0,-14.50415598545094,-0.05414328892058924,-0.0011603324788360752,-0.0,-0.055303621399425316,0.02,0.006,0.0,-13.403790299377007,-0.48567884456354066,-0.08042274179626205,-0.0,-0.5661015863598027,0.08,0.002,0.06,-3.8617242981781,-0.7174740381360067,-0.0077234485963562005,-0.46917347239853296,-1.194370959130896,0.6,0,0.4,8.467890973968352,0.9798600677685448,0.0,-1.7505250483497088,-0.770664980581164,-8.968425476700084,5.3011269240788765,14.269552400778961,-24.283942228177033,50.950194504666705,75.23413673284374,-27.07164446029462,57.4210744128404,84.49271887313502,1.6331001129475748,0,-1.6331001129475748,-0.5318331309218316,1.2100192209003224,0.770664980581164,0.4446963786005747,0.03644108772277832,1.7416434288024902,GUIDED_NOGPS
0.002,8e-05,0.0,-15.356681225753785,-0.05570701956741772,-0.001228534498060303,-0.0,-0.056935554065478025,0.02,0.006,0.0,-14.18169168703378,-0.5083083265467099,-0.08509015012220268,-0.0,-0.5933984766689125,0.08,0.002,0.06,-4.1459102616129035,-0.7427887071225834,-0.008291820523225807,-0.6203063090881226,-1.3713868367339317,0.6,0,0.4,8.51392429071002,0.9023940014621588,0.0,-1.6873024076126857,-0.7849084061505269,-9.284858839032292,5.13123770374948,14.416096542781773,-25.415416327335492,50.90714172367535,76.32255805101084,-27.85350978370886,56.79026139528142,84.64377117899028,1.5039900024369313,0,-1.5039900024369313,-0.5571998595794783,1.386489063990299,0.7849084061505269,0.443064445934522,0.03060746192932129,1.7718706130981445,GUIDED_NOGPS
0.002,8e-05,0.0,-16.47841875951626,-0.05724846959031048,-0.001318273500761301,-0.0,-0.05856674309107178,0.02,0.006,0.0,-15.219199566735458,-0.5294976455105942,-0.09131519740041275,-0.0,-0.6208128429110069,0.08,0.002,0.06,-4.521926008681563,-0.767606518053668,-0.009043852017363126,-0.47497130064622467,-1.2516216707172558,0.6,0,0.4,8.567770579424486,0.8244221654101941,0.0,-1.3264446601126716,-0.5020224947024775,-9.595081475670849,4.955684642097625,14.550766117768474,-26.47488227552971,50.85630081906234,77.33118309459205,-28.62423479515524,56.158825107631706,84.78305990278695,1.3740369423503236,0,-1.3740369423503236,-0.5906214844418034,1.2661483541228737,0.5020224947024775,0.4414332569089282,0.039188385009765625,1.81105375289917,GUIDED_NOGPS
0.002,8e-05,0.0,-17.617268216257315,-0.05883988657206533,-0.0014093814573005853,-0.0,-0.060249268029365914,0.02,0.006,0.0,-16.29888301148166,-0.557830106925608,-0.09779329806888996,-0.0,-0.6556234049944979,0.08,0.002,0.06,-4.906742112483576,-0.7952775764975536,-0.009813484224967152,-0.5361206645432279,-1.3412117252657487,0.6,0,0.4,8.614156360299935,0.718971432733102,0.0,-1.8160753126571412,-1.0971038799240391,-9.94096970621942,4.774637276603374,14.715606982822795,-27.891505346280397,50.79783699157696,78.68934233785735,-29.419943286032662,55.526833408134664,84.94677669416733,1.1982857212218367,0,-1.1982857212218367,-0.6274319273705593,1.3546291439663367,1.0971038799240391,0.4397507319706341,0.03871011734008789,1.8497509956359863,GUIDED_NOGPS
0.002,8e-05,0.0,-18.303444771804347,-0.06037916065197705,-0.001464275581744348,-0.0,-0.0618434362337214,0.02,0.006,0.0,-16.96387098713711,-0.5851470075616914,-0.10178322592282266,-0.0,-0.686930233484514,0.08,0.002,0.06,-5.138205842645332,-0.8146932818129292,-0.010276411685290665,-0.6406718399941888,-1.4656415334924087,0.6,0,0.4,8.638192977807567,0.6345207126173685,0.0,-2.4770415892830786,-1.8425208766657102,-10.183666022661615,4.588270494842357,14.771936517503972,-29.257350378084567,50.73192180004206,79.98927217812663,-30.189580325988523,54.8943560467382,85.08393637272673,1.0575345210289475,0,-1.0575345210289475,-0.6597627428222949,1.4780701517711095,1.8425208766657102,0.4381565637662786,0.022728919982910156,1.87247633934021,GUIDED_NOGPS
0.002,8e-05,0.0,-19.352037027626086,-0.061745257517368306,-0.001548162962210087,-0.0,-0.0632934204795784,0.02,0.006,0.0,-17.99239278075517,-0.6056342935644272,-0.10795435668453103,-0.0,-0.7135886502489582,0.08,0.002,0.06,-5.490653095817514,-0.8301395051349676,-0.010981306191635029,-0.3410755103073766,-1.1821963216339793,0.6,0,0.4,8.67142812761663,0.5871051036842198,0.0,-0.9306728354660554,-0.34356773178183564,-10.376743814187094,4.396764286449873,14.773508100636967,-30.281714678221363,50.65873289912625,80.94044757734761,-30.87262875868415,54.26146461174569,85.13409337042984,0.9785085061403663,0,-0.9785085061403663,-0.6932957903422743,1.194210137179685,0.34356773178183564,0.4367065795204216,0.033965110778808594,1.9064452648162842,GUIDED_NOGPS
0.002,8e-05,0.0,-20.411102427387494,-0.0630895735952459,-0.0016328881941909997,-0.0,-0.0647224617894369,0.02,0.006,0.0,-19.053190971308535,-0.6319279765696938,-0.11431914582785122,-0.0,-0.746247122397545,0.08,0.002,0.06,-5.849223277278267,-0.8544152176976161,-0.011698446554556536,-0.5422980799780943,-1.4084117442302668,0.6,0,0.4,8.7019469983094,0.5454117958293424,0.0,-0.8279038653426953,-0.28249206951335293,-10.680190221220201,4.20030349508496,14.88049371630516,-31.596398828484688,50.57845377711596,82.17485260560065,-31.544786797622955,53.628232476466856,85.17301927408981,0.9090196597155707,0,-0.9090196597155707,-0.7238091466512498,1.4200734939418975,0.28249206951335293,0.4352775382105631,0.03357338905334473,1.9400255680084229,GUIDED_NOGPS
0.002,8e-05,0.0,-21.81964531278931,-0.06433716910055776,-0.0017455716250231448,-0.0,-0.0660827407255809,0.02,0.006,0.0,-20.49415426695407,-0.6581801674657375,-0.12296492560172442,-0.0,-0.7811450930674619,0.08,0.002,0.06,-6.33074132504975,-0.8797604499093941,-0.0126614826500995,-0.43412961745842293,-1.3265515500179164,0.6,0,0.4,8.738662116618672,0.5031043356276712,0.0,-0.6441508335600669,-0.14104649793239565,-10.997005623867425,3.999077570394432,14.996083194261857,-32.90900837328687,50.49127349368762,83.4002818669745,-32.16858455027888,52.99473474586874,85.16331929614762,0.8385072260461187,0,-0.8385072260461187,-0.7616484369964517,1.3378409209241482,0.14104649793239565,0.4339172592744191,0.04378628730773926,1.983806848526001,GUIDED_NOGPS
0.002,8e-05,0.0,-22.74564578642898,-0.06573847127423585,-0.0018196516629143185,-0.0,-0.06755812293715016,0.02,0.006,0.0,-21.466679781194586,-0.6904136920154464,-0.12880007868716753,-0.0,-0.8192137707026139,0.08,0.002,0.06,-6.65045284006765,-0.9078762633214353,-0.0133009056801353,-0.7484974272236987,-1.6696745962252693,0.6,0,0.4,8.760277718928041,0.46035937084498724,0.0,-1.0115144716359075,-0.5511551007909202,-11.348453291517941,3.7932803199770024,15.141733611494944,-34.52068460077232,50.39738641767979,84.91807101845211,-32.869235637117924,52.36104820322663,85.23028384034455,0.7672656180749787,0,-0.7672656180749787,-0.7967818541558009,1.6804949081377352,0.5511551007909202,0.43244187706284987,0.02817225456237793,2.01198148727417,GUIDED_NOGPS
0.002,8e-05,0.0,-23.827212429923964,-0.06680537956082162,-0.0019061769943939173,-0.0,-0.06871155655521555,0.02,0.006,0.0,-22.620473320162,-0.7126663508821406,-0.135722839920972,-0.0,-0.8483891908031126,0.08,0.002,0.06,-7.025924905572774,-0.9276748317422299,-0.014051849811145548,-0.4585885504838322,-1.4003152320372076,0.6,0,0.4,8.78541175126643,0.46573789429216855,0.0,0.11073883812486283,0.5764767324170313,-11.595935396777874,3.583109661347299,15.179045058125173,-35.63331754410703,50.296991964865256,85.93030950897229,-33.40268978041081,51.72725125677498,85.12994103718579,0.7762298238202809,0,-0.7762298238202809,-0.8293407714721859,1.4116801524852924,-0.5764767324170313,0.43128844344478445,0.0323796272277832,2.044358730316162,GUIDED_NOGPS
0.002,8e-05,0.0,-24.94646556119749,-0.06801289250056965,-0.001995717244895799,-0.0,-0.07000860974546544,0.02,0.006,0.0,-23.838303809389334,-0.7400307565232385,-0.143029822856336,-0.0,-0.8830605793795745,0.08,0.002,0.06,-7.417382934681365,-0.9514985344540796,-0.01483476586936273,-0.5428795170075514,-1.5092128173309938,0.6,0,0.4,8.810850448893653,0.4637448023324625,0.0,-0.040370953752286914,0.42337384858017557,-11.893731680675995,3.36876737389999,15.262499054575985,-37.00153782616192,50.190294335723195,87.19183216188512,-34.006446250284824,51.09342388635832,85.09987013664315,0.7729080038874375,0,-0.7729080038874375,-0.8626218876516719,1.5209874403802985,-0.42337384858017557,0.4299913902545346,0.0329129695892334,2.0772902965545654,GUIDED_NOGPS
0.002,8e-05,0.0,-26.1251288252481,-0.06913839845408017,-0.002090010306019848,-0.0,-0.07122840876010002,0.02,0.006,0.0,-25.14823900109052,-0.7683858825090983,-0.15088943400654312,-0.0,-0.9192753165156414,0.08,0.002,0.06,-7.830352074378216,-0.9689629192811937,-0.015660704148756432,-0.38416175566001926,-1.3687853790899693,0.6,0,0.4,8.837475281490837,0.4685303277929775,0.0,0.09357028315963643,0.5621006109526139,-12.112036491014921,3.150458850873795,15.262495341888716,-38.41929412545492,50.0775022532113,88.49679637866622,-34.56919922704008,50.45964759008225,85.02884681712233,0.7808838796549625,0,-0.7808838796549625,-0.9005353491179472,1.3811866660789993,-0.5621006109526139,0.4287715912399,0.03409576416015625,2.1113924980163574,GUIDED_NOGPS
0.002,8e-05,0.0,-27.386925403830194,-0.07027151271006583,-0.0021909540323064155,-0.0,-0.07246246674237225,0.02,0.006,0.0,-26.579524900709576,-0.7971064987340569,-0.15947714940425745,-0.0,-0.9565836481383143,0.08,0.002,0.06,-8.271541447553954,-0.9828222764561173,-0.01654308289510791,-0.28944384055314504,-1.2888091999043703,0.6,0,0.4,8.865905034357937,0.47498981385478767,0.0,0.1199131102952326,0.5949029241500203,-12.285278455701466,2.9283928513156052,15.213671307017071,-39.85532493670284,49.95882870053791,89.81415363724075,-35.13575635503292,49.8260053309643,84.96176168599722,0.7916496897579794,0,-0.7916496897579794,-0.9386855675366498,1.301902774765515,-0.5949029241500203,0.4275375332576278,0.03591203689575195,2.1472973823547363,GUIDED_NOGPS
0.002,8e-05,0.0,-28.619327379294823,-0.07139400203446312,-0.002289546190343586,-0.0,-0.07368354822480672,0.02,0.006,0.0,-28.00644076997272,-0.8266234272691207,-0.16803864461983634,-0.0,-0.9946620718889571,0.08,0.002,0.06,-8.702844105663615,-0.9994278965332386,-0.017405688211327233,-0.3607411676056092,-1.377574752350175,0.6,0,0.4,8.893828676631015,0.48529147460239214,0.0,0.19892773164793126,0.6842192062503234,-12.492848706665482,2.7027812520445273,15.19562995871001,-41.331171363456036,49.834490658934115,91.16566202239015,-35.697001017231564,49.19258148358491,84.88958250081647,0.8088191243373203,0,-0.8088191243373203,-0.9751170004817304,1.3914782322906065,-0.6842192062503234,0.4263164517751933,0.034523963928222656,2.1818182468414307,GUIDED_NOGPS
0.002,8e-05,0.0,-30.2395635664371,-0.07244795548789579,-0.0024191650853149682,-0.0,-0.07486712057321075,0.02,0.006,0.0,-29.91730940236829,-0.85443422830337,-0.17950385641420974,-0.0,-1.0339380847175796,0.08,0.002,0.06,-9.271869247680623,-1.0177456468998547,-0.018543738495361246,-0.3071504883972333,-1.3434398737924493,0.6,0,0.4,8.932003155693232,0.512085148169256,0.0,0.3993547124659441,0.9114398606352001,-12.721820586248183,2.473838799615967,15.19565938586415,-42.7217114151685,49.70470884542594,92.42642026059444,-36.22397774394789,48.55946178073835,84.78343952468624,0.8534752469487601,0,-0.8534752469487601,-1.0138122995267032,1.3586917526993778,-0.9114398606352001,0.42513287942678923,0.04472827911376953,2.2265443801879883,GUIDED_NOGPS
0.002,8e-05,0.0,-32.06998681068181,-0.07347978403109218,-0.002565598944854545,-0.0,-0.07604538297594672,0.02,0.006,0.0,-32.14111065593079,-0.8927139466439085,-0.19284666393558472,-0.0,-1.0855606105794933,0.08,0.002,0.06,-9.91624735438625,-1.0347063557888982,-0.0198324947087725,-0.2553239865628831,-1.3098628370605538,0.6,0,0.4,8.975649728597645,0.5256392084395078,0.0,0.1813696048230028,0.7070088132625106,-12.933829447361227,2.241782862285687,15.175612309646914,-44.63569733219542,49.56970745060643,94.20540478280185,-36.73989201554609,47.92673326008364,84.66662527562973,0.8760653473991797,0,-0.8760653473991797,-1.0654063991018954,1.3263075419776436,-0.7070088132625106,0.4239546170240533,0.04982113838195801,2.276367664337158,GUIDED_NOGPS
0.002,8e-05,0.0,-32.35899412970708,-0.0744745218085559,-0.0025887195303765666,-0.0,-0.07706324133893247,0.02,0.006,0.0,-32.503394439232586,-0.9335719113064112,-0.19502036663539551,-0.0,-1.1285922779418067,0.08,0.002,0.06,-10.017939153477599,-1.0482015659288901,-0.020035878306955197,-1.3040967162245265,-2.3723341604603716,0.6,0,0.4,8.982849695369671,0.5566095186024361,0.0,2.6602544731691076,3.2168639917715436,-13.102519574111128,2.0068331819738887,15.109352756085016,-46.678595565320556,49.42971387640781,96.10830944172837,-37.23726090427795,47.29448421079547,84.53174511507342,0.9276825310040603,0,-0.9276825310040603,-1.090035293712839,2.390295579458209,-3.2168639917715436,0.4229367586610675,0.007761240005493164,2.284125804901123,GUIDED_NOGPS
0.002,8e-05,0.0,-33.49445664483937,-0.0754870022043019,-0.0026795565315871498,-0.0,-0.07816655873588906,0.02,0.006,0.0,-33.922446637533056,-0.9434040753749311,-0.20353467982519835,-0.0,-1.1469387552001296,0.08,0.002,0.06,-10.416164673234093,-1.058981702594224,-0.020832329346468184,-0.2687539844029732,-1.3485680163436655,0.6,0,0.4,9.012830021629838,0.5979391457647405,0.0,0.9158821816735984,1.5138213274383387,-13.2372712824278,1.7692116262292785,15.006482908657079,-47.17020376874655,49.28495847387361,96.45516224262016,-37.74350110215095,46.66280412021516,84.40630522236611,0.9965652429412343,0,-0.9965652429412343,-1.123310343089871,1.3683121266700913,-1.5138213274383387,0.42183344126411093,0.030083656311035156,2.3142147064208984,GUIDED_NOGPS
0.002,8e-05,0.0,-34.72384627325533,-0.07646411169143472,-0.002777907701860427,-0.0,-0.07924201939329514,0.02,0.006,0.0,-35.481271778724114,-0.9695394930005082,-0.2128876306723447,-0.0,-1.182427123672853,0.08,0.002,0.06,-10.847277899944984,-1.0725546777664148,-0.021694555799889968,-0.31657340324503974,-1.4108226368113446,0.6,0,0.4,9.046861387713536,0.6349927111200959,0.0,0.7682045069113855,1.4031972180314813,-13.406933472080183,1.5291419401931243,14.936075412273308,-48.47697465002541,49.13567428093076,97.61264893095617,-38.232055845717355,46.031783620501585,84.26383946621894,1.05832118520016,0,-1.05832118520016,-1.1561673262503687,1.4324215612198963,-1.4031972180314813,0.4207579806067049,0.03215599060058594,2.346374034881592,GUIDED_NOGPS
0.002,8e-05,0.0,-36.38759943571541,-0.07731273972910575,-0.002911007954857233,-0.0,-0.08022374768396298,0.02,0.006,0.0,-37.62860863817589,-0.9978433067561142,-0.22577165182905534,-0.0,-1.2236149585851694,0.08,0.002,0.06,-11.432342738380003,-1.0874922217835485,-0.022864685476760006,-0.26029908135857077,-1.3706559886188794,0.6,0,0.4,9.09517977104161,0.6735902918767458,0.0,0.5978620672311048,1.2714523591078506,-13.593652772294357,1.2868494985633596,14.880502270857717,-49.89216533780571,48.98209676016178,98.87426209796749,-38.65636986455288,45.4015144352821,84.05788429983498,1.122650486461243,0,-1.122650486461243,-1.196525236458316,1.3943667969829725,-1.2714523591078506,0.419776252316037,0.043039560317993164,2.3894128799438477,GUIDED_NOGPS
0.002,8e-05,0.0,-37.36444270306809,-0.0782381917130775,-0.0029891554162454477,-0.0,-0.08122734712932295,0.02,0.006,0.0,-38.91110399851343,-1.0271874846939335,-0.2334666239910806,-0.0,-1.260654108685014,0.08,0.002,0.06,-11.774874825984433,-1.0973752712859886,-0.023549749651968866,-0.29683571594495817,-1.4177607368829155,0.6,0,0.4,9.124208206204855,0.6974913022396099,0.0,0.6381002607763153,1.3355915630159252,-13.717190891074855,1.0425610575586202,14.759751948633475,-51.35937423469667,48.8244635365769,100.18383777127357,-39.11909585653875,44.77208932630346,83.89118518284221,1.1624855037326831,0,-1.1624855037326831,-1.231631385435426,1.4430448431014222,-1.3355915630159252,0.41877265287067705,0.02497100830078125,2.414397954940796,GUIDED_NOGPS
0.002,8e-05,0.0,-38.824866764514155,-0.07910508213547524,-0.0031059893411611327,-0.0,-0.08221107147663637,0.02,0.006,0.0,-40.851229367521455,-1.050885018400302,-0.24510737620512874,-0.0,-1.2959923946054308,0.08,0.002,0.06,-12.286006052566426,-1.1074338948028382,-0.024572012105132855,-0.2043126360886488,-1.33631854299662,0.6,0,0.4,9.17059310620956,0.7537429890914282,0.0,1.0156397780030397,1.769382767094468,-13.842923685035478,0.7965045068823233,14.639428191917801,-52.544250920015095,48.66301413538613,101.20726505540122,-39.552541067737614,44.143602040082776,83.69614310782039,1.2562383151523804,0,-1.2562383151523804,-1.2663837998078709,1.3644103513297996,-1.769382767094468,0.41778892852336363,0.03692364692687988,2.4513235092163086,GUIDED_NOGPS
0.002,8e-05,0.0,-40.266057434462404,-0.07989732333725386,-0.0032212845947569924,-0.0,-0.08311860793201085,0.02,0.006,0.0,-42.804788404796,-1.0830221240964861,-0.256828730428776,-0.0,-1.339850854525262,0.08,0.002,0.06,-12.789229614518138,-1.115916623069015,-0.025578459229036277,-0.17635087185127063,-1.317845954149322,0.6,0,0.4,9.217823679451149,0.7855164053669409,0.0,0.5871559229066612,1.3726723282736022,-13.948957788362685,0.5489086216867722,14.497866410049458,-54.15110620482431,48.49798971977149,102.6490959245958,-39.948661668626926,43.51614725455842,83.46480892318534,1.3091940089449015,0,-1.3091940089449015,-1.3093912693276357,1.3481145259392373,-1.3726723282736022,0.41688139206798913,0.03607606887817383,2.4874002933502197,GUIDED_NOGPS
0.002,8e-05,0.0,-41.47930826778438,-0.08069236282803392,-0.0033183446614227508,-0.0,-0.08401070748945667,0.02,0.006,0.0,-44.480717694024705,-1.1146474460708813,-0.2668843061641482,-0.0,-1.3815317522350294,0.08,0.002,0.06,-13.212377000372022,-1.1257280506641631,-0.026424754000744045,-0.24470638726070149,-1.3968591919256088,0.6,0,0.4,9.259521935365813,0.8319955040993378,0.0,1.0304294863097623,1.8624249904091,-14.071600633302038,0.3000028145371605,14.371603447839199,-55.73237230354407,48.32963282865906,104.06200513220313,-40.34618141401696,42.889820525740966,83.23600193975793,1.3866591734988962,0,-1.3866591734988962,-1.3473240105155941,1.4298823711021933,-1.8624249904091,0.41598929251054334,0.030071020126342773,2.5174694061279297,GUIDED_NOGPS
0.002,8e-05,0.0,-42.78232339261764,-0.08150021697856555,-0.0034225858714094118,-0.0,-0.08492280284997496,0.02,0.006,0.0,-46.30406756238316,-1.1404580581370374,-0.277824405374299,-0.0,-1.4182824635113365,0.08,0.002,0.06,-13.66663221800841,-1.1364994341335382,-0.02733326443601682,-0.2526457885587861,-1.4164784871283411,0.6,0,0.4,9.306202310925874,0.8759209308348131,0.0,0.9158071771616201,1.7917281079964331,-14.206242926669226,0.05001688737567633,14.256259814044903,-57.02290290685187,48.15818711449111,105.18109002134298,-40.75010848928277,42.26471823436413,83.0148267236469,1.459868218058022,0,-1.459868218058022,-1.3817348415564232,1.452151947431888,-1.7917281079964331,0.41507719715002506,0.031975746154785156,2.5494394302368164,GUIDED_NOGPS
0.002,8e-05,0.0,-44.172639952251934,-0.08227100976065858,-0.003533811196180155,-0.0,-0.08580482095683874,0.02,0.006,0.0,-48.27824753115572,-1.1682071852967513,-0.2896694851869343,-0.0,-1.4578766704836856,0.08,0.002,0.06,-14.150931435599007,-1.146322695543693,-0.028301862871198017,-0.21798173312295585,-1.3926062915378468,0.6,0,0.4,9.356679729291159,0.8960897754355105,0.0,0.3978257564214101,1.2939155318569207,-14.329033694296161,-0.20081921651437185,14.128214477781789,-58.41035926483757,47.98389708099835,106.39425634583591,-41.13550488032929,41.640937532535716,82.77644241286501,1.4934829590591843,0,-1.4934829590591843,-1.4210855873217225,1.4301302119310209,-1.2939155318569207,0.4141951790431613,0.0337984561920166,2.5832488536834717,GUIDED_NOGPS
