D-kp,D-ki,D-kd,D-I-Tot,D-P,D-I,D-D,D-PID,E-kp,E-ki,E-kd,E-I-Tot,E-P,E-I,E-D,E-PID,N-kp,N-ki,N-kd,N-I-Tot,N-P,N-I,N-D,N-PID,Y-kp,Y-ki,Y-kd,Y-I-Tot,Y-P,Y-I,Y-D,Y-PID,errorN,desiredN,actualN,errorE,desiredE,actualE,errorD,desiredD,actualD,errorY,desiredY,actualY,roll,pitch,yaw-rate,thrust,dt,Time,Mode
0.002,8e-05,0.0,0.0028378658323921905,0.0005780618722872078,2.2702926659137527e-07,0.0,0.0005782889015537992,0.05,0.003,0.1,-0.005394084859798526,-0.02746883553954689,-1.6182254579395578e-05,-5.595291475832338,-5.622776493626465,0.08,0.002,0.06,-0.0012485140952695289,-0.010172692271080308,-2.4970281905390577e-06,-0.7770512095702228,-0.7872263988694936,0.6,0,0.4,0.0342902235908876,2.0954342475084387,0.0,142.2771800958612,144.37261434336966,-0.12715865338850385,3.9698795873829953,4.097038240771499,-0.5493767107909378,40.411436818943585,40.96081352973452,0.28903093614360387,66.28766250721007,65.99863157106647,3.4923904125140646,0,-3.4923904125140646,-3.9446169273456237,1.0294283362990364,-10.0,0.5005782889015538,0.009818553924560547,0.010062217712402344,GUIDED_NOGPS
0.002,8e-05,0.0,0.019406321467228812,0.0011862440104641791,1.552505717378305e-06,0.0,0.0011877965161815574,0.05,0.003,0.1,-0.040905142411289695,-0.0635617166954507,-0.0001227154272338691,-2.584125221759604,-2.6478096538822884,0.08,0.002,0.06,-0.009515666261996118,-0.023675977912523367,-1.9031332523992236e-05,-0.3625456726350479,-0.38624068188009525,0.6,0,0.4,0.1381765560799487,2.231370425831258,0.0,3.2441864406840155,5.475556866515273,-0.29594972390654206,3.9667204713880277,4.26267019529457,-1.271234333909014,40.89969120184041,42.170925535749426,0.5931220052320896,66.03007745063552,65.43695544540343,3.7189507097187633,0,-3.7189507097187633,-2.617181462808604,0.5571705468368369,-5.475556866515273,0.5011877965161815,0.02793431282043457,0.037917137145996094,GUIDED_NOGPS
0.002,8e-05,0.0,0.022032608980189064,0.0010885368072295308,1.7626087184151253e-06,-0.0,0.0010902994159479459,0.05,0.003,0.1,-0.046085677866938374,-0.05368037102566597,-0.0001382570336008151,4.095594413573872,4.041775785514606,0.08,0.002,0.06,-0.01035811348755149,-0.01396701326324738,-2.0716226975102978e-05,1.5090548914589477,1.4950671619687252,0.6,0,0.4,0.15626464094950693,2.249130689877787,0.0,2.453742659598239,4.702873349476025,-0.17458766579059226,3.955320409286479,4.129908075077071,-1.0736074205133193,41.388650178678425,42.462257599191744,0.5442684036147654,65.76557649903019,65.22130809541542,3.7485511497963118,0,-3.7485511497963118,3.8936979614834977,-1.7533801651485839,-4.702873349476025,0.501090299415948,0.0048253536224365234,0.04275965690612793,GUIDED_NOGPS
0.002,8e-05,0.0,0.032593946556206795,0.0010715917664241487,2.6075157244965437e-06,-0.0,0.0010741992821486452,0.05,0.003,0.1,-0.06331197366500327,-0.04369606740227319,-0.00018993592099500982,1.0130438004937543,0.9691577971704861,0.08,0.002,0.06,-0.014423008507093278,-0.01649756199143084,-2.8846017014186556e-05,-0.09628450807502907,-0.1128109160834741,0.6,0,0.4,0.2312009364035601,2.280992818482633,0.0,1.0776158615625682,3.3586086800452013,-0.20621952489288553,3.9359323112183775,4.142151836111263,-0.8739213480454637,41.87746641878336,42.75138776682882,0.5357958832120744,65.49423655470758,64.95844067149551,3.801654697471055,0,-3.801654697471055,0.9745048878875586,0.04830488678382783,-3.3586086800452013,0.5010741992821487,0.01971149444580078,0.0625309944152832,GUIDED_NOGPS
0.002,8e-05,0.0,0.03526037712996937,0.0009637901086913701,2.82083017039755e-06,-0.0,0.0009666109388617676,0.05,0.003,0.1,-0.06682216122358361,-0.03171922121187478,-0.00020046648367075086,4.329070482917338,4.297150795221793,0.08,0.002,0.06,-0.015736176068078346,-0.01898594951296076,-3.147235213615669e-05,-0.3372884480061728,-0.3563058698712697,0.6,0,0.4,0.2524842631140625,2.307878551064301,0.0,3.2393121828742757,5.547190733938576,-0.23732436891200948,3.908805605983659,4.146129974895668,-0.6343844242374956,42.36532297849818,42.99970740273567,0.481895054345685,65.21613586914044,64.73424081479476,3.8464642517738348,0,-3.8464642517738348,4.014891664812983,0.08717105436986278,-5.547190733938576,0.5009666109388617,0.0055332183837890625,0.06801939010620117,GUIDED_NOGPS
0.002,8e-05,0.0,0.045644536813422294,0.0007179717867059879,3.651562945073784e-06,-0.0,0.0007216233496510617,0.05,0.003,0.1,-0.07897344494582333,-0.02100381530806459,-0.00023692033483746998,0.7408745008320511,0.719633765189149,0.08,0.002,0.06,-0.02535182921828579,-0.02659345727743613,-5.070365843657158e-05,-0.19724667577376312,-0.22389083670963583,0.6,0,0.4,0.36604929077422516,2.355601848450278,0.0,1.0998797571237524,3.4554816055740307,-0.3324182159679516,3.874186257438538,4.20660447340649,-0.42007630616129177,42.85143291234026,43.27150921850155,0.3589858933529939,64.93135401717029,64.5723681238173,3.926003080750464,0,-3.926003080750464,0.7332743803822034,0.1740934974028261,-3.4554816055740307,0.5007216233496511,0.028926372528076172,0.09691762924194336,GUIDED_NOGPS
0.002,8e-05,0.0,0.05802013823702379,0.0007717714818296599,4.641611058961903e-06,0.0,0.0007764130928886218,0.05,0.003,0.1,-0.09577746069967788,-0.02619844421118067,-0.0002873323820990336,-0.32394922144691857,-0.3504349980401983,0.08,0.002,0.06,-0.038961304282256054,-0.03394874924466493,-7.792260856451211e-05,-0.1720099609667893,-0.20603663282001874,0.6,0,0.4,0.49648680393490546,2.440316620723021,0.0,1.761003851904655,4.2013204726276765,-0.42435936555831155,3.832316780891878,4.256676146450189,-0.5239688842236134,43.33503888415847,43.859007768382085,0.38588574091482997,64.63997187121706,64.25408613030223,4.067194367871702,0,-4.067194367871702,-0.33493902472683534,0.2303728100932951,-4.2013204726276765,0.5007764130928887,0.03207063674926758,0.12901067733764648,GUIDED_NOGPS
0.002,8e-05,0.0,0.0685042336663301,0.000637093729470621,5.480338693306409e-06,-0.0,0.0006425740681639274,0.05,0.003,0.1,-0.11828159570864061,-0.0341880789764975,-0.00035484478712592183,-0.4855112435847615,-0.5200541673483849,0.08,0.002,0.06,-0.057207051287223726,-0.04435003891276633,-0.00011441410257444745,-0.23702318206555373,-0.2814876350808945,0.6,0,0.4,0.6360913628977907,2.5450318452504934,0.0,2.121098997887029,4.666130843137522,-0.5543754864095791,3.7834362595015647,4.337811745911144,-0.6837615795299499,43.81541277829036,44.49917435782031,0.31854686473531046,64.34207157548869,64.02352471075338,4.241719742084156,0,-4.241719742084156,-0.4978096236850123,0.31918208634953693,-4.666130843137522,0.5006425740681639,0.032912254333496094,0.161909818649292,GUIDED_NOGPS
0.002,8e-05,0.0,0.07800587383355358,0.0005617852868986403,6.240469906684286e-06,-0.0,0.0005680257568053247,0.05,0.003,0.1,-0.14789426262687902,-0.04377128655609184,-0.0004436827878806371,-0.5666079671258308,-0.6108229364698033,0.08,0.002,0.06,-0.08075366191060589,-0.05568781461616972,-0.00016150732382121179,-0.2513801090218829,-0.30722943096187383,0.6,0,0.4,0.7845903285877168,2.6340042111480346,0.0,1.7534995790944952,4.38750379024253,-0.6960976827021215,3.7277803606708773,4.423878043372999,-0.8754257311218367,44.29185531071923,45.167281041841065,0.2808926434493202,64.03773652019072,63.7568438767414,4.390007018580058,0,-4.390007018580058,-0.5855139369380623,0.3530835773836572,-4.38750379024253,0.5005680257568054,0.033826589584350586,0.1958010196685791,GUIDED_NOGPS
0.002,8e-05,0.0,0.0852051651143156,0.00042587483292172125,6.816413209145249e-06,-0.0,0.0004326912461308665,0.05,0.003,0.1,-0.18442540157916798,-0.054025084175020055,-0.000553276204737504,-0.6065644766233134,-0.661142837003071,0.08,0.002,0.06,-0.11014117691122628,-0.06953686163146369,-0.00022028235382245257,-0.3072156873026484,-0.3769728312879346,0.6,0,0.4,0.9402231512289659,2.7619427977553226,0.0,2.5227401823666122,5.284682980121935,-0.8692107703932961,3.66558135244486,4.534792122838156,-1.080501683500401,44.76369564023132,45.84419732373172,0.21293741646086062,63.72705131573586,63.514113899274996,4.603237996258871,0,-4.603237996258871,-0.628756166965409,0.42881703435460383,-5.284682980121935,0.5004326912461309,0.03380942344665527,0.22954702377319336,GUIDED_NOGPS
0.002,8e-05,0.0,0.08884433999104756,0.00021789872579837779,7.107547199283805e-06,-0.0,0.0002250062729976616,0.05,0.003,0.1,-0.22804930108250795,-0.06530046259188325,-0.0006841479032475238,-0.6751229806618552,-0.741107591156986,0.08,0.002,0.06,-0.1458213839519786,-0.08545532340434299,-0.0002916427679039572,-0.3574243462946186,-0.4431713124668656,0.6,0,0.4,1.1004316574787134,2.877786632108526,0.0,2.3120830730572397,5.189869705165766,-1.0681915425542874,3.5970681199066954,4.665259662460983,-1.306009251837665,45.2302909795729,46.536300231410564,0.10894936289918888,63.41010176695363,63.30115240405444,4.79631105351421,0,-4.79631105351421,-0.7014572273474786,0.5035861714405014,-5.189869705165766,0.5002250062729977,0.033402442932128906,0.26294803619384766,GUIDED_NOGPS
0.002,8e-05,0.0,0.0866626474129899,-0.00013022174337437776,6.9330117930391925e-06,-0.0,-0.00012328873158133858,0.05,0.003,0.1,-0.2805162722628344,-0.07829174152893402,-0.0008415488167885032,-0.7754286781099726,-0.8545619684556951,0.08,0.002,0.06,-0.18830293061806352,-0.10142622519296808,-0.0003766058612361271,-0.3574791016203786,-0.45928193267458284,0.6,0,0.4,1.2679209754182559,2.9991509158578107,0.0,2.414680047373277,5.413830963231088,-1.267827814912101,3.5224661815740745,4.7902939964861755,-1.5658348305786802,45.69102620660742,47.2568610371861,-0.06511087168718888,63.086974847299956,63.152085718987145,4.998584859763018,0,-4.998584859763018,-0.8112941840887395,0.5319941714680331,-5.413830963231088,0.49987671126841865,0.033507347106933594,0.29648780822753906,GUIDED_NOGPS
0.002,8e-05,0.0,0.07569036677550349,-0.0005559343641626668,6.05522934204028e-06,-0.0,-0.0005498791348206265,0.05,0.003,0.1,-0.35345090215532365,-0.09238477494868641,-0.001060352706465971,-0.7140540633426686,-0.807499190997821,0.08,0.002,0.06,-0.24737713369529704,-0.11972489808165004,-0.0004947542673905941,-0.34767821112668745,-0.4678978634757281,0.6,0,0.4,1.4728511673797495,3.114969614702057,0.0,1.9560684123756182,5.071038027077675,-1.4965612260206256,3.4419977057955697,4.938558931816195,-1.847695498973728,46.145313475472655,47.99300897444638,-0.2779671820813334,62.757758673066725,63.03572585514806,5.191616024503428,0,-5.191616024503428,-0.7618479413054448,0.5390464436724742,-5.071038027077675,0.49945012086517937,0.03947329521179199,0.33594322204589844,GUIDED_NOGPS
0.002,8e-05,0.0,0.05996023846027618,-0.0010992217807464187,4.796819076822094e-06,-0.0,-0.0010944249616695967,0.05,0.003,0.1,-0.4192229711622768,-0.11490384783958235,-0.0012576689134868304,-1.573633406405645,-1.6897949231587142,0.08,0.002,0.06,-0.298472942441135,-0.14282305840800588,-0.00059694588488227,-0.6052875193647835,-0.7487075236576717,0.6,0,0.4,1.6274958587872115,3.2419725319214763,0.0,2.9583223995017285,6.200294931423205,-1.7852882301000736,3.3558815271470053,5.141169757247079,-2.298076956791647,46.592591827737806,48.89066878452945,-0.5496108903732093,62.4225424775914,62.97215336796461,5.4032875532024605,0,-5.4032875532024605,-1.6117840548849298,0.9045009666845365,-6.200294931423205,0.4989055750383304,0.028620481491088867,0.3645591735839844,GUIDED_NOGPS
0.002,8e-05,0.0,0.010793634846656401,-0.0018719080129715735,8.634907877325122e-07,-0.0,-0.001871044522183841,0.05,0.003,0.1,-0.555573602317147,-0.12978110153709574,-0.0016667208069514412,-0.5664180228156289,-0.6978658451596761,0.08,0.002,0.06,-0.4046187150220873,-0.16165047624505988,-0.0008092374300441746,-0.2688043691433351,-0.4312640828184392,0.6,0,0.4,1.9197413603050597,3.337977341359092,0.0,1.2183891697595266,4.556366511118618,-2.0206309530632485,3.264333162827832,5.28496411589108,-2.5956220307419144,47.03232680356066,49.62794883430257,-0.9359540064857867,62.08141658546665,63.017370591952435,5.56329556893182,0,-5.56329556893182,-0.6527696574719978,0.4968875338077514,-4.556366511118618,0.49812895547781616,0.05253100395202637,0.41709232330322266,GUIDED_NOGPS
0.002,8e-05,0.0,-0.009604149727784877,-0.002780316508188335,-7.683319782227902e-07,-0.0,-0.0027810848401665575,0.05,0.003,0.1,-0.5998970494601688,-0.1510374954468947,-0.0017996911483805062,-2.8973491055504454,-3.0501862921457206,0.08,0.002,0.06,-0.43701986035359847,-0.17665730103314892,-0.000874039720707197,-0.767063499130458,-0.9445948398843141,0.6,0,0.4,2.0045004436683556,3.4659216715500207,0.0,5.813143286234925,9.279064957784946,-2.2082162629143616,3.1675648290574943,5.375781091971856,-3.020749908937894,47.46401005284469,50.484759961782586,-1.3901582540941675,61.73447238674989,63.12463064084406,5.776536119250035,0,-5.776536119250035,-2.9396250803696615,1.2467959797783248,-9.279064957784946,0.49721891515983346,0.014672994613647461,0.43176817893981934,GUIDED_NOGPS
0.002,8e-05,0.0,-0.07059889679264165,-0.00374788326388979,-5.647911743411333e-06,-0.0,-0.003753531175633201,0.05,0.003,0.1,-0.6995217000763632,-0.153038408503555,-0.0020985651002290895,-0.12294810485207211,-0.27808507845585617,0.08,0.002,0.06,-0.5115382312873455,-0.18315423456249594,-0.0010230764625746912,-0.14970396804428446,-0.33388127906935505,0.6,0,0.4,2.1959981161942466,3.5300298294727535,0.0,1.3130633030957555,4.843093132568509,-2.289427932031199,3.0657854574718084,5.355213389503008,-3.0607681700711,47.88715894639625,50.94792711646735,-1.873941631944895,61.38180231117293,63.25574394311783,5.883383049121256,0,-5.883383049121256,-0.24239610682029733,0.3606274348564613,-4.843093132568509,0.4962464688243668,0.03254890441894531,0.46431565284729004,GUIDED_NOGPS
0.002,8e-05,0.0,-0.17315906568548,-0.004639761487031635,-1.3852725254838402e-05,-0.0,-0.0046536142122864735,0.05,0.003,0.1,-0.8559383330440212,-0.17690490309468956,-0.002567814999132064,-1.0797061240226513,-1.259178842116473,0.08,0.002,0.06,-0.6203780965807364,-0.19695404978111303,-0.001240756193161473,-0.23411080979592985,-0.4323056157702043,0.6,0,0.4,2.4630369056957253,3.62420315151907,0.0,1.4201151624885755,5.044318314007645,-2.4619256222639128,2.9592007115193284,5.421126333783241,-3.538098061893791,48.30131618708162,51.83941424897541,-2.3198807435158173,61.02349980235155,63.34338054586737,6.040338585865117,0,-6.040338585865117,-1.2066970283289524,0.5624071333849817,-5.044318314007645,0.4953463857877135,0.04420924186706543,0.5085418224334717,GUIDED_NOGPS
0.002,8e-05,0.0,-0.27069653611606737,-0.005541057311656275,-2.165572288928539e-05,-0.0,-0.00556271303454556,0.05,0.003,0.1,-1.0052303725932326,-0.21203024429081802,-0.003015691117779698,-1.9954539296540252,-2.210499865062623,0.08,0.002,0.06,-0.7154965961706526,-0.2161454691411381,-0.0014309931923413054,-0.40884577779369746,-0.6264222401271768,0.6,0,0.4,2.682897949657938,3.7470604060688,0.0,2.326487402251775,6.073547808320575,-2.701818364264226,2.84801300285772,5.549831367121946,-4.24060488581636,48.70604942098421,52.94665430680057,-2.7705286558281372,60.659659291995084,63.43018794782322,6.245100676781334,0,-6.245100676781334,-2.1292385865055303,0.8631671437814086,-6.073547808320575,0.4944372869654544,0.03520536422729492,0.5437326431274414,GUIDED_NOGPS
0.002,8e-05,0.0,-0.3397930603901834,-0.006556383687736627,-2.7183444831214676e-05,-0.0,-0.0065835671325678415,0.05,0.003,0.1,-1.1003622935608404,-0.22567031459523187,-0.0033010868806825212,-1.2942696522427042,-1.5232410537186185,0.08,0.002,0.06,-0.7769327553360548,-0.23318048832168198,-0.0015538655106721096,-0.6061527138064607,-0.8408870676388148,0.6,0,0.4,2.8165517326561744,3.8046145961448365,0.0,1.8203875276390011,5.625002123783838,-2.914756104021025,2.7324215077501353,5.64717761177116,-4.513406291904637,49.10095084856165,53.61435714046629,-3.2781918438683135,60.290376174116034,63.56856801798435,6.3410243269080615,0,-6.3410243269080615,-1.4210494762002477,1.0039784631390325,-5.625002123783838,0.49341643286743214,0.021077632904052734,0.564885139465332,GUIDED_NOGPS
0.002,8e-05,0.0,-0.47072450782388564,-0.007788985167071601,-3.765796062591086e-05,-0.0,-0.007826643127697512,0.05,0.003,0.1,-1.261217313940972,-0.23922773946729947,-0.003783651941822916,-0.8065180924979283,-1.0495294839070506,0.08,0.002,0.06,-0.8815668127882984,-0.24898315490744702,-0.0017631336255765969,-0.3525320063931566,-0.6032782949261802,0.6,0,0.4,3.032066922022563,3.8462370488268345,0.0,0.8253598171958839,4.6715968660227185,-3.1122894363430875,2.6126221834615793,5.724911619804667,-4.784554789345989,49.48563683580296,54.27019162514895,-3.8944925835358006,59.91574677923966,63.81023936277546,6.4103950813780575,0,-6.4103950813780575,-0.975611932906761,0.7166855622162157,-4.6715968660227185,0.4921733568723025,0.03361964225769043,0.5984361171722412,GUIDED_NOGPS
0.002,8e-05,0.0,-0.6265182845120313,-0.009113936479489469,-5.012146276096251e-05,-0.0,-0.00916405794225043,0.05,0.003,0.1,-1.4448431686095096,-0.26855282845973216,-0.0043345295058285285,-1.7155178083101408,-1.9884051662757014,0.08,0.002,0.06,-0.9968992891310607,-0.26987801072804696,-0.0019937985782621215,-0.45838092688604326,-0.7302527361923523,0.6,0,0.4,3.2555845702602597,3.9227349603848007,0.0,1.491709364293154,5.414444324677955,-3.3734751341005866,2.488807784655286,5.862282918755873,-5.371056569194643,49.859747525385615,55.23080409458026,-4.556968239744734,59.53586834861359,64.09283658835832,6.537891600641335,0,-6.537891600641335,-1.8923273423878992,0.9519040882565155,-5.414444324677955,0.49083594205774955,0.034188032150268555,0.6326332092285156,GUIDED_NOGPS
0.002,8e-05,0.0,-0.8242566702394485,-0.010459095580035167,-6.594053361915588e-05,-0.0,-0.010525036113654324,0.05,0.003,0.1,-1.6693992898363168,-0.29693955555887436,-0.005008197869508951,-1.5014762603735394,-1.8034240138019229,0.08,0.002,0.06,-1.1342889467120214,-0.2906813576051822,-0.002268577893424043,-0.412636485397411,-0.7055864208960172,0.6,0,0.4,3.5069740599759394,3.989068724942058,0.0,1.1695439256531888,5.158612650595247,-3.6335169700647776,2.361167879789089,5.994684849853867,-5.938791111177487,50.22294644783278,56.16173755901027,-5.229547790017584,59.1508390084174,64.38038679843498,6.648447874903431,0,-6.648447874903431,-1.7096056527980965,0.9096366762785478,-5.158612650595247,0.4894749638863457,0.0378117561340332,0.6704308986663818,GUIDED_NOGPS
0.002,8e-05,0.0,-0.9973867365359856,-0.011867203725869715,-7.979093892287885e-05,-0.0,-0.011946994664792593,0.05,0.003,0.1,-1.8619887700614217,-0.3300262407016117,-0.005585966310184265,-2.267927469802074,-2.60353967681387,0.08,0.002,0.06,-1.2489617834702114,-0.3144100720904212,-0.002497923566940423,-0.6099319466275146,-0.9268399422848762,0.6,0,0.4,3.704526137836472,4.062363293544312,0.0,1.6746592050874387,5.737022498631751,-3.930125901130265,2.229888867511792,6.160014768642057,-6.600524814032234,50.574920132670336,57.17544494670257,-5.933601862934857,58.76075774397221,64.69435960690707,6.770605489240521,0,-6.770605489240521,-2.4761135496146958,1.2273193621764522,-5.737022498631751,0.4880530053352074,0.02917790412902832,0.6996121406555176,GUIDED_NOGPS
0.002,8e-05,0.0,-1.2239575560105151,-0.013253469466271013,-9.791660448084123e-05,-0.0,-0.013351386070751856,0.05,0.003,0.1,-2.1037931310431026,-0.3536142388629781,-0.006311379393129308,-1.3798017508484597,-1.7397273691045672,0.08,0.002,0.06,-1.3928268557575003,-0.33662081414448025,-0.0027856537115150005,-0.48721420578244184,-0.8266206736384372,0.6,0,0.4,3.9369758334564606,4.079207927775327,0.0,0.3284474819970511,4.407655409772378,-4.207760176806003,2.0951539930595438,6.302914169865547,-7.072284777259561,50.91537771958408,57.98766249684364,-6.626734733135507,58.365724373950314,64.99245910708582,6.798679879625545,0,-6.798679879625545,-1.6296377604032772,1.0267588941741645,-4.407655409772378,0.48664861392924813,0.03419041633605957,0.7338073253631592,GUIDED_NOGPS
0.002,8e-05,0.0,-1.4791776263287124,-0.014897337913979897,-0.00011833421010629701,-0.0,-0.015015672124086193,0.05,0.003,0.1,-2.368302911105022,-0.38598958638147884,-0.007104908733315066,-1.8897670996811406,-2.2828615947959348,0.08,0.002,0.06,-1.5475038108190284,-0.36114320698747493,-0.003095007621638057,-0.5367696575341682,-0.9010078721432812,0.6,0,0.4,4.170998739045118,4.098014274291658,0.0,0.3659123132856643,4.463926587577323,-4.514290087343436,1.9571433646522034,6.471433451995639,-7.719791727629577,51.24405056957683,58.963842297206405,-7.448668956989948,57.96583952458471,65.41450848157466,6.830023790486097,0,-6.830023790486097,-2.159509158946279,1.1661013845654826,-4.463926587577323,0.48498432787591383,0.03426384925842285,0.7680737972259521,GUIDED_NOGPS
0.002,8e-05,0.0,-1.7500701854411984,-0.016514858417356892,-0.0001400056148352959,-0.0,-0.01665486403219219,0.05,0.003,0.1,-2.6419478980096223,-0.4170664774029831,-0.007925843694028867,-1.8945904492661132,-2.3195827703631253,0.08,0.002,0.06,-1.7058186251570078,-0.3860640178124936,-0.0034116372503140155,-0.5697327896841843,-0.959208444746992,0.6,0,0.4,4.394011713450747,4.078769505086234,0.0,-0.3910832640851788,3.687686241001055,-4.82580022265617,1.8160339698897228,6.641834192545893,-8.341329548059662,51.560691876125574,59.902021424185236,-8.257429208678445,57.561204603878764,65.81863381255721,6.797949175143723,0,-6.797949175143723,-2.1897355191696906,1.2270303277124244,-3.687686241001055,0.4833451359678078,0.0328059196472168,0.8008809089660645,GUIDED_NOGPS
0.002,8e-05,0.0,-2.055091698909897,-0.018175337998249972,-0.0001644073359127918,-0.0,-0.018339745334162764,0.05,0.003,0.1,-2.942806937728983,-0.4481827096836437,-0.008828420813186948,-1.854125082856162,-2.3111362133529925,0.08,0.002,0.06,-1.878709079346118,-0.4120814175791574,-0.0037574181586922362,-0.581362724079499,-0.9972015598173486,0.6,0,0.4,4.620628593077356,4.051030699260839,0.0,-0.5509580464353009,3.5000726528255384,-5.1510177197394675,1.6719996921485083,6.823017411887976,-8.963654193672873,51.86507627633857,60.82873047001144,-9.087668999124986,57.151921775815794,66.23959077494078,6.7517178321013995,0,-6.7517178321013995,-2.177870161050101,1.261999647060715,-3.5000726528255384,0.48166025466583723,0.03356432914733887,0.8344986438751221,GUIDED_NOGPS
0.002,8e-05,0.0,-2.4124266075114322,-0.019969371668037524,-0.0001929941286009146,-0.0,-0.020162365796638437,0.05,0.003,0.1,-3.2887678979938153,-0.48334369465868576,-0.009866303693981447,-1.9649431395572354,-2.4581531379099024,0.08,0.002,0.06,-2.074266754396692,-0.43714328509413847,-0.0041485335087933835,-0.525210805453219,-0.9665026240561508,0.6,0,0.4,4.860863844355112,4.02760567611889,0.0,-0.43636280903786595,3.591242867081024,-5.464291063676731,1.5252113269777987,6.98950239065453,-9.666873893173715,52.15699946211254,61.82387335528625,-9.984685834018762,56.738093934568624,66.72277976858739,6.712676126864817,0,-6.712676126864817,-2.3283270987608917,1.2472117273740717,-3.591242867081024,0.47983763420336156,0.03578829765319824,0.8702380657196045,GUIDED_NOGPS
0.002,8e-05,0.0,-2.8195442728814886,-0.021839770962151905,-0.0002255635418305191,-0.0,-0.022065334503982424,0.05,0.003,0.1,-3.677487548268805,-0.5213202995488324,-0.011032462644806416,-2.0372497272184003,-2.569602489412039,0.08,0.002,0.06,-2.2893977657850675,-0.4616269364098967,-0.004578795531570135,-0.4925332857092824,-0.9587390176507493,0.6,0,0.4,5.109444770017222,4.00052683325749,0.0,-0.4842135958208548,3.5163132374366355,-5.770336705123709,1.3758365984960328,7.146173303619742,-10.426405990976647,52.436277791289704,62.86268378226635,-10.919885481075951,56.319824678709224,67.23971015978518,6.667544722095817,0,-6.667544722095817,-2.440905784984107,1.2506064154599534,-3.5163132374366355,0.4779346654960176,0.03728222846984863,0.9075264930725098,GUIDED_NOGPS
0.002,8e-05,0.0,-3.1821704262618558,-0.023651981551144344,-0.00025457363410094847,-0.0,-0.023906555185245294,0.05,0.003,0.1,-4.021003235635963,-0.5601379426440832,-0.012063009706907888,-2.531847661259963,-3.104048613610954,0.08,0.002,0.06,-2.4751020640836123,-0.4844961783788635,-0.004950204128167225,-0.5593600503884079,-1.0488064328954385,0.6,0,0.4,5.3114756092221835,3.953186749295825,0.0,-1.0292388658432534,2.9239478834525716,-6.056202229735794,1.2240401757872252,7.280242405523019,-11.202758852881665,52.70274789881502,63.905506751696684,-11.825990775572173,55.8972182854183,67.72320906099047,6.588644582159708,0,-6.588644582159708,-2.9632076677909573,1.3980390004888341,-2.9239478834525716,0.4760934448147547,0.030663490295410156,0.9382185935974121,GUIDED_NOGPS
0.002,8e-05,0.0,-3.5735446832631883,-0.02538788576347605,-0.0002858835746610551,-0.0,-0.025673769338137104,0.05,0.003,0.1,-4.385745840565283,-0.5915082188828492,-0.01315723752169585,-2.0349447498683255,-2.6396102062728706,0.08,0.002,0.06,-2.669951798644277,-0.5055848935974292,-0.0053399035972885546,-0.512997996760428,-1.0239227939551458,0.6,0,0.4,5.511581014455816,3.894165043697474,0.0,-1.276217748519712,2.6179472951777623,-6.319811169967865,1.0699836892973367,7.389794859265202,-11.830164377656985,52.956266307893245,64.78643068555023,-12.693942881738025,55.470379684694876,68.1643225664329,6.490275072829124,0,-6.490275072829124,-2.5069544171923095,1.3157277374748872,-2.6179472951777623,0.4743262306618629,0.030831575393676758,0.9690213203430176,GUIDED_NOGPS
0.002,8e-05,0.0,-4.043483684787022,-0.027102459679036132,-0.0003234786947829618,-0.0,-0.027425938373819094,0.05,0.003,0.1,-4.817511843206129,-0.6225233827904919,-0.014452535529618386,-1.7887156131325075,-2.4256915314526175,0.08,0.002,0.06,-2.900565893968273,-0.5320017448791391,-0.005801131787936546,-0.5713201429239049,-1.1091230195909805,0.6,0,0.4,5.734628262571504,3.859093858334816,0.0,-0.6742118899866292,3.1848819683481873,-6.650021810989239,0.9138257472306446,7.563847558219884,-12.450467655809838,53.196709041146086,65.64717669695592,-13.551229839518065,55.0394144335659,68.59064427308397,6.431823097224694,0,-6.431823097224694,-2.286178947775977,1.3738701165297564,-3.1848819683481873,0.47257406162618093,0.03467869758605957,1.00370454788208,GUIDED_NOGPS
0.002,8e-05,0.0,-4.6613274478925515,-0.028946217189164826,-0.00037290619583140415,-0.0,-0.029319123384996232,0.05,0.003,0.1,-5.381192138747627,-0.6602159491739471,-0.01614357641624288,-1.7659111867835595,-2.4422707123737495,0.08,0.002,0.06,-3.197420986128,-0.5563109953994835,-0.006394841972256,-0.4270866402358095,-0.9897924776075491,0.6,0,0.4,6.004635138950322,3.794977704530598,0.0,-1.0012887961740764,2.793688908356522,-6.953887442493544,0.7557219519461169,7.709609394439661,-13.204318983478942,53.42397123176934,66.62829021524828,-14.473108594582413,54.60442869029585,69.07753728487826,6.32496284088433,0,-6.32496284088433,-2.318361919133072,1.2528261623867416,-2.793688908356522,0.4706808766150038,0.04268908500671387,1.0463945865631104,GUIDED_NOGPS
0.002,8e-05,0.0,-5.038796422312778,-0.03104930583710012,-0.0004031037137850223,-0.0,-0.031452409550885144,0.05,0.003,0.1,-5.727386367188806,-0.7119188069972595,-0.017182159101566417,-4.252900116291275,-4.9820010823901,0.08,0.002,0.06,-3.375244512074321,-0.5850861836387241,-0.006750489024148642,-0.8876056848770846,-1.4794423575399573,0.6,0,0.4,6.155300790885152,3.717972249180919,0.0,-2.1114017277400037,1.6065705214409154,-7.313577295484052,0.5958249163537821,7.909402211837834,-14.238376139945188,53.637966734690025,67.87634287463521,-15.52465291855006,54.16552918859631,69.69018210714637,6.196620415301532,0,-6.196620415301532,-3.8169372634630685,1.9025613304360123,-1.6065705214409154,0.46854759044911487,0.024314165115356445,1.0707159042358398,GUIDED_NOGPS
0.002,8e-05,0.0,-5.584702880823208,-0.03277692489737794,-0.0004467762304658567,-0.0,-0.0332237011278438,0.05,0.003,0.1,-6.220782057816992,-0.7406027738038298,-0.018662346173450976,-1.7222222069751774,-2.481487326952458,0.08,0.002,0.06,-3.628510126241,-0.6082557101288388,-0.007257020252482,-0.5216730479887147,-1.1371857783700356,0.6,0,0.4,6.356575249825236,3.6254331057599103,0.0,-1.8520563408453938,1.7733767649145165,-7.603196376610485,0.43428428031110133,8.037480656921586,-14.812055476076594,53.8386277377235,68.6506832138001,-16.38846244868897,53.722823211835575,70.11128566052454,6.042388509599851,0,-6.042388509599851,-2.347995953450143,1.3920796855548443,-1.7733767649145165,0.4667762988721562,0.0333104133605957,1.104017734527588,GUIDED_NOGPS
0.002,8e-05,0.0,-6.176072516452499,-0.03466329443444657,-0.0004940858013161999,-0.0,-0.03515738023576277,0.05,0.003,0.1,-6.753334018370839,-0.780392004345811,-0.020260002055112518,-2.3322567316617526,-3.1329087380626763,0.08,0.002,0.06,-3.900752327349931,-0.6383020707161436,-0.007801504654699862,-0.6604408949402324,-1.306544470311076,0.6,0,0.4,6.559092149470369,3.5611751926764628,0.0,-1.2554984377266347,2.305676754949828,-7.978775883951796,0.27124672701934216,8.250022610971138,-15.60784008691622,54.02590437273059,69.6337444596468,-17.331647217223285,53.276418567248264,70.60806578447155,5.935291987794105,0,-5.935291987794105,-2.9810106795037377,1.6234995973558433,-2.305676754949828,0.46484261976423724,0.034120798110961914,1.1381373405456543,GUIDED_NOGPS
0.002,8e-05,0.0,-6.802947524605064,-0.03637941949365731,-0.0005442358019684051,-0.0,-0.03692365529562572,0.05,0.003,0.1,-7.318607807224538,-0.8201129422148284,-0.021955823421673615,-2.3051240560331983,-3.1471928216697003,0.08,0.002,0.06,-4.184012316705015,-0.6575367557807998,-0.008368024633410031,-0.4185922239453093,-1.0844970043595192,0.6,0,0.4,6.757353777217735,3.4517134188709133,0.0,-2.1174640005336607,1.3342494183372526,-8.219209447259997,0.10685599941995028,8.326065446679948,-16.40225884429657,54.199764326774755,70.60202317107132,-18.189709746828655,52.8264235601449,71.01613330697356,5.752855698118189,0,-5.752855698118189,-3.0226346256403596,1.394502179673458,-1.3342494183372526,0.4630763447043743,0.03446316719055176,1.17262864112854,GUIDED_NOGPS
0.002,8e-05,0.0,-7.443077889733441,-0.038108031381440824,-0.0005954462311786754,-0.0,-0.0387034776126195,0.05,0.003,0.1,-7.89751110154007,-0.8615770360374754,-0.023692533304620213,-2.4684268622057104,-3.3536964315478057,0.08,0.002,0.06,-4.468046847884361,-0.6763620298140112,-0.008936093695768723,-0.4202625195794894,-1.1055606430892693,0.6,0,0.4,6.944059185418484,3.3344655756356687,0.0,-2.326653409376957,1.0078121662587116,-8.454525372675139,-0.058747083409081746,8.395778289266056,-17.231540720749507,54.3601924532792,71.5917331740287,-19.054015690720412,52.37294696812152,71.42696265884193,5.557442626059448,0,-5.557442626059448,-3.2308662097363072,1.4251482818670453,-1.0078121662587116,0.4612965223873805,0.03359556198120117,1.2062079906463623,GUIDED_NOGPS
0.002,8e-05,0.0,-8.11240694529564,-0.03974952086059415,-0.0006489925556236513,-0.0,-0.0403985134162178,0.05,0.003,0.1,-8.504985709777488,-0.9019040937992934,-0.025514957129332463,-2.3949075726338456,-3.3223266235624713,0.08,0.002,0.06,-4.760872370742613,-0.6956025071758936,-0.009521744741485226,-0.4284886577321521,-1.1336129096495309,0.6,0,0.4,7.124776606879474,3.21968582771416,0.0,-2.272145987819375,0.9475398398947852,-8.69503133969867,-0.22542460985684087,8.469606729841828,-18.038081875985867,54.50719038318398,72.54527225916985,-19.874760430297073,51.91609801526923,71.7908584455663,5.366143046190267,0,-5.366143046190267,-3.2017507136876433,1.4393487381301142,-0.9475398398947852,0.4596014865837822,0.03367733955383301,1.2398991584777832,GUIDED_NOGPS
0.002,8e-05,0.0,-9.216009848291128,-0.04133138146808148,-0.0007372807878632902,-0.0,-0.042068662255944765,0.05,0.003,0.1,-9.510719095068747,-0.9416509799364854,-0.028532157285206243,-1.4885732074876556,-2.4587563447093475,0.08,0.002,0.06,-5.240488952997929,-0.7184908943536192,-0.010480977905995857,-0.3214500860309415,-1.0504219582905567,0.6,0,0.4,7.4002514472452,3.0950686196395214,0.0,-1.5556928282929796,1.5393757913465418,-8.98113617942024,-0.39304155938312224,8.588094620037117,-18.833019598729706,54.6407761361032,73.4737957348329,-20.665690734040737,51.45598634638387,72.1216770804246,5.158447699399202,0,-5.158447699399202,-2.354354280312454,1.2672351699198796,-1.5393757913465418,0.45793133774405526,0.05340266227722168,1.2932896614074707,GUIDED_NOGPS
0.002,8e-05,0.0,-9.498541965185566,-0.043370197376573716,-0.0007598833572148454,-0.0,-0.04413008073378856,0.05,0.003,0.1,-9.772807019087397,-1.0057975991940222,-0.029318421057262192,-9.846850576915982,-10.881966597167265,0.08,0.002,0.06,-5.361977562927146,-0.7459661647747302,-0.010723955125854293,-1.5816005905403905,-2.338290710440975,0.6,0,0.4,7.4640691489445645,2.938907989552419,0.0,-7.990498477096684,-5.0515904875442645,-9.324577059684128,-0.5614657861220538,8.763111273562075,-20.115951983880443,54.760983731482064,74.8769357153625,-21.685098688286857,50.992722001175565,72.67782068946242,4.898179982587365,0,-4.898179982587365,-3.7857364431812583,2.6712923893321516,5.0515904875442645,0.45586991926621145,0.013028860092163086,1.306318998336792,GUIDED_NOGPS
0.002,8e-05,0.0,-10.237994870268786,-0.04437896128153749,-0.0008190395896215029,-0.0,-0.045198000871158994,0.05,0.003,0.1,-10.453304986178665,-1.0210181313139064,-0.031359914958535996,-0.9134745444765274,-1.9658525907489697,0.08,0.002,0.06,-5.679234717235996,-0.761619455171585,-0.011358469434471993,-0.3522926022444768,-1.1252705268505339,0.6,0,0.4,7.622983232747189,2.861213441865098,0.0,-1.5543037741820465,1.3069096676830516,-9.520243189644813,-0.7305680024857297,8.789675187159082,-20.420362626278127,54.86786279975407,75.2882254260322,-22.189480640768743,50.52641538847832,72.71589602924706,4.768689069775164,0,-4.768689069775164,-1.8655002543664434,1.2848030853448515,-1.3069096676830516,0.454801999128841,0.033324480056762695,1.3396413326263428,GUIDED_NOGPS
0.002,8e-05,0.0,-11.185770957876827,-0.045854992794707214,-0.0008948616766301462,-0.0,-0.04674985447133736,0.05,0.003,0.1,-11.333811250852133,-1.0650091553848633,-0.0340014337525564,-2.12835934371004,-3.22736993284746,0.08,0.002,0.06,-6.086344600947394,-0.7878662915564292,-0.012172689201894788,-0.4761996962073949,-1.2762386769657188,0.6,0,0.4,7.810173205369002,2.7169692160553134,0.0,-2.326258990798397,0.39071022525691657,-9.848328644455364,-0.9002217627678348,8.94810688168753,-21.300183107697265,54.961478193498124,76.26166130119539,-22.927496397353607,50.05717726045965,72.98467365781326,4.5282820267588555,0,-4.5282820267588555,-3.11653509689855,1.5270595384039793,-0.39071022525691657,0.45325014552866266,0.04133796691894531,1.3810267448425293,GUIDED_NOGPS
0.002,8e-05,0.0,-11.978107848691124,-0.04743745106435476,-0.00095824862789529,-0.0,-0.048395699692250056,0.05,0.003,0.1,-12.080277966798295,-1.117279742978828,-0.036240833900394884,-3.1294560051917557,-4.282976582070979,0.08,0.002,0.06,-6.421935475415565,-0.8036771161250408,-0.012843870950831131,-0.35497458157751016,-1.1714955686533821,0.6,0,0.4,7.953198491384051,2.5688902353132144,0.0,-2.955177898041854,-0.3862876627286398,-10.04596395156301,-1.0703034467472774,8.975660504815734,-22.345594859576558,55.04190959859566,77.38750445817222,-23.71872553217738,49.58511868683015,73.30384421900753,4.281483725522024,0,-4.281483725522024,-3.9013775341396886,1.4668521409755777,0.3862876627286398,0.45160430030774995,0.03340554237365723,1.414440393447876,GUIDED_NOGPS
0.002,8e-05,0.0,-12.808811815911358,-0.048819181344089954,-0.0010247049452729088,-0.0,-0.049843886289362864,0.05,0.003,0.1,-12.869521466958103,-1.1595653529824446,-0.03860856440087431,-2.4850595933951194,-3.683233510778438,0.08,0.002,0.06,-6.77017019036446,-0.8186085233846229,-0.013540340380728922,-0.32906085116905087,-1.1612097149344027,0.6,0,0.4,8.091250332843112,2.4339276622072394,0.0,-2.64384690219366,-0.2099192399864207,-10.232606542307785,-1.2406922432918082,8.991914299015976,-23.191307059648892,55.10925114538777,78.30055820503667,-24.409590672044978,49.110351029053085,73.51994170109806,4.056546103678732,0,-4.056546103678732,-3.5918609022933574,1.4188560024032195,0.2099192399864207,0.45015611371063713,0.03403186798095703,1.4484269618988037,GUIDED_NOGPS
0.002,8e-05,0.0,-13.722858039935858,-0.050219578514823074,-0.0010978286431948688,-0.0,-0.05131740715801794,0.05,0.003,0.1,-13.744720548257348,-1.2021309159259344,-0.04123416164477205,-2.338639528377863,-3.582004605948569,0.08,0.002,0.06,-7.14936795469697,-0.8333561869418732,-0.01429873590939394,-0.30385010699839604,-1.1515050298496632,0.6,0,0.4,8.23034301444178,2.292611356226481,0.0,-2.5880694495508854,-0.2954580933244042,-10.416952336773415,-1.4112701339616613,9.005682202811753,-24.042618318518684,55.16361101983238,79.20622933835106,-25.109789257411535,48.63298591455401,73.74277517196555,3.8210189270441353,0,-3.8210189270441353,-3.4973059022798156,1.3876499042210195,0.2954580933244042,0.4486825928419821,0.036401987075805664,1.4848299026489258,GUIDED_NOGPS
0.002,8e-05,0.0,-14.643813844369054,-0.05150701532578671,-0.0011715051075495244,-0.0,-0.052678520433336234,0.05,0.003,0.1,-14.636236467376344,-1.246512696054564,-0.043908709402129036,-2.4821745172429104,-3.7725959226996038,0.08,0.002,0.06,-7.528602874715745,-0.8483907151007032,-0.015057205749431491,-0.31531792916874324,-1.1787658500188778,0.6,0,0.4,8.359612786960808,2.168931491255328,0.0,-2.305713502535576,-0.13678201128024803,-10.604883938758789,-1.58192187661317,9.022962062145618,-24.93025392109128,55.20511107466132,80.1353649957526,-25.753507662893355,48.15313521093037,73.90664287382373,3.6148858187588804,0,-3.6148858187588804,-3.690768931123882,1.4142820164985064,0.13678201128024803,0.4473214795666638,0.03576040267944336,1.5206327438354492,GUIDED_NOGPS
0.002,8e-05,0.0,-15.515168431653692,-0.052759066157557155,-0.0012412134745322955,-0.0,-0.05400027963208945,0.05,0.003,0.1,-15.490206451319956,-1.2926614359101176,-0.04647061935395987,-2.7942291859785815,-4.133361241242659,0.08,0.002,0.06,-7.88540643280848,-0.8641544005789296,-0.015770812865616962,-0.3579243185706357,-1.2378495320151823,0.6,0,0.4,8.4727731157552,2.05550072050886,0.0,-2.2893479590839663,-0.23384723857510625,-10.801930007236619,-1.7525349890024025,9.049395018234216,-25.853228718202352,55.23388644053748,81.08711515873983,-26.37953307877858,47.67091100016107,74.05044407893965,3.425834534181434,0,-3.425834534181434,-3.9188824210201747,1.474663362984672,0.23384723857510625,0.4459997203679106,0.033031463623046875,1.5536258220672607,GUIDED_NOGPS
0.002,8e-05,0.0,-16.81617687442735,-0.05389190573857404,-0.001345294149954188,-0.0,-0.055237199888528224,0.05,0.003,0.1,-16.78101293451154,-1.3367327034902947,-0.05034303880353462,-1.825572010237584,-3.2126477525314137,0.08,0.002,0.06,-8.416812832342554,-0.8805016985596233,-0.01683362566468511,-0.2539338945346509,-1.1512692187589595,0.6,0,0.4,8.626821033114561,1.9143463413324073,0.0,-1.9490210432318158,-0.03467470189940847,-11.006271231995292,-1.9229997323887895,9.083271499606504,-26.73465406980589,55.25008513721199,81.98473920701788,-26.94595286928702,47.18642555281607,74.13237842210309,3.1905772355540125,0,-3.1905772355540125,-3.143591387745508,1.3282919794982122,0.03467470189940847,0.4447628001114718,0.04828214645385742,1.6019043922424316,GUIDED_NOGPS
0.002,8e-05,0.0,-17.59458191916474,-0.05520713905090962,-0.0014075665535331792,-0.0,-0.056614705604442796,0.05,0.003,0.1,-17.563612698917414,-1.3876160716988952,-0.05269083809675224,-3.6088219148406964,-5.049128824636344,0.08,0.002,0.06,-8.731712937076628,-0.8933515519578924,-0.017463425874153254,-0.3417582761722909,-1.2525732540043366,0.6,0,0.4,8.711218004201257,1.7957162597131002,0.0,-2.8045499173194384,-1.0088336576063381,-11.166894399473655,-2.093209095138749,9.073685304334907,-27.752321433977905,55.25386768468126,83.00618911865917,-27.60356952545481,46.69979130226603,74.30336082772084,2.992860432855167,0,-2.992860432855167,-3.9291454435549724,1.4597108754949424,1.0088336576063381,0.4433852943955572,0.028199434280395508,1.6301851272583008,GUIDED_NOGPS
0.002,8e-05,0.0,-18.275984420172673,-0.0562627931608362,-0.001462078753613814,-0.0,-0.05772487191445001,0.05,0.003,0.1,-18.25430001864659,-1.425735807810111,-0.05476290005593977,-3.147512410063814,-4.628011117929865,0.08,0.002,0.06,-9.003625657636452,-0.8980635751719662,-0.018007251315272903,-0.1459003234525498,-1.061971149939789,0.6,0,0.4,8.781023629383773,1.7291363527271548,0.0,-1.8324810616715308,-0.10334470894437597,-11.225794689649577,-2.2630587763293164,8.96273591332026,-28.51471615620222,55.24540671434418,83.7601228705464,-28.131396580418098,46.21112081889186,74.34251739930995,2.881893921211925,0,-2.881893921211925,-3.9415481052894483,1.2617373962095269,0.10334470894437597,0.44227512808555,0.024222135543823242,1.6543292999267578,GUIDED_NOGPS
0.002,8e-05,0.0,-19.22083333854075,-0.05703858140887021,-0.0015376666670832602,-0.0,-0.05857624807595348,0.05,0.003,0.1,-19.22012552217921,-1.4576223653078224,-0.05766037656653763,-1.9249257424384458,-3.440208484312806,0.08,0.002,0.06,-9.377126421440353,-0.9018988457667831,-0.01875425284288071,-0.08682276729437874,-1.0074758659040426,0.6,0,0.4,8.873069801578183,1.6669912990387237,0.0,-1.2505229266665783,0.4164683723721454,-11.273735572084789,-2.4324471693517706,8.841288402733017,-29.152447306156446,55.22488658015925,84.3773338863157,-28.519290704435107,45.720526784294336,74.23981748872944,2.778318831731206,0,-2.778318831731206,-3.3873305155060893,1.1730447624187945,-0.4164683723721454,0.44142375192404654,0.03313016891479492,1.687462329864502,GUIDED_NOGPS
0.002,8e-05,0.0,-20.20698261650837,-0.05790456396935108,-0.0016165586093206698,-0.0,-0.059521122578671745,0.05,0.003,0.1,-20.241611855959256,-1.4994869965347875,-0.06072483556787777,-2.4582010767488374,-4.018412908851502,0.08,0.002,0.06,-9.763008140664839,-0.9063257741865364,-0.01952601628132968,-0.09747739221501504,-1.023329182682881,0.6,0,0.4,8.962654025905293,1.5780578754418986,0.0,-1.740659766470245,-0.16260189102834643,-11.329072177331705,-2.601275345515271,8.727796831816434,-29.989739930695748,55.192502969801666,85.18224290049741,-28.952281984675537,45.228121965503675,74.18040395017921,2.630096459069831,0,-2.630096459069831,-3.9488281679010484,1.2058021050411472,0.16260189102834643,0.44047887742132824,0.03406119346618652,1.7215266227722168,GUIDED_NOGPS
0.002,8e-05,0.0,-21.1970916471957,-0.058732774235195795,-0.001695767331775656,-0.0,-0.06042854156697145,0.05,0.003,0.1,-21.280793712961614,-1.5410937458640643,-0.06384238113888484,-2.468091633625853,-4.073027760628802,0.08,0.002,0.06,-10.147613380077338,-0.9125836446681659,-0.02029522676015468,-0.13920515928009494,-1.0720840307084156,0.6,0,0.4,9.046838020599633,1.498125782521339,0.0,-1.5805106381031333,-0.08238485558179431,-11.407295558352073,-2.769447037650467,8.637848520701606,-30.821874917281285,55.148462515820505,85.97033743310179,-29.366387117597895,44.73401918918917,74.10040630678706,2.4968763042022317,0,-2.4968763042022317,-3.9494971372162624,1.245325873826024,0.08238485558179431,0.43957145843302853,0.03371572494506836,1.755265712738037,GUIDED_NOGPS
0.002,8e-05,0.0,-22.222160907429505,-0.05948246563378605,-0.0017777728725943604,-0.0,-0.06126023850638041,0.05,0.003,0.1,-22.370628793918076,-1.5810170167111721,-0.06711188638175423,-2.316657691607863,-3.964786594700789,0.08,0.002,0.06,-10.541507685652318,-0.9142720556994837,-0.021083015371304636,-0.03674051173009065,-0.9720955828008789,0.6,0,0.4,9.129489032346674,1.4388157434512365,0.0,-1.1472094285353314,0.29160631491590516,-11.428400696243546,-2.9368686237131527,8.491532072530394,-31.620340334223442,55.09298240679581,86.71332274101925,-29.741232816893024,44.23833131586877,73.9795641327618,2.3980262390853944,0,-2.3980262390853944,-3.920640840313388,1.1371358603468584,-0.29160631491590516,0.4387397614936196,0.03446626663208008,1.789717435836792,GUIDED_NOGPS
0.002,8e-05,0.0,-23.21878379482682,-0.06021737116868379,-0.0018575027035861457,-0.0,-0.06207487387226993,0.05,0.003,0.1,-23.44292343553067,-1.619739152409071,-0.07032877030659201,-2.339646467335173,-4.029714390050836,0.08,0.002,0.06,-10.920498371583276,-0.915966233277178,-0.021840996743166554,-0.038386731322252496,-0.976193961342597,0.6,0,0.4,9.205654245716449,1.380603129316238,0.0,-1.1724296242152261,0.20817350510101185,-11.449577915964724,-3.10344911038787,8.346128805576853,-32.39478304818142,55.02628999849578,87.4210730466772,-30.10868558434189,43.74117121411866,73.84985679846055,2.3010052155270633,0,-2.3010052155270633,-3.9575812371178776,1.1360041380973398,-0.20817350510101185,0.43792512612773005,0.03310084342956543,1.8228185176849365,GUIDED_NOGPS
0.002,8e-05,0.0,-24.30653177756469,-0.0609837355387052,-0.0019445225422051752,-0.0,-0.06292825808091038,0.05,0.003,0.1,-24.624067198478183,-1.65549741336869,-0.07387220159543455,-2.004758789987951,-3.7341284049520755,0.08,0.002,0.06,-11.32952368029272,-0.9172672953964944,-0.02265904736058544,-0.027353634342343582,-0.9672799770994235,0.6,0,0.4,9.285118390205575,1.336528437442899,0.0,-0.82367098378441,0.512857453658489,-11.46584119245618,-3.2691001166915505,8.19674107576463,-33.109948267373795,54.94862242503383,88.05857069240763,-30.491867769352602,43.24265173478286,73.73451950413546,2.227547395738165,0,-2.227547395738165,-3.693710216467183,1.1116880567557375,-0.512857453658489,0.4370717419190896,0.03567337989807129,1.8585484027862549,GUIDED_NOGPS
0.002,8e-05,0.0,-25.28727374969378,-0.06172764070631652,-0.0020229818999755026,-0.0,-0.06375062260629202,0.05,0.003,0.1,-25.699067573656972,-1.6915059925022093,-0.07709720272097091,-2.2663704605947954,-4.034973655817976,0.08,0.002,0.06,-11.69460148450032,-0.9191160231087357,-0.023389202969000638,-0.043634412730894176,-0.9861396388086305,0.6,0,0.4,9.3536059327851,1.2931763526026867,0.0,-0.9095229234375811,0.3836534291651056,-11.488950288859197,-3.4337358575771413,8.055214431282055,-33.830119850044184,54.8602262100258,88.69034606006998,-30.86382035315826,42.742885685182856,73.60670603834112,2.155293921004478,0,-2.155293921004478,-3.9600834176288,1.1358744264446743,-0.3836534291651056,0.43624937739370795,0.03177642822265625,1.8902671337127686,GUIDED_NOGPS
0.002,8e-05,0.0,-26.30248299010371,-0.06255328849648262,-0.002104198639208297,-0.0,-0.06465748713569092,0.05,0.003,0.1,-26.819917238248074,-1.726561127488417,-0.08045975171474422,-2.159962581890963,-3.9669834610941246,0.08,0.002,0.06,-12.065773168809281,-0.9148068605415302,-0.024131546337618562,0.0995677584907831,-0.8393706483883656,0.6,0,0.4,9.421303183737205,1.2513732639536919,0.0,-0.858581843761505,0.3927914201921868,-11.435085756769126,-3.5972731275372256,7.8378126292319,-34.53122254976834,54.761356877747,89.29257942751534,-31.27664424824131,42.24198580332718,73.5186300515685,2.0856221065894864,0,-2.0856221065894864,-3.9338084025844005,0.9831847831036605,-0.3927914201921868,0.4353425128643091,0.03245902061462402,1.922717809677124,GUIDED_NOGPS
0.002,8e-05,0.0,-27.40804808649985,-0.0632184881537113,-0.0021926438469199883,-0.0,-0.06541113200063128,0.05,0.003,0.1,-28.051794639749986,-1.7610321447270172,-0.08415538391924995,-1.9711237285334642,-3.8163112571797315,0.08,0.002,0.06,-12.459221051993925,-0.8999263968550162,-0.024918442103987852,0.31908583007259844,-0.6057590088864055,0.6,0,0.4,9.493236195740122,1.2339833127848117,0.0,-0.3314644023969049,0.9025189103879068,-11.249079960687702,-3.7596312842076687,7.489448676480034,-35.22064289454034,54.652278564289425,89.87292145882977,-31.609244076855646,41.74006473212097,73.34930880897662,2.0566388546413528,0,-2.0566388546413528,-3.792113816696668,0.7423263364195098,-0.9025189103879068,0.4345888679993687,0.03497600555419922,1.957700490951538,GUIDED_NOGPS
0.002,8e-05,0.0,-28.523990616716702,-0.06375018343878001,-0.0022819192493373362,-0.0,-0.06603210268811735,0.05,0.003,0.1,-29.309683404691327,-1.7964778055149528,-0.08792905021407399,-2.0248958312401313,-3.9093026869691583,0.08,0.002,0.06,-12.848354628978074,-0.8891976510692701,-0.025696709257956148,0.2298369405422399,-0.6850574197849864,0.6,0,0.4,9.563888045876604,1.2108334303598849,0.0,-0.4408259419621066,0.7700074883977783,-11.114970638365875,-3.92073223197122,7.194238406394655,-35.92955611029905,54.53326362871885,90.4628197390179,-31.875091719390007,41.23723499357563,73.11232671296564,2.018055717266475,0,-2.018055717266475,-3.8827541473535065,0.8222964173312997,-0.7700074883977783,0.4339678973118827,0.03500986099243164,1.9927144050598145,GUIDED_NOGPS
0.002,8e-05,0.0,-29.561458446318245,-0.06430595654621184,-0.00236491667570546,-0.0,-0.0666708732219173,0.05,0.003,0.1,-30.48951780668922,-1.8282586125042046,-0.09146855342006767,-1.969887773811059,-3.8896149397353312,0.08,0.002,0.06,-13.20385041036142,-0.8813958608732633,-0.026407700820722843,0.18134354399202057,-0.7264600177019656,0.6,0,0.4,9.629619666502883,1.222284089906388,0.0,0.23658424040184603,1.4588683303082342,-11.01744826091579,-4.080500405561177,6.936947855354613,-36.56517225008409,54.40459226423195,90.96976451431604,-32.152978273105916,40.73360896301837,72.88658723612429,2.0371401498439803,0,-2.0371401498439803,-3.8613329808427417,0.8642662482059175,-1.4588683303082342,0.4333291267780827,0.03226661682128906,2.024989366531372,GUIDED_NOGPS
0.002,8e-05,0.0,-30.640141176425637,-0.06482906624473023,-0.0024512112941140513,-0.0,-0.06728027753884427,0.05,0.003,0.1,-31.72485331037459,-1.8560982985912995,-0.09517455993112378,-1.673171177398086,-3.6244440359205092,0.08,0.002,0.06,-13.567273533816696,-0.8736723445272262,-0.027134547067633394,0.17406937839462486,-0.7267375132002347,0.6,0,0.4,9.697392181331733,1.2219428560724426,0.0,-0.006836075832231119,1.2151067802402113,-10.920904306590327,-4.238862753664969,6.682041552925357,-37.121965971825986,54.266552109313466,91.38851808113945,-32.414533122365114,40.229298843301834,72.64383196566695,2.0365714267874044,0,-2.0365714267874044,-3.5963282900535423,0.8550817579464401,-1.2151067802402113,0.43271972246115575,0.03327775001525879,2.058270215988159,GUIDED_NOGPS
0.002,8e-05,0.0,-31.745383196193025,-0.06527116089237127,-0.002539630655695442,-0.0,-0.06781079154806671,0.05,0.003,0.1,-33.002566289789186,-1.886415100992833,-0.09900769886936756,-1.7903887582098847,-3.7758115580720855,0.08,0.002,0.06,-13.928861715020632,-0.8541579103953788,-0.027857723430041264,0.43216657997611924,-0.4498490538493008,0.6,0,0.4,9.766335111991847,1.2214478925950338,0.0,-0.009743519275111195,1.2117043733199226,-10.676973879942235,-4.3957487225278244,6.28122515741441,-37.728302019856656,54.11943785889328,91.84773987874993,-32.635580446185635,39.724416639013704,72.35999708519934,2.0357464876583897,0,-2.0357464876583897,-3.7574484987285652,0.583693303646968,-1.2117043733199226,0.4321892084519333,0.033866167068481445,2.0921528339385986,GUIDED_NOGPS
0.002,8e-05,0.0,-32.85048902485879,-0.06572116972239371,-0.0026280391219887034,-0.0,-0.06834920884438242,0.05,0.003,0.1,-34.29112906771771,-1.9157860457682183,-0.10287338720315314,-1.746704067990196,-3.7653635009615676,0.08,0.002,0.06,-14.27988589902895,-0.8350230131978718,-0.0285597717980579,0.42673554210286274,-0.4368472428930669,0.6,0,0.4,9.834877615919073,1.2228766015751789,0.0,0.028322001064635234,1.251198602639814,-10.437787664973397,-4.551090239556376,5.8866974254170215,-38.315720915364366,53.96355087550363,92.279271790868,-32.860584861196855,39.219074130686266,72.07965899188312,2.0381276692919648,0,-2.0381276692919648,-3.7474451934121555,0.5704842945857157,-1.251198602639814,0.43165079115561755,0.0336301326751709,2.1257715225219727,GUIDED_NOGPS
0.002,8e-05,0.0,-34.02199865696547,-0.06606922727097853,-0.002721759892557238,-0.0,-0.06879098716353577,0.05,0.003,0.1,-35.6681264535898,-1.9414512425972419,-0.1070043793607694,-1.4474313106601415,-3.495886932618153,0.08,0.002,0.06,-14.641724434651461,-0.8162593559713844,-0.029283448869302925,0.3968278300139424,-0.44871497482674494,0.6,0,0.4,9.907430915518727,1.2275290725238595,0.0,0.08746126993061948,1.3149903424544789,-10.203241949642305,-4.704821696922305,5.498420252719999,-38.82902485194484,53.79919880043617,92.62822365238101,-33.034613635489265,38.71338284900604,71.7479964844953,2.045881787539766,0,-2.045881787539766,-3.4776394841144787,0.5732313606320785,-1.3149903424544789,0.43120901283646423,0.03546309471130371,2.1612696647644043,GUIDED_NOGPS
0.002,8e-05,0.0,-35.62703215549903,-0.06641409596141912,-0.0028501625724399226,-0.0,-0.06926425853385904,0.05,0.003,0.1,-37.57126294340074,-1.9687297738250198,-0.11271378883020222,-1.1287483982754623,-3.2101919609306844,0.08,0.002,0.06,-15.126085282553415,-0.8016876373460218,-0.03025217056510683,0.2261091871272075,-0.6058306207839211,0.6,0,0.4,10.005878335643127,1.222085971402413,0.0,-0.07507603227341579,1.1470099391289972,-10.021095466825273,-4.856879935165947,5.164215531659325,-39.374595476500396,53.62669516489911,93.0012906413995,-33.20704798070956,38.207454049023355,71.41450202973292,2.036809952337355,0,-2.036809952337355,-3.1866315986995843,0.7195430642239248,-1.1470099391289972,0.43073574146614096,0.04833412170410156,2.2095916271209717,GUIDED_NOGPS
0.002,8e-05,0.0,-36.96174559800284,-0.06666699134535144,-0.0029569396478402277,-0.0,-0.06962393099319167,0.05,0.003,0.1,-39.1730634600437,-2.000190036666058,-0.1175191903801311,-1.571394281166081,-3.68910350821227,0.08,0.002,0.06,-15.51724385758018,-0.7815120311383166,-0.03103448771516036,0.3779032978924779,-0.43464322096099905,0.6,0,0.4,10.087139782128544,1.2176672483476338,0.0,-0.07356959236080228,1.1440976559868317,-9.768900389228957,-5.007204226799943,4.761696162429013,-40.003800733321164,53.446359001174436,93.4501597344956,-33.33349567267572,37.701398684361955,71.03489435703767,2.029445413912723,0,-2.029445413912723,-3.6713974899720956,0.5650131807825596,-1.1440976559868317,0.43037606900680836,0.040041208267211914,2.2496142387390137,GUIDED_NOGPS
0.002,8e-05,0.0,-37.32781516135871,-0.06691392982924121,-0.0029862252129086967,-0.0,-0.06990015504214991,0.05,0.003,0.1,-39.61629608573041,-2.0254645415849013,-0.11884888825719124,-4.619931887000914,-6.764245316843006,0.08,0.002,0.06,-15.621115576368613,-0.7594693028871276,-0.031242231152737228,1.5109480400975435,0.7202365060576786,0.6,0,0.4,10.109998934591092,1.2535287362975127,0.0,2.1850428884355897,3.438571624733102,-9.493366286089094,-5.155736259912861,4.337630026176233,-40.509290831698024,53.25851445377488,93.7678052854729,-33.456964914620606,37.19532738142858,70.65229229604918,2.0892145604958547,0,-2.0892145604958547,-4.023597744714969,-0.5739353738730388,-3.438571624733102,0.4300998449578501,0.010941505432128906,2.2605605125427246,GUIDED_NOGPS
0.002,8e-05,0.0,-38.44363198828935,-0.06741826718327973,-0.003075490559063148,-0.0,-0.07049375774234287,0.05,0.003,0.1,-40.961583029104894,-2.032074449802053,-0.12288474908731468,-0.39937429467408564,-2.5543334935634534,0.08,0.002,0.06,-15.933105708249478,-0.7540246234697894,-0.03186621141649896,0.12336394832893435,-0.6625268865573539,0.6,0,0.4,10.18171136051264,1.299871280245698,0.0,0.9333473423369336,2.2332186225826316,-9.425307793372367,-5.302420121772811,4.122887671599556,-40.64148899604106,53.06349039060122,93.70497938664228,-33.70913359163986,36.689350413622584,70.39848400526245,2.16645213374283,0,-2.16645213374283,-2.52746239810763,0.7586140638714037,-2.2332186225826316,0.4295062422576571,0.03310132026672363,2.293673038482666,GUIDED_NOGPS
0.002,8e-05,0.0,-39.56706223616001,-0.0678401609957877,-0.0031653649788928014,-0.0,-0.0710055259746805,0.05,0.003,0.1,-42.321657042914694,-2.053256983197824,-0.12696497112874408,-1.279141698909605,-3.459363653236173,0.08,0.002,0.06,-16.23680607451346,-0.7335776041593701,-0.03247361214902692,0.4630224321443085,-0.3030287841640885,0.6,0,0.4,10.254613669655843,1.3206973192897893,0.0,0.41920473607020015,1.7399020553599893,-9.169720051992126,-5.447202282431095,3.72251776956103,-41.06513966395647,52.86162001409929,93.92675967805576,-33.92008049789385,36.183577675545536,70.10365817343938,2.2011621988163155,0,-2.2011621988163155,-3.4451723653815076,0.4356727007457256,-1.7399020553599893,0.4289944740253195,0.033119916915893555,2.3267805576324463,GUIDED_NOGPS
0.002,8e-05,0.0,-40.78077215149071,-0.06833066023330321,-0.003262461772119257,-0.0,-0.07159312200542246,0.05,0.003,0.1,-43.7946799936206,-2.073243150796827,-0.1313840399808618,-1.125201343684554,-3.3298285344622434,0.08,0.002,0.06,-16.556287957173428,-0.7194604805971682,-0.03311257591434685,0.2980425021917862,-0.4545305543197288,0.6,0,0.4,10.33479687125609,1.3542703332382622,0.0,0.6300424234116381,1.9843127566499001,-8.993256007464602,-5.590031578325813,3.403224429138789,-41.464863015936544,52.65324047241718,94.11810348835373,-34.1653301166516,35.67811865721079,69.84344877386239,2.2571172220637705,0,-2.2571172220637705,-3.3093438892505658,0.5853196702735274,-1.9843127566499001,0.42840687799457755,0.035524606704711914,2.3623082637786865,GUIDED_NOGPS
0.002,8e-05,0.0,-41.943421405154616,-0.0687630615185185,-0.0033554737124123694,-0.0,-0.07211853523093087,0.05,0.003,0.1,-45.209179120486844,-2.0914581541268404,-0.13562753736146055,-1.077297723792969,-3.3043834152812703,0.08,0.002,0.06,-16.853561113376482,-0.7032701311552719,-0.03370712222675296,0.3590822827169408,-0.3778949706650841,0.6,0,0.4,10.413307020995353,1.3930077981823277,0.0,0.763688812891755,2.1566966110740826,-8.7908766394409,-5.73085919588551,3.060017443555389,-41.82916308253681,52.43869247056236,94.26785555309917,-34.38153075925925,35.1730824182531,69.55461317751235,2.321679663637213,0,-2.321679663637213,-3.2863624992646465,0.5114449016921601,-2.1566966110740826,0.42788146476906913,0.03381609916687012,2.396122455596924,GUIDED_NOGPS
0.002,8e-05,0.0,-43.045503225243124,-0.0691866847223084,-0.00344364025801945,-0.0,-0.07263032498032786,0.05,0.003,0.1,-46.552832355255504,-2.108802428175965,-0.13965849706576652,-1.0888418613762567,-3.3373027866179887,0.08,0.002,0.06,-17.125828010691013,-0.6836967506934729,-0.034251656021382026,0.46079290970367387,-0.25715549701118107,0.6,0,0.4,10.489582823991832,1.4365366992718795,0.0,0.9108883149134087,2.3474250141852884,-8.546209383668412,-5.869638655132786,2.6765707285356264,-42.1760485635193,52.21831988155874,94.39436844507804,-34.5933423611542,34.668577562138225,69.26191992329242,2.394227832119799,0,-2.394227832119799,-3.3236467966826395,0.3963468305821134,-2.3474250141852884,0.42736967501967216,0.031858205795288086,2.428001880645752,GUIDED_NOGPS
0.002,8e-05,0.0,-44.18765538499649,-0.06965363710369368,-0.0035350124307997194,-0.0,-0.0731886495344934,0.05,0.003,0.1,-47.94605119796857,-2.1241206534451473,-0.14383815359390573,-0.9341750964272878,-3.2021339034663407,0.08,0.002,0.06,-17.398328844714285,-0.664733644862501,-0.03479665768942857,0.4336711884106636,-0.2658591141412659,0.6,0,0.4,10.570181970646933,1.4745908408195316,0.0,0.7735715838495401,2.2481624246690717,-8.309170560781261,-6.006325793287954,2.3028447674933084,-42.48241306890294,51.99246935760395,94.4748824265069,-34.82681855184684,34.1647122103725,68.99153076221934,2.457651401365886,0,-2.457651401365886,-3.1877882515887643,0.4029251386215722,-2.2481624246690717,0.4268113504655066,0.03279519081115723,2.46077823638916,GUIDED_NOGPS
0.002,8e-05,0.0,-45.358844249970936,-0.07009992210054483,-0.003628707539997675,-0.0,-0.07372862964054251,0.05,0.003,0.1,-49.37460459110957,-2.1376031776445807,-0.14812381377332873,-0.8069782119381919,-3.0927052033561013,0.08,0.002,0.06,-17.66841530324388,-0.6466263561598856,-0.03533683060648776,0.4064202086013796,-0.27554297816499373,0.6,0,0.4,10.653494852924581,1.4959738942947522,0.0,0.4266178944923207,1.922591788787073,-8.08282945199857,-6.140878748372628,1.9419507036259431,-42.75206355289161,51.7614899412263,94.51355349411791,-35.049961050272415,33.66159397671245,68.71155502698487,2.493289823824587,0,-2.493289823824587,-3.077790634684684,0.4098221769611616,-1.922591788787073,0.4262713703594575,0.03341484069824219,2.4941954612731934,GUIDED_NOGPS
