D-kp,D-ki,D-kd,D-I-Tot,D-P,D-I,D-D,D-PID,E-kp,E-ki,E-kd,E-I-Tot,E-P,E-I,E-D,E-PID,N-kp,N-ki,N-kd,N-I-Tot,N-P,N-I,N-D,N-PID,Y-kp,Y-ki,Y-kd,Y-I-Tot,Y-P,Y-I,Y-D,Y-PID,errorN,desiredN,actualN,errorE,desiredE,actualE,errorD,desiredD,actualD,errorY,desiredY,actualY,roll,pitch,yaw-rate,thrust,dt,Time,Mode
0.002,8e-05,0.0,0.01054551804985552,0.0003255746623330024,8.436414439884417e-07,0.0,0.00032641830377699084,0.05,0.004,0.04,-0.0056415037321286094,-0.004354292183548321,-2.256601492851444e-05,-0.05377250129034292,-0.05814935948881975,0.08,0.002,0.06,-0.004649421036607117,-0.005741713880269957,-9.298842073214233e-06,-0.06647456349265893,-0.0722255762150021,0.5,0,0,-0.0050254659432812715,-0.03878814605917392,-0.0,-0.0,-0.03878814605917392,-0.07177142350337445,0,0.07177142350337445,-0.08708584367096642,0,0.08708584367096642,0.16278733116650118,0.5,0.3372126688334988,-0.07757629211834784,0.0,0.07757629211834784,-0.05824709682421232,0.0721467780299294,0.03878814605917392,0.500326418303777,0.06478095054626465,0.06561875343322754,GUIDED_NOGPS
0.002,8e-05,0.0,0.014578099319881174,0.00023058029611666364,1.166247945590494e-06,-0.0,0.00023174654406225414,0.05,0.004,0.04,-0.008929394241636388,-0.0046999844300512315,-3.5717576966545555e-05,-0.007906580448246594,-0.012642282455264373,0.08,0.002,0.06,-0.007353736825852194,-0.006185238622339105,-1.4707473651704389e-05,-0.009510167884420625,-0.015710113980411434,0.5,0,0,0.06527102533522332,1.00487657219968,0.0,0.0,1.00487657219968,-0.0773154827792388,0,0.0773154827792388,-0.09399968860102462,0,0.09399968860102462,0.11529014805833182,0.5,0.3847098519416682,2.00975314439936,2.0928640278329307,0.08311088343357068,-0.012665057587149888,0.01569175908782636,-1.00487657219968,0.5002317465440622,0.03497767448425293,0.10017132759094238,GUIDED_NOGPS
0.002,8e-05,0.0,0.019454014567640326,0.00023391633013459146,1.5563211654112263e-06,0.0,0.0002354726513000027,0.05,0.004,0.04,-0.0127397812152059,-0.00456997144105231,-5.09591248608236e-05,0.002494888422880879,-0.0021260421430322547,0.08,0.002,0.06,-0.010538241286075969,-0.006110915049026946,-2.107648257215194e-05,0.0013370949320483433,-0.004794896599550754,0.5,0,0,0.23257111745091175,2.0065065526347103,0.0,0.0,2.0065065526347103,-0.07638643811283682,0,0.07638643811283682,-0.0913994288210462,0,0.0913994288210462,0.11695816506729573,0.5,0.3830418349327043,4.013013105269421,4.093032540812346,0.08001943554292579,-0.0021327366325677344,0.004791922688278287,-2.0065065526347103,0.5002354726513,0.041689395904541016,0.14200186729431152,GUIDED_NOGPS
0.002,8e-05,0.0,0.024916038429181848,0.0002108180670711891,1.9932830743345478e-06,-0.0,0.00021281135014552367,0.05,0.004,0.04,-0.01747610038529585,-0.004570199974322242,-6.99044015411834e-05,-3.5282850056984e-06,-0.004643632660869124,0.08,0.002,0.06,-0.014557429451543213,-0.006205153999455934,-2.9114858903086426e-05,-0.0013640049372639926,-0.007598273795623013,0.5,0,0,0.5348066870510981,2.9163511638929682,0.0,0.0,2.9163511638929682,-0.07756442499319918,0,0.07756442499319918,-0.09140399948644484,0,0.09140399948644484,0.10540903353559455,0.5,0.39459096646440545,5.8327023277859364,5.911915622135862,0.07921329434992573,-0.004654133082339506,0.0075918465615563355,-2.9163511638929682,0.5002128113501455,0.05181741714477539,0.19380497932434082,GUIDED_NOGPS
0.002,8e-05,0.0,0.02608948413643089,0.00016776439791043828,2.0871587309144713e-06,-0.0,0.00016985155664135275,0.05,0.004,0.04,-0.01877401213701322,-0.00463897439443986,-7.509604854805288e-05,-0.003932998045464056,-0.008647068488451969,0.08,0.002,0.06,-0.01566058343845328,-0.0063085991375036645,-3.132116687690656e-05,-0.005545978137547655,-0.011885898441928226,0.5,0,0,0.6381580267818513,3.6939662346660156,0.0,0.0,3.6939662346660156,-0.0788574892187958,0,0.0788574892187958,-0.0927794878887972,0,0.0927794878887972,0.08388219895521914,0.5,0.41611780104478086,7.387932469332031,7.468952709129846,0.08102023979781488,-0.008663867329298492,0.011873659002856914,-3.6939662346660156,0.5001698515566414,0.01398921012878418,0.20778822898864746,GUIDED_NOGPS
0.002,8e-05,0.0,0.033406449125778385,0.00018557173709206554,2.672515930062271e-06,0.0,0.0001882442530221278,0.05,0.004,0.04,-0.025991738652899193,-0.00457637165600223,-0.00010396695461159678,0.0006350883971977096,-0.0040452502134161175,0.08,0.002,0.06,-0.02184515146817563,-0.006274082404988937,-4.369030293635126e-05,0.0003282780166106523,-0.0059894946913146355,0.5,0,0,1.3176688486015378,4.308412154544874,0.0,0.0,4.308412154544874,-0.0784260300623617,0,0.0784260300623617,-0.0915274331200446,0,0.0915274331200446,0.09278586854603277,0.5,0.40721413145396723,8.616824309089749,8.695180719384028,0.078356410294279,-0.004053437525288689,0.0059839568994947525,-4.308412154544874,0.5001882442530221,0.07885861396789551,0.2867119312286377,GUIDED_NOGPS
0.002,8e-05,0.0,0.03417859610639458,3.06436410457952e-05,2.7342876885115664e-06,-0.0,3.337792873430677e-05,0.05,0.004,0.04,-0.031185423703517304,-0.005152950940410495,-0.00012474169481406923,-0.009152914701161342,-0.014430607336385907,0.08,0.002,0.06,-0.026338582896937038,-0.007133103060610271,-5.2677165793874076e-05,-0.012784250254130793,-0.019970030480534938,0.5,0,0,1.7938903073309584,4.72486450311687,0.0,0.0,4.72486450311687,-0.08916378825762838,0,0.08916378825762838,-0.10305901880820989,0,0.10305901880820989,0.0153218205228976,0.5,0.4846781794771024,9.44972900623374,9.536288510260055,0.08655950402631571,-0.014460760547469314,0.019948206683288706,-4.72486450311687,0.5000333779287343,0.05039525032043457,0.3370330333709717,GUIDED_NOGPS
0.002,8e-05,0.0,0.034435328711766494,1.731032277401623e-05,2.75482629694132e-06,-0.0,2.006514907095755e-05,0.05,0.004,0.04,-0.03422038747364747,-0.005115848295962662,-0.0001368815498945899,0.0010006656540273112,-0.004252064191829941,0.08,0.002,0.06,-0.02897194197736736,-0.007102221487777144,-5.7943883954734724e-05,0.0007808269903081392,-0.006379338381423739,0.5,0,0,2.0865616190255425,4.933376951467454,0.0,0.0,4.933376951467454,-0.0887777685972143,0,0.0887777685972143,-0.10231696591925322,0,0.10231696591925322,0.008655161387008115,0.5,0.4913448386129919,9.866753902934908,9.95502238601579,0.08826848308088163,-0.004261886995484126,0.0063727801871609965,-4.933376951467454,0.5000200651490709,0.029662370681762695,0.3666799068450928,GUIDED_NOGPS
0.002,8e-05,0.0,0.03526816250016964,2.6434681292497374e-05,2.8214530000135714e-06,0.0,2.9256134292510945e-05,0.05,0.004,0.04,-0.04050665807029101,-0.004988257022427289,-0.00016202663228116404,0.0016199317071793667,-0.0035303519475290857,0.08,0.002,0.06,-0.034440374710631376,-0.006942863197251523,-6.888074942126275e-05,0.001896800574145358,-0.005114943372527428,0.5,0,0,2.70686945936321,4.922242676418046,0.0,-0.0,4.922242676418046,-0.08678578996564404,0,0.08678578996564404,-0.09976514044854577,0,0.09976514044854577,0.013217340646248688,0.5,0.4867826593537513,9.844485352836092,9.932836109684285,0.08835075684819309,-0.003538235049201475,0.005109493449862413,-4.922242676418046,0.5000292561342925,0.06301069259643555,0.4298090934753418,GUIDED_NOGPS
0.002,8e-05,0.0,0.03431436407987194,-6.110696955662442e-05,2.7451491263897557e-06,-0.0,-5.836182043023467e-05,0.05,0.004,0.04,-0.04376476738703469,-0.0052184293503094205,-0.00017505906954813877,-0.0058985769459675985,-0.011292065365825159,0.08,0.002,0.06,-0.03725906844028223,-0.007223406047305596,-7.451813688056445e-05,-0.006740073308243776,-0.014037997492429937,0.5,0,0,2.999631606774374,4.689095528068257,0.0,-0.0,4.689095528068257,-0.09029257559131995,0,0.09029257559131995,-0.1043685870061884,0,0.1043685870061884,-0.030553484778312212,0.5,0.5305534847783122,9.378191056136513,9.470712338657458,0.0925212825209446,-0.011314719205985098,0.014019744759204755,-4.689095528068257,0.4,0.031217336654663086,0.4610023498535156,GUIDED_NOGPS
0.002,8e-05,0.0,0.032133832282505166,-8.968022199713333e-05,2.5707065826004135e-06,-0.0,-8.710951541453292e-05,0.05,0.004,0.04,-0.048827947448544684,-0.005205921698505041,-0.00019531178979417875,0.00020576429875210762,-0.005195469189547112,0.08,0.002,0.06,-0.041609033715212636,-0.0071561598323248415,-8.321806743042527e-05,0.001037130396680709,-0.006202247503074558,0.5,0,0,3.4128270555916114,4.248442928335582,0.0,-0.0,4.248442928335582,-0.08945199790406051,0,0.08945199790406051,-0.1041184339701008,0,0.1041184339701008,-0.04484011099856666,0.5,0.5448401109985667,8.496885856671163,8.589119101584899,0.09223324491373638,-0.005205446669094061,0.006193875940325691,-4.248442928335582,0.4,0.048629045486450195,0.5095999240875244,GUIDED_NOGPS
0.002,8e-05,0.0,0.028273481798633197,-0.00014437152847626767,2.261878543890656e-06,-0.0,-0.00014210964993237703,0.05,0.004,0.04,-0.054475969601712075,-0.005280696626687698,-0.0002179038784068483,-0.0011185896947476692,-0.006617190199842216,0.08,0.002,0.06,-0.04642446779127005,-0.007203610975134143,-9.284893558254011e-05,-0.0006654765587942148,-0.007961936469510898,0.5,0,0,3.799664526249859,3.616790570192489,0.0,-0.0,3.616790570192489,-0.09004513718917678,0,0.09004513718917678,-0.10561393253375395,0,0.10561393253375395,-0.07218576423813383,0.5,0.5721857642381338,7.233581140384978,7.327103244279351,0.09352210389437207,-0.006630177398164168,0.007951124835788238,-3.616790570192489,0.4,0.05347800254821777,0.5632884502410889,GUIDED_NOGPS
0.002,8e-05,0.0,0.022767641024566708,-0.00018839110451073315,1.8214112819653368e-06,-0.0,-0.0001865696932287678,0.05,0.004,0.04,-0.060618719337623514,-0.005254598956676054,-0.00024247487735049405,0.00035718932532942496,-0.005139884508697123,0.08,0.002,0.06,-0.05181522347557839,-0.007378131400369451,-0.00010363044695115679,-0.0022393102855851068,-0.009721072132905715,0.5,0,0,4.129739238086406,2.8235078930561754,0.0,-0.0,2.8235078930561754,-0.09222664250461814,0,0.09222664250461814,-0.10509197913352109,0,0.10509197913352109,-0.09419555225536658,0.5,0.5941955522553666,5.647015786112351,5.740560997021648,0.09354521090929724,-0.005155748972763461,0.009712667435146188,-2.8235078930561754,0.4,0.058451175689697266,0.6215274333953857,GUIDED_NOGPS
0.002,8e-05,0.0,0.018515904878035866,-0.0002069978749676602,1.4812723902428695e-06,-0.0,-0.00020551660257741734,0.05,0.004,0.04,-0.06491559480982194,-0.005229887633499253,-0.0002596623792392878,0.00048123319123748355,-0.005008316821501057,0.08,0.002,0.06,-0.05548256331432322,-0.007141850079514702,-0.00011096512662864644,0.00431380231738324,-0.0029390128887601084,0.5,0,0,4.286131705686072,1.9035111386494388,0.0,-0.0,1.9035111386494388,-0.08927312599393378,0,0.08927312599393378,-0.10459775266998506,0,0.10459775266998506,-0.1034989374838301,0.5,0.6034989374838301,3.8070222772988775,3.8997622619605226,0.09273998466164483,-0.005013067398120164,0.002930902490144156,-1.9035111386494388,0.4,0.04107999801635742,0.6626701354980469,GUIDED_NOGPS
0.002,8e-05,0.0,0.01480166663753904,-0.00018110385674425044,1.1841333310031233e-06,0.0,-0.0001799197234132473,0.05,0.004,0.04,-0.06907320033205099,-0.005068053973270147,-0.00027629280132820396,0.0031563618831956623,-0.002187984891402689,0.08,0.002,0.06,-0.05893190003493163,-0.006727497191759984,-0.00011786380006986326,0.007576342156177166,0.0007309811643473191,0.5,0,0,4.359831786386016,0.8983920788651945,0.0,-0.0,0.8983920788651945,-0.0840937148969998,0,0.0840937148969998,-0.10136107946540293,0,0.10136107946540293,-0.09055192837212522,0.5,0.5905519283721252,1.796784157730389,1.8862382729548939,0.08945411522450505,-0.0021868409670796098,-0.0007343963046879497,-0.8983920788651945,0.4,0.041017770767211914,0.7034730911254883,GUIDED_NOGPS
0.002,8e-05,0.0,0.012758095167172035,-0.0001562990179058199,1.0206476133737629e-06,0.0,-0.00015527837029244613,0.05,0.004,0.04,-0.07164431556396389,-0.004916182177843166,-0.0002865772622558556,0.004646260298117715,-0.0005564991419813071,0.08,0.002,0.06,-0.061006332259960196,-0.006346373967061121,-0.0001220126645199204,0.010931080693528423,0.004462694061947382,0.5,0,0,4.352059722957831,-0.148608196305067,0.0,-0.0,-0.148608196305067,-0.07932967458826401,0,0.07932967458826401,-0.09832364355686332,0,0.09832364355686332,-0.07814950895290995,0.5,0.57814950895291,-0.297216392610134,-0.21082952277810635,0.08638686983202762,-0.0005497699505847716,-0.004463528042591463,0.148608196305067,0.4,0.026149511337280273,0.7298219203948975,GUIDED_NOGPS
0.002,8e-05,0.0,0.009827529385800844,-0.00013784937089262694,7.862023508640676e-07,0.0,-0.00013706316854176286,0.05,0.004,0.04,-0.07568181777394466,-0.004747949552620401,-0.0003027272710957786,0.0031653630432718002,-0.0018853137804443797,0.08,0.002,0.06,-0.06428368395801386,-0.006166466184003495,-0.00012856736791602773,0.0031734709988633673,-0.003121562553056156,0.5,0,0,4.250786616690803,-1.1909333409264047,0.0,-0.0,-1.1909333409264047,-0.07708082730004369,0,0.07708082730004369,-0.09495899105240801,0,0.09495899105240801,-0.06892468544631347,0.5,0.5689246854463135,-2.3818666818528094,-2.298559420348432,0.08330726150437748,-0.0018898504942608647,0.0031188180345634005,1.1909333409264047,0.4,0.04251837730407715,0.7722735404968262,GUIDED_NOGPS
0.002,8e-05,0.0,0.006736476271864652,-0.00016487440550896904,5.389181017491722e-07,-0.0,-0.00016433548740721985,0.05,0.004,0.04,-0.07920722935799583,-0.004701068840213965,-0.0003168289174319833,0.001000232516613767,-0.004017665241032182,0.08,0.002,0.06,-0.06716815077457718,-0.006154210025664976,-0.00013433630154915436,0.0002451502868201242,-0.006043396040394005,0.5,0,0,4.087106286431598,-2.1826458613188398,0.0,-0.0,-2.1826458613188398,-0.0769276253208122,0,0.0769276253208122,-0.0940213768042793,0,0.0940213768042793,-0.08243720275448452,0.5,0.5824372027544845,-4.3652917226376795,-4.284483301829301,0.08080842080837816,-0.004026184684976265,0.006037723625051969,2.1826458613188398,0.4,0.03749585151672363,0.8102602958679199,GUIDED_NOGPS
0.002,8e-05,0.0,-0.0011026867916384513,-0.000169297360862676,-8.82149433310761e-08,-0.0,-0.00016938557580600707,0.05,0.004,0.04,-0.08771664845193172,-0.004594311227511436,-0.0003508665938077269,0.0009222301889182099,-0.0040229476324009535,0.08,0.002,0.06,-0.07419656819651424,-0.006071528355443941,-0.0001483931363930285,0.0006696085624868342,-0.005550312929350135,0.5,0,0,3.5168294592948426,-3.0789754280302373,0.0,-0.0,-3.0789754280302373,-0.07589410444304927,0,0.07589410444304927,-0.09188622455022873,0,0.09188622455022873,-0.084648680431338,0.5,0.584648680431338,-6.1579508560604745,-6.080642162619563,0.07730869344091129,-0.004030432956686485,0.005544879750581356,3.0789754280302373,0.4,0.09260821342468262,0.9024560451507568,GUIDED_NOGPS
0.002,8e-05,0.0,-0.0039603958533259865,-0.00017129607917728662,-3.1683166826607896e-07,-0.0,-0.0001716129108455527,0.05,0.004,0.04,-0.09076382983004463,-0.004566334530084635,-0.0003630553193201785,0.0006707888695583891,-0.004258600979846424,0.08,0.002,0.06,-0.07661217146414352,-0.005791819386237863,-0.00015322434292828704,0.006287341805287027,0.0003422980761208774,0.5,0,0,3.2605454743572295,-3.840527571919775,0.0,-0.0,-3.840527571919775,-0.07239774232797329,0,0.07239774232797329,-0.0913266906016927,0,0.0913266906016927,-0.08564803958864331,0.5,0.5856480395886433,-7.68105514383955,-7.607481923646012,0.07357322019353758,-0.004258157925739199,-0.00034776624035323287,3.840527571919775,0.4,0.033365726470947266,0.9357268810272217,GUIDED_NOGPS
0.002,8e-05,0.0,-0.006332551581319897,-0.00015824573366650396,-5.066041265055918e-07,0.0,-0.00015875233779300956,0.05,0.004,0.04,-0.09342750223699672,-0.004442317902141091,-0.0003737100089479869,0.003309243494290923,-0.0015067844167981547,0.08,0.002,0.06,-0.07873842553919772,-0.0056736685892522275,-0.00015747685107839543,0.0029556754008018345,-0.0028754700395287884,0.5,0,0,2.994641203274599,-4.434596764238644,0.0,-0.0,-4.434596764238644,-0.07092085736565285,0,0.07092085736565285,-0.08884635804282182,0,0.08884635804282182,-0.07912286683325198,0.5,0.579122866833252,-8.869193528477288,-8.79737697910487,0.07181654937241769,-0.0015103874476906389,0.002873579124505188,4.434596764238644,0.4,0.02998065948486328,0.9658265113830566,GUIDED_NOGPS
0.002,8e-05,0.0,-0.00954084601433259,-0.0001512882707421075,-7.632676811466073e-07,0.0,-0.0001520515384232541,0.05,0.004,0.04,-0.09710819357154182,-0.004339107887114119,-0.0003884327742861673,0.0019467620597446301,-0.0027807786016556565,0.08,0.002,0.06,-0.08169478740670938,-0.005576332022666045,-0.00016338957481341876,0.0017212277207873199,-0.004018493876692144,0.5,0,0,2.584593801786729,-4.833982945507073,0.0,-0.0,-4.833982945507073,-0.06970415028332556,0,0.06970415028332556,-0.08678215774228237,0,0.08678215774228237,-0.07564413537105374,0.5,0.5756441353710537,-9.667965891014147,-9.597625417490859,0.07034047352328791,-0.002785709900720885,0.004015076962831956,4.833982945507073,0.4,0.04241299629211426,1.0085654258728027,GUIDED_NOGPS
0.002,8e-05,0.0,-0.015260446449908278,-0.00014879390047223097,-1.2208357159926624e-06,0.0,-0.00015001473618822363,0.05,0.004,0.04,-0.10374455647440257,-0.00431608087133135,-0.0004149782258976103,0.00023961670282017893,-0.004491442394408782,0.08,0.002,0.06,-0.08695629644976484,-0.005475070936890284,-0.00017391259289952968,0.0009878551890342053,-0.004661128340755609,0.5,0,0,1.8126236242169762,-5.020650264937734,0.0,-0.0,-5.020650264937734,-0.06843838671112855,0,0.06843838671112855,-0.086321617426627,0,0.086321617426627,-0.07439695023611548,0.5,0.5743969502361155,-10.041300529875468,-9.972783253900806,0.06851727597466188,-0.004497013201489156,0.004655753908543694,5.020650264937734,0.4,0.07687950134277344,1.0852715969085693,GUIDED_NOGPS
0.002,8e-05,0.0,-0.022833580575848056,-0.00013406757295844352,-1.8266864460678446e-06,0.0,-0.00013589425940451136,0.05,0.004,0.04,-0.113230313703466,-0.004198170890099384,-0.00045292125481386403,0.000834946522719014,-0.003816145622194234,0.08,0.002,0.06,-0.09447005672927383,-0.0053206589911825785,-0.00018894011345854767,0.0010250859049515744,-0.004484513199689552,0.5,0,0,0.6858310530451508,-4.98691633914065,0.0,0.0,-4.98691633914065,-0.06650823738978223,0,0.06650823738978223,-0.08396341780198768,0,0.08396341780198768,-0.06703378647922176,0.5,0.5670337864792218,-9.9738326782813,-9.9062342875998,0.06759839068150056,-0.00382143385863945,0.0044800077357105145,4.98691633914065,0.4,0.11297488212585449,1.1981751918792725,GUIDED_NOGPS
0.002,8e-05,0.0,-0.027924109122366002,-0.0001694118077208826,-2.2339287297892804e-06,-0.0,-0.00017164573645067188,0.05,0.004,0.04,-0.11834777336037378,-0.004257701746945578,-0.00047339109344149514,-0.0007924701713251652,-0.005523563011712238,0.08,0.002,0.06,-0.09843522460026996,-0.00527840086390801,-0.00019687044920053991,0.0005273783704675919,-0.004947892942640958,0.5,0,0,0.1169595531056773,-4.732983436049983,0.0,0.0,-4.732983436049983,-0.06598001079885013,0,0.06598001079885013,-0.08515403493891156,0,0.08515403493891156,-0.0847059038604413,0.5,0.5847059038604413,-9.465966872099965,-9.4009260539328,0.06504081816716563,-0.00552917618302713,0.0049416195374833655,4.732983436049983,0.4,0.06009650230407715,1.2581820487976074,GUIDED_NOGPS
0.002,8e-05,0.0,-0.02944615680007064,-0.00015653986888141126,-2.355692544005651e-06,0.0,-0.00015889556142541691,0.05,0.004,0.04,-0.1199579697897243,-0.004140145240127631,-0.0004798318791588972,0.004836190201660492,0.00021621308237396338,0.08,0.002,0.06,-0.09972365029078227,-0.005300490690551889,-0.00019944730058156455,-0.0008519621174894815,-0.006351900108622934,0.5,0,0,-0.04917864897640836,-4.271753892976596,-0.0,0.0,-4.271753892976596,-0.06625613363189861,0,0.06625613363189861,-0.08280290480255262,0,0.08280290480255262,-0.07826993444070562,0.5,0.5782699344407056,-8.543507785953192,-8.479239274368842,0.0642685115843502,0.0002090880397101561,0.00635213863817249,4.271753892976596,0.4,0.019446134567260742,1.2777495384216309,GUIDED_NOGPS
0.002,8e-05,0.0,-0.031438491163890955,-0.00014197172938343528,-2.5150792931112764e-06,0.0,-0.00014448680867654656,0.05,0.004,0.04,-0.12221705720268906,-0.004024507038968646,-0.0004888682288107563,0.0032961044490243704,-0.0012172708187550324,0.08,0.002,0.06,-0.10158761581686189,-0.005312971839550021,-0.00020317523163372378,-0.0003335227648283829,-0.005849669836012128,0.5,0,0,-0.2525343445400773,-3.6227302383854854,-0.0,0.0,-3.6227302383854854,-0.06641214799437527,0,0.06641214799437527,-0.08049014077937292,0,0.08049014077937292,-0.07098586469171764,0.5,0.5709858646917176,-7.245460476770971,-7.181996586895462,0.0634638898755091,-0.0012237494799213421,0.005848317933127007,3.6227302383854854,0.4,0.028066635131835938,1.3056962490081787,GUIDED_NOGPS
0.002,8e-05,0.0,-0.034394342009554754,-0.00017312011038939646,-2.7515473607643804e-06,-0.0,-0.00017587165775016084,0.05,0.004,0.04,-0.12495267586680713,-0.004005535375796821,-0.0004998107034672285,0.0004444576663798853,-0.004060888412884165,0.08,0.002,0.06,-0.10391123509222143,-0.005443647145366503,-0.00020782247018444287,-0.0028700522137269334,-0.00852152182927788,0.5,0,0,-0.44480503303400687,-2.8152573112361594,-0.0,0.0,-2.8152573112361594,-0.06804558931708128,0,0.06804558931708128,-0.08011070751593641,0,0.08011070751593641,-0.08656005519469823,0.5,0.5865600551946982,-5.630514622472319,-5.566654461310076,0.06386016116224269,-0.004070383721773724,0.00851699039251987,2.8152573112361594,0.4,0.03414797782897949,1.3398427963256836,GUIDED_NOGPS
0.002,8e-05,0.0,-0.04254849571100561,-0.0002216734527004165,-3.403879656880449e-06,-0.0,-0.00022507733235729694,0.05,0.004,0.04,-0.1311471681293792,-0.004209984683407579,-0.0005245886725175168,-0.0022232096955554026,-0.006957783051480498,0.08,0.002,0.06,-0.10878801900014415,-0.005303081430759442,-0.0002175760380002883,0.0014329976059948572,-0.004087659862764874,0.5,0,0,-0.7221469796232323,-1.8849088798801157,-0.0,0.0,-1.8849088798801157,-0.06628851788449303,0,0.06628851788449303,-0.08419969366815157,0,0.08419969366815157,-0.11083672635020825,0.5,0.6108367263502082,-3.7698177597602314,-3.7047583816978453,0.06505937806238607,-0.006962420104167652,0.004079756664092886,1.8849088798801157,0.4,0.07356905937194824,1.4134721755981445,GUIDED_NOGPS
0.002,8e-05,0.0,-0.05059085819738744,-0.000306936001947973,-4.0472686557909955e-06,-0.0,-0.000310983270603764,0.05,0.004,0.04,-0.1358831422972569,-0.004518700129715332,-0.0005435325691890276,-0.004712838297937273,-0.009775070996841634,0.08,0.002,0.06,-0.1121998343368821,-0.005208464356668183,-0.00022439966867376422,0.0013541443739368583,-0.004078719651405089,0.5,0,0,-0.8136500704098588,-0.8730516965470969,-0.0,0.0,-0.8730516965470969,-0.06510580445835229,0,0.06510580445835229,-0.09037400259430663,0,0.09037400259430663,-0.1534680009739865,0.5,0.6534680009739865,-1.7461033930941938,-1.6787740091854046,0.06732938390878915,-0.009779857229236046,0.0040672299620026385,0.8730516965470969,0.4,0.052404165267944336,1.4657015800476074,GUIDED_NOGPS
0.002,8e-05,0.0,-0.057918574594785395,-0.0002888338935571713,-4.633485967582832e-06,0.0,-0.0002934673795247541,0.05,0.004,0.04,-0.14035249882682005,-0.004404174432116703,-0.0005614099953072802,0.0018056868664572978,-0.003159897560966685,0.08,0.002,0.06,-0.11548125066573144,-0.00517369506811255,-0.00023096250133146286,0.0005139330818654986,-0.004890724487578515,0.5,0,0,-0.7954969510889369,0.17888370159670908,-0.0,0.0,0.17888370159670908,-0.06467118835140688,0,0.06467118835140688,-0.08808348864233405,0,0.08808348864233405,-0.14441694677858563,0.5,0.6444169467785856,0.35776740319341815,0.42156532334096364,0.0637979201475455,-0.003165341343252032,0.004887202961807782,-0.17888370159670908,0.4,0.05074000358581543,1.517103910446167,GUIDED_NOGPS
0.002,8e-05,0.0,-0.06384912448188042,-0.00027468822008207326,-5.107929958550434e-06,0.0,-0.0002797961500406237,0.05,0.004,0.04,-0.14385680257932745,-0.004057764367254547,-0.0005754272103173098,0.006417938703630796,0.001784747126058939,0.08,0.002,0.06,-0.11824652724609216,-0.00512322746696261,-0.00023649305449218434,0.0008765748410102099,-0.004483145680444584,0.5,0,0,-0.6900373614040011,1.2211560282199452,-0.0,0.0,1.2211560282199452,-0.06404034333703262,0,0.06404034333703262,-0.08115528734509095,0,0.08115528734509095,-0.13734411004103664,0.5,0.6373441100410366,2.4423120564398904,2.5032330106138545,0.06092095417396434,0.001779979318249189,0.004485040816165415,-1.2211560282199452,0.4,0.043180227279663086,1.5597946643829346,GUIDED_NOGPS
0.002,8e-05,0.0,-0.0700969985285926,-0.0002631191480099109,-5.607759882287408e-06,0.0,-0.00026872690789219827,0.05,0.004,0.04,-0.14741014838268504,-0.0037410858212484316,-0.0005896405935307402,0.005334562674930642,0.00100383626015147,0.08,0.002,0.06,-0.1212609448209728,-0.005077893556231805,-0.0002425218896419456,0.0007159367257325544,-0.004604478720141197,0.5,0,0,-0.4803298070801959,2.2078739348930254,-0.0,0.0,2.2078739348930254,-0.06347366945289756,0,0.06347366945289756,-0.07482171642496863,0,0.07482171642496863,-0.13155957400495544,0.5,0.6315595740049554,4.415747869786051,4.474029437436339,0.058281567650288996,0.0009991520416995096,0.004605497445335923,-2.2078739348930254,0.4,0.047490835189819336,1.6076865196228027,GUIDED_NOGPS
0.002,8e-05,0.0,-0.07658798636684883,-0.0002584566394109362,-6.1270389093479065e-06,0.0,-0.0002645836783202841,0.05,0.004,0.04,-0.15100661449954927,-0.0035800812198476515,-0.0006040264579981971,0.002564337462627067,-0.0016197702152187811,0.08,0.002,0.06,-0.124409574277229,-0.00501485572484375,-0.000248819148554458,0.0009412596238598998,-0.004322415249538308,0.5,0,0,-0.16940395699494065,3.095093240099647,-0.0,0.0,3.095093240099647,-0.06268569656054687,0,0.06268569656054687,-0.07160162439695303,0,0.07160162439695303,-0.1292283197054681,0.5,0.6292283197054681,6.190186480199294,6.246665612729069,0.05647913252977495,-0.0016240302346586806,0.004320816466417623,-3.095093240099647,0.4,0.05022883415222168,1.6576001644134521,GUIDED_NOGPS
0.002,8e-05,0.0,-0.0823431809774071,-0.0002757454881237709,-6.587454478192569e-06,-0.0,-0.00028233294260196344,0.05,0.004,0.04,-0.15403049538187974,-0.0036220387247924363,-0.000616121981527519,-0.0008041147842493472,-0.005042275490569303,0.08,0.002,0.06,-0.127011664311182,-0.004986900600984302,-0.000254023328622364,0.0005022744535025467,-0.004738649476104119,0.5,0,0,0.15144672852689917,3.843185803472073,0.0,0.0,3.843185803472073,-0.062336257512303775,0,0.062336257512303775,-0.07244077449584872,0,0.07244077449584872,-0.13787274406188543,0.5,0.6378727440618854,7.686371606944146,7.742629306011935,0.05625769906778911,-0.0050469258542081685,0.0047336962727136285,-3.843185803472073,0.4,0.041742801666259766,1.6993019580841064,GUIDED_NOGPS
0.002,8e-05,0.0,-0.091685675100053,-0.00025640608845797595,-7.334854008004241e-06,0.0,-0.0002637409424659802,0.05,0.004,0.04,-0.15932543283380626,-0.003633007906815833,-0.0006373017313352251,-0.00012042030829369673,-0.0043907299464447545,0.08,0.002,0.06,-0.13146211619211104,-0.004885731555959614,-0.0002629242323842221,0.0010412245956729022,-0.004107431192670935,0.5,0,0,0.7956611463982166,4.420139227442072,0.0,0.0,4.420139227442072,-0.06107164444949517,0,0.06107164444949517,-0.07266015813631665,0,0.07266015813631665,-0.12820304422898798,0.5,0.628203044228988,8.840278454884144,8.895662450393434,0.055383995509290365,-0.004394698273364841,0.004103185049594647,-4.420139227442072,0.4,0.07287263870239258,1.7724275588989258,GUIDED_NOGPS
0.002,8e-05,0.0,-0.10088130857148249,-0.0002947876736543467,-8.0705046857186e-06,-0.0,-0.0003028581783400653,0.05,0.004,0.04,-0.16393797064575275,-0.003696643889328057,-0.000655751882583011,-0.0008160004769120477,-0.005168396248823116,0.08,0.002,0.06,-0.13524977431169002,-0.004856891824311118,-0.00027049954862338007,0.0003466970530587899,-0.004780694319875708,0.5,0,0,1.394599441029428,4.800094172016564,0.0,0.0,4.800094172016564,-0.060711147803888976,0,0.060711147803888976,-0.07393287778656113,0,0.07393287778656113,-0.14739383682717333,0.5,0.6473938368271733,9.600188344033128,9.654695793623906,0.05450744959077781,-0.005172941948601537,0.004775775283798354,-4.800094172016564,0.4,0.06238818168640137,1.8345284461975098,GUIDED_NOGPS
0.002,8e-05,0.0,-0.10691239444683519,-0.00028122677292631207,-8.552991555746815e-06,0.0,-0.00028977976448205887,0.05,0.004,0.04,-0.16709838431715945,-0.0036842160611331417,-0.0006683935372686379,0.00023180157536948964,-0.004120808023032291,0.08,0.002,0.06,-0.13778662399494765,-0.004731685567517846,-0.0002755732479898953,0.002189366409873232,-0.0028178924056345097,0.5,0,0,1.8206470724092003,4.966601494412711,0.0,0.0,4.966601494412711,-0.05914606959397308,0,0.05914606959397308,-0.07368432122266283,0,0.07368432122266283,-0.14061338646315602,0.5,0.640613386463156,9.933202988825421,9.986110817918139,0.052907829092716574,-0.004123408352182848,0.0028140859854611177,-4.966601494412711,0.4,0.04289126396179199,1.8778612613677979,GUIDED_NOGPS
0.002,8e-05,0.0,-0.11347987684190236,-0.00026162293952416516,-9.07839014735219e-06,0.0,-0.00027070132967151733,0.05,0.004,0.04,-0.17069126654395256,-0.003578161131591898,-0.0006827650661758103,0.0016899262608422807,-0.002570999936925428,0.08,0.002,0.06,-0.14082700030945025,-0.004844670397638301,-0.0002816540006189005,-0.0016878284706149597,-0.006814152868872162,0.5,0,0,2.31375266806082,4.910851969968302,0.0,-0.0,4.910851969968302,-0.06055837997047876,0,0.06055837997047876,-0.07156322263183795,0,0.07156322263183795,-0.13081146976208258,0.5,0.6308114697620826,9.821703939936604,9.875228745343794,0.053524805407189666,-0.002577364487312534,0.00681174810864065,-4.910851969968302,0.4,0.05020570755004883,1.9280798435211182,GUIDED_NOGPS
0.002,8e-05,0.0,-0.11944711686447948,-0.0002537954469653183,-9.55576934915836e-06,0.0,-0.00026335121631447663,0.05,0.004,0.04,-0.17382103111278283,-0.0033278366323341193,-0.0006952841244511313,0.004258666850009472,0.00023554609322422142,0.08,0.002,0.06,-0.14358506002173377,-0.00469217256076606,-0.0002871701200434675,0.0024322335277993036,-0.0025471091530102235,0.5,0,0,2.749860883540762,4.637080084520291,0.0,-0.0,4.637080084520291,-0.05865215700957575,0,0.05865215700957575,-0.06655673264668238,0,0.06655673264668238,-0.12689772348265915,0.5,0.6268977234826592,9.274160169040583,9.32696067890069,0.052800509860108015,0.000233198723581159,0.002547325137217817,-4.637080084520291,0.4,0.04702401161193848,1.9748060703277588,GUIDED_NOGPS
0.002,8e-05,0.0,-0.12215809672992921,-0.00023949352739321882,-9.772647738394337e-06,0.0,-0.00024926617513161315,0.05,0.004,0.04,-0.17533372031719655,-0.0033408517528272733,-0.0007013348812687862,-0.0004599129866036259,-0.004502099620699685,0.08,0.002,0.06,-0.14492170931676976,-0.004723293723212178,-0.00028984341863353953,-0.0010309902702230432,-0.006044127412068761,0.5,0,0,2.938102607446301,4.157415095117209,0.0,-0.0,4.157415095117209,-0.05904117154015222,0,0.05904117154015222,-0.06681703505654546,0,0.06681703505654546,-0.11974676369660942,0.5,0.6197467636966094,8.314830190234417,8.365590083745087,0.050759893510668945,-0.004507452510520385,0.006040136507847215,-4.157415095117209,0.4,0.02263927459716797,1.9974160194396973,GUIDED_NOGPS
0.002,8e-05,0.0,-0.1254347562769223,-0.00022798547223594845,-1.0034780502153785e-05,0.0,-0.00023802025273810223,0.05,0.004,0.04,-0.17724656222619423,-0.0033273228396260056,-0.0007089862489047769,0.00037652928182430246,-0.00365977980670648,0.08,0.002,0.06,-0.14660260856400226,-0.004678186466006519,-0.00029320521712800454,0.0011769378830573296,-0.0037944538000771934,0.5,0,0,3.138814224947964,3.4913096892649236,0.0,-0.0,3.4913096892649236,-0.05847733082508149,0,0.05847733082508149,-0.06654645679252011,0,0.06654645679252011,-0.11399273611797422,0.5,0.6139927361179742,6.982619378529847,7.033697242732391,0.05107786420254372,-0.0036631610199188555,0.003791189683548401,-3.4913096892649236,0.4,0.02874445915222168,2.0260889530181885,GUIDED_NOGPS
0.002,8e-05,0.0,-0.13288807730826138,-0.0002474364655717216,-1.0631046184660912e-05,-0.0,-0.0002580675117563825,0.05,0.004,0.04,-0.1812864522539166,-0.003352921823556801,-0.0007251458090156664,-0.0003399355578234266,-0.004418003190395894,0.08,0.002,0.06,-0.150140362101081,-0.0046978748270626895,-0.000300280724202162,-0.0002451064323619048,-0.005243261983626756,0.5,0,0,3.4604246368665157,2.6692176306906874,0.0,-0.0,2.6692176306906874,-0.058723435338283614,0,0.058723435338283614,-0.06705843647113602,0,0.06705843647113602,-0.1237182327858608,0.5,0.6237182327858608,5.338435261381375,5.390273323461356,0.05183806207998141,-0.00442274519587662,0.005239262672518354,-2.6692176306906874,0.4,0.06024432182312012,2.086613178253174,GUIDED_NOGPS
0.002,8e-05,0.0,-0.13922511616952116,-0.00030292925746582114,-1.1138009293561694e-05,-0.0,-0.0003140672667593828,0.05,0.004,0.04,-0.18412074912724705,-0.003387194974156313,-0.0007364829965089882,-0.0006553433103019003,-0.004779021280967201,0.08,0.002,0.06,-0.15259599377570826,-0.004695459163755266,-0.0003051919875514165,4.330345221322252e-05,-0.00495734769909346,0.5,0,0,3.6050428617356087,1.728295045791721,0.0,-0.0,1.728295045791721,-0.05869323954694083,0,0.05869323954694083,-0.06774389948312626,0,0.06774389948312626,-0.15146462873291056,0.5,0.6514646287329106,3.456590091583442,3.508107587104019,0.05151749552057712,-0.004783476747300835,0.004953048639139013,-1.728295045791721,0.4,0.04183840751647949,2.1281957626342773,GUIDED_NOGPS
0.002,8e-05,0.0,-0.14862859859110433,-0.0003516641086239727,-1.1890287887288347e-05,-0.0,-0.00036355439651126104,0.05,0.004,0.04,-0.18776427375793128,-0.0034064423796820904,-0.0007510570950317252,-0.00028791978988597404,-0.004445419264599789,0.08,0.002,0.06,-0.15575042827948538,-0.004718683348361997,-0.00031150085655897076,-0.00032569498506342115,-0.0053558791899843885,0.5,0,0,3.6808826347498385,0.7090491846424746,0.0,-0.0,0.7090491846424746,-0.05898354185452496,0,0.05898354185452496,-0.06812884759364181,0,0.06812884759364181,-0.17583205431198634,0.5,0.6758320543119863,1.4180983692849491,1.4705634627465556,0.05246509346160635,-0.004450321717846296,0.005351806325293203,-0.7090491846424746,0.4,0.053479909896850586,2.181786060333252,GUIDED_NOGPS
0.002,8e-05,0.0,-0.15428318483098333,-0.00034032219377628706,-1.2342654786478667e-05,0.0,-0.0003526648485627657,0.05,0.004,0.04,-0.18990162356441895,-0.0032159186550259713,-0.0007596064942576758,0.004586680559162344,0.0006111554098786973,0.08,0.002,0.06,-0.15755237001779346,-0.004338006279668526,-0.0003151047400355869,0.008591666766731053,0.00393855574702694,0.5,0,0,3.6581202442710143,-0.342489544536137,0.0,-0.0,-0.342489544536137,-0.054225078495856574,0,0.054225078495856574,-0.06431837310051942,0,0.06431837310051942,-0.17016109688814351,0.5,0.6701610968881435,-0.684979089072274,-0.6321137211366181,0.05286536793565594,0.0006147891550794893,-0.003937990172951119,0.342489544536137,0.4,0.03323078155517578,2.2150051593780518,GUIDED_NOGPS
0.002,8e-05,0.0,-0.15913019362424902,-0.0003315096350530695,-1.2730415489939922e-05,0.0,-0.00034424005054300945,0.05,0.004,0.04,-0.19167908979662007,-0.0030392310344827043,-0.0007667163591864803,0.004833797593771594,0.0010278502001024098,0.08,0.002,0.06,-0.15900878995673445,-0.003984455263321633,-0.0003180175799134689,0.009067878773345922,0.004765405930110819,0.5,0,0,3.577410836858309,-1.3800236051721997,0.0,-0.0,-1.3800236051721997,-0.04980569079152042,0,0.04980569079152042,-0.06078462068965408,0,0.06078462068965408,-0.16575481752653476,0.5,0.6657548175265348,-2.7600472103443994,-2.706793812973938,0.05325339737046133,0.0010322789483260962,-0.004764448539487933,1.3800236051721997,0.4,0.02924203872680664,2.245117664337158,GUIDED_NOGPS
0.002,8e-05,0.0,-0.16393349129915863,-0.0003224857441444495,-1.3114679303932692e-05,0.0,-0.00033560042344838223,0.05,0.004,0.04,-0.1933826964076761,-0.0028594357610063487,-0.0007735307856307044,0.004828467147772036,0.0011955006011349833,0.08,0.002,0.06,-0.16044693593914378,-0.0038621930907861203,-0.00032089387187828755,0.003078182716281525,-0.0011049042463828831,0.5,0,0,3.4369617208132066,-2.357382405156018,0.0,-0.0,-2.357382405156018,-0.0482774136348265,0,0.0482774136348265,-0.05718871522012697,0,0.05718871522012697,-0.16124287207222476,0.5,0.6612428720722248,-4.714764810312036,-4.661586686741114,0.05317812357092155,0.0011944745878857237,0.0011060133542974352,2.357382405156018,0.4,0.029789209365844727,2.27388072013855,GUIDED_NOGPS
0.002,8e-05,0.0,-0.17368736934061987,-0.00035224750464787105,-1.3894989547249591e-05,-0.0,-0.00036614249419512066,0.05,0.004,0.04,-0.19654758375890263,-0.0028573857167947057,-0.0007861903350356106,2.961377843354693e-05,-0.0036139622733967693,0.08,0.002,0.06,-0.16308788604931448,-0.003814967061317867,-0.00032617577209862896,0.0006395629626970023,-0.003501579870719494,0.5,0,0,3.079081731864762,-3.231082358592106,0.0,-0.0,-3.231082358592106,-0.04768708826647333,0,0.04768708826647333,-0.057147714335894106,0,0.057147714335894106,-0.1761237523239355,0.5,0.6761237523239355,-6.462164717184212,-6.409912168353249,0.052252548830963405,-0.003617154137455405,0.003498282557263255,3.231082358592106,0.4,0.055380821228027344,2.329425811767578,GUIDED_NOGPS
0.002,8e-05,0.0,-0.17730996042720468,-0.000392702487234327,-1.4184796834176375e-05,-0.0,-0.00040688728406850335,0.05,0.004,0.04,-0.19760387903301968,-0.002862659429984732,-0.0007904155161320787,-0.0002286761312203577,-0.0038817510773371685,0.08,0.002,0.06,-0.16395802284667169,-0.003773043949914044,-0.0003279160456933434,0.0017042335576305419,-0.002396726437976846,0.5,0,0,2.9328550346305673,-3.9628808725183324,0.0,-0.0,-3.9628808725183324,-0.04716304937392555,0,0.04716304937392555,-0.05725318859969464,0,0.05725318859969464,-0.1963512436171635,0.5,0.6963512436171635,-7.925761745036665,-7.874334777772317,0.05142696726434826,-0.0038839007429341435,0.0023932413300670396,3.9628808725183324,0.4,0.01844954490661621,2.348018169403076,GUIDED_NOGPS
0.002,8e-05,0.0,-0.1872659244169263,-0.00038108672062518,-1.4981273953354105e-05,0.0,-0.0003960679945785341,0.05,0.004,0.04,-0.20050133177872514,-0.002772661608075464,-0.0008020053271149005,0.0013779469210704095,-0.0021967200141199553,0.08,0.002,0.06,-0.166389016668786,-0.0037220683581661827,-0.000332778033337572,0.0007317016631127674,-0.0033231447283909874,0.5,0,0,2.4604736007212806,-4.5203631641938,0.0,-0.0,-4.5203631641938,-0.046525854477077286,0,0.046525854477077286,-0.055453232161509276,0,0.055453232161509276,-0.19054336031259,0.5,0.69054336031259,-9.0407263283876,-8.989993441398719,0.05073288698888053,-0.0021996616507487126,0.0033211983271845473,4.5203631641938,0.4,0.05225038528442383,2.4000067710876465,GUIDED_NOGPS
0.002,8e-05,0.0,-0.2057892717996412,-0.00041360584970725746,-1.6463141743971298e-05,-0.0,-0.00043006899145122876,0.05,0.004,0.04,-0.20534583417436547,-0.0027043094430483916,-0.0008213833366974619,0.0006104912834865666,-0.0029152014962592868,0.08,0.002,0.06,-0.17053091738779685,-0.0036993623903812983,-0.00034106183477559374,0.0001901246755997308,-0.0038502995495571612,0.5,0,0,1.586428515769337,-4.879114889101316,0.0,-0.0,-4.879114889101316,-0.04624202987976623,0,0.04624202987976623,-0.05408618886096783,0,0.05408618886096783,-0.20680292485362872,0.5,0.7068029248536287,-9.758229778202631,-9.707474268578167,0.05075550962446443,-0.002918611142756585,0.0038477156057184847,4.879114889101316,0.4,0.0895700454711914,2.4897117614746094,GUIDED_NOGPS
0.002,8e-05,0.0,-0.21777113242457583,-0.00041261066138971426,-1.7421690593966068e-05,0.0,-0.0004300323519836803,0.05,0.004,0.04,-0.20841766175085238,-0.0026445575684877136,-0.0008336706470034095,0.0008230528213773551,-0.0026551753941137677,0.08,0.002,0.06,-0.17318763498792797,-0.0036594984382795786,-0.00034637526997585596,0.0005147872737749834,-0.0034910864344804508,0.5,0,0,1.0029115713265409,-5.023537660703696,0.0,-0.0,-5.023537660703696,-0.04574373047849473,0,0.04574373047849473,-0.052891151369754266,0,0.052891151369754266,-0.20630533069485713,0.5,0.7063053306948571,-10.047075321407393,-9.994999153428735,0.05207616797865878,-0.0026583473474870735,0.003488671702328706,5.023537660703696,0.4,0.05807828903198242,2.5484795570373535,GUIDED_NOGPS
0.002,8e-05,0.0,-0.2372773602248635,-0.0004014044081976322,-1.8982188817989082e-05,0.0,-0.0004203865970156213,0.05,0.004,0.04,-0.21344936875103995,-0.002588595538964729,-0.0008537974750041598,0.0004606406850612234,-0.0029817523289076653,0.08,0.002,0.06,-0.17753161483620877,-0.003575663481579737,-0.00035506322967241756,0.0006469418675841678,-0.0032837848436679867,0.5,0,0,0.04165715502162559,-4.945238054927058,0.0,0.0,-4.945238054927058,-0.04469579351974671,0,0.04469579351974671,-0.05177191077929458,0,0.05177191077929458,-0.20070220409881612,0.5,0.7007022040988161,-9.890476109854117,-9.839833266128725,0.0506428437253922,-0.0029846536498637157,0.0032811480370146468,4.945238054927058,0.4,0.09718990325927734,2.644965171813965,GUIDED_NOGPS
0.002,8e-05,0.0,-0.2487830049221833,-0.0004633214433647972,-1.9902640393774664e-05,-0.0,-0.00048322408375857184,0.05,0.004,0.04,-0.21596920651622703,-0.0025367871621387104,-0.0008638768260649082,0.0008345097579802706,-0.0025661542302233484,0.08,0.002,0.06,-0.17976812392959785,-0.0036024843405390566,-0.0003595362478591957,-0.0004050189954222167,-0.004367039583820469,0.5,0,0,-0.420262818884539,-4.650270251242167,-0.0,0.0,-4.650270251242167,-0.04503105425673821,0,0.04503105425673821,-0.0507357432427742,0,0.0507357432427742,-0.2316607216823986,0.5,0.7316607216823986,-9.300540502484335,-9.248849094149707,0.051691408334627494,-0.002570093064131309,0.004364722660336184,4.650270251242167,0.4,0.04966592788696289,2.6946732997894287,GUIDED_NOGPS
0.002,8e-05,0.0,-0.32731774162191696,-0.0004469354264746488,-2.618541932975336e-05,0.0,-0.00047312084580440215,0.05,0.004,0.04,-0.2328089535775718,-0.0023958441356221128,-0.0009312358143102873,0.0003208385706094149,-0.003006241379322985,0.08,0.002,0.06,-0.1952654263715458,-0.003527760462267966,-0.0003905308527430916,0.00015946804149839466,-0.003758823273512663,0.5,0,0,-3.3362335890450434,-4.148643945710569,-0.0,0.0,-4.148643945710569,-0.044097005778349574,0,0.044097005778349574,-0.04791688271244225,0,0.04791688271244225,-0.2234677132373244,0.5,0.7234677132373244,-8.297287891421139,-8.24822205135675,0.04906584006438766,-0.003009459184236433,0.003756247469306196,4.148643945710569,0.4,0.3514366149902344,3.0460808277130127,GUIDED_NOGPS
0.002,8e-05,0.0,-0.5531386956525444,-0.0012571530422348244,-4.425109565220355e-05,-0.0,-0.001301404137887028,0.05,0.004,0.04,-0.24896804540997672,-0.00224895554357021,-0.000995872181639907,0.00032709354392789283,-0.0029177341812822244,0.08,0.002,0.06,-0.2130041402414312,-0.003950081284987388,-0.0004260082804828624,-0.0008816529715320868,-0.005257742537002337,0.5,0,0,-5.8300195599895765,-3.470748134858916,-0.0,0.0,-3.470748134858916,-0.049376016062342355,0,0.049376016062342355,-0.0449791108714042,0,0.0449791108714042,-0.6285765211174121,0.5,1.1285765211174121,-6.941496269717832,-6.882271136822208,0.0592251328956237,-0.0029231674110355935,0.0052547237439361065,3.470748134858916,0.4,0.35925769805908203,3.4054555892944336,GUIDED_NOGPS
0.002,8e-05,0.0,-0.9099123117115989,-0.0017141372965884965,-7.279298493692792e-05,-0.0,-0.0017869302815254244,0.05,0.004,0.04,-0.2634038723393261,-0.0017339419335452276,-0.0010536154893573044,0.000989763813755085,-0.001797793609147447,0.08,0.002,0.06,-0.24248999124876972,-0.0056666518664277455,-0.00048497998249753945,-0.0030927570629828392,-0.009244388911908125,0.5,0,0,-8.03012929595773,-2.6426352631315675,-0.0,0.0,-2.6426352631315675,-0.07083314833034682,0,0.07083314833034682,-0.03467883867090455,0,0.03467883867090455,-0.8570686482942482,0.5,1.3570686482942482,-5.285270526263135,-5.211495991996031,0.07377453426710326,-0.0018096952695360977,0.009242066394866461,2.6426352631315675,0.4,0.4162719249725342,3.821619987487793,GUIDED_NOGPS
0.002,8e-05,0.0,-1.2108055201337682,-0.0015673056218993247,-9.686444161070146e-05,0.0,-0.0016641700635100262,0.05,0.004,0.04,-0.27666139045200827,-0.0017264084140846956,-0.001106645561808033,1.569636943963663e-05,-0.002817357606453092,0.08,0.002,0.06,-0.26190851051352165,-0.004045921085716821,-0.0005238170210270433,0.003165799849945647,-0.0014039382567982172,0.5,0,0,-9.322076617827223,-1.682387840674376,-0.0,0.0,-1.682387840674376,-0.050574013571460255,0,0.050574013571460255,-0.03452816828169391,0,0.03452816828169391,-0.7836528109496623,0.5,1.2836528109496623,-3.364775681348752,-3.309897297378446,0.054878383970305575,-0.0028187010179093657,0.0014012391241959455,1.682387840674376,0.4,0.38396239280700684,4.205705404281616,GUIDED_NOGPS
0.002,8e-05,0.0,-1.440032709212101,-0.0011568343707819705,-0.0001152026167369681,0.0,-0.0012720369875189386,0.05,0.004,0.04,-0.2898209620175054,-0.0016603009390969226,-0.0011592838480700216,0.00013344908959352398,-0.0026861356975734206,0.08,0.002,0.06,-0.2683841603767838,-0.0013072191593138216,-0.0005367683207535677,0.005182998577516777,0.0033390110974493878,0.5,0,0,-9.839562373871992,-0.6528951816205698,-0.0,0.0,-0.6528951816205698,-0.01634023949142277,0,0.01634023949142277,-0.03320601878193845,0,0.03320601878193845,-0.5784171853909852,0.5,1.0784171853909852,-1.3057903632411396,-1.2616991916130784,0.04409117162806124,-0.0026835654128501913,-0.0033410771870195687,0.6528951816205698,0.4,0.3963007926940918,4.601908922195435,GUIDED_NOGPS
0.002,8e-05,0.0,-1.5907082380889228,-0.0008084689601811552,-0.00012725665904711383,0.0,-0.000935725619228269,0.05,0.004,0.04,-0.2915264941390901,-0.0002287813076170417,-0.0011661059765563605,0.0030724011963152494,0.0016775139121418471,0.08,0.002,0.06,-0.275665797085426,-0.0015628223911702392,-0.000551331594170852,-0.0005143020252317386,-0.00262845601057283,0.5,0,0,-9.54870434758795,0.39015905207546736,-0.0,0.0,0.39015905207546736,-0.01953527988962799,0,0.01953527988962799,-0.004575626152340834,0,0.004575626152340834,-0.4042344800905776,0.5,0.9042344800905776,0.7803181041509347,0.8423811189212129,0.0620630147702782,0.0016746657746224696,0.002630271557891695,-0.39015905207546736,0.4,0.3727428913116455,4.974895000457764,GUIDED_NOGPS
0.002,8e-05,0.0,-1.7154687053335833,-0.0005782599454720394,-0.00013723749642668666,0.0,-0.0007154974418987261,0.05,0.004,0.04,-0.27795437567601256,0.0015726561177044575,-0.0011118175027040502,0.0033398371466335877,0.003800675761633995,0.08,0.002,0.06,-0.2883083514892126,-0.0023439100483086065,-0.0005766167029784252,-0.0013576166673653757,-0.004278143418652408,0.5,0,0,-8.320117949044871,1.4236126224904297,-0.0,0.0,1.4236126224904297,-0.02929887560385758,0,0.02929887560385758,0.03145312235408915,0,-0.03145312235408915,-0.2891299727360197,0.5,0.7891299727360197,2.8472252449808595,2.909151336452391,0.0619260914715313,0.0037960496645273053,0.0042822487433675765,-1.4236126224904297,0.4,0.4315030574798584,5.413272380828857,GUIDED_NOGPS
0.002,8e-05,0.0,-1.7995630754189613,-0.00043283673007334843,-0.00014396504603351692,0.0,-0.0005768017761068653,0.05,0.004,0.04,-0.2582051644063055,0.0025412474160960664,-0.001032820657625222,0.00199414961999326,0.0035025763784641045,0.08,0.002,0.06,-0.3111078608394311,-0.004693995597758186,-0.0006222157216788623,-0.0045359903860849446,-0.009852201705521993,0.5,0,0,-6.46157581376444,2.391495708100304,-0.0,0.0,2.391495708100304,-0.058674944971977325,0,0.058674944971977325,0.050824948321921325,0,-0.050824948321921325,-0.21641836503667422,0.5,0.7164183650366742,4.782991416200608,4.847071672991346,0.06408025679073742,0.003491555374814839,0.009856112864505296,-2.391495708100304,0.4,0.38857316970825195,5.794581890106201,GUIDED_NOGPS
0.002,8e-05,0.0,-1.8699609003319204,-0.0003771898579149915,-0.00014959687202655364,0.0,-0.0005267867299415451,0.05,0.004,0.04,-0.2366065928361517,0.002893115714791561,-0.0009464263713446069,0.0007541207629857416,0.0027008101064326957,0.08,0.002,0.06,-0.3379689545088506,-0.005756843832681846,-0.0006759379090177012,-0.002135518259326875,-0.008568300001026423,0.5,0,0,-4.025565579992477,3.263021105737204,-0.0,0.0,3.263021105737204,-0.07196054790852308,0,0.07196054790852308,0.05786231429583122,0,-0.05786231429583122,-0.18859492895749574,0.5,0.6885949289574957,6.526042211474408,6.570309259822431,0.044267048348022725,0.002694189383212535,0.008570384104926877,-3.263021105737204,0.4,0.3732752799987793,6.167970418930054,GUIDED_NOGPS
0.002,8e-05,0.0,-1.934656445777839,-0.00034733267632344213,-0.00015477251566222713,0.0,-0.0005021051919856692,0.05,0.004,0.04,-0.2160419514271235,0.002760148279528977,-0.0008641678057084941,-0.0002855463066910794,0.0016104341671294032,0.08,0.002,0.06,-0.36130720783474124,-0.0050118677770000656,-0.0007226144156694825,0.001499839703607203,-0.004234642489062345,0.5,0,0,-1.0555736036629155,3.986268508471063,-0.0,0.0,3.986268508471063,-0.06264834721250082,0,0.06264834721250082,0.055202965590579536,0,-0.055202965590579536,-0.17366633816172106,0.5,0.6736663381617211,7.972537016942126,8.002539790539762,0.030002773597636315,0.0016082164878204093,0.004235485207757488,-3.986268508471063,0.4,0.3725278377532959,6.540722370147705,GUIDED_NOGPS
0.002,8e-05,0.0,-2.0020653148609813,-0.00036080983047112315,-0.0001601652251888785,-0.0,-0.0005209750556600017,0.05,0.004,0.04,-0.20862629925440165,0.0009923175687654845,-0.0008345051970176066,-0.0037849660303037724,-0.0036271536585558944,0.08,0.002,0.06,-0.37543033101332773,-0.0030237930106814005,-0.0007508606620266555,0.003990481496477561,0.0002158278237695049,0.5,0,0,2.33223173149718,4.533355496368823,0.0,0.0,4.533355496368823,-0.037797412633517505,0,0.037797412633517505,0.01984635137530969,0,-0.01984635137530969,-0.18040491523556157,0.5,0.6804049152355616,9.066710992737645,9.080328018195505,0.013617025457859751,-0.003627102262062933,-0.0002166898539997708,-4.533355496368823,0.4,0.3736531734466553,6.914399147033691,GUIDED_NOGPS
0.002,8e-05,0.0,-2.0801170803095665,-0.0003791233602660593,-0.00016640936642476533,-0.0,-0.0005455327266908246,0.05,0.004,0.04,-0.20367992519059014,0.0006006545609273912,-0.0008147197007623606,-0.0007609749492280409,-0.0009750400890630103,0.08,0.002,0.06,-0.3907457444858052,-0.0029756820931229723,-0.0007814914889716104,8.763401743095351e-05,-0.003669539564663629,0.5,0,0,6.348901503153657,4.877574940673923,0.0,0.0,4.877574940673923,-0.03719602616403715,0,0.03719602616403715,0.012013091218547822,0,-0.012013091218547822,-0.18956168013302965,0.5,0.6895616801330297,9.755149881347846,9.755937380195567,0.0007874988477205944,-0.0009750905247657185,0.003669526162929467,-4.877574940673923,0.4,0.41174864768981934,7.328373432159424,GUIDED_NOGPS
0.002,8e-05,0.0,-2.1521598218360944,-0.0003809826610682001,-0.00017217278574688756,-0.0,-0.0005531554468150877,0.05,0.004,0.04,-0.19324499808452208,0.0013795721167338595,-0.0007729799923380884,0.0016476556936946324,0.0022542478180904036,0.08,0.002,0.06,-0.38192679679875563,0.0018654848976818496,-0.0007638535935975113,0.009600554357130454,0.010702185661214792,0.5,0,0,10.129007161889383,4.997570478539451,0.0,0.0,4.997570478539451,0.023318561221023118,0,-0.023318561221023118,0.02759144233467719,0,-0.02759144233467719,-0.19049133053410006,0.5,0.6904913305341001,9.995140957078902,9.999444309209432,0.004303352130529474,0.0022550516278912573,-0.010702016319741894,-4.997570478539451,0.4,0.37819433212280273,7.7040300369262695,GUIDED_NOGPS
0.002,8e-05,0.0,-2.220604317900487,-0.00036042765586619677,-0.000177648345432039,0.0,-0.0005380760012982358,0.05,0.004,0.04,-0.17623334195711993,0.002239577940143233,-0.0007049333678284797,0.0018115109368098679,0.0033461555091246213,0.08,0.002,0.06,-0.3552762614178209,0.0056136522567964975,-0.0007105525228356419,0.00740167171606235,0.012304771450023205,0.5,0,0,13.841939689109584,4.88806129099229,0.0,-0.0,4.88806129099229,0.07017065320995622,0,-0.07017065320995622,0.04479155880286466,0,-0.04479155880286466,-0.18021382793309837,0.5,0.6802138279330984,9.77612258198458,9.800063584670868,0.023941002686288022,0.003351296757280232,-0.012303372187054825,-4.88806129099229,0.4,0.37979602813720703,8.084052562713623,GUIDED_NOGPS
0.002,8e-05,0.0,-2.2863780405790446,-0.0003391537943434788,-0.00018291024324632358,0.0,-0.0005220640375898024,0.05,0.004,0.04,-0.15063133801061224,0.0033003365278903084,-0.0006025253520424489,0.0021878664321618784,0.004885677608009738,0.08,0.002,0.06,-0.322563727143724,0.006747120077646428,-0.000645127454287448,0.0021917182304294945,0.008293710853788473,0.5,0,0,17.384410675544448,4.566574718115915,0.0,-0.0,4.566574718115915,0.08433900097058035,0,-0.08433900097058035,0.06600673055780616,0,-0.06600673055780616,-0.1695768971717394,0.5,0.6695768971717394,9.13314943623183,9.166626023425668,0.033476587193837115,0.0048905225955498,-0.008290854850862686,-4.566574718115915,0.4,0.38786959648132324,8.471960544586182,GUIDED_NOGPS
0.002,8e-05,0.0,-2.3417997807206254,-0.0002979997850951064,-0.00018734398245765006,0.0,-0.00048534376755275644,0.05,0.004,0.04,-0.12309331648705579,0.003701762374746938,-0.0004923732659482231,0.000863378275668012,0.004072767384466727,0.08,0.002,0.06,-0.2960983885780795,0.005692109403193722,-0.000592196777156159,-0.0021272763638655067,0.002972636262172057,0.5,0,0,20.39656465656852,4.049048427230326,0.0,-0.0,4.049048427230326,0.07115136753992153,0,-0.07115136753992153,0.07403524749493876,0,-0.07403524749493876,-0.1489998925475532,0.5,0.6489998925475532,8.098096854460652,8.127187352021913,0.02909049756126076,0.004074276141091133,-0.0029705680334393553,-4.049048427230326,0.4,0.37195825576782227,8.84398865699768,GUIDED_NOGPS
0.002,8e-05,0.0,-2.3915222106171297,-0.0002640534341403167,-0.0001913217768493704,0.0,-0.00045537521098968704,0.05,0.004,0.04,-0.09691889437167352,0.0034750142242600196,-0.0003876755774866941,-0.0004816629271390105,0.0026056757196343153,0.08,0.002,0.06,-0.2844831968361447,0.0024673221112001733,-0.0005689663936722894,-0.006422022419726036,-0.004523666702198153,0.5,0,0,22.934678800914096,3.3696953138128958,0.0,-0.0,3.3696953138128958,0.030841526390002164,0,-0.030841526390002164,0.06950028448520039,0,-0.06950028448520039,-0.13202671707015834,0.5,0.6320267170701583,6.7393906276257916,6.7277855841685845,-0.011605043457207136,0.0026065919177619364,0.004523138839647339,-3.3696953138128958,0.4,0.37660884857177734,9.220696449279785,GUIDED_NOGPS
0.002,8e-05,0.0,-2.4488173681261696,-0.0002812948777679281,-0.00019590538945009358,-0.0,-0.0004772002672180217,0.05,0.004,0.04,-0.0757750387647639,0.0025951836669398922,-0.0003031001550590556,-0.0017278376731143764,0.0005642458387664603,0.08,0.002,0.06,-0.28890086647632,-0.0008675552318753192,-0.0005778017329526401,-0.006139811517514221,-0.00758516848234218,0.5,0,0,25.004314971994596,2.54025854487055,0.0,-0.0,2.54025854487055,-0.01084444039844149,0,0.01084444039844149,0.05190367333879784,0,-0.05190367333879784,-0.14064743888396403,0.5,0.640647438883964,5.0805170897411,5.030401940639225,-0.050115149101875464,0.000570880174445585,0.007584672049502695,-2.54025854487055,0.4,0.4073672294616699,9.628268003463745,GUIDED_NOGPS
0.002,8e-05,0.0,-2.4973258910821445,-0.0002497209158277098,-0.0001997860712865716,0.0,-0.0004495069871142814,0.05,0.004,0.04,-0.07757533319886985,-0.00023169700263420067,-0.0003103013327954794,-0.005821090288668475,-0.0063630886240981545,0.08,0.002,0.06,-0.29589312752192337,-0.0014398408573266359,-0.0005917862550438468,-0.0011047931512399357,-0.0031364202636104182,0.5,0,0,26.228570997802372,1.5756114458987767,0.0,-0.0,1.5756114458987767,-0.017998010716582948,0,0.017998010716582948,-0.004633940052684013,0,0.004633940052684013,-0.12486045791385492,0.5,0.6248604579138549,3.1512228917975533,3.1102156249790487,-0.0410072668185046,-0.006360842221499474,0.003140973597676843,-1.5756114458987767,0.4,0.3885018825531006,10.016727447509766,GUIDED_NOGPS
0.002,8e-05,0.0,-2.5415656683025927,-0.00020794585212863836,-0.00020332525346420744,0.0,-0.00041127110559284583,0.05,0.004,0.04,-0.08976129563251065,-0.0014319807317540866,-0.00035904518253004257,-0.002256738514791692,-0.004047764429075821,0.08,0.002,0.06,-0.29965005979432924,-0.0007063674655340937,-0.0005993001195886585,0.001292864355221181,-1.2803229901571338e-05,0.5,0,0,26.680768447753948,0.5313802982777848,0.0,-0.0,0.5313802982777848,-0.00882959331917617,0,0.00882959331917617,-0.02863961463508173,0,0.02863961463508173,-0.10397292606431918,0.5,0.6039729260643192,1.0627605965555695,1.0522740443667222,-0.010486552188847385,-0.004047762017970227,1.3544071212585715e-05,-0.5313802982777848,0.4,0.4254932403564453,10.441863536834717,GUIDED_NOGPS
0.002,8e-05,0.0,-2.575923066330883,-0.00018278332989341096,-0.00020607384530647066,0.0,-0.0003888571751998816,0.05,0.004,0.04,-0.09787582069979925,-0.0010792434798767895,-0.000391503282799197,0.0007506329719438454,-0.000720113790732141,0.08,0.002,0.06,-0.29396245437696916,0.0012103354933325878,-0.0005879249087539383,0.003823863665582248,0.004446274250160897,0.5,0,0,26.286319605226698,-0.524622621672085,0.0,-0.0,-0.524622621672085,0.015129193666657346,0,-0.015129193666657346,-0.021584869597535788,0,0.021584869597535788,-0.09139166494670548,0.5,0.5913916649467055,-1.04924524334417,-1.0522740443666747,-0.0030288010225047596,-0.0007203488311217584,-0.004446236176897037,0.524622621672085,0.4,0.37593579292297363,10.817898273468018,GUIDED_NOGPS
0.002,8e-05,0.0,-2.602854616540728,-0.00013831052987989479,-0.00020822836932325825,0.0,-0.00034653889920315304,0.05,0.004,0.04,-0.09224680066225072,0.0007227143796324,-0.00036898720264900287,0.0037016769465999504,0.004055404123583348,0.08,0.002,0.06,-0.28749007652189446,0.0013295900217300232,-0.0005749801530437889,0.00022966776259684976,0.0009842776312830842,0.5,0,0,25.07250313794033,-1.5584286595016343,0.0,-0.0,-1.5584286595016343,0.01661987527162529,0,-0.01661987527162529,0.014454287592648,0,-0.014454287592648,-0.06915526493994739,0.5,0.5691552649399474,-3.1168573190032687,-3.110215624979003,0.006641694024265839,0.004055518193236859,-0.0009838075245422297,1.5584286595016343,0.4,0.3894360065460205,11.20729398727417,GUIDED_NOGPS
0.002,8e-05,0.0,-2.6224727558719296,-9.519513807862224e-05,-0.00020979782046975438,0.0,-0.0003049929585483766,0.05,0.004,0.04,-0.06905614070048882,0.002813261288346507,-0.0002762245628019553,0.004057671286254179,0.00659470801179873,0.08,0.002,0.06,-0.2932831294634312,-0.0011244093343536956,-0.0005865662589268624,-0.00446542362408888,-0.0061763992173694375,0.5,0,0,22.98024140463867,-2.5381248093377384,0.0,-0.0,-2.5381248093377384,-0.014055116679421196,0,0.014055116679421196,0.05626522576693013,0,-0.05626522576693013,-0.047597569039311116,0.5,0.5475975690393111,-5.076249618675477,-5.030401940639183,0.045847678036293776,0.006589763589977261,0.006181674278172068,2.5381248093377384,0.4,0.4121668338775635,11.619756698608398,GUIDED_NOGPS
0.002,8e-05,0.0,-2.632525917547465,-5.339995077209814e-05,-0.0002106020734037972,0.0,-0.00026400202417589533,0.05,0.004,0.04,-0.040270280125652924,0.0038225873293410402,-0.0001610811205026117,0.0021445178200313873,0.005806024028869816,0.08,0.002,0.06,-0.30629540914157743,-0.0027647226481465597,-0.0006125908182831549,-0.0032673545783804105,-0.0066446680448101255,0.5,0,0,20.42884295886072,-3.3881020668380013,0.0,-0.0,-3.3881020668380013,-0.034559033101832,0,0.034559033101832,0.0764517465868208,0,-0.0764517465868208,-0.02669997538604907,0.5,0.5266999753860491,-6.776204133676003,-6.727785584168561,0.0484185495074415,0.005800406792576281,0.006649572128353031,3.3881020668380013,0.4,0.3765232563018799,11.995965480804443,GUIDED_NOGPS
0.002,8e-05,0.0,-2.638719419298274,-3.4796030833867506e-05,-0.00021109755354386194,0.0,-0.00024589358437772943,0.05,0.004,0.04,-0.016203763083806628,0.0033802334395986707,-6.481505233522651e-05,-0.0009940844585986605,0.0023213339286647836,0.08,0.002,0.06,-0.323709414458188,-0.0039133807678913115,-0.000647418828916376,-0.0024200007298167854,-0.006980800326624473,0.5,0,0,17.525089247108827,-4.07843203059079,0.0,-0.0,-4.07843203059079,-0.04891725959864139,0,0.04891725959864139,0.06760466879197341,0,-0.06760466879197341,-0.017398015416933754,0.5,0.5173980154169338,-8.15686406118158,-8.127187352021895,0.02967670915968416,0.0023177178680337824,0.006982001739670907,4.07843203059079,0.4,0.3559889793395996,12.351784467697144,GUIDED_NOGPS
