D-kp,D-ki,D-kd,D-I-Tot,D-P,D-I,D-D,D-PID,E-kp,E-ki,E-kd,E-I-Tot,E-P,E-I,E-D,E-PID,N-kp,N-ki,N-kd,N-I-Tot,N-P,N-I,N-D,N-PID,Y-kp,Y-ki,Y-kd,Y-I-Tot,Y-P,Y-I,Y-D,Y-PID,errorN,desiredN,actualN,errorE,desiredE,actualE,errorD,desiredD,actualD,errorY,desiredY,actualY,roll,pitch,yaw-rate,thrust,dt,Time,Mode
0.05,0.004,0.04,-0.004730463505480069,-0.006984005886434351,-1.8921854021920278e-05,-0.16497778931047768,-0.17198071705093396,0.08,0.002,0.06,-0.0034528598064261025,-0.008156424649779496,-6.905719612852205e-06,-0.1806308759183754,-0.18879420628776775,0.5,0,0,-0.004930608548875437,-0.07279497894689903,-0.0,-0.0,-0.07279497894689903,0.002,8e-05,0.0,-0.006685503663053747,-0.0003948162532695181,-5.348402930442998e-07,-0.0,-0.0003953510935625624,-0.1019553081222437,0,0.1019553081222437,-0.13968011772868702,0,0.13968011772868702,-0.19740812663475904,0.5,0.697408126634759,-0.14558995789379806,0.0,0.14558995789379806,-0.1724598919445987,0.18835659010408676,0.07279497894689903,0.4,0.03386640548706055,0.03437948226928711,GUIDED_NOGPS
0.05,0.004,0.04,-0.010362454527094708,-0.006984005886434351,-4.1449818108378835e-05,0.0,-0.00702545570454273,0.08,0.002,0.06,-0.007563762555418423,-0.008156424649779496,-1.5127525110836847e-05,0.0,-0.008171552174890333,0.5,0,0,0.07358471816227767,0.9736370349695663,0.0,0.0,0.9736370349695663,0.002,8e-05,0.0,-0.014645124651921158,-0.0003948162532695181,-1.1716099721536928e-06,0.0,-0.00039598786324167176,-0.1019553081222437,0,0.1019553081222437,-0.13968011772868702,0,0.13968011772868702,-0.19740812663475904,0.5,0.697408126634759,1.9472740699391327,2.0928640278329307,0.14558995789379806,-0.007046197112415612,0.00815367396064086,-0.9736370349695663,0.4,0.040320634841918945,0.07448720932006836,GUIDED_NOGPS
0.05,0.004,0.04,-0.015025114478112438,-0.006984005886434351,-6.010045791244975e-05,0.0,-0.007044106344346801,0.08,0.002,0.06,-0.010967131193026794,-0.008156424649779496,-2.193426238605359e-05,0.0,-0.00817835891216555,0.5,0,0,0.2053542408374166,1.9737212914592739,0.0,0.0,1.9737212914592739,0.002,8e-05,0.0,-0.02123480241732219,-0.0003948162532695181,-1.6987841933857755e-06,0.0,-0.0003965150374629039,-0.1019553081222437,0,0.1019553081222437,-0.13968011772868702,0,0.13968011772868702,-0.19740812663475904,0.5,0.697408126634759,3.9474425829185478,4.093032540812346,0.14558995789379806,-0.00706486498807296,0.008160433284266553,-1.9737212914592739,0.4,0.033380985260009766,0.10785412788391113,GUIDED_NOGPS
0.05,0.004,0.04,-0.019702760479969092,-0.006984005886434351,-7.881104191987637e-05,0.0,-0.007062816928354227,0.08,0.002,0.06,-0.01438143844849763,-0.008156424649779496,-2.876287689699526e-05,0.0,-0.008185187526676492,0.5,0,0,0.3984585324670744,2.883162832121032,0.0,0.0,2.883162832121032,0.002,8e-05,0.0,-0.027845659776998134,-0.0003948162532695181,-2.227652782159851e-06,0.0,-0.00039704390605167794,-0.1019553081222437,0,0.1019553081222437,-0.13968011772868702,0,0.13968011772868702,-0.19740812663475904,0.5,0.697408126634759,5.766325664242064,5.911915622135862,0.14558995789379806,-0.007083592863330662,0.008167214332737838,-2.883162832121032,0.4,0.03348827362060547,0.14134836196899414,GUIDED_NOGPS
0.05,0.004,0.04,-0.02788334591192182,-0.006984005886434351,-0.00011153338364768729,0.0,-0.007095539270082038,0.08,0.002,0.06,-0.020352611167260188,-0.008156424649779496,-4.070522233452038e-05,0.0,-0.008197129872114017,0.5,0,0,0.8273627717377925,3.661681375618024,0.0,0.0,3.661681375618024,0.002,8e-05,0.0,-0.03940717669978724,-0.0003948162532695181,-3.152574135982979e-06,0.0,-0.00039796882740550106,-0.1019553081222437,0,0.1019553081222437,-0.13968011772868702,0,0.13968011772868702,-0.19740812663475904,0.5,0.697408126634759,7.323362751236048,7.468952709129846,0.14558995789379806,-0.0071163454451728505,0.00817907349145048,-3.661681375618024,0.4,0.05856657028198242,0.19997310638427734,GUIDED_NOGPS
0.05,0.004,0.04,-0.03052635244254514,-0.006984005886434351,-0.00012210540977018055,0.0,-0.007106111296204531,0.08,0.002,0.06,-0.022281794429563958,-0.008156424649779496,-4.4563588859127916e-05,0.0,-0.008200988238638624,0.5,0,0,0.9891368637432625,4.274795380745116,0.0,0.0,4.274795380745116,0.002,8e-05,0.0,-0.04314250407764087,-0.0003948162532695181,-3.45140032621127e-06,0.0,-0.00039826765359572935,-0.1019553081222437,0,0.1019553081222437,-0.13968011772868702,0,0.13968011772868702,-0.19740812663475904,0.5,0.697408126634759,8.549590761490231,8.695180719384028,0.14558995789379806,-0.007126927241356478,0.008182904981774238,-4.274795380745116,0.4,0.018921852111816406,0.2188398838043213,GUIDED_NOGPS
0.05,0.004,0.04,-0.035606656979276126,-0.006984005886434351,-0.0001424266279171045,0.0,-0.007126432514351456,0.08,0.002,0.06,-0.02599001019297939,-0.008156424649779496,-5.1980020385958784e-05,0.0,-0.008208404670165455,0.5,0,0,1.3306858918685545,4.695349276183129,0.0,0.0,4.695349276183129,0.002,8e-05,0.0,-0.05032243360260118,-0.0003948162532695181,-4.025794688208095e-06,0.0,-0.00039884204795772617,-0.1019553081222437,0,0.1019553081222437,-0.13968011772868702,0,0.13968011772868702,-0.19740812663475904,0.5,0.697408126634759,9.390698552366258,9.536288510260055,0.14558995789379806,-0.007147267239209517,0.008190269752707906,-4.695349276183129,0.4,0.03637099266052246,0.25522828102111816,GUIDED_NOGPS
0.05,0.004,0.04,-0.04034927583710332,-0.006984005886434351,-0.0001613971033484133,0.0,-0.007145402989782764,0.08,0.002,0.06,-0.029451742433893938,-0.008156424649779496,-5.8903484867787876e-05,0.0,-0.008215328134647284,0.5,0,0,1.6637497521708313,4.904716214060996,0.0,0.0,4.904716214060996,0.002,8e-05,0.0,-0.05702511626990013,-0.0003948162532695181,-4.562009301592011e-06,0.0,-0.0003993782625711101,-0.1019553081222437,0,0.1019553081222437,-0.13968011772868702,0,0.13968011772868702,-0.19740812663475904,0.5,0.697408126634759,9.809432428121992,9.95502238601579,0.14558995789379806,-0.0071662552460678725,0.0081971449904542,-4.904716214060996,0.4,0.03395342826843262,0.28922057151794434,GUIDED_NOGPS
0.05,0.004,0.04,-0.04503051849116132,-0.006984005886434351,-0.0001801220739646453,0.0,-0.007164127960398997,0.08,0.002,0.06,-0.032868674957651764,-0.008156424649779496,-6.573734991530353e-05,0.0,-0.0082221619996948,0.5,0,0,1.9917597431168583,4.893623075895244,0.0,-0.0,4.893623075895244,0.002,8e-05,0.0,-0.06364105673220205,-0.0003948162532695181,-5.091284538576165e-06,0.0,-0.00039990753780809425,-0.1019553081222437,0,0.1019553081222437,-0.13968011772868702,0,0.13968011772868702,-0.19740812663475904,0.5,0.697408126634759,9.787246151790487,9.932836109684285,0.14558995789379806,-0.007184997521229661,0.008203931252888428,-4.893623075895244,0.4,0.03351402282714844,0.32271718978881836,GUIDED_NOGPS
0.05,0.004,0.04,-0.04970230328202319,-0.006984005886434351,-0.00019880921312809277,0.0,-0.007182815099562444,0.08,0.002,0.06,-0.03627870399813639,-0.008156424649779496,-7.255740799627278e-05,0.0,-0.00822898205777577,0.5,0,0,2.303650695242181,4.6625611903818305,0.0,-0.0,4.6625611903818305,0.002,8e-05,0.0,-0.07024363051722825,-0.0003948162532695181,-5.61949044137826e-06,0.0,-0.00040043574371089634,-0.1019553081222437,0,0.1019553081222437,-0.13968011772868702,0,0.13968011772868702,-0.19740812663475904,0.5,0.697408126634759,9.325122380763661,9.470712338657458,0.14558995789379806,-0.007203701929977003,0.008210703804531216,-4.6625611903818305,0.4,0.033446311950683594,0.35615992546081543,GUIDED_NOGPS
0.05,0.004,0.04,-0.054415016642842935,-0.006984005886434351,-0.00021766006657137173,0.0,-0.007201665953005722,0.08,0.002,0.06,-0.03971860761940539,-0.008156424649779496,-7.943721523881079e-05,0.0,-0.008235861865018308,0.5,0,0,2.5885296977444217,4.221764571845551,0.0,-0.0,4.221764571845551,0.002,8e-05,0.0,-0.0769040481275075,-0.0003948162532695181,-6.1523238502006e-06,0.0,-0.0004009685771197187,-0.1019553081222437,0,0.1019553081222437,-0.13968011772868702,0,0.13968011772868702,-0.19740812663475904,0.5,0.697408126634759,8.443529143691102,8.589119101584899,0.14558995789379806,-0.007222570204299538,0.00821753568914119,-4.221764571845551,0.4,0.033739328384399414,0.38991618156433105,GUIDED_NOGPS
0.05,0.004,0.04,-0.059089831946207795,-0.006984005886434351,-0.00023635932778483118,0.0,-0.007220365214219182,0.08,0.002,0.06,-0.04313084869150221,-0.008156424649779496,-8.626169738300442e-05,0.0,-0.008242686347162501,0.5,0,0,2.828880642162464,3.590756643192776,0.0,-0.0,3.590756643192776,0.002,8e-05,0.0,-0.08351090489715374,-0.0003948162532695181,-6.680872391772299e-06,0.0,-0.00040149712566129036,-0.1019553081222437,0,0.1019553081222437,-0.13968011772868702,0,0.13968011772868702,-0.19740812663475904,0.5,0.697408126634759,7.181513286385552,7.327103244279351,0.14558995789379806,-0.007241286746299396,0.008224312634030532,-3.590756643192776,0.4,0.033468008041381836,0.4234123229980469,GUIDED_NOGPS
0.05,0.004,0.04,-0.06376564631962858,-0.006984005886434351,-0.0002550625852785143,0.0,-0.007239068471712865,0.08,0.002,0.06,-0.046543819004789856,-0.008156424649779496,-9.308763800957971e-05,0.0,-0.008249512287789076,0.5,0,0,3.0161731962426512,2.7974855195639248,0.0,-0.0,2.7974855195639248,0.002,8e-05,0.0,-0.09011917363975164,-0.0003948162532695181,-7.209533891180131e-06,0.0,-0.0004020257871606982,-0.1019553081222437,0,0.1019553081222437,-0.13968011772868702,0,0.13968011772868702,-0.19740812663475904,0.5,0.697408126634759,5.5949710391278495,5.740560997021648,0.14558995789379806,-0.007260007288272612,0.008231091027242912,-2.7974855195639248,0.4,0.03347516059875488,0.4568955898284912,GUIDED_NOGPS
0.05,0.004,0.04,-0.068446622555005,-0.006984005886434351,-0.00027378649022002,0.0,-0.007257792376654371,0.08,0.002,0.06,-0.04996055706423013,-0.008156424649779496,-9.992111412846026e-05,0.0,-0.008256345763907956,0.5,0,0,3.1419834520227803,1.8770861520333622,0.0,-0.0,1.8770861520333622,0.002,8e-05,0.0,-0.09673473757593312,-0.0003948162532695181,-7.73877900607465e-06,0.0,-0.0004025550322755927,-0.1019553081222437,0,0.1019553081222437,-0.13968011772868702,0,0.13968011772868702,-0.19740812663475904,0.5,0.697408126634759,3.7541723040667243,3.8997622619605226,0.14558995789379806,-0.007278748496774838,0.008237876903457663,-1.8770861520333622,0.4,0.033512115478515625,0.4903838634490967,GUIDED_NOGPS
0.05,0.004,0.04,-0.0731208384163363,-0.006984005886434351,-0.00029248335366534523,0.0,-0.007276489240099696,0.08,0.002,0.06,-0.05337236059161245,-0.008156424649779496,-0.0001067447211832249,0.0,-0.008263169370962721,0.5,0,0,3.200232013776299,0.8703241575305479,0.0,-0.0,0.8703241575305479,0.002,8e-05,0.0,-0.10334074716180837,-0.0003948162532695181,-8.26725977294467e-06,0.0,-0.0004030835130424627,-0.1019553081222437,0,0.1019553081222437,-0.13968011772868702,0,0.13968011772868702,-0.19740812663475904,0.5,0.697408126634759,1.7406483150610959,1.8862382729548939,0.14558995789379806,-0.007297462638790681,0.00824465297935318,-0.8703241575305479,0.4,0.03346371650695801,0.5238616466522217,GUIDED_NOGPS
0.05,0.004,0.04,-0.07780527809457327,-0.006984005886434351,-0.00031122111237829307,0.0,-0.007295226998812644,0.08,0.002,0.06,-0.056791626687180935,-0.008156424649779496,-0.00011358325337436187,0.0,-0.008270007903153858,0.5,0,0,3.1882788053705102,-0.17820974033595222,0.0,-0.0,-0.17820974033595222,0.002,8e-05,0.0,-0.10996120593755561,-0.0003948162532695181,-8.79689647500445e-06,0.0,-0.00040361314974452254,-0.1019553081222437,0,0.1019553081222437,-0.13968011772868702,0,0.13968011772868702,-0.19740812663475904,0.5,0.697408126634759,-0.35641948067190443,-0.21082952277810635,0.14558995789379806,-0.007316217713867212,0.008251443876421134,0.17820974033595222,0.4,0.03353691101074219,0.5574145317077637,GUIDED_NOGPS
0.05,0.004,0.04,-0.08247386586125617,-0.006984005886434351,-0.0003298954634450247,0.0,-0.007313901349879376,0.08,0.002,0.06,-0.060199322155854905,-0.008156424649779496,-0.00012039864431170982,0.0,-0.008276823294091207,0.5,0,0,3.106586964951451,-1.2220746891211152,0.0,-0.0,-1.2220746891211152,0.002,8e-05,0.0,-0.1165592614091365,-0.0003948162532695181,-9.32474091273092e-06,0.0,-0.000404140994182249,-0.1019553081222437,0,0.1019553081222437,-0.13968011772868702,0,0.13968011772868702,-0.19740812663475904,0.5,0.697408126634759,-2.4441493782422303,-2.298559420348432,0.14558995789379806,-0.007334909322699811,0.008258211793430196,1.2220746891211152,0.4,0.033423423767089844,0.5908396244049072,GUIDED_NOGPS
0.05,0.004,0.04,-0.08716613158826458,-0.006984005886434351,-0.00034866452635305836,0.0,-0.00733267041278741,0.08,0.002,0.06,-0.06362430064075157,-0.008156424649779496,-0.00012724860128150316,0.0,-0.008283673251061,0.5,0,0,2.9577677825026525,-2.2150366298615496,0.0,-0.0,-2.2150366298615496,0.002,8e-05,0.0,-0.12319078063967175,-0.0003948162532695181,-9.85526245117374e-06,0.0,-0.0004046715157206918,-0.1019553081222437,0,0.1019553081222437,-0.13968011772868702,0,0.13968011772868702,-0.19740812663475904,0.5,0.697408126634759,-4.430073259723099,-4.284483301829301,0.14558995789379806,-0.007353695730900973,0.008265014035695293,2.2150366298615496,0.4,0.033592939376831055,0.6244046688079834,GUIDED_NOGPS
0.05,0.004,0.04,-0.0918498719174624,-0.006984005886434351,-0.0003673994876698496,0.0,-0.007351405374104201,0.08,0.002,0.06,-0.06704305626748648,-0.008156424649779496,-0.00013408611253497296,0.0,-0.00829051076231447,0.5,0,0,2.748990363382493,-3.1131160602566808,0.0,-0.0,-3.1131160602566808,0.002,8e-05,0.0,-0.1298102510343528,-0.0003948162532695181,-1.0384820082748226e-05,0.0,-0.0004052010733522663,-0.1019553081222437,0,0.1019553081222437,-0.13968011772868702,0,0.13968011772868702,-0.19740812663475904,0.5,0.697408126634759,-6.2262321205133615,-6.080642162619563,0.14558995789379806,-0.007372448005996153,0.008271803918937122,3.1131160602566808,0.4,0.033531904220581055,0.6579833030700684,GUIDED_NOGPS
0.05,0.004,0.04,-0.09660238156884329,-0.006984005886434351,-0.00038640952627537315,0.0,-0.007370415412709724,0.08,0.002,0.06,-0.07051200799619026,-0.008156424649779496,-0.00014102401599238053,0.0,-0.008297448665771878,0.5,0,0,2.4851979959072734,-3.876535940769905,0.0,-0.0,-3.876535940769905,0.002,8e-05,0.0,-0.1365269122338732,-0.0003948162532695181,-1.0922152978709857e-05,0.0,-0.0004057384062482279,-0.1019553081222437,0,0.1019553081222437,-0.13968011772868702,0,0.13968011772868702,-0.19740812663475904,0.5,0.697408126634759,-7.75307188153981,-7.607481923646012,0.14558995789379806,-0.007391475612590744,0.008278693495081507,3.876535940769905,0.4,0.03402423858642578,0.6920058727264404,GUIDED_NOGPS
0.05,0.004,0.04,-0.10127742998855453,-0.006984005886434351,-0.0004051097199542181,0.0,-0.0073891156063885695,0.08,0.002,0.06,-0.07392441922456493,-0.008156424649779496,-0.00014784883844912985,0.0,-0.008304273488228627,0.5,0,0,2.1858797813596995,-4.471483468499334,0.0,-0.0,-4.471483468499334,0.002,8e-05,0.0,-0.14313409846387481,-0.0003948162532695181,-1.1450727877109987e-05,0.0,-0.00040626698114662804,-0.1019553081222437,0,0.1019553081222437,-0.13968011772868702,0,0.13968011772868702,-0.19740812663475904,0.5,0.697408126634759,-8.942966936998667,-8.79737697910487,0.14558995789379806,-0.00741019308791772,0.00828547077791289,4.471483468499334,0.4,0.03346967697143555,0.7254889011383057,GUIDED_NOGPS
0.05,0.004,0.04,-0.10594901496540522,-0.006984005886434351,-0.0004237960598616209,0.0,-0.007407801946295972,0.08,0.002,0.06,-0.07733430241681138,-0.008156424649779496,-0.00015466860483362278,0.0,-0.008311093254613119,0.5,0,0,1.8600190982932816,-4.871607687692328,0.0,-0.0,-4.871607687692328,0.002,8e-05,0.0,-0.14973638985431068,-0.0003948162532695181,-1.1978911188344855e-05,0.0,-0.00040679516445786296,-0.1019553081222437,0,0.1019553081222437,-0.13968011772868702,0,0.13968011772868702,-0.19740812663475904,0.5,0.697408126634759,-9.743215375384656,-9.597625417490859,0.14558995789379806,-0.007428896696670389,0.008292243039891067,4.871607687692328,0.4,0.033444881439208984,0.7588953971862793,GUIDED_NOGPS
0.05,0.004,0.04,-0.11070289001252921,-0.006984005886434351,-0.00044281156005011684,0.0,-0.007426817446484468,0.08,0.002,0.06,-0.08080425077514262,-0.008156424649779496,-0.00016160850155028526,0.0,-0.008318033151329781,0.5,0,0,1.5156502452939598,-5.059186605897302,0.0,-0.0,-5.059186605897302,0.002,8e-05,0.0,-0.15645498075019834,-0.0003948162532695181,-1.2516398460015868e-05,0.0,-0.00040733265172953394,-0.1019553081222437,0,0.1019553081222437,-0.13968011772868702,0,0.13968011772868702,-0.19740812663475904,0.5,0.697408126634759,-10.118373211794603,-9.972783253900806,0.14558995789379806,-0.007447929769895235,0.008299134595410273,5.059186605897302,0.4,0.034034013748168945,0.7929496765136719,GUIDED_NOGPS
0.05,0.004,0.04,-0.11538090234007305,-0.006984005886434351,-0.0004615236093602922,0.0,-0.007445529495794643,0.08,0.002,0.06,-0.0842188254190501,-0.008156424649779496,-0.0001684376508381002,0.0,-0.008324862300617597,0.5,0,0,1.1790056426164401,-5.025912122746798,0.0,0.0,-5.025912122746798,0.002,8e-05,0.0,-0.1630663558332899,-0.0003948162532695181,-1.3045308466663194e-05,0.0,-0.00040786156173618126,-0.1019553081222437,0,0.1019553081222437,-0.13968011772868702,0,0.13968011772868702,-0.19740812663475904,0.5,0.697408126634759,-10.051824245493597,-9.9062342875998,0.14558995789379806,-0.007466659111809836,0.00830591617493334,5.025912122746798,0.4,0.033490896224975586,0.8264360427856445,GUIDED_NOGPS
0.05,0.004,0.04,-0.12005521810840994,-0.006984005886434351,-0.00048022087243363977,0.0,-0.007464226758867991,0.08,0.002,0.06,-0.0876307018705515,-0.008156424649779496,-0.000175261403741103,0.0,-0.008331686053520599,0.5,0,0,0.8595369089671908,-4.7732580059132985,0.0,0.0,-4.7732580059132985,0.002,8e-05,0.0,-0.16967250661646033,-0.0003948162532695181,-1.3573800529316827e-05,0.0,-0.0004083900537988349,-0.1019553081222437,0,0.1019553081222437,-0.13968011772868702,0,0.13968011772868702,-0.19740812663475904,0.5,0.697408126634759,-9.546516011826597,-9.4009260539328,0.14558995789379806,-0.007485373653823016,0.008312692395661162,4.7732580059132985,0.4,0.03346443176269531,0.8599667549133301,GUIDED_NOGPS
0.05,0.004,0.04,-0.12473699359983109,-0.006984005886434351,-0.0004989479743993244,0.0,-0.007482953860833676,0.08,0.002,0.06,-0.09104802332294444,-0.008156424649779496,-0.0001820960466458889,0.0,-0.008338520696425385,0.5,0,0,0.5704512840843947,-4.31241461613132,0.0,0.0,-4.31241461613132,0.002,8e-05,0.0,-0.17628920013100313,-0.0003948162532695181,-1.4103136010480251e-05,0.0,-0.0004089193892799983,-0.1019553081222437,0,0.1019553081222437,-0.13968011772868702,0,0.13968011772868702,-0.19740812663475904,0.5,0.697408126634759,-8.62482923226264,-8.479239274368842,0.14558995789379806,-0.007504118062303927,0.008319479430534344,4.31241461613132,0.4,0.03351783752441406,0.8934597969055176,GUIDED_NOGPS
0.05,0.004,0.04,-0.1294111095541568,-0.006984005886434351,-0.0005176444382166272,0.0,-0.007501650324650978,0.08,0.002,0.06,-0.09445975392620767,-0.008156424649779496,-0.00018891950785241535,0.0,-0.008345344157631912,0.5,0,0,0.3252482463676837,-3.66379327239463,0.0,0.0,-3.66379327239463,0.002,8e-05,0.0,-0.1828950685195832,-0.0003948162532695181,-1.4631605481566658e-05,0.0,-0.00040944785875108474,-0.1019553081222437,0,0.1019553081222437,-0.13968011772868702,0,0.13968011772868702,-0.19740812663475904,0.5,0.697408126634759,-7.32758654478926,-7.181996586895462,0.14558995789379806,-0.007522831804322436,0.008326255361597559,3.66379327239463,0.4,0.0334630012512207,0.9269349575042725,GUIDED_NOGPS
0.05,0.004,0.04,-0.13408755667194633,-0.006984005886434351,-0.0005363502266877853,0.0,-0.007520356113122136,0.08,0.002,0.06,-0.09787318609224951,-0.008156424649779496,-0.00019574637218449905,0.0,-0.008352171021963995,0.5,0,0,0.13400407085673244,-2.856122209601937,0.0,0.0,-2.856122209601937,0.002,8e-05,0.0,-0.18950423151171716,-0.0003948162532695181,-1.5160338520937374e-05,0.0,-0.00040997659179045545,-0.1019553081222437,0,0.1019553081222437,-0.13968011772868702,0,0.13968011772868702,-0.19740812663475904,0.5,0.697408126634759,-5.712244419203874,-5.566654461310076,0.14558995789379806,-0.00754155487961211,0.008333034672081194,2.856122209601937,0.4,0.03347969055175781,0.9604456424713135,GUIDED_NOGPS
0.05,0.004,0.04,-0.13876267169632797,-0.006984005886434351,-0.0005550506867853119,0.0,-0.007539056573219663,0.08,0.002,0.06,-0.10128564593670358,-0.008156424649779496,-0.00020257129187340717,0.0,-0.008358995941652904,0.5,0,0,0.005132319713936573,-1.9251741697958218,0.0,0.0,-1.9251741697958218,0.002,8e-05,0.0,-0.1961115118732489,-0.0003948162532695181,-1.5688920949859914e-05,0.0,-0.000410505174219378,-0.1019553081222437,0,0.1019553081222437,-0.13968011772868702,0,0.13968011772868702,-0.19740812663475904,0.5,0.697408126634759,-3.8503483395916436,-3.7047583816978453,0.14558995789379806,-0.007560272621603976,0.00833981205146745,1.9251741697958218,0.4,0.03347015380859375,0.9938743114471436,GUIDED_NOGPS
0.05,0.004,0.04,-0.14343302448677636,-0.006984005886434351,-0.0005737320979471055,0.0,-0.007557737984381457,0.08,0.002,0.06,-0.10469462973148136,-0.008156424649779496,-0.0002093892594629627,0.0,-0.008365813909242459,0.5,0,0,-0.055867223263194904,-0.9121819835396013,-0.0,0.0,-0.9121819835396013,0.002,8e-05,0.0,-0.20271206183037774,-0.0003948162532695181,-1.621696494643022e-05,0.0,-0.0004110332182159483,-0.1019553081222437,0,0.1019553081222437,-0.13968011772868702,0,0.13968011772868702,-0.19740812663475904,0.5,0.697408126634759,-1.8243639670792027,-1.6787740091854046,0.14558995789379806,-0.007578971297056172,0.008346582527180546,0.9121819835396013,0.4,0.03343605995178223,1.0273208618164062,GUIDED_NOGPS
0.05,0.004,0.04,-0.14810637448739253,-0.006984005886434351,-0.0005924254979495701,0.0,-0.007576431384383921,0.08,0.002,0.06,-0.10810580124983162,-0.008156424649779496,-0.00021621160249966323,0.0,-0.00837263625227916,0.5,0,0,-0.04663377260998374,0.1379876827235828,-0.0,0.0,0.1379876827235828,0.002,8e-05,0.0,-0.20931684770636155,-0.0003948162532695181,-1.6745347816508925e-05,0.0,-0.000411561601086027,-0.1019553081222437,0,0.1019553081222437,-0.13968011772868702,0,0.13968011772868702,-0.19740812663475904,0.5,0.697408126634759,0.2759753654471656,0.42156532334096364,0.14558995789379806,-0.007597681972428438,0.008353357347862762,-0.1379876827235828,0.4,0.03345751762390137,1.0608112812042236,GUIDED_NOGPS
0.05,0.004,0.04,-0.15285565381225924,-0.006984005886434351,-0.000611422615249037,0.0,-0.007595428501683388,0.08,0.002,0.06,-0.11157239509868504,-0.008156424649779496,-0.00022314479019737007,0.0,-0.008379569439976867,0.5,0,0,0.03352871284444683,1.1788215263600281,0.0,0.0,1.1788215263600281,0.002,8e-05,0.0,-0.21602894352667157,-0.0003948162532695181,-1.728231548213373e-05,0.0,-0.0004120985687516518,-0.1019553081222437,0,0.1019553081222437,-0.13968011772868702,0,0.13968011772868702,-0.19740812663475904,0.5,0.697408126634759,2.3576430527200563,2.5032330106138545,0.14558995789379806,-0.007616696645775843,0.008360242241095986,-1.1788215263600281,0.4,0.03400111198425293,1.0947587490081787,GUIDED_NOGPS
0.05,0.004,0.04,-0.15753203432537838,-0.006984005886434351,-0.0006301281373015136,0.0,-0.007614134023735865,0.08,0.002,0.06,-0.1149857786486475,-0.008156424649779496,-0.000229971557297295,0.0,-0.008386396207076792,0.5,0,0,0.17844146323076188,2.1642197397712706,0.0,0.0,2.1642197397712706,0.002,8e-05,0.0,-0.2226380123872754,-0.0003948162532695181,-1.7811040990982035e-05,0.0,-0.0004126272942605001,-0.1019553081222437,0,0.1019553081222437,-0.13968011772868702,0,0.13968011772868702,-0.19740812663475904,0.5,0.697408126634759,4.328439479542541,4.474029437436339,0.14558995789379806,-0.007635419454400626,0.008367021455024755,-2.1642197397712706,0.4,0.03347921371459961,1.1282470226287842,GUIDED_NOGPS
0.05,0.004,0.04,-0.16220768218712317,-0.006984005886434351,-0.0006488307287484927,0.0,-0.0076328366151828435,0.08,0.002,0.06,-0.11839862742173667,-0.008156424649779496,-0.00023679725484347333,0.0,-0.00839322190462297,0.5,0,0,0.3826686775525831,3.0505378274176356,0.0,0.0,3.0505378274176356,0.002,8e-05,0.0,-0.22924604580104802,-0.0003948162532695181,-1.8339683664083843e-05,0.0,-0.0004131559369336019,-0.1019553081222437,0,0.1019553081222437,-0.13968011772868702,0,0.13968011772868702,-0.19740812663475904,0.5,0.697408126634759,6.101075654835271,6.246665612729069,0.14558995789379806,-0.007654139329711615,0.00837379960684996,-3.0505378274176356,0.4,0.033473968505859375,1.1617205142974854,GUIDED_NOGPS
0.05,0.004,0.04,-0.16689342065643284,-0.006984005886434351,-0.0006675736826257314,0.0,-0.007651579569060082,0.08,0.002,0.06,-0.12181884153085323,-0.008156424649779496,-0.00024363768306170648,0.0,-0.008400062332841202,0.5,0,0,0.6375205498532714,3.7985196740590683,0.0,0.0,3.7985196740590683,0.002,8e-05,0.0,-0.2358683401416324,-0.0003948162532695181,-1.8869467211330593e-05,0.0,-0.00041368572048084865,-0.1019553081222437,0,0.1019553081222437,-0.13968011772868702,0,0.13968011772868702,-0.19740812663475904,0.5,0.697408126634759,7.597039348118137,7.742629306011935,0.14558995789379806,-0.00767289960475351,0.008380592386737865,-3.7985196740590683,0.4,0.03354620933532715,1.1952877044677734,GUIDED_NOGPS
0.05,0.004,0.04,-0.1715821230335751,-0.006984005886434351,-0.0006863284921343004,0.0,-0.007670334378568651,0.08,0.002,0.06,-0.1252412190555026,-0.008156424649779496,-0.00025048243811100516,0.0,-0.008406907087890502,0.5,0,0,0.9312379833926641,4.3750362462498185,0.0,0.0,4.3750362462498185,0.002,8e-05,0.0,-0.24249482333530673,-0.0003948162532695181,-1.9399585866824538e-05,0.0,-0.0004142158391363426,-0.1019553081222437,0,0.1019553081222437,-0.13968011772868702,0,0.13968011772868702,-0.19740812663475904,0.5,0.697408126634759,8.750072492499637,8.895662450393434,0.14558995789379806,-0.0076916717463830315,0.008387389463317458,-4.3750362462498185,0.4,0.03356742858886719,1.228891134262085,GUIDED_NOGPS
0.05,0.004,0.04,-0.17628064959960066,-0.006984005886434351,-0.0007051225983984026,0.0,-0.007689128484832754,0.08,0.002,0.06,-0.1286707674518618,-0.008156424649779496,-0.0002573415349037236,0.0,-0.00841376618468322,0.5,0,0,1.2511030229905697,4.7545529178650545,0.0,0.0,4.7545529178650545,0.002,8e-05,0.0,-0.24913519092967237,-0.0003948162532695181,-1.9930815274373792e-05,0.0,-0.0004147470685438919,-0.1019553081222437,0,0.1019553081222437,-0.13968011772868702,0,0.13968011772868702,-0.19740812663475904,0.5,0.697408126634759,9.509105835730109,9.654695793623906,0.14558995789379806,-0.007710483221083897,0.00839420078174027,-4.7545529178650545,0.4,0.03363776206970215,1.2625348567962646,GUIDED_NOGPS
0.05,0.004,0.04,-0.18112857044132272,-0.006984005886434351,-0.0007245142817652909,0.0,-0.007708520168199642,0.08,0.002,0.06,-0.13220936171428993,-0.008156424649779496,-0.0002644187234285799,0.0,-0.008420843373208076,0.5,0,0,1.5926410095447927,4.920260430012171,0.0,0.0,4.920260430012171,0.002,8e-05,0.0,-0.2559866955460764,-0.0003948162532695181,-2.0478935643686114e-05,0.0,-0.0004152951889132042,-0.1019553081222437,0,0.1019553081222437,-0.13968011772868702,0,0.13968011772868702,-0.19740812663475904,0.5,0.697408126634759,9.840520860024341,9.986110817918139,0.14558995789379806,-0.0077298928251340856,0.008401228672734936,-4.920260430012171,0.4,0.03470730781555176,1.2972402572631836,GUIDED_NOGPS
0.05,0.004,0.04,-0.18580604993150338,-0.006984005886434351,-0.0007432241997260135,0.0,-0.007727230086160364,0.08,0.002,0.06,-0.13562354742956229,-0.008156424649779496,-0.0002712470948591246,0.0,-0.008427671744638621,0.5,0,0,1.9184582168552997,4.864819393724998,0.0,-0.0,4.864819393724998,0.002,8e-05,0.0,-0.26259731757692706,-0.0003948162532695181,-2.1007785406154166e-05,0.0,-0.0004158240386756722,-0.1019553081222437,0,0.1019553081222437,-0.13968011772868702,0,0.13968011772868702,-0.19740812663475904,0.5,0.697408126634759,9.729638787449996,9.875228745343794,0.14558995789379806,-0.007748620033729562,0.008408009479819048,-4.864819393724998,0.4,0.03348708152770996,1.3307061195373535,GUIDED_NOGPS
0.05,0.004,0.04,-0.190483862445036,-0.006984005886434351,-0.000761935449780144,0.0,-0.007745941336214495,0.08,0.002,0.06,-0.1390379762252316,-0.008156424649779496,-0.0002780759524504632,0.0,-0.00843450060222996,0.5,0,0,2.2259374168194017,4.590685360503446,0.0,-0.0,4.590685360503446,0.002,8e-05,0.0,-0.2692084102654283,-0.0003948162532695181,-2.1536672821234265e-05,0.0,-0.00041635292609075236,-0.1019553081222437,0,0.1019553081222437,-0.13968011772868702,0,0.13968011772868702,-0.19740812663475904,0.5,0.697408126634759,9.181370721006893,9.32696067890069,0.14558995789379806,-0.007767348575649491,0.008414790769677506,-4.590685360503446,0.4,0.03348946571350098,1.3642115592956543,GUIDED_NOGPS
0.05,0.004,0.04,-0.19527377061884382,-0.006984005886434351,-0.0007810950824753753,0.0,-0.007765100968909726,0.08,0.002,0.06,-0.14253422588251213,-0.008156424649779496,-0.0002850684517650243,0.0,-0.00844149310154452,0.5,0,0,2.507817518524313,4.110000062925645,0.0,-0.0,4.110000062925645,0.002,8e-05,0.0,-0.2759779263191059,-0.0003948162532695181,-2.207823410552847e-05,0.0,-0.0004168944873750465,-0.1019553081222437,0,0.1019553081222437,-0.13968011772868702,0,0.13968011772868702,-0.19740812663475904,0.5,0.697408126634759,8.22000012585129,8.365590083745087,0.14558995789379806,-0.007786525914580082,0.008421734561381006,-4.110000062925645,0.4,0.034291982650756836,1.3986485004425049,GUIDED_NOGPS
0.05,0.004,0.04,-0.19994582182838727,-0.006984005886434351,-0.0007997832873135491,0.0,-0.0077837891737479,0.08,0.002,0.06,-0.14594444938731432,-0.008156424649779496,-0.00029188889877462864,0.0,-0.008448313548554125,0.5,0,0,2.738212441544813,3.4440536424192962,0.0,-0.0,3.4440536424192962,0.002,8e-05,0.0,-0.28258087663025255,-0.0003948162532695181,-2.2606470130420206e-05,0.0,-0.0004174227233999383,-0.1019553081222437,0,0.1019553081222437,-0.13968011772868702,0,0.13968011772868702,-0.19740812663475904,0.5,0.697408126634759,6.8881072848385925,7.033697242732391,0.14558995789379806,-0.007805231389986985,0.00842850749924327,-3.4440536424192962,0.4,0.033448219299316406,1.4319519996643066,GUIDED_NOGPS
0.05,0.004,0.04,-0.20460082224230955,-0.006984005886434351,-0.0008184032889692382,0.0,-0.007802409175403589,0.08,0.002,0.06,-0.14934222717579299,-0.008156424649779496,-0.000298684454351586,0.0,-0.008455109104131083,0.5,0,0,2.9129975407743953,2.622341682783779,0.0,-0.0,2.622341682783779,0.002,8e-05,0.0,-0.28915972926969086,-0.0003948162532695181,-2.313277834157527e-05,0.0,-0.00041794903161109333,-0.1019553081222437,0,0.1019553081222437,-0.13968011772868702,0,0.13968011772868702,-0.19740812663475904,0.5,0.697408126634759,5.244683365567558,5.390273323461356,0.14558995789379806,-0.007823868599181927,0.008435255719058994,-2.622341682783779,0.4,0.033326148986816406,1.465275526046753,GUIDED_NOGPS
0.05,0.004,0.04,-0.2092770695460879,-0.006984005886434351,-0.0008371082781843517,0.0,-0.007821114164618703,0.08,0.002,0.06,-0.15275551349359665,-0.008156424649779496,-0.0003055110269871933,0.0,-0.00846193567676669,0.5,0,0,3.025568780355132,1.6812588146051104,0.0,-0.0,1.6812588146051104,0.002,8e-05,0.0,-0.29576860986723447,-0.0003948162532695181,-2.366148878937876e-05,0.0,-0.00041847774205889686,-0.1019553081222437,0,0.1019553081222437,-0.13968011772868702,0,0.13968011772868702,-0.19740812663475904,0.5,0.697408126634759,3.362517629210221,3.508107587104019,0.14558995789379806,-0.007842590874476932,0.008442034739878024,-1.6812588146051104,0.4,0.0334782600402832,1.4988007545471191,GUIDED_NOGPS
0.05,0.004,0.04,-0.21394928726730736,-0.006984005886434351,-0.0008557971490692294,0.0,-0.00783980303550358,0.08,0.002,0.06,-0.1561658585385973,-0.008156424649779496,-0.0003123317170771946,0.0,-0.008468756366856692,0.5,0,0,3.0698883642027326,0.6624867524263788,0.0,-0.0,0.6624867524263788,0.002,8e-05,0.0,-0.3023717955072064,-0.0003948162532695181,-2.4189743640576514e-05,0.0,-0.0004190059969100946,-0.1019553081222437,0,0.1019553081222437,-0.13968011772868702,0,0.13968011772868702,-0.19740812663475904,0.5,0.697408126634759,1.3249735048527576,1.4705634627465556,0.14558995789379806,-0.007861297016546061,0.008448807919127463,-0.6624867524263788,0.4,0.033449411392211914,1.5322093963623047,GUIDED_NOGPS
0.05,0.004,0.04,-0.21862660024581204,-0.006984005886434351,-0.0008745064009832482,0.0,-0.0078585122874176,0.08,0.002,0.06,-0.1595799227136712,-0.008156424649779496,-0.0003191598454273424,0.0,-0.008475584495206839,0.5,0,0,3.0438462647936717,-0.3888518395152081,0.0,-0.0,-0.3888518395152081,0.002,8e-05,0.0,-0.3089821822092318,-0.0003948162532695181,-2.4718574576738547e-05,0.0,-0.0004195348278462566,-0.1019553081222437,0,0.1019553081222437,-0.13968011772868702,0,0.13968011772868702,-0.19740812663475904,0.5,0.697408126634759,-0.7777036790304162,-0.6321137211366181,0.14558995789379806,-0.007880023558479313,0.008455588484824401,0.3888518395152081,0.4,0.03348588943481445,1.5657198429107666,GUIDED_NOGPS
0.05,0.004,0.04,-0.22341044739461388,-0.006984005886434351,-0.0008936417895784555,0.0,-0.007877647676012806,0.08,0.002,0.06,-0.16307174830772736,-0.008156424649779496,-0.00032614349661545474,0.0,-0.008482568146394951,0.5,0,0,2.946156141163773,-1.4261918854338682,0.0,-0.0,-1.4261918854338682,0.002,8e-05,0.0,-0.3157431322936693,-0.0003948162532695181,-2.5259450583493544e-05,0.0,-0.00042007570385301163,-0.1019553081222437,0,0.1019553081222437,-0.13968011772868702,0,0.13968011772868702,-0.19740812663475904,0.5,0.697408126634759,-2.8523837708677364,-2.706793812973938,0.14558995789379806,-0.007899176630904869,0.008462523490034794,1.4261918854338682,0.4,0.03424859046936035,1.5999679565429688,GUIDED_NOGPS
0.05,0.004,0.04,-0.2280871942334202,-0.006984005886434351,-0.0009123487769336808,0.0,-0.007896354663368032,0.08,0.002,0.06,-0.16648539924612646,-0.008156424649779496,-0.00033297079849225293,0.0,-0.00848939544827175,0.5,0,0,2.7852030395917327,-2.4035883223174563,0.0,-0.0,-2.4035883223174563,0.002,8e-05,0.0,-0.32235271887768874,-0.0003948162532695181,-2.57882175102151e-05,0.0,-0.00042060447077973316,-0.1019553081222437,0,0.1019553081222437,-0.13968011772868702,0,0.13968011772868702,-0.19740812663475904,0.5,0.697408126634759,-4.807176644634913,-4.661586686741114,0.14558995789379806,-0.00791790090618655,0.008469303235015345,2.4035883223174563,0.4,0.03348183631896973,1.6334412097930908,GUIDED_NOGPS
0.05,0.004,0.04,-0.23276094386205873,-0.006984005886434351,-0.0009310437754482349,0.0,-0.007915049661882586,0.08,0.002,0.06,-0.16989686246095306,-0.008156424649779496,-0.00033979372492190616,0.0,-0.008496218374701403,0.5,0,0,2.5658534562272726,-3.2777510631235236,0.0,-0.0,-3.2777510631235236,0.002,8e-05,0.0,-0.3289580695428532,-0.0003948162532695181,-2.631664556342826e-05,0.0,-0.00042113289883294634,-0.1019553081222437,0,0.1019553081222437,-0.13968011772868702,0,0.13968011772868702,-0.19740812663475904,0.5,0.697408126634759,-6.555502126247047,-6.409912168353249,0.14558995789379806,-0.007936613181548159,0.008476078635026776,3.2777510631235236,0.4,0.033460378646850586,1.6669139862060547,GUIDED_NOGPS
0.05,0.004,0.04,-0.23744025498067525,-0.006984005886434351,-0.000949761019922701,0.0,-0.007933766906357052,0.08,0.002,0.06,-0.17331238511840863,-0.008156424649779496,-0.00034662477023681727,0.0,-0.008503049420016314,0.5,0,0,2.2971844173096247,-4.009962367833057,0.0,-0.0,-4.009962367833057,0.002,8e-05,0.0,-0.3355712801907819,-0.0003948162532695181,-2.6845702415262556e-05,0.0,-0.00042166195568478065,-0.1019553081222437,0,0.1019553081222437,-0.13968011772868702,0,0.13968011772868702,-0.19740812663475904,0.5,0.697408126634759,-8.019924735666114,-7.874334777772317,0.14558995789379806,-0.007955347723428126,0.008482862097369794,4.009962367833057,0.4,0.03350019454956055,1.7004063129425049,GUIDED_NOGPS
0.05,0.004,0.04,-0.24212043196000693,-0.006984005886434351,-0.0009684817278400277,0.0,-0.007952487614274379,0.08,0.002,0.06,-0.17672853978489625,-0.008156424649779496,-0.0003534570795697925,0.0,-0.00850988172934929,0.5,0,0,1.9910839656964434,-4.567791699646258,0.0,-0.0,-4.567791699646258,0.002,8e-05,0.0,-0.3421857145486021,-0.0003948162532695181,-2.737485716388817e-05,0.0,-0.00042219111043340627,-0.1019553081222437,0,0.1019553081222437,-0.13968011772868702,0,0.13968011772868702,-0.19740812663475904,0.5,0.697408126634759,-9.135583399292516,-8.989993441398719,0.14558995789379806,-0.007974085731951666,0.008489646814926114,4.567791699646258,0.4,0.03350639343261719,1.7339251041412354,GUIDED_NOGPS
0.05,0.004,0.04,-0.2468075358250597,-0.006984005886434351,-0.0009872301433002388,0.0,-0.00797123602973459,0.08,0.002,0.06,-0.1801497505236403,-0.008156424649779496,-0.0003602995010472806,0.0,-0.008516724150826778,0.5,0,0,1.660454695264312,-4.926532113235982,0.0,-0.0,-4.926532113235982,0.002,8e-05,0.0,-0.34880993858555376,-0.0003948162532695181,-2.7904795086844303e-05,0.0,-0.0004227210483563624,-0.1019553081222437,0,0.1019553081222437,-0.13968011772868702,0,0.13968011772868702,-0.19740812663475904,0.5,0.697408126634759,-9.853064226471965,-9.707474268578167,0.14558995789379806,-0.007992851473623814,0.008496441574188841,4.926532113235982,0.4,0.03355598449707031,1.7674803733825684,GUIDED_NOGPS
0.05,0.004,0.04,-0.2514835500124917,-0.006984005886434351,-0.0010059342000499668,0.0,-0.007989940086484317,0.08,0.002,0.06,-0.1835628666851661,-0.008156424649779496,-0.00036712573337033223,0.0,-0.008523550383149829,0.5,0,0,1.320982339967722,-5.070294555661266,0.0,-0.0,-5.070294555661266,0.002,8e-05,0.0,-0.355418489722742,-0.0003948162532695181,-2.8433479177819362e-05,0.0,-0.00042324973244733743,-0.1019553081222437,0,0.1019553081222437,-0.13968011772868702,0,0.13968011772868702,-0.19740812663475904,0.5,0.697408126634759,-10.140589111322532,-9.994999153428735,0.14558995789379806,-0.008011572815591702,0.00850322025706583,5.070294555661266,0.4,0.03347659111022949,1.8009848594665527,GUIDED_NOGPS
0.05,0.004,0.04,-0.2561752495998017,-0.006984005886434351,-0.0010247009983992068,0.0,-0.008008706884833558,0.08,0.002,0.06,-0.18698743193338796,-0.008156424649779496,-0.0003739748638667759,0.0,-0.008530399513646272,0.5,0,0,0.9855830950282182,-4.992711612011261,0.0,0.0,-4.992711612011261,0.002,8e-05,0.0,-0.3620492088352713,-0.0003948162532695181,-2.8963936706821707e-05,0.0,-0.0004237801899763398,-0.1019553081222437,0,0.1019553081222437,-0.13968011772868702,0,0.13968011772868702,-0.19740812663475904,0.5,0.697408126634759,-9.985423224022522,-9.839833266128725,0.14558995789379806,-0.008030356957141294,0.008510021678614539,4.992711612011261,0.4,0.03358888626098633,1.8345823287963867,GUIDED_NOGPS
0.05,0.004,0.04,-0.2608438040641494,-0.006984005886434351,-0.0010433752162565977,0.0,-0.00802738110269095,0.08,0.002,0.06,-0.19039510309402224,-0.008156424649779496,-0.0003807902061880445,0.0,-0.008537214855967541,0.5,0,0,0.6715910173464805,-4.697219526021752,0.0,0.0,-4.697219526021752,0.002,8e-05,0.0,-0.3686472172410871,-0.0003948162532695181,-2.9491777379286973e-05,0.0,-0.00042430803064880503,-0.1019553081222437,0,0.1019553081222437,-0.13968011772868702,0,0.13968011772868702,-0.19740812663475904,0.5,0.697408126634759,-9.394439052043504,-9.248849094149707,0.14558995789379806,-0.008049048432641448,0.008516789547346165,4.697219526021752,0.4,0.03342318534851074,1.8679840564727783,GUIDED_NOGPS
0.05,0.004,0.04,-0.26551708746009517,-0.006984005886434351,-0.0010620683498403806,0.0,-0.008046074236274731,0.08,0.002,0.06,-0.19380622599629313,-0.008156424649779496,-0.0003876124519925863,0.0,-0.008544037101772083,0.5,0,0,0.39075890659673035,-4.196906004625274,0.0,0.0,-4.196906004625274,0.002,8e-05,0.0,-0.37525190898554084,-0.0003948162532695181,-3.002015271884327e-05,0.0,-0.00042483640598836136,-0.1019553081222437,0,0.1019553081222437,-0.13968011772868702,0,0.13968011772868702,-0.19740812663475904,0.5,0.697408126634759,-8.393812009250547,-8.24822205135675,0.14558995789379806,-0.008067758841348825,0.008523564271473511,4.196906004625274,0.4,0.033457040786743164,1.9014575481414795,GUIDED_NOGPS
0.05,0.004,0.04,-0.27021961030634445,-0.006984005886434351,-0.0010808784412253778,0.0,-0.008064884327659729,0.08,0.002,0.06,-0.19723869135741565,-0.008156424649779496,-0.0003944773827148313,0.0,-0.008550902032494328,0.5,0,0,0.1541563185149978,-3.513930547358003,0.0,0.0,-3.513930547358003,0.002,8e-05,0.0,-0.3818979244717131,-0.0003948162532695181,-3.0551833957737055e-05,0.0,-0.0004253680872272551,-0.1019553081222437,0,0.1019553081222437,-0.13968011772868702,0,0.13968011772868702,-0.19740812663475904,0.5,0.697408126634759,-7.027861094716006,-6.882271136822208,0.14558995789379806,-0.008086586315943119,0.008530381383188483,3.513930547358003,0.4,0.033666372299194336,1.935128927230835,GUIDED_NOGPS
0.05,0.004,0.04,-0.274904316403263,-0.006984005886434351,-0.0010996172656130522,0.0,-0.008083623152047404,0.08,0.002,0.06,-0.20065815191730169,-0.008156424649779496,-0.0004013163038346034,0.0,-0.0085577409536141,0.5,0,0,-0.02551401409391707,-2.678542974944915,-0.0,0.0,-2.678542974944915,0.002,8e-05,0.0,-0.3885187597735808,-0.0003948162532695181,-3.108150078188647e-05,0.0,-0.00042589775405140455,-0.1019553081222437,0,0.1019553081222437,-0.13968011772868702,0,0.13968011772868702,-0.19740812663475904,0.5,0.697408126634759,-5.35708594988983,-5.211495991996031,0.14558995789379806,-0.008105342457679212,0.008537172666475915,2.678542974944915,0.4,0.033538818359375,1.9686739444732666,GUIDED_NOGPS
0.05,0.004,0.04,-0.2795716719835436,-0.006984005886434351,-0.0011182866879341745,0.0,-0.008102292574368525,0.08,0.002,0.06,-0.20406494798850697,-0.008156424649779496,-0.00040812989597701396,0.0,-0.00856455454575651,0.5,0,0,-0.14097774641128374,-1.7277436276361222,-0.0,0.0,-1.7277436276361222,0.002,8e-05,0.0,-0.3951150738118546,-0.0003948162532695181,-3.1609205904948374e-05,0.0,-0.00042642545917446643,-0.1019553081222437,0,0.1019553081222437,-0.13968011772868702,0,0.13968011772868702,-0.19740812663475904,0.5,0.697408126634759,-3.4554872552722444,-3.309897297378446,0.14558995789379806,-0.008124029133211337,0.008543938797219893,1.7277436276361222,0.4,0.033414602279663086,2.00223445892334,GUIDED_NOGPS
0.05,0.004,0.04,-0.2842484188223499,-0.006984005886434351,-0.0011369936752893997,0.0,-0.008120999561723751,0.08,0.002,0.06,-0.20747859892690607,-0.008156424649779496,-0.00041495719785381214,0.0,-0.008571381847633308,0.5,0,0,-0.1880963713685351,-0.7036445747534382,-0.0,0.0,-0.7036445747534382,0.002,8e-05,0.0,-0.40172466039587407,-0.0003948162532695181,-3.213797283166993e-05,0.0,-0.000426954226101188,-0.1019553081222437,0,0.1019553081222437,-0.13968011772868702,0,0.13968011772868702,-0.19740812663475904,0.5,0.697408126634759,-1.4072891495068764,-1.2616991916130784,0.14558995789379806,-0.008142753408493018,0.008550718542200443,0.7036445747534382,0.4,0.03348183631896973,2.0357043743133545,GUIDED_NOGPS
0.05,0.004,0.04,-0.28891920454315584,-0.006984005886434351,-0.0011556768181726234,0.0,-0.008139682704606974,0.08,0.002,0.06,-0.21088789872619987,-0.008156424649779496,-0.00042177579745239973,0.0,-0.008578200447231897,0.5,0,0,-0.16479626067108946,0.34839558051370745,-0.0,0.0,0.34839558051370745,0.002,8e-05,0.0,-0.4083258222079486,-0.0003948162532695181,-3.266606577663589e-05,0.0,-0.00042748231904615394,-0.1019553081222437,0,0.1019553081222437,-0.13968011772868702,0,0.13968011772868702,-0.19740812663475904,0.5,0.697408126634759,0.6967911610274149,0.8423811189212129,0.14558995789379806,-0.008161453817267001,0.00855748964552019,-0.34839558051370745,0.4,0.03343915939331055,2.069007635116577,GUIDED_NOGPS
0.05,0.004,0.04,-0.2936302527872157,-0.006984005886434351,-0.0011745210111488629,0.0,-0.008158526897583214,0.08,0.002,0.06,-0.21432658694548415,-0.008156424649779496,-0.00042865317389096833,0.0,-0.008585077823670465,0.5,0,0,-0.07158850002831436,1.3817806892792963,-0.0,0.0,1.3817806892792963,0.002,8e-05,0.0,-0.4149838865299751,-0.0003948162532695181,-3.319871092239801e-05,0.0,-0.0004280149641919161,-0.1019553081222437,0,0.1019553081222437,-0.13968011772868702,0,0.13968011772868702,-0.19740812663475904,0.5,0.697408126634759,2.7635613785585926,2.909151336452391,0.14558995789379806,-0.008180315424967277,0.008564319116258434,-1.3817806892792963,0.4,0.033727407455444336,2.102738380432129,GUIDED_NOGPS
0.05,0.004,0.04,-0.29830949730116185,-0.006984005886434351,-0.0011932379892046474,0.0,-0.008177243875638998,0.08,0.002,0.06,-0.2177420609868603,-0.008156424649779496,-0.0004354841219737206,0.0,-0.008591908771753217,0.5,0,0,0.0859098102574747,2.350740857548774,0.0,0.0,2.350740857548774,0.002,8e-05,0.0,-0.4215970030463737,-0.0003948162532695181,-3.37277602437099e-05,0.0,-0.00042854401351322797,-0.1019553081222437,0,0.1019553081222437,-0.13968011772868702,0,0.13968011772868702,-0.19740812663475904,0.5,0.697408126634759,4.701481715097548,4.847071672991346,0.14558995789379806,-0.00819904970018235,0.008571102482046584,-2.350740857548774,0.4,0.033499717712402344,2.136251926422119,GUIDED_NOGPS
0.05,0.004,0.04,-0.30299067335054947,-0.006984005886434351,-0.0012119626934021979,0.0,-0.008195968579836548,0.08,0.002,0.06,-0.22115894489453874,-0.008156424649779496,-0.0004423178897890775,0.0,-0.008598742539568573,0.5,0,0,0.3012249360554379,3.2123596509643164,0.0,0.0,3.2123596509643164,0.002,8e-05,0.0,-0.42821284937714554,-0.0003948162532695181,-3.4257027950171644e-05,0.0,-0.0004290732812196897,-0.1019553081222437,0,0.1019553081222437,-0.13968011772868702,0,0.13968011772868702,-0.19740812663475904,0.5,0.697408126634759,6.424719301928633,6.570309259822431,0.14558995789379806,-0.008217791708679248,0.008577888647925943,-3.2123596509643164,0.4,0.033513545989990234,2.1698005199432373,GUIDED_NOGPS
0.05,0.004,0.04,-0.3076634239091321,-0.006984005886434351,-0.0012306536956365284,0.0,-0.00821465958207088,0.08,0.002,0.06,-0.2245696788681745,-0.008156424649779496,-0.000449139357736349,0.0,-0.008605564007515845,0.5,0,0,0.564065255180626,3.928474916322982,0.0,0.0,3.928474916322982,0.002,8e-05,0.0,-0.43481678806935836,-0.0003948162532695181,-3.478534304554867e-05,0.0,-0.00042960159631506677,-0.1019553081222437,0,0.1019553081222437,-0.13968011772868702,0,0.13968011772868702,-0.19740812663475904,0.5,0.697408126634759,7.856949832645964,8.002539790539762,0.14558995789379806,-0.008236499984067502,0.008584662599614334,-3.928474916322982,0.4,0.03345322608947754,2.2032556533813477,GUIDED_NOGPS
0.05,0.004,0.04,-0.3123387054451897,-0.006984005886434351,-0.001249354821780759,0.0,-0.00823336070821511,0.08,0.002,0.06,-0.22798226025282703,-0.008156424649779496,-0.0004559645205056541,0.0,-0.00861238917028515,0.5,0,0,0.8631229633361857,4.467369030150854,0.0,0.0,4.467369030150854,0.002,8e-05,0.0,-0.44142430375971536,-0.0003948162532695181,-3.531394430077723e-05,0.0,-0.00043013019757029533,-0.1019553081222437,0,0.1019553081222437,-0.13968011772868702,0,0.13968011772868702,-0.19740812663475904,0.5,0.697408126634759,8.934738060301708,9.080328018195505,0.14558995789379806,-0.008255218392721593,0.008591440220387759,-4.467369030150854,0.4,0.03347134590148926,2.2367115020751953,GUIDED_NOGPS
0.05,0.004,0.04,-0.31706513936811087,-0.006984005886434351,-0.0012682605574724434,0.0,-0.008252266443906794,0.08,0.002,0.06,-0.23143217878645012,-0.008156424649779496,-0.0004628643575729002,0.0,-0.008619289007352397,0.5,0,0,1.1883136404807557,4.805173711150885,0.0,0.0,4.805173711150885,0.002,8e-05,0.0,-0.44810411246519744,-0.0003948162532695181,-3.5848328997215796e-05,0.0,-0.0004306645822667339,-0.1019553081222437,0,0.1019553081222437,-0.13968011772868702,0,0.13968011772868702,-0.19740812663475904,0.5,0.697408126634759,9.61034742230177,9.755937380195567,0.14558995789379806,-0.008274141600011565,0.008598291995300813,-4.805173711150885,0.4,0.03383755683898926,2.270561933517456,GUIDED_NOGPS
0.05,0.004,0.04,-0.3222715931505704,-0.006984005886434351,-0.0012890863726022818,0.0,-0.008273092259036633,0.08,0.002,0.06,-0.23523247340422782,-0.008156424649779496,-0.00047046494680845567,0.0,-0.008626889596587951,0.5,0,0,1.5556074120887113,4.926927175657817,0.0,0.0,4.926927175657817,0.002,8e-05,0.0,-0.45546232710818746,-0.0003948162532695181,-3.6436986168655e-05,0.0,-0.0004312532394381731,-0.1019553081222437,0,0.1019553081222437,-0.13968011772868702,0,0.13968011772868702,-0.19740812663475904,0.5,0.697408126634759,9.853854351315634,9.999444309209432,0.14558995789379806,-0.008294986661167155,0.008605839641156944,-4.926927175657817,0.4,0.03727412223815918,2.3078713417053223,GUIDED_NOGPS
0.05,0.004,0.04,-0.32704867992532716,-0.006984005886434351,-0.0013081947197013087,0.0,-0.00829220060613566,0.08,0.002,0.06,-0.23871936446622602,-0.008156424649779496,-0.00047743872893245206,0.0,-0.00863386337871195,0.5,0,0,1.8857922589349732,4.827236813388535,0.0,-0.0,4.827236813388535,0.002,8e-05,0.0,-0.4622137228423187,-0.0003948162532695181,-3.69770978273855e-05,0.0,-0.0004317933510969036,-0.1019553081222437,0,0.1019553081222437,-0.13968011772868702,0,0.13968011772868702,-0.19740812663475904,0.5,0.697408126634759,9.65447362677707,9.800063584670868,0.14558995789379806,-0.00831411266710633,0.008612764846048103,-4.827236813388535,0.4,0.034200191497802734,2.342067003250122,GUIDED_NOGPS
0.05,0.004,0.04,-0.3317306885330947,-0.006984005886434351,-0.0013269227541323786,0.0,-0.00831092864056673,0.08,0.002,0.06,-0.24213685607489682,-0.008156424649779496,-0.00048427371214979363,0.0,-0.00864069836192929,0.5,0,0,2.1881729355595554,4.510518032765935,0.0,-0.0,4.510518032765935,0.002,8e-05,0.0,-0.4688307458172169,-0.0003948162532695181,-3.750645966537735e-05,0.0,-0.00043232271293489543,-0.1019553081222437,0,0.1019553081222437,-0.13968011772868702,0,0.13968011772868702,-0.19740812663475904,0.5,0.697408126634759,9.02103606553187,9.166626023425668,0.14558995789379806,-0.008332858008914357,0.00861955221886333,-4.510518032765935,0.4,0.03351950645446777,2.3755650520324707,GUIDED_NOGPS
0.05,0.004,0.04,-0.33640517081310756,-0.006984005886434351,-0.0013456206832524302,0.0,-0.008329626569686782,0.08,0.002,0.06,-0.24554885406659668,-0.008156424649779496,-0.0004910977081331934,0.0,-0.00864752235791269,0.5,0,0,2.455282071718211,3.9907986970640574,0.0,-0.0,3.9907986970640574,0.002,8e-05,0.0,-0.4754371319292126,-0.0003948162532695181,-3.8034970554337015e-05,0.0,-0.0004328512238238551,-0.1019553081222437,0,0.1019553081222437,-0.13968011772868702,0,0.13968011772868702,-0.19740812663475904,0.5,0.697408126634759,7.981597394128115,8.127187352021913,0.14558995789379806,-0.008351573217589765,0.008626328680978323,-3.9907986970640574,0.4,0.03346562385559082,2.40903639793396,GUIDED_NOGPS
0.05,0.004,0.04,-0.34108797867691987,-0.006984005886434351,-0.0013643519147076796,0.0,-0.00834835780114203,0.08,0.002,0.06,-0.24896692906822016,-0.008156424649779496,-0.0004979338581364404,0.0,-0.008654358507915938,0.5,0,0,2.6759516841231843,3.291097813137393,0.0,-0.0,3.291097813137393,0.002,8e-05,0.0,-0.48205528448247215,-0.0003948162532695181,-3.8564422758597774e-05,0.0,-0.00043338067602811584,-0.1019553081222437,0,0.1019553081222437,-0.13968011772868702,0,0.13968011772868702,-0.19740812663475904,0.5,0.697408126634759,6.582195626274786,6.7277855841685845,0.14558995789379806,-0.008370321759376478,0.008633117212451979,-3.291097813137393,0.4,0.03352522850036621,2.4425675868988037,GUIDED_NOGPS
0.05,0.004,0.04,-0.34575523435019484,-0.006984005886434351,-0.0013830209374007794,0.0,-0.00836702682383513,0.08,0.002,0.06,-0.25237365221530633,-0.008156424649779496,-0.0005047473044306127,0.0,-0.008661171954210109,0.5,0,0,2.839172239847759,2.442405991372713,0.0,-0.0,2.442405991372713,0.002,8e-05,0.0,-0.48865145732345083,-0.0003948162532695181,-3.909211658587607e-05,0.0,-0.00043390836985539413,-0.1019553081222437,0,0.1019553081222437,-0.13968011772868702,0,0.13968011772868702,-0.19740812663475904,0.5,0.697408126634759,4.884811982745426,5.030401940639225,0.14558995789379806,-0.008389008034911266,0.008639883198363653,-2.442405991372713,0.4,0.03341388702392578,2.475998640060425,GUIDED_NOGPS
0.05,0.004,0.04,-0.3506980002425597,-0.006984005886434351,-0.0014027920009702388,0.0,-0.00838679788740459,0.08,0.002,0.06,-0.25598147577478403,-0.008156424649779496,-0.0005119629515495681,0.0,-0.008668387601329064,0.5,0,0,2.9440794440309705,1.4823128335426252,0.0,-0.0,1.4823128335426252,0.002,8e-05,0.0,-0.4956370052387325,-0.0003948162532695181,-3.96509604190986e-05,0.0,-0.0004344672136886167,-0.1019553081222437,0,0.1019553081222437,-0.13968011772868702,0,0.13968011772868702,-0.19740812663475904,0.5,0.697408126634759,2.9646256670852504,3.1102156249790487,0.14558995789379806,-0.008408797369765486,0.008647048583492207,-1.4823128335426252,0.4,0.03538632392883301,2.5113754272460938,GUIDED_NOGPS
0.05,0.004,0.04,-0.3553737147089749,-0.006984005886434351,-0.0014214948588358997,0.0,-0.008405500745270252,0.08,0.002,0.06,-0.2593943731639526,-0.008156424649779496,-0.0005187887463279051,0.0,-0.008675213396107401,0.5,0,0,2.9744301909269923,0.4533420432364621,0.0,-0.0,0.4533420432364621,0.002,8e-05,0.0,-0.5022451327840353,-0.0003948162532695181,-4.0179610622722825e-05,0.0,-0.0004349958638922409,-0.1019553081222437,0,0.1019553081222437,-0.13968011772868702,0,0.13968011772868702,-0.19740812663475904,0.5,0.697408126634759,0.9066840864729242,1.0522740443667222,0.14558995789379806,-0.008427517511741365,0.008653826831872284,-0.4533420432364621,0.4,0.03347444534301758,2.5448570251464844,GUIDED_NOGPS
0.05,0.004,0.04,-0.36008629486045385,-0.006984005886434351,-0.0014403451794418153,0.0,-0.008424351065876166,0.08,0.002,0.06,-0.2628341795530628,-0.008156424649779496,-0.0005256683591061257,0.0,-0.008682093008885622,0.5,0,0,2.934016206367009,-0.5989320011302364,0.0,-0.0,-0.5989320011302364,0.002,8e-05,0.0,-0.5089053621312543,-0.0003948162532695181,-4.071242897050034e-05,0.0,-0.0004355286822400184,-0.1019553081222437,0,0.1019553081222437,-0.13968011772868702,0,0.13968011772868702,-0.19740812663475904,0.5,0.697408126634759,-1.1978640022604727,-1.0522740443666747,0.14558995789379806,-0.008446385252734119,0.008660658523372519,0.5989320011302364,0.4,0.03373837471008301,2.578761339187622,GUIDED_NOGPS
0.05,0.004,0.04,-0.36475481602246634,-0.006984005886434351,-0.0014590192640898654,0.0,-0.008443025150524216,0.08,0.002,0.06,-0.2662418264056574,-0.008156424649779496,-0.0005324836528113148,0.0,-0.008688908302590812,0.5,0,0,2.8251975891564762,-1.6279027914364006,0.0,-0.0,-1.6279027914364006,0.002,8e-05,0.0,-0.515503323471305,-0.0003948162532695181,-4.1240265877704406e-05,0.0,-0.0004360565191472225,-0.1019553081222437,0,0.1019553081222437,-0.13968011772868702,0,0.13968011772868702,-0.19740812663475904,0.5,0.697408126634759,-3.255805582872801,-3.110215624979003,0.14558995789379806,-0.008465076594901828,0.008667426343826713,1.6279027914364006,0.4,0.03342294692993164,2.6120212078094482,GUIDED_NOGPS
0.05,0.004,0.04,-0.36943186258228944,-0.006984005886434351,-0.0014777274503291577,0.0,-0.008461733336763509,0.08,0.002,0.06,-0.26965569611641377,-0.008156424649779496,-0.0005393113922328276,0.0,-0.008695736042012323,0.5,0,0,2.6518847691477765,-2.5879959492664906,0.0,-0.0,-2.5879959492664906,0.002,8e-05,0.0,-0.5221133336472099,-0.0003948162532695181,-4.1769066691776795e-05,0.0,-0.0004365853199612949,-0.1019553081222437,0,0.1019553081222437,-0.13968011772868702,0,0.13968011772868702,-0.19740812663475904,0.5,0.697408126634759,-5.175991898532981,-5.030401940639183,0.14558995789379806,-0.008483802070175517,0.008674206523304173,2.5879959492664906,0.4,0.03348398208618164,2.6455044746398926,GUIDED_NOGPS
0.05,0.004,0.04,-0.374099384674246,-0.006984005886434351,-0.0014963975386969842,0.0,-0.008480403425131336,0.08,0.002,0.06,-0.27306261372781754,-0.008156424649779496,-0.0005461252274556351,0.0,-0.008702549877235132,0.5,0,0,2.4222054653888474,-3.43668777103118,0.0,-0.0,-3.43668777103118,0.002,8e-05,0.0,-0.528709883014309,-0.0003948162532695181,-4.229679064114472e-05,0.0,-0.0004371130439106628,-0.1019553081222437,0,0.1019553081222437,-0.13968011772868702,0,0.13968011772868702,-0.19740812663475904,0.5,0.697408126634759,-6.87337554206236,-6.727785584168561,0.14558995789379806,-0.00850248941236987,0.008680972895435327,3.43668777103118,0.4,0.033415794372558594,2.678983688354492,GUIDED_NOGPS
0.05,0.004,0.04,-0.3787847901202037,-0.006984005886434351,-0.0015151391604808148,0.0,-0.008499145046915166,0.08,0.002,0.06,-0.27648258475653714,-0.008156424649779496,-0.0005529651695130742,0.0,-0.008709389819292571,0.5,0,0,2.1447048698039857,-4.136388654957846,0.0,-0.0,-4.136388654957846,0.002,8e-05,0.0,-0.5353317066972428,-0.0003948162532695181,-4.282653653577943e-05,0.0,-0.0004376427898052975,-0.1019553081222437,0,0.1019553081222437,-0.13968011772868702,0,0.13968011772868702,-0.19740812663475904,0.5,0.697408126634759,-8.272777309915693,-8.127187352021895,0.14558995789379806,-0.00852124835408731,0.008687765192548887,4.136388654957846,0.4,0.03354382514953613,2.7124905586242676,GUIDED_NOGPS
0.05,0.004,0.04,-0.3840517875480525,-0.006984005886434351,-0.0015362071501922102,0.0,-0.008520213036626562,0.08,0.002,0.06,-0.2803270713904792,-0.008156424649779496,-0.0005606541427809583,0.0,-0.008717078792560454,0.5,0,0,1.7935638597681034,-4.656107990659729,0.0,-0.0,-4.656107990659729,0.002,8e-05,0.0,-0.5427754869011034,-0.0003948162532695181,-4.342203895208828e-05,0.0,-0.00043823829222160637,-0.1019553081222437,0,0.1019553081222437,-0.13968011772868702,0,0.13968011772868702,-0.19740812663475904,0.5,0.697408126634759,-9.312215981319458,-9.16662602342566,0.14558995789379806,-0.008542335813628336,0.008695400606781216,4.656107990659729,0.4,0.03770756721496582,2.750267505645752,GUIDED_NOGPS
0.05,0.004,0.04,-0.3887165122438525,-0.006984005886434351,-0.0015548660489754101,0.0,-0.008538871935409762,0.08,0.002,0.06,-0.2837319471265486,-0.008156424649779496,-0.0005674638942530972,0.0,-0.008723888544032594,0.5,0,0,1.4614211292902657,-4.972826771282327,0.0,-0.0,-4.972826771282327,0.002,8e-05,0.0,-0.5493680827439379,-0.0003948162532695181,-4.3949446619515035e-05,0.0,-0.0004387656998890331,-0.1019553081222437,0,0.1019553081222437,-0.13968011772868702,0,0.13968011772868702,-0.19740812663475904,0.5,0.697408126634759,-9.945653542564655,-9.800063584670857,0.14558995789379806,-0.008561011955897289,0.008702162923607858,4.972826771282327,0.4,0.03339576721191406,2.7836008071899414,GUIDED_NOGPS
0.05,0.004,0.04,-0.39339608978115065,-0.006984005886434351,-0.0015735843591246027,0.0,-0.008557590245558954,0.08,0.002,0.06,-0.2871476642483217,-0.008156424649779496,-0.0005742953284966435,0.0,-0.00873071997827614,0.5,0,0,1.1215411575131098,-5.0725171335516155,0.0,-0.0,-5.0725171335516155,0.002,8e-05,0.0,-0.555981669917987,-0.0003948162532695181,-4.447853359343897e-05,0.0,-0.0004392947868629571,-0.1019553081222437,0,0.1019553081222437,-0.13968011772868702,0,0.13968011772868702,-0.19740812663475904,0.5,0.697408126634759,-10.145034267103231,-9.999444309209434,0.14558995789379806,-0.008579747564436815,0.008708946772170354,5.0725171335516155,0.4,0.03350210189819336,2.817124128341675,GUIDED_NOGPS
0.05,0.004,0.04,-0.39808475885595773,-0.006984005886434351,-0.0015923390354238309,0.0,-0.008576344921858181,0.08,0.002,0.06,-0.2905700174649314,-0.008156424649779496,-0.0005811400349298628,0.0,-0.008737564684709358,0.5,0,0,0.7891747063791574,-4.950763669044686,0.0,0.0,-4.950763669044686,0.002,8e-05,0.0,-0.5626081060458963,-0.0003948162532695181,-4.500864848367171e-05,0.0,-0.0004398249017531898,-0.1019553081222437,0,0.1019553081222437,-0.13968011772868702,0,0.13968011772868702,-0.19740812663475904,0.5,0.697408126634759,-9.901527338089371,-9.755937380195574,0.14558995789379806,-0.00859851957273389,0.00871574380047251,4.950763669044686,0.4,0.033567190170288086,2.850667953491211,GUIDED_NOGPS
0.05,0.004,0.04,-0.4027523142502495,-0.006984005886434351,-0.001611009257000998,0.0,-0.00859501514343535,0.08,0.002,0.06,-0.29397695938437485,-0.008156424649779496,-0.0005879539187687497,0.0,-0.008744378568548246,0.5,0,0,0.48088112876181016,-4.6129589880446575,0.0,0.0,-4.6129589880446575,0.002,8e-05,0.0,-0.5692047024787604,-0.0003948162532695181,-4.5536376198300836e-05,0.0,-0.00044035262946781893,-0.1019553081222437,0,0.1019553081222437,-0.13968011772868702,0,0.13968011772868702,-0.19740812663475904,0.5,0.697408126634759,-9.225917976089315,-9.080328018195518,0.14558995789379806,-0.008617207048260687,0.008722510220881094,4.6129589880446575,0.4,0.033416032791137695,2.8841044902801514,GUIDED_NOGPS
