D-kp,D-ki,D-kd,D-I-Tot,D-P,D-I,D-D,D-PID,E-kp,E-ki,E-kd,E-I-Tot,E-P,E-I,E-D,E-PID,N-kp,N-ki,N-kd,N-I-Tot,N-P,N-I,N-D,N-PID,Y-kp,Y-ki,Y-kd,Y-I-Tot,Y-P,Y-I,Y-D,Y-PID,errorN,desiredN,actualN,errorE,desiredE,actualE,errorD,desiredD,actualD,errorY,desiredY,actualY,roll,pitch,yaw-rate,thrust,dt,Time,Mode
0.05,0.004,0.04,0.0003619712851847545,0.0005309344258251583,1.447885140739018e-06,0.012460275212489729,0.012992657523455626,0.08,0.002,0.06,-0.0016518283130414395,-0.003876605920267996,-3.303656626082879e-06,-0.08529227134870748,-0.08917218092560156,0.5,0,0,-0.00026274416350965864,-0.003853894695561546,-0.0,-0.0,-0.003853894695561546,0.002,8e-05,0.0,-0.0036126575223658433,-0.00021195982398009662,-2.890126017892675e-07,-0.0,-0.00021224883658188588,-0.04845757400334995,0,0.04845757400334995,0.010618688516503164,0,-0.010618688516503164,-0.1059799119900483,0.5,0.6059799119900483,-0.007707789391123092,0.0,0.007707789391123092,0.012980661402101912,0.08917392797288907,0.003853894695561546,0.4,0.034088134765625,0.0345003604888916,GUIDED_NOGPS
0.05,0.004,0.04,0.0006201780406000714,0.00038947502645612393,2.4807121624002854e-06,-0.0034140022849892503,-0.003022046546370726,0.08,0.002,0.06,-0.0032683053504776226,-0.0039012298398375827,-6.536610700955245e-06,-0.0005571350201736089,-0.004464901470712147,0.5,0,0,0.06868874990960354,1.0400535390764603,0.0,0.0,1.0400535390764603,0.002,8e-05,0.0,-0.007058090691733526,-0.00020788149754391472,-5.646472553386822e-07,0.0,-0.0002084461447992534,-0.048765372997969784,0,0.048765372997969784,0.007789500529122478,0,-0.007789500529122478,-0.10394074877195736,0.5,0.6039407487719574,2.0801070781529205,2.0928640278329307,0.012756949680010374,-0.003023040585226197,0.004464228499043701,-1.0400535390764603,0.4,0.03314805030822754,0.0675208568572998,GUIDED_NOGPS
0.05,0.004,0.04,0.0007359104836142257,0.0001694761745480584,2.943641934456903e-06,-0.005154587647895241,-0.004982167831412726,0.08,0.002,0.06,-0.00491493104136728,-0.0038580548822653303,-9.829862082734561e-06,0.0009483676039818598,-0.0029195171403662047,0.5,0,0,0.20776809067245905,2.0366488442892234,0.0,0.0,2.0366488442892234,0.002,8e-05,0.0,-0.010521231470255323,-0.00020285404361281034,-8.41698517620426e-07,0.0,-0.00020369574213043075,-0.04822568602831663,0,0.04822568602831663,0.0033895234909611677,0,-0.0033895234909611677,-0.10142702180640517,0.5,0.6014270218064052,4.073297688578447,4.093032540812346,0.01973485223389953,-0.004983173128935973,0.0029178009185525863,-2.0366488442892234,0.4,0.03414416313171387,0.10167956352233887,GUIDED_NOGPS
0.05,0.004,0.04,0.0007903934020814003,7.428723102932392e-05,3.1615736083256015e-06,-0.002076635609855999,-0.0019991868052183495,0.08,0.002,0.06,-0.006292548761708033,-0.0030054015824487056,-1.2585097523416066e-05,0.017438838021192477,0.014420851341220354,0.5,0,0,0.42411392637266476,2.9498664041971936,0.0,0.0,2.9498664041971936,0.002,8e-05,0.0,-0.014241880425029154,-0.00020292357036550614,-1.1393504340023323e-06,-0.0,-0.00020406292079950847,-0.03756751978060882,0,0.03756751978060882,0.0014857446205864783,0,-0.0014857446205864783,-0.10146178518275306,0.5,0.6014617851827531,5.899732808394387,5.911915622135862,0.012182813741475304,-0.001996120451371106,-0.014421276102736334,-2.9498664041971936,0.4,0.03667044639587402,0.13835859298706055,GUIDED_NOGPS
0.05,0.004,0.04,0.0008933856336208758,0.00014949706139168195,3.5735425344835034e-06,0.001746717935343289,0.0018997885392694545,0.08,0.002,0.06,-0.007722293469978339,-0.0033205243421846804,-1.544458693995668e-05,-0.00686118640027359,-0.010197155329398227,0.5,0,0,0.6809986407175979,3.7287773395112405,0.0,0.0,3.7287773395112405,0.002,8e-05,0.0,-0.017609439102315213,-0.00019552547557933565,-1.4087551281852171e-06,0.0,-0.00019693423070752086,-0.041506554277308504,0,0.041506554277308504,0.0029899412278336385,0,-0.0029899412278336385,-0.09776273778966782,0.5,0.5977627377896678,7.457554679022481,7.468952709129846,0.01139803010736505,0.0018977599494237603,0.010197533058547903,-3.7287773395112405,0.4,0.03444623947143555,0.17278623580932617,GUIDED_NOGPS
0.05,0.004,0.04,0.0009282084920003046,5.2083462608234376e-05,3.7128339680012183e-06,-0.002331175677534125,-0.0022753793809578895,0.08,0.002,0.06,-0.009008502712904739,-0.003077988844242437,-1.8017005425809477e-05,0.005441291636920853,0.0023452857872526063,0.5,0,0,0.9713813912048653,4.34316418321773,0.0,0.0,4.34316418321773,0.002,8e-05,0.0,-0.020742975853701186,-0.000187469325400067,-1.659438068296095e-06,0.0,-0.0001891287634683631,-0.03847486055303046,0,0.03847486055303046,0.0010416692521646874,0,-0.0010416692521646874,-0.0937346627000335,0.5,0.5937346627000335,8.68632836643546,8.695180719384028,0.008852352948569934,-0.0022750170008021386,-0.0023456373115293477,-4.34316418321773,0.4,0.033429861068725586,0.20624232292175293,GUIDED_NOGPS
0.05,0.004,0.04,0.000788755718136026,-0.0002078325589236615,3.155022872544104e-06,-0.006197827162655658,-0.006402504698706775,0.08,0.002,0.06,-0.010210629849728063,-0.0028665321120478803,-2.0421259699456126e-05,0.0047271480375573344,0.0018401946658099981,0.5,0,0,1.2908479569386344,4.761149743182761,0.0,0.0,4.761149743182761,0.002,8e-05,0.0,-0.02448741811676089,-0.00022322023311805862,-1.9589934493408715e-06,-0.0,-0.0002251792265673995,-0.035831651400598505,0,0.035831651400598505,-0.00415665117847323,0,0.00415665117847323,-0.1116101165590293,0.5,0.6116101165590293,9.522299486365522,9.536288510260055,0.01398902389453265,-0.00640205521602344,-0.0018417578114467118,-4.761149743182761,0.4,0.03354930877685547,0.23984551429748535,GUIDED_NOGPS
0.05,0.004,0.04,0.0006992825811807076,-0.00013351746405672617,2.7971303247228306e-06,0.0017743628258342268,0.0016436424921022234,0.08,0.002,0.06,-0.011450658840629188,-0.002960719283681676,-2.2901317681258378e-05,-0.0021082806635303398,-0.005091901264893274,0.5,0,0,1.6240387326875045,4.972083123373498,0.0,0.0,4.972083123373498,0.002,8e-05,0.0,-0.028007389071553382,-0.00021010891600768455,-2.240591125724271e-06,0.0,-0.00021234950713340883,-0.03700899104602095,0,0.03700899104602095,-0.0026703492811345235,0,0.0026703492811345235,-0.10505445800384228,0.5,0.6050544580038423,9.944166246746995,9.95502238601579,0.010856139268794723,0.0016426776727058183,0.005092212603265847,-4.972083123373498,0.4,0.033506155014038086,0.27330756187438965,GUIDED_NOGPS
0.05,0.004,0.04,0.001134306254766086,0.0006448656401623798,4.537225019064344e-06,0.01846161666216798,0.019111019527349424,0.08,0.002,0.06,-0.012822160037533753,-0.0032529135346994,-2.5644320075067508e-05,-0.006497095819453058,-0.009775653674227525,0.5,0,0,1.9592213630466688,4.968643653721785,0.0,-0.0,4.968643653721785,0.002,8e-05,0.0,-0.031407305376543994,-0.00020159723138248763,-2.51258443012352e-06,0.0,-0.00020410981581261116,-0.0406614191837425,0,0.0406614191837425,0.012897312803247594,0,-0.012897312803247594,-0.10079861569124382,0.5,0.6007986156912438,9.93728730744357,9.932836109684285,-0.0044511977592851994,0.019111778921212536,0.00977416894676296,-4.968643653721785,0.4,0.03372979164123535,0.3070192337036133,GUIDED_NOGPS
0.05,0.004,0.04,0.001503634256381003,0.0005515348651974442,6.014537025524012e-06,-0.002230003732789466,-0.001672454330566498,0.08,0.002,0.06,-0.013979507917070378,-0.0027653151840561596,-2.7959015834140756e-05,0.01092230305107958,0.008129028851189279,0.5,0,0,2.2764211886693646,4.736894096859628,0.0,-0.0,4.736894096859628,0.002,8e-05,0.0,-0.03452066381915566,-0.0001859729802721566,-2.761653105532453e-06,0.0,-0.00018873463337768905,-0.034566439800701995,0,0.034566439800701995,0.011030697303948884,0,-0.011030697303948884,-0.09298649013607829,0.5,0.5929864901360783,9.473788193719257,9.470712338657458,-0.0030758550617980282,-0.0016728907253002654,-0.008128939055774909,-4.736894096859628,0.4,0.03348183631896973,0.3405179977416992,GUIDED_NOGPS
0.05,0.004,0.04,0.001968083746970919,0.0006920909917076108,7.872334987883676e-06,0.0033511546364603084,0.004051117963155803,0.08,0.002,0.06,-0.015175342829837651,-0.0028511227591856677,-3.0350685659675303e-05,-0.0019179690462781133,-0.004799442491123456,0.5,0,0,2.5646011557213546,4.2942615554159165,0.0,-0.0,4.2942615554159165,0.002,8e-05,0.0,-0.03771836868686654,-0.00019060007840864058,-3.017469494949323e-06,-0.0,-0.00019361754790358992,-0.035639034489820844,0,0.035639034489820844,0.013841819834152214,0,-0.013841819834152214,-0.09530003920432029,0.5,0.5953000392043203,8.588523110831833,8.589119101584899,0.0005959907530654384,0.004051068039131272,0.0047994846305967126,-4.2942615554159165,0.4,0.0335540771484375,0.3740692138671875,GUIDED_NOGPS
0.05,0.004,0.04,0.002524558998734664,0.000830862739884408,1.0098235994938656e-05,0.003315159825513298,0.004156120801392645,0.08,0.002,0.06,-0.016405913266115523,-0.00293974654525169,-3.2811826532231046e-05,-0.001984837640389992,-0.004957396012173913,0.5,0,0,2.8098251460840835,3.661393312144399,0.0,-0.0,3.661393312144399,0.002,8e-05,0.0,-0.040991159947500154,-0.00019546172486637438,-3.2792927958000128e-06,-0.0,-0.0001987410176621744,-0.03674683181564613,0,0.03674683181564613,0.01661725479768816,0,-0.01661725479768816,-0.09773086243318718,0.5,0.5977308624331872,7.322786624288798,7.327103244279351,0.0043166199905526744,0.0041557473031926615,0.004957709117051279,-3.661393312144399,0.4,0.033487796783447266,0.40756845474243164,GUIDED_NOGPS
0.05,0.004,0.04,0.002916191190913531,0.000584613799820835,1.1664764763654124e-05,-0.005881458426652267,-0.005285179862067778,0.08,0.002,0.06,-0.01768027623163182,-0.0030437137314030353,-3.536055246326364e-05,-0.0023279745498369898,-0.005407048833703289,0.5,0,0,3.0020556379098338,2.869544447877081,0.0,-0.0,2.869544447877081,0.002,8e-05,0.0,-0.04432735422444115,-0.00019920581118032478,-3.5461883379552926e-06,-0.0,-0.00020275199951828006,-0.03804642164253794,0,0.03804642164253794,0.0116922759964167,0,-0.0116922759964167,-0.09960290559016238,0.5,0.5996029055901624,5.739088895754162,5.740560997021648,0.0014721012674852488,-0.005285318783704909,0.005406913039718222,-2.869544447877081,0.4,0.03349494934082031,0.4410874843597412,GUIDED_NOGPS
0.05,0.004,0.04,0.0034875095150290096,0.0008517996346192411,1.3950038060116038e-05,0.0063737159996490505,0.007239465672328408,0.08,0.002,0.06,-0.018821254797544616,-0.002721803476708263,-3.7642509595089233e-05,0.0071992186952970025,0.00443977270899365,0.5,0,0,3.1326604726057483,1.9472358189407526,0.0,-0.0,1.9472358189407526,0.002,8e-05,0.0,-0.04753716348192825,-0.00019142493683940232,-3.80297307855426e-06,0.0,-0.0001952279099179566,-0.03402254345885329,0,0.03402254345885329,0.017035992692384823,0,-0.017035992692384823,-0.09571246841970116,0.5,0.5957124684197012,3.894471637881505,3.8997622619605226,0.005290624079017415,0.007239875604791461,-0.00443910420642405,-1.9472358189407526,0.4,0.03353595733642578,0.4746415615081787,GUIDED_NOGPS
0.05,0.004,0.04,0.0043007242276761806,0.0011264877479011317,1.7202896910704722e-05,0.006088090425198814,0.00723178107001065,0.08,0.002,0.06,-0.020046674327678208,-0.002715976610390076,-4.0093348655356414e-05,0.00012107307112157506,-0.0026349968879238574,0.5,0,0,3.200525014541889,0.9400786018630947,0.0,-0.0,0.9400786018630947,0.002,8e-05,0.0,-0.051688880214578105,-0.00023004296205424548,-4.1351104171662484e-06,-0.0,-0.00023417807247141172,-0.033949707629875946,0,0.033949707629875946,0.022529754958022633,0,-0.022529754958022633,-0.11502148102712273,0.5,0.6150214810271227,1.8801572037261893,1.8862382729548939,0.006081069228704487,0.0072315013647280026,0.0026357644158516553,-0.9400786018630947,0.4,0.03609514236450195,0.5106987953186035,GUIDED_NOGPS
0.05,0.004,0.04,0.004715378727987333,0.0006189365789096885,1.8861514911949333e-05,-0.012121589763871295,-0.011483791670049657,0.08,0.002,0.06,-0.02123836694873583,-0.002846059660506181,-4.247673389747166e-05,-0.002912538919241812,-0.005801075313645465,0.5,0,0,3.1933690066096307,-0.10681459057887438,0.0,-0.0,-0.10681459057887438,0.002,8e-05,0.0,-0.05520700332928459,-0.00021005392037617445,-4.416560266342768e-06,0.0,-0.0002144704806425172,-0.035575745756327264,0,0.035575745756327264,0.012378731578193768,0,-0.012378731578193768,-0.10502696018808722,0.5,0.6050269601880872,-0.21362918115774876,-0.21082952277810635,0.002799658379642421,-0.01148407511577202,0.0058005141712605575,0.10681459057887438,0.4,0.03349733352661133,0.5442118644714355,GUIDED_NOGPS
0.05,0.004,0.04,0.0050620559043037215,0.0004760074466178683,2.0248223617214887e-05,-0.0031399970212031753,-0.002643741350968092,0.08,0.002,0.06,-0.02236995025210115,-0.002485964998763023,-4.47399005042023e-05,0.00741645623884337,0.004885751339576144,0.5,0,0,3.109465577226454,-1.1520417238751068,0.0,-0.0,-1.1520417238751068,0.002,8e-05,0.0,-0.058881057637712675,-0.00020178740679416984,-4.710484611017015e-06,0.0,-0.00020649789140518685,-0.03107456248453779,0,0.03107456248453779,0.009520148932357366,0,-0.009520148932357366,-0.10089370339708492,0.5,0.6008937033970849,-2.3040834477502137,-2.298559420348432,0.0055240274017814405,-0.002643270291346,-0.0048860062064917924,1.1520417238751068,0.4,0.03641510009765625,0.5807058811187744,GUIDED_NOGPS
0.05,0.004,0.04,0.005327447340930318,0.00039626225106037527,2.130978936372127e-05,-0.0019051110980538835,-0.001487539057629787,0.08,0.002,0.06,-0.023450377805614812,-0.0025811392253193666,-4.690075561122963e-05,-0.0021316034385395455,-0.004759643419470142,0.5,0,0,2.965662983190695,-2.1471506520802532,0.0,-0.0,-2.1471506520802532,0.002,8e-05,0.0,-0.062213987462348054,-0.0001990590641090675,-4.977118996987845e-06,0.0,-0.00020403618310605532,-0.03226424031649208,0,0.03226424031649208,0.007925245021207505,0,-0.007925245021207505,-0.09952953205453374,0.5,0.5995295320545337,-4.2943013041605065,-4.284483301829301,0.009818002331205451,-0.001488354631465327,0.004759388450155676,2.1471506520802532,0.4,0.03348684310913086,0.614109992980957,GUIDED_NOGPS
0.05,0.004,0.04,0.005780074202687191,0.0006756547287259955,2.3120296810748765e-05,0.006672970242111589,0.007371745267648333,0.08,0.002,0.06,-0.024603006909043462,-0.0027529229747467903,-4.920601381808692e-05,-0.003846429998710449,-0.006648558987275326,0.5,0,0,2.7617021345541537,-3.0446074570419257,0.0,-0.0,-3.0446074570419257,0.002,8e-05,0.0,-0.06552172937914351,-0.00019750409499014654,-5.241738350331481e-06,0.0,-0.00020274583334047803,-0.03441153718433488,0,0.03441153718433488,0.013513094574519909,0,-0.013513094574519909,-0.09875204749507327,0.5,0.5987520474950733,-6.089214914083851,-6.080642162619563,0.0085727514642884,0.007370750409530421,0.006649661893568893,3.0446074570419257,0.4,0.033495426177978516,0.6476094722747803,GUIDED_NOGPS
0.05,0.004,0.04,0.006222300743816262,0.0006618776005980013,2.488920297526505e-05,-0.0003299222153498591,0.0003568445882234072,0.08,0.002,0.06,-0.025618574684866204,-0.00243198994249427,-5.123714936973241e-05,0.0072050758689517986,0.004721848777087796,0.5,0,0,2.5074433861971883,-3.8054742228698917,0.0,-0.0,-3.8054742228698917,0.002,8e-05,0.0,-0.06867093004948839,-0.00018853553006273517,-5.493674403959072e-06,0.0,-0.00019402920446669425,-0.030399874281178373,0,0.030399874281178373,0.013237552011960025,0,-0.013237552011960025,-0.09426776503136758,0.5,0.5942677650313676,-7.610948445739783,-7.607481923646012,0.003466522093771183,0.0003571302699231313,-0.004721827178554344,3.8054742228698917,0.4,0.033406972885131836,0.6810216903686523,GUIDED_NOGPS
0.05,0.004,0.04,0.006729018324238624,0.0007559945841553131,2.6916073296954495e-05,0.0022466772844014775,0.003029587941853745,0.08,0.002,0.06,-0.026654243191376402,-0.0024722561431535566,-5.3308486382752804e-05,-0.0009011241409137148,-0.0034266887704500243,0.5,0,0,2.2126237867127596,-4.3985452473799915,0.0,-0.0,-4.3985452473799915,0.002,8e-05,0.0,-0.07183017506110403,-0.00018853674796997155,-5.746414004888323e-06,-0.0,-0.00019428316197485986,-0.030903201789419455,0,0.030903201789419455,0.01511989168310626,0,-0.01511989168310626,-0.09426837398498578,0.5,0.5942683739849858,-8.797090494759983,-8.79737697910487,-0.00028648434488632007,0.003029605075585514,0.003426673622179446,4.3985452473799915,0.4,0.03351330757141113,0.7145657539367676,GUIDED_NOGPS
0.05,0.004,0.04,0.007335307389575874,0.0008428213747515226,2.9341229558303497e-05,0.0019312101556666786,0.0028033727599765046,0.08,0.002,0.06,-0.027780643208773093,-0.0025053501782139787,-5.556128641754619e-05,-0.0006900757836573773,-0.0032509872482889023,0.5,0,0,1.8675586913042321,-4.796857715538805,0.0,-0.0,-4.796857715538805,0.002,8e-05,0.0,-0.07512246081247631,-0.00018306837194914172,-6.009796864998106e-06,0.0,-0.00018907816881413983,-0.03131687722767473,0,0.03131687722767473,0.01685642749503045,0,-0.01685642749503045,-0.09153418597457086,0.5,0.5915341859745709,-9.59371543107761,-9.597625417490859,-0.003909986413248899,0.00280359460776464,0.003250795932572263,4.796857715538805,0.4,0.03596782684326172,0.7505075931549072,GUIDED_NOGPS
0.05,0.004,0.04,0.0077160036551234,0.0005674448884379369,3.08640146204936e-05,-0.0065673764077472455,-0.005969067504688815,0.08,0.002,0.06,-0.028714866907738883,-0.0022280038365946743,-5.7429733815477765e-05,0.00620095774984123,0.003915524179431078,0.5,0,0,1.5330356380092072,-4.986216410184782,0.0,-0.0,-4.986216410184782,0.002,8e-05,0.0,-0.0779921574368892,-0.00017109647015304465,-6.239372594951136e-06,0.0,-0.00017733584274799577,-0.027850047957433427,0,0.027850047957433427,0.011348897768758737,0,-0.011348897768758737,-0.08554823507652232,0.5,0.5855482350765223,-9.972432820369564,-9.972783253900806,-0.00035043353124260593,-0.005969091452780274,-0.003915487671234178,4.986216410184782,0.4,0.03354477882385254,0.784062385559082,GUIDED_NOGPS
0.05,0.004,0.04,0.008139104133155817,0.000630636825662146,3.255641653262327e-05,0.0015070146130334,0.002170207855228169,0.08,0.002,0.06,-0.02969038802613916,-0.002326443285851177,-5.938077605227832e-05,-0.00220087940178223,-0.0045867034636856855,0.5,0,0,1.2007172350330013,-4.9532494913884575,0.0,0.0,-4.9532494913884575,0.002,8e-05,0.0,-0.08095834030237778,-0.00017684538247974757,-6.476667224190223e-06,-0.0,-0.0001833220497039378,-0.02908054107313971,0,0.02908054107313971,0.01261273651324292,0,-0.01261273651324292,-0.08842269123987379,0.5,0.5884226912398738,-9.906498982776915,-9.9062342875998,0.00026469517711602097,0.002170186665541548,0.0045867134895681,4.9532494913884575,0.4,0.033545494079589844,0.8176109790802002,GUIDED_NOGPS
0.05,0.004,0.04,0.00864590134741398,0.0007575847457274369,3.4583605389655924e-05,0.00303628528452958,0.003828453635646673,0.08,0.002,0.06,-0.030743405700317188,-0.002518561995196082,-6.148681140063437e-05,-0.004307823705629183,-0.0068878725122259,0.5,0,0,0.8863429462938994,-4.699417417798484,0.0,0.0,-4.699417417798484,0.002,8e-05,0.0,-0.08365924193382678,-0.0001614974840531609,-6.692739354706142e-06,0.0,-0.00016819022340786702,-0.031482024939951024,0,0.031482024939951024,0.015151694914548737,0,-0.015151694914548737,-0.08074874202658044,0.5,0.5807487420265804,-9.398834835596968,-9.4009260539328,-0.0020912183358308056,0.0038287050311125374,0.006887732774266646,4.699417417798484,0.4,0.033448219299316406,0.8510653972625732,GUIDED_NOGPS
0.05,0.004,0.04,0.009064836543747732,0.000625874112100958,3.625934617499093e-05,-0.0031483351734258964,-0.0024862017151499475,0.08,0.002,0.06,-0.03168451080865759,-0.0022495634808663055,-6.336902161731518e-05,0.006028111547537514,0.003715179045053893,0.5,0,0,0.6026532587110592,-4.238221874933061,0.0,0.0,-4.238221874933061,0.002,8e-05,0.0,-0.08631132937266282,-0.00015848492898393274,-6.904906349813026e-06,0.0,-0.00016538983533374578,-0.02811954351082882,0,0.02811954351082882,0.012517482242019158,0,-0.012517482242019158,-0.07924246449196637,0.5,0.5792424644919664,-8.476443749866123,-8.479239274368842,-0.002795524502719598,-0.002486382979888497,-0.0037150577360981745,4.238221874933061,0.4,0.033468008041381836,0.8845610618591309,GUIDED_NOGPS
0.05,0.004,0.04,0.009448938862324997,0.0004926040652440013,3.7795755449299986e-05,-0.0027346616224620183,-0.0022042618017687173,0.08,0.002,0.06,-0.03264896775400365,-0.001979036893253061,-6.52979355080073e-05,0.00520417960408895,0.0031598447753278815,0.5,0,0,0.32278509335596545,-3.5892570629866483,0.0,0.0,-3.5892570629866483,0.002,8e-05,0.0,-0.08934226589968663,-0.00015548478439170155,-7.147381271974931e-06,0.0,-0.00016263216566367647,-0.02473796116566326,0,0.02473796116566326,0.009852081304880024,0,-0.009852081304880024,-0.07774239219585077,0.5,0.5777423921958508,-7.1785141259732965,-7.181996586895462,-0.0034824609221648754,-0.0022044538543553815,-0.0031597107935571068,3.5892570629866483,0.4,0.038986921310424805,0.9235234260559082,GUIDED_NOGPS
0.05,0.004,0.04,0.009719282319411916,0.00031484002405470364,3.887712927764766e-05,-0.0033123633533238663,-0.002958646199991515,0.08,0.002,0.06,-0.03350553654392012,-0.0015960860533649342,-6.701107308784024e-05,0.006689726446942382,0.005026629320489608,0.5,0,0,0.08396608106854617,-2.7812688490225566,0.0,0.0,-2.7812688490225566,0.002,8e-05,0.0,-0.09260078953622287,-0.00015179411718184,-7.408063162897831e-06,0.0,-0.0001592021803447378,-0.01995107566706168,0,0.01995107566706168,0.0062968004810940725,0,-0.0062968004810940725,-0.07589705859092,0.5,0.57589705859092,-5.562537698045113,-5.566654461310076,-0.004116763264962939,-0.0029590073610668427,-0.005026416725609039,2.7812688490225566,0.4,0.04293346405029297,0.9664578437805176,GUIDED_NOGPS
0.05,0.004,0.04,0.0099732563894624,0.00037914992308725205,3.98930255578496e-05,0.001536099698183709,0.0019551426468288106,0.08,0.002,0.06,-0.03442341932775365,-0.0021924454686223305,-6.88468386555073e-05,-0.013354293986523286,-0.015615586293801125,0.5,0,0,-0.04011189959329735,-1.8523212552922625,-0.0,0.0,-1.8523212552922625,0.002,8e-05,0.0,-0.09523371313048574,-0.0001572243620084446,-7.61869705043886e-06,-0.0,-0.00016484305905888346,-0.02740556835777913,0,0.02740556835777913,0.00758299846174504,0,-0.00758299846174504,-0.07861218100422229,0.5,0.5786121810042223,-3.704642510584525,-3.7047583816978453,-0.00011587111332041385,0.001955174226731472,0.015615582339820801,1.8523212552922625,0.4,0.0334925651550293,0.999976396560669,GUIDED_NOGPS
0.05,0.004,0.04,0.010251371837421246,0.0004155270353636197,4.1005487349684986e-05,0.000869605696783893,0.0013261382194971977,0.08,0.002,0.06,-0.03525674362208713,-0.0019920865298909134,-7.051348724417427e-05,0.0044902875638889094,0.002427687546753822,0.5,0,0,-0.0962106993611894,-0.8381615665757199,-0.0,0.0,-0.8381615665757199,0.002,8e-05,0.0,-0.09791277110602373,-0.00016010919584837825,-7.833021688481898e-06,-0.0,-0.00016794221753686016,-0.02490108162363642,0,0.02490108162363642,0.008310540707272393,0,-0.008310540707272393,-0.08005459792418912,0.5,0.5800545979241891,-1.6763231331514399,-1.6787740091854046,-0.002450876033964834,0.001326034371870198,-0.0024277442712307236,0.8381615665757199,0.4,0.03346538543701172,1.033473014831543,GUIDED_NOGPS
0.05,0.004,0.04,0.010566965765115356,0.00047133487868648285,4.226786306046142e-05,0.0013335710609910746,0.001847173802738019,0.08,0.002,0.06,-0.03587757195392243,-0.0014835167386583734,-7.175514390784486e-05,0.011393122291941006,0.009837850409374788,0.5,0,0,-0.08200517853986024,0.21215735936114577,-0.0,0.0,0.21215735936114577,0.002,8e-05,0.0,-0.10035869144280116,-0.0001461178386586939,-8.028695315424093e-06,0.0,-0.00015414653397411799,-0.018543959233229667,0,0.018543959233229667,0.009426697573729657,0,-0.009426697573729657,-0.07305891932934694,0.5,0.5730589193293469,0.42431471872229154,0.42156532334096364,-0.0027493953813279228,0.0018467017215036186,-0.009837939036533664,-0.21215735936114577,0.4,0.033478736877441406,1.0669047832489014,GUIDED_NOGPS
0.05,0.004,0.04,0.01076583180934698,0.0002959770078082978,4.306332723738792e-05,-0.004175827853865913,-0.003836787518820227,0.08,0.002,0.06,-0.03656869193768535,-0.0016457761856411793,-7.313738387537071e-05,-0.003622418230736075,-0.005341331800252625,0.5,0,0,0.0022998620031351585,1.2547317335889905,0.0,0.0,1.2547317335889905,0.002,8e-05,0.0,-0.10284224783992055,-0.00014785341438911415,-8.227379827193644e-06,-0.0,-0.0001560807942163078,-0.02057220232051474,0,0.02057220232051474,0.005919540156165955,0,-0.005919540156165955,-0.07392670719455707,0.5,0.5739267071945571,2.509463467177981,2.5032330106138545,-0.006230456564126378,-0.0038362066691358617,0.00534174898854693,-1.2547317335889905,0.4,0.03359484672546387,1.1005520820617676,GUIDED_NOGPS
0.05,0.004,0.04,0.010847738113537864,0.0001223241156275505,4.339095245415146e-05,-0.004149509451711424,-0.003983794383629722,0.08,0.002,0.06,-0.03732487462046139,-0.001806930567061158,-7.464974924092279e-05,-0.0036101739752710162,-0.005491754291573097,0.5,0,0,0.15240830710654796,2.241815569252057,0.0,0.0,2.241815569252057,0.002,8e-05,0.0,-0.10525375290201344,-0.0001440598386001688,-8.420300232161077e-06,0.0,-0.00015248013883232989,-0.022586632088264474,0,0.022586632088264474,0.0024464823125510096,0,-0.0024464823125510096,-0.0720299193000844,0.5,0.5720299193000844,4.483631138504114,4.474029437436339,-0.009601701067774887,-0.003982874012385283,0.005492421823887639,-2.241815569252057,0.4,0.03347921371459961,1.1339960098266602,GUIDED_NOGPS
0.05,0.004,0.04,0.01093176995598615,0.00012562109024778792,4.3727079823944604e-05,7.885954357235816e-05,0.00024820771364409067,0.08,0.002,0.06,-0.03801730056167323,-0.0016561969675609532,-7.603460112334646e-05,0.0033800256940412763,0.0016477941253569767,0.5,0,0,0.3616322948678675,3.1277364250035773,0.0,0.0,3.1277364250035773,0.002,8e-05,0.0,-0.10776376213744855,-0.000150090769165947,-8.621100970995885e-06,-0.0,-0.00015871187013694288,-0.020702462094511914,0,0.020702462094511914,0.0025124218049557582,0,-0.0025124218049557582,-0.0750453845829735,0.5,0.5750453845829735,6.255472850007155,6.246665612729069,-0.008807237278085243,0.0002479544195633345,-0.0016478322592097779,-3.1277364250035773,0.4,0.033446550369262695,1.1674573421478271,GUIDED_NOGPS
0.05,0.004,0.04,0.011149398933653085,0.00028110609561044723,4.4597595734612344e-05,0.003213379633688916,0.0035390833250339756,0.08,0.002,0.06,-0.038809565873753414,-0.0016373599578805732,-7.761913174750683e-05,0.000364969658521193,-0.001350009431106887,0.5,0,0,0.6617800311648872,3.8769358364535838,0.0,0.0,3.8769358364535838,0.002,8e-05,0.0,-0.11089075097820678,-0.0001615622392691205,-8.871260078256542e-06,-0.0,-0.00017043349934737703,-0.020466999473507164,0,0.020466999473507164,0.0056221219122089446,0,-0.0056221219122089446,-0.08078111963456025,0.5,0.5807811196345603,7.7538716729071675,7.742629306011935,-0.01124236689523259,0.0035393481507833193,0.0013493149792238208,-3.8769358364535838,0.4,0.038709402084350586,1.2061588764190674,GUIDED_NOGPS
0.05,0.004,0.04,0.011189481186794109,5.981752523693757e-05,4.4757924747176436e-05,-0.005283908405604088,-0.005179332955619974,0.08,0.002,0.06,-0.03959760559980331,-0.0018816741078839943,-7.919521119960662e-05,-0.0054691041626896445,-0.007429973481773246,0.5,0,0,0.9601333021553178,4.452532709226996,0.0,0.0,4.452532709226996,0.002,8e-05,0.0,-0.11337075962446895,-0.00014804355360330203,-9.069660769957517e-06,0.0,-0.00015711321437325955,-0.02352092634854993,0,0.02352092634854993,0.0011963505047387513,0,-0.0011963505047387513,-0.074021776801651,0.5,0.574021776801651,8.905065418453992,8.895662450393434,-0.009402968060557786,-0.005178113532481725,0.007430823376299185,-4.452532709226996,0.4,0.03350377082824707,1.239670753479004,GUIDED_NOGPS
0.05,0.004,0.04,0.011184384817539946,-7.511428211871098e-06,4.4737539270159786e-05,-0.0015877549688864952,-0.0015505288578282065,0.08,0.002,0.06,-0.040242435771193526,-0.0015206419471396908,-8.048487154238706e-05,0.007981762179198928,0.00638063536051685,0.5,0,0,1.2879789207524992,4.832045532527805,0.0,0.0,4.832045532527805,0.002,8e-05,0.0,-0.11593604638386318,-0.0001512368227267833,-9.274883710709056e-06,-0.0,-0.00016051170643749236,-0.019008024339246133,0,0.019008024339246133,-0.00015022856423742195,0,0.00015022856423742195,-0.07561841136339165,0.5,0.5756184113633916,9.66409106505561,9.654695793623906,-0.00939527143170412,-0.001551575123486346,-0.006380381021460581,-4.832045532527805,0.4,0.033924102783203125,1.2736783027648926,GUIDED_NOGPS
0.05,0.004,0.04,0.011181085760317129,-4.913900475823723e-06,4.4724343041268515e-05,6.190371086551246e-05,0.00010171415343095725,0.08,0.002,0.06,-0.04089214780487969,-0.0015483794579361871,-8.178429560975938e-05,-0.0006197196272849635,-0.00224988338083091,0.5,0,0,1.623454838453665,4.996867772458467,0.0,0.0,4.996867772458467,0.002,8e-05,0.0,-0.11857651124886062,-0.00015731744774559475,-9.48612089990885e-06,-0.0,-0.0001668035686455036,-0.019354743224202338,0,0.019354743224202338,-9.827800951647445e-05,0,9.827800951647445e-05,-0.07865872387279738,0.5,0.5786587238727974,9.993735544916934,9.986110817918139,-0.007624726998795744,0.00010201355933920791,0.002249869825136167,-4.996867772458467,0.4,0.033568620681762695,1.3072810173034668,GUIDED_NOGPS
0.05,0.004,0.04,0.011342331553269245,0.0002409280238686737,4.536932621307698e-05,0.005877259349914918,0.006163556699996669,0.08,0.002,0.06,-0.0415780024439843,-0.0016396493808401606,-8.31560048879686e-05,-0.0020455865943520093,-0.0037683919800801384,0.5,0,0,1.9542129528999634,4.9420761579646335,0.0,-0.0,4.9420761579646335,0.002,8e-05,0.0,-0.12113583834059237,-0.00015296240785087713,-9.690867067247391e-06,0.0,-0.00016265327491812452,-0.020495617260502006,0,0.020495617260502006,0.004818560477373474,0,-0.004818560477373474,-0.07648120392543856,0.5,0.5764812039254386,9.884152315929267,9.875228745343794,-0.00892357058547388,0.0061641435360411155,0.0037674319870023747,-4.9420761579646335,0.4,0.033463478088378906,1.3406293392181396,GUIDED_NOGPS
0.05,0.004,0.04,0.01147309973570669,0.00019382615863893253,4.5892398942826765e-05,-0.0011170391368345823,-0.000877320579252823,0.08,0.002,0.06,-0.04211349679380061,-0.001269945772595255,-8.422699358760122e-05,0.008219686419746054,0.006865513653563198,0.5,0,0,2.2690211035415166,4.666123930893322,0.0,-0.0,4.666123930893322,0.002,8e-05,0.0,-0.12374987509079079,-0.00015498225711727077,-9.899990007263265e-06,-0.0,-0.00016488224712453404,-0.01587432215744069,0,0.01587432215744069,0.0038765231727786505,0,-0.0038765231727786505,-0.07749112855863538,0.5,0.5774911285586354,9.332247861786644,9.32696067890069,-0.005287182885954511,-0.0008779541165312993,-0.006865432666286149,-4.666123930893322,0.4,0.033733367919921875,1.374377727508545,GUIDED_NOGPS
0.05,0.004,0.04,0.011586662239876592,0.00014617905055481687,4.6346648959506365e-05,-0.0009813110864125836,-0.0007887853868982604,0.08,0.002,0.06,-0.042548310332298056,-0.0008955157259419827,-8.509662066459612e-05,0.0072295643424369034,0.0062489519958303244,0.5,0,0,2.5940324077274712,4.183585437179652,0.0,-0.0,4.183585437179652,0.002,8e-05,0.0,-0.12679527890149625,-0.00015680324799422074,-1.01436223121197e-05,-0.0,-0.00016694687030634043,-0.011193946574274784,0,0.011193946574274784,0.002923581011096337,0,-0.002923581011096337,-0.07840162399711037,0.5,0.5784016239971104,8.367170874359305,8.365590083745087,-0.0015807906142185834,-0.0007889577951898546,-0.006248930230862335,-4.183585437179652,0.4,0.038843631744384766,1.413224458694458,GUIDED_NOGPS
0.05,0.004,0.04,0.011659360600034172,0.00010170205152572913,4.663744240013669e-05,-0.0009955442267828203,-0.0008472047328569544,0.08,0.002,0.06,-0.042987208022902554,-0.0009824000529888742,-8.597441604580511e-05,-0.0018232146406633632,-0.0028915891096980423,0.5,0,0,2.8455673646809414,3.5188718283539524,0.0,-0.0,3.5188718283539524,0.002,8e-05,0.0,-0.1297690918327954,-0.0001664097376123992,-1.0381527346623632e-05,-0.0,-0.00017679126495902283,-0.012280000662360926,0,0.012280000662360926,0.0020340410305145825,0,-0.0020340410305145825,-0.0832048688061996,0.5,0.5832048688061996,7.037743656707905,7.033697242732391,-0.004046413975513694,-0.000847000517333091,0.0028916489348358,-3.5188718283539524,0.4,0.03574085235595703,1.4489555358886719,GUIDED_NOGPS
0.05,0.004,0.04,0.011651829240899237,-1.124076924955362e-05,4.6607316963596946e-05,-0.0026971263252383547,-0.0026617597775243115,0.08,0.002,0.06,-0.04339669045075547,-0.0009778628055359501,-8.679338090151094e-05,0.00010157957693823715,-0.000963076609499224,0.5,0,0,3.026219253450302,2.6962811887868585,0.0,-0.0,2.6962811887868585,0.002,8e-05,0.0,-0.13260428493846219,-0.00016926427704605553,-1.0608342795076976e-05,-0.0,-0.0001798726198411325,-0.012223285069199376,0,0.012223285069199376,-0.0002248153849910724,0,0.0002248153849910724,-0.08463213852302776,0.5,0.5846321385230278,5.392562377573717,5.390273323461356,-0.0022890541123607674,-0.002661721299015035,0.000963182950108912,-2.6962811887868585,0.4,0.03350019454956055,1.482485294342041,GUIDED_NOGPS
0.05,0.004,0.04,0.011582915418384855,-0.00010296357352983339,4.6331661673539426e-05,-0.0021926765594009506,-0.002249308471257245,0.08,0.002,0.06,-0.043896688833236844,-0.0011952695315062508,-8.779337766647369e-05,-0.004872383927909081,-0.006155446837081806,0.5,0,0,3.1437602388247043,1.7561701627914685,0.0,-0.0,1.7561701627914685,0.002,8e-05,0.0,-0.13550009893779594,-0.00017306447198565977,-1.0840007915023676e-05,-0.0,-0.00018390447990068343,-0.014940869143828136,0,0.014940869143828136,-0.0020592714705966676,0,0.0020592714705966676,-0.08653223599282989,0.5,0.5865322359928299,3.512340325582937,3.508107587104019,-0.004232738478917827,-0.0022488537301130775,0.006155612988449364,-1.7561701627914685,0.4,0.03346514701843262,1.5159683227539062,GUIDED_NOGPS
0.05,0.004,0.04,0.011434858545833966,-0.0001994038817464463,4.573943418333586e-05,-0.0020781821454299767,-0.002231846592993087,0.08,0.002,0.06,-0.0445574411789959,-0.0014238483398696694,-8.91148823579918e-05,-0.004617769599683005,-0.006130732821910666,0.5,0,0,3.198586896518513,0.7384087059904196,0.0,-0.0,0.7384087059904196,0.002,8e-05,0.0,-0.13888715093047008,-0.00018246807551175692,-1.1110972074437607e-05,-0.0,-0.00019357904758619452,-0.017798104248370868,0,0.017798104248370868,-0.003988077634928926,0,0.003988077634928926,-0.09123403775587846,0.5,0.5912340377558785,1.4768174119808393,1.4705634627465556,-0.006253949234283652,-0.0022311773979171,0.006130976395920265,-0.7384087059904196,0.4,0.0371248722076416,1.5530757904052734,GUIDED_NOGPS
0.05,0.004,0.04,0.011332780262639579,-0.00014173216262979764,4.533112105055832e-05,0.001281202969672266,0.0011848019280930268,0.08,0.002,0.06,-0.04520372175961813,-0.0014357411428293754,-9.040744351923626e-05,-0.00024769117834779906,-0.001773839764696411,0.5,0,0,3.1760224293642114,-0.31329981542480145,0.0,-0.0,-0.31329981542480145,0.002,8e-05,0.0,-0.1420893275687584,-0.0001778444565737676,-1.1367146205500672e-05,0.0,-0.00018921160277926826,-0.017946764285367192,0,0.017946764285367192,-0.002834643252595953,0,0.002834643252595953,-0.08892222828688379,0.5,0.5889222282868838,-0.6265996308496029,-0.6321137211366181,-0.00551409028701521,0.0011849726352256536,0.0017737257322927755,0.31329981542480145,0.4,0.0360109806060791,1.5890662670135498,GUIDED_NOGPS
0.05,0.004,0.04,0.011127559368362988,-0.0003062413964208049,4.451023747345195e-05,-0.003927829096183507,-0.00418956025513086,0.08,0.002,0.06,-0.04570487318611147,-0.001196551165678101,-9.140974637222293e-05,0.005353977688593133,0.00406601677654281,0.5,0,0,3.085409576488152,-1.3521725795150963,0.0,-0.0,-1.3521725795150963,0.002,8e-05,0.0,-0.14499848372485488,-0.00017364782407554213,-1.1599878697988392e-05,0.0,-0.00018524770277353052,-0.01495688957097626,0,0.01495688957097626,-0.006124827928416097,0,0.006124827928416097,-0.08682391203777107,0.5,0.5868239120377711,-2.7043451590301926,-2.706793812973938,-0.002448653943745656,-0.004189734020962858,-0.004065837723284852,1.3521725795150963,0.4,0.03350639343261719,1.6226203441619873,GUIDED_NOGPS
0.05,0.004,0.04,0.010909487618383836,-0.0003250503618552758,4.363795047353534e-05,-0.00044857610551995823,-0.0007299885169016987,0.08,0.002,0.06,-0.04612272174244929,-0.0009965294409848046,-9.224544348489858e-05,0.004472184085973159,0.003383409201503456,0.5,0,0,2.9291548221225017,-2.329080426649364,0.0,-0.0,-2.329080426649364,0.002,8e-05,0.0,-0.14796063306468302,-0.00017661117771972725,-1.1836850645174642e-05,-0.0,-0.0001884480283649019,-0.012456618012310057,0,0.012456618012310057,-0.006501007237105515,0,0.006501007237105515,-0.08830558885986362,0.5,0.5883055888598636,-4.658160853298728,-4.661586686741114,-0.0034258334423863334,-0.0007301908166473136,-0.0033833655479286484,2.329080426649364,0.4,0.033544301986694336,1.656207799911499,GUIDED_NOGPS
0.05,0.004,0.04,0.010683971730638349,-0.00033704227807471816,4.2735886922553395e-05,-0.0002867581739974602,-0.000581064565149625,0.08,0.002,0.06,-0.046456267928550385,-0.0007975964267920456,-9.291253585710078e-05,0.004459697072216982,0.0035691881095678353,0.5,0,0,2.714857838375255,-3.2027518907327206,0.0,-0.0,-3.2027518907327206,0.002,8e-05,0.0,-0.150867400581694,-0.00017377109090826437,-1.2069392046535522e-05,0.0,-0.0001858404829547999,-0.00996995533490057,0,0.00996995533490057,-0.006740845561494363,0,0.006740845561494363,-0.08688554545413218,0.5,0.5868855454541322,-6.405503781465441,-6.409912168353249,-0.0044083868878078076,-0.0005813391798531216,-0.003569143391392484,3.2027518907327206,0.4,0.03345513343811035,1.689591884613037,GUIDED_NOGPS
0.05,0.004,0.04,0.010479665081567946,-0.0003048597575928502,4.1918660326271785e-05,0.0007683474179598169,0.0005054063206932385,0.08,0.002,0.06,-0.04667899381918243,-0.0005317509642426952,-9.335798763836487e-05,0.005950289697279448,0.005325180745398388,0.5,0,0,2.451115270542472,-3.9354810850385347,0.0,-0.0,-3.9354810850385347,0.002,8e-05,0.0,-0.15356600645519908,-0.00016107088754647436,-1.2285280516415928e-05,0.0,-0.0001733561680628903,-0.006646887053033691,0,0.006646887053033691,-0.006097195151857004,0,0.006097195151857004,-0.08053544377323718,0.5,0.5805354437732372,-7.870962170077069,-7.874334777772317,-0.003372607695247356,0.0005050928631249856,-0.005325210485960025,3.9354810850385347,0.4,0.03350830078125,1.7232060432434082,GUIDED_NOGPS
0.05,0.004,0.04,0.010100653922827047,-0.0005652465239944778,4.040261569130819e-05,-0.0062133353578985055,-0.006738179266201675,0.08,0.002,0.06,-0.04707940138130329,-0.0009554504238737324,-9.415880276260658e-05,-0.009478400882855256,-0.010528010109491594,0.5,0,0,2.1499377484178726,-4.491676394218764,0.0,-0.0,-4.491676394218764,0.002,8e-05,0.0,-0.15656707217444144,-0.0001790281818314894,-1.2525365773955317e-05,-0.0,-0.0001915535476054447,-0.011943130298421655,0,0.011943130298421655,-0.011304930479889556,0,0.011304930479889556,-0.08951409091574469,0.5,0.5895140909157447,-8.983352788437529,-8.989993441398719,-0.00664065296119044,-0.006736959011324259,0.010528791002235926,4.491676394218764,0.4,0.03352618217468262,1.7566378116607666,GUIDED_NOGPS
0.05,0.004,0.04,0.00956341427549041,-0.0007927172695678019,3.825365710196164e-05,-0.005370266002708405,-0.0061247296151742455,0.08,0.002,0.06,-0.047572477486693195,-0.0011640836885856768,-9.514495497338639e-05,-0.004617693223965546,-0.005876921867524609,0.5,0,0,1.821284525366439,-4.849401694449793,0.0,-0.0,-4.849401694449793,0.002,8e-05,0.0,-0.15904827810929092,-0.0001464445004131896,-1.2723862248743274e-05,0.0,-0.00015916836266193285,-0.01455104610732096,0,0.01455104610732096,-0.015854345391356037,0,0.015854345391356037,-0.07322225020659479,0.5,0.5732222502065948,-9.698803388899586,-9.707474268578167,-0.008670879678581747,-0.0061238401587238546,0.0058778486886260015,4.849401694449793,0.4,0.033885955810546875,1.7905516624450684,GUIDED_NOGPS
0.05,0.004,0.04,0.009099566735785073,-0.0006179385056461219,3.6398266943140294e-05,0.003725449211697409,0.0031439089729944276,0.08,0.002,0.06,-0.04807919243581405,-0.0010800744698043025,-9.615838487162811e-05,0.0016787584282727387,0.000502525573596808,0.5,0,0,1.446439322931381,-4.993694358893957,0.0,-0.0,-4.993694358893957,0.002,8e-05,0.0,-0.1618970803202532,-0.00015180717200670758,-1.2951766425620258e-05,-0.0,-0.00016475893843232784,-0.013500930872553782,0,0.013500930872553782,-0.012358770112922439,0,0.012358770112922439,-0.07590358600335378,0.5,0.5759035860033538,-9.987388717787914,-9.994999153428735,-0.007610435640820845,0.003143842196216057,-0.0005029431656609687,4.993694358893957,0.4,0.03753185272216797,1.8280587196350098,GUIDED_NOGPS
0.05,0.004,0.04,0.008805602146593832,-0.0004391443655627367,3.522240858637533e-05,0.004273518218191835,0.0038695962612154736,0.08,0.002,0.06,-0.048495458932315195,-0.000994955682323192,-9.699091786463039e-05,0.0019073438077372028,0.0008153972075493805,0.5,0,0,1.1173169354525694,-4.91665484062261,0.0,0.0,-4.91665484062261,0.002,8e-05,0.0,-0.16453287681853337,-0.0001575013077832581,-1.3162630145482671e-05,-0.0,-0.00017066393792874077,-0.012436946029039898,0,0.012436946029039898,-0.008782887311254733,0,0.008782887311254733,-0.07875065389162905,0.5,0.578750653891629,-9.83330968124522,-9.839833266128725,-0.006523584883505609,0.003869503396609624,-0.0008158377868906804,4.91665484062261,0.4,0.03347015380859375,1.8615245819091797,GUIDED_NOGPS
0.05,0.004,0.04,0.008570396384843382,-0.0003202024276139604,3.428158553937353e-05,0.002590786687731948,0.002304865845657361,0.08,0.002,0.06,-0.04913118543038941,-0.0013847359280109012,-9.826237086077883e-05,-0.007959535938425978,-0.009442534237297658,0.5,0,0,0.7778373466008177,-4.621578470983717,0.0,0.0,-4.621578470983717,0.002,8e-05,0.0,-0.16743110822270252,-0.00015782278877787047,-1.3394488657816203e-05,-0.0,-0.00017121727743568669,-0.017309199100136265,0,0.017309199100136265,-0.0064040485522792075,0,0.0064040485522792075,-0.07891139438893524,0.5,0.5789113943889352,-9.243156941967435,-9.248849094149707,-0.005692152182271747,0.0023058039198145834,0.009442305209660613,4.621578470983717,0.4,0.0367276668548584,1.8982603549957275,GUIDED_NOGPS
0.05,0.004,0.04,0.008395309211430332,-0.0002404014822097477,3.358123684572133e-05,0.001753116707107182,0.0015462964617431556,0.08,0.002,0.06,-0.04979139364764346,-0.0014503863957687213,-9.958278729528693e-05,-0.0013521095905332792,-0.0029020787735972876,0.5,0,0,0.4777310144518089,-4.120576377057171,0.0,0.0,-4.120576377057171,0.002,8e-05,0.0,-0.17019671366785075,-0.00015189134309742224,-1.3615737093428061e-05,0.0,-0.0001655070801908503,-0.018129829947109016,0,0.018129829947109016,-0.004808029644194954,0,0.004808029644194954,-0.07594567154871112,0.5,0.5759456715487111,-8.241152754114342,-8.24822205135675,-0.007069297242408279,0.0015466545157435108,0.002901887965565443,4.120576377057171,0.4,0.03641557693481445,1.9347131252288818,GUIDED_NOGPS
0.05,0.004,0.04,0.008024676539334271,-0.0004012518840090432,3.209870615733709e-05,-0.002786220713919189,-0.003155373891770895,0.08,0.002,0.06,-0.05076646578168305,-0.0016890017973448343,-0.0001015329315633661,-0.0038749233396445384,-0.005665458068552739,0.5,0,0,0.16035512761025583,-3.435953765598087,0.0,0.0,-3.435953765598087,0.002,8e-05,0.0,-0.17343199701595155,-0.00014010243958115787,-1.3874559761276125e-05,0.0,-0.000153976999342434,-0.02111252246681043,0,0.02111252246681043,-0.008025037680180864,0,0.008025037680180864,-0.07005121979057893,0.5,0.5700512197905789,-6.871907531196174,-6.882271136822208,-0.01036360562603373,-0.00315434907753921,0.005666028716872716,3.435953765598087,0.4,0.046184539794921875,1.980881690979004,GUIDED_NOGPS
0.05,0.004,0.04,0.007647017146892856,-0.0005635872412846354,3.0588068587571426e-05,-0.0038760910175048503,-0.004409090190201914,0.08,0.002,0.06,-0.051578458843927234,-0.0019388006825264536,-0.00010315691768785447,-0.005591683964168541,-0.0076336415643828495,0.5,0,0,-0.013796012044547112,-2.598885724253535,-0.0,0.0,-2.598885724253535,0.002,8e-05,0.0,-0.17568085399056707,-0.00013424023061350243,-1.4054468319245367e-05,0.0,-0.0001482946989327478,-0.02423500853158067,0,0.02423500853158067,-0.011271744825692709,0,0.011271744825692709,-0.06712011530675122,0.5,0.5671201153067512,-5.19777144850707,-5.211495991996031,-0.013724543488961058,-0.004407261512887741,0.0076346974920966345,2.598885724253535,0.4,0.03350496292114258,2.0144238471984863,GUIDED_NOGPS
0.05,0.004,0.04,0.007276876750859442,-0.0005531577021301838,2.910750700343777e-05,0.00024938342206485105,-0.00027466677306189506,0.08,0.002,0.06,-0.052357593896777924,-0.0018630100798619651,-0.00010471518779355586,0.0016989832532018074,-0.0002687420144537136,0.5,0,0,-0.12435665488671653,-1.6522776707433338,-0.0,0.0,-1.6522776707433338,0.002,8e-05,0.0,-0.17803276487907696,-0.00014059288168975236,-1.4242621190326157e-05,-0.0,-0.0001548355028800785,-0.023287625998274563,0,0.023287625998274563,-0.011063154042603676,0,0.011063154042603676,-0.07029644084487618,0.5,0.5702964408448762,-3.3045553414866675,-3.309897297378446,-0.005341955891778518,-0.00027464171578198224,0.0002687676217649802,1.6522776707433338,0.4,0.033457040786743164,2.047898292541504,GUIDED_NOGPS
0.05,0.004,0.04,0.0070838694575941835,-0.0002880627636487892,2.8335477830376736e-05,0.006330453471791322,0.006070726185972909,0.08,0.002,0.06,-0.05339904520260596,-0.002486980352189343,-0.00010679809040521192,-0.01396910433075842,-0.016562882773352976,0.5,0,0,-0.16637016020862952,-0.627050213950741,-0.0,0.0,-0.627050213950741,0.002,8e-05,0.0,-0.18009345414559205,-0.00012302288376593308,-1.4407476331647365e-05,0.0,-0.00013743036009758043,-0.031087254402366787,0,0.031087254402366787,-0.005761255272975783,0,0.005761255272975783,-0.06151144188296653,0.5,0.5615114418829665,-1.254100427901482,-1.2616991916130784,-0.007598763711596429,0.006072922759164119,0.016562077507067657,0.627050213950741,0.4,0.03350090980529785,2.0813870429992676,GUIDED_NOGPS
0.05,0.004,0.04,0.00699776015460754,-0.000111799595714004,2.799104061843016e-05,0.0036616068612117816,0.0035777983061162076,0.08,0.002,0.06,-0.05473619629053631,-0.0027777338030450407,-0.00010947239258107263,-0.005662474981912345,-0.008549681177538458,0.5,0,0,-0.13354991081332715,0.4261201155230285,-0.0,0.0,0.4261201155230285,0.002,8e-05,0.0,-0.18245519826774437,-0.00012265436085460334,-1.459641586141955e-05,0.0,-0.00013725077671602288,-0.034721672538063006,0,0.034721672538063006,-0.0022359919142800797,0,0.0022359919142800797,-0.061327180427301675,0.5,0.5613271804273017,0.852240231046057,0.8423811189212129,-0.009859112124844043,0.003579269430705141,0.00854906540501493,-0.4261201155230285,0.4,0.03851056098937988,2.1198813915252686,GUIDED_NOGPS
0.05,0.004,0.04,0.00680741636777271,-0.0002846222456119021,2.722966547109084e-05,-0.004134764493193412,-0.004392157073334223,0.08,0.002,0.06,-0.055790804202144696,-0.002523138807173346,-0.00011158160840428939,0.005710462157829822,0.0030757417422521863,0.5,0,0,-0.03575740804072024,1.4622973623667772,-0.0,0.0,1.4622973623667772,0.002,8e-05,0.0,-0.18465033794758776,-0.0001312962393988666,-1.4772027035807021e-05,-0.0,-0.00014606826643467362,-0.03153923508966682,0,0.03153923508966682,-0.005692444912238042,0,0.005692444912238042,-0.0656481196994333,0.5,0.5656481196994333,2.9245947247335544,2.909151336452391,-0.015443388281163605,-0.004392985942972703,-0.0030745577774237056,-1.4622973623667772,0.4,0.03343796730041504,2.153325080871582,GUIDED_NOGPS
0.05,0.004,0.04,0.006633433037956669,-0.0002478800294100179,2.653373215182668e-05,0.0008375663707406598,0.0006162200734824686,0.08,0.002,0.06,-0.0571933492879189,-0.0031972066977054305,-0.0001143866985758378,-0.014405515347887941,-0.01771710874416921,0.5,0,0,0.13485473846148055,2.4307698868269747,0.0,0.0,2.4307698868269747,0.002,8e-05,0.0,-0.1877819342374271,-0.0001784677144060747,-1.502255473899417e-05,-0.0,-0.00019349026914506885,-0.03996508372131788,0,0.03996508372131788,-0.004957600588200358,0,0.004957600588200358,-0.08923385720303734,0.5,0.5892338572030373,4.861539773653949,4.847071672991346,-0.01446810066260315,0.0006206939070973998,0.017716952573887307,-2.4307698868269747,0.4,0.035094261169433594,2.1884124279022217,GUIDED_NOGPS
0.05,0.004,0.04,0.006428094471090956,-0.0003042047684903467,2.5712377884363822e-05,-0.0013351026627874336,-0.0016135950533934164,0.08,0.002,0.06,-0.0584590283600443,-0.00300012308449221,-0.00011691805672008861,0.004379628423868642,0.0012625872826563431,0.5,0,0,0.3571269620648085,3.2929162482810326,0.0,0.0,3.2929162482810326,0.002,8e-05,0.0,-0.19067838576769058,-0.00017164128115952892,-1.5254270861415248e-05,0.0,-0.00018689555202094417,-0.037501538556152625,0,0.037501538556152625,-0.006084095369806934,0,0.006084095369806934,-0.08582064057976446,0.5,0.5858206405797645,6.585832496562065,6.570309259822431,-0.015523236739634358,-0.0016139370689492412,-0.0012621500624461273,-3.2929162482810326,0.4,0.033750057220458984,2.222166061401367,GUIDED_NOGPS
0.05,0.004,0.04,0.006279152066129388,-0.00018409660129426248,2.5116608264517552e-05,0.002375307999001372,0.0022163280059716273,0.08,0.002,0.06,-0.06002338659972953,-0.0030937385248429347,-0.00012004677319945906,-0.0017356659846147716,-0.004949451282657166,0.5,0,0,0.6818207708568917,4.013298071515333,0.0,0.0,4.013298071515333,0.002,8e-05,0.0,-0.1938886980803284,-0.0001587211072635082,-1.5511095846426273e-05,0.0,-0.00017423220310993446,-0.03867173156053668,0,0.03867173156053668,-0.0036819320258852494,0,0.0036819320258852494,-0.0793605536317541,0.5,0.5793605536317541,8.026596143030666,8.002539790539762,-0.02405635249090467,0.0022184058998295803,0.004948520293284866,-4.013298071515333,0.4,0.04045224189758301,2.262657880783081,GUIDED_NOGPS
0.05,0.004,0.04,0.006201468412367808,-0.00011492676085739802,2.4805873649471232e-05,0.0016373000651755626,0.0015471791779676357,0.08,0.002,0.06,-0.06132498592769309,-0.0030809795874148266,-0.0001226499718553862,0.00028313743231524007,-0.002920492126954973,0.5,0,0,0.9895796112949662,4.553046225828992,0.0,0.0,4.553046225828992,0.002,8e-05,0.0,-0.19635218844752445,-0.00014578148920449798,-1.5708175075801956e-05,0.0,-0.00016148966428029994,-0.03851224484268533,0,0.03851224484268533,-0.00229853521714796,0,0.00229853521714796,-0.07289074460224898,0.5,0.572890744602249,9.106092451657984,9.080328018195505,-0.025764433462478316,0.0015484922914410211,0.002919796105157058,-4.553046225828992,0.4,0.03379702568054199,2.296443462371826,GUIDED_NOGPS
0.05,0.004,0.04,0.0061680578107702454,-4.549812335164421e-05,2.4672231243080982e-05,0.0015127522701554972,0.001491926378046934,0.08,0.002,0.06,-0.0627438614794302,-0.0030915300790406103,-0.0001254877229588604,-0.00021551283714930713,-0.003432530639148778,0.5,0,0,1.348800460837206,4.891822877007837,0.0,0.0,4.891822877007837,0.002,8e-05,0.0,-0.19890508023520712,-0.00013905979528109857,-1.591240641881657e-05,0.0,-0.00015497220169991514,-0.03864412598800763,0,0.03864412598800763,-0.0009099624670328842,0,0.0009099624670328842,-0.06952989764054929,0.5,0.5695298976405493,9.783645754015675,9.755937380195567,-0.027708373820108014,0.0014935861834185714,0.0034318087386840932,-4.891822877007837,0.4,0.036716461181640625,2.3331286907196045,GUIDED_NOGPS
0.05,0.004,0.04,0.006121521053733416,-6.910970569641202e-05,2.4486084214933664e-05,-0.0005610324778177644,-0.0006056560992992428,0.08,0.002,0.06,-0.06405667764859202,-0.0031193695430890697,-0.00012811335529718405,-0.000620147585363174,-0.0038676304837494276,0.5,0,0,1.6863227673048788,5.012396383249136,0.0,0.0,5.012396383249136,0.002,8e-05,0.0,-0.20110637818416321,-0.0001307620582861606,-1.6088510254733057e-05,0.0,-0.00014685056854089366,-0.03899211928861337,0,0.03899211928861337,-0.0013821941139282405,0,0.0013821941139282405,-0.0653810291430803,0.5,0.5653810291430803,10.024792766498273,9.999444309209432,-0.0253484572888414,-0.0006039449460549633,0.0038678980559964183,-5.012396383249136,0.4,0.03366875648498535,2.3668031692504883,GUIDED_NOGPS
0.05,0.004,0.04,0.0060371740885211515,-0.00012203829506973714,2.4148696354084607e-05,-0.0012252845927649525,-0.001323174191480605,0.08,0.002,0.06,-0.06540961479544262,-0.003132018178914225,-0.00013081922959088524,-0.00027451217963361596,-0.003537349588138726,0.5,0,0,2.025863648952522,4.912683010998094,0.0,-0.0,4.912683010998094,0.002,8e-05,0.0,-0.20373147360483887,-0.00015192587841348916,-1.629851788838711e-05,-0.0,-0.00016822439630187626,-0.03915022723642781,0,0.03915022723642781,-0.002440765901394743,0,0.002440765901394743,-0.07596293920674457,0.5,0.5759629392067446,9.825366021996189,9.800063584670868,-0.02530243732532023,-0.0013216119305852097,0.00353793357125885,-4.912683010998094,0.4,0.03455758094787598,2.4013702869415283,GUIDED_NOGPS
0.05,0.004,0.04,0.006015399230855855,-3.235178127301906e-05,2.406159692342342e-05,0.0021320137359081264,0.0021237235515585307,0.08,0.002,0.06,-0.06651992929172512,-0.0026394222018905587,-0.00013303985858345024,0.010978044644147464,0.008205582583673455,0.5,0,0,2.335143568043076,4.595096072890172,0.0,-0.0,4.595096072890172,0.002,8e-05,0.0,-0.20621267604274116,-0.00014745688775367395,-1.6497014083419294e-05,0.0,-0.00016395390183709325,-0.032992777523631986,0,0.032992777523631986,-0.0006470356254603812,0,0.0006470356254603812,-0.07372844387683697,0.5,0.573728443876837,9.190192145780344,9.166626023425668,-0.02356612235467606,0.0021203483631612925,-0.008206455390713381,-4.595096072890172,0.4,0.03365325927734375,2.4350357055664062,GUIDED_NOGPS
0.05,0.004,0.04,0.0061004220834280695,0.00012703646768800122,2.440168833371228e-05,0.0038103864128597054,0.003961824568881419,0.08,0.002,0.06,-0.06750913424793688,-0.002364824978787851,-0.00013501826849587377,0.006154320903948727,0.0036544776566650025,0.5,0,0,2.6078793651571144,4.075068199812617,0.0,-0.0,4.075068199812617,0.002,8e-05,0.0,-0.20883165421484234,-0.00015652532271985463,-1.6706532337187388e-05,-0.0,-0.00017323185505704203,-0.029560312234848136,0,0.029560312234848136,0.002540729353760024,0,-0.002540729353760024,-0.07826266135992732,0.5,0.5782626613599273,8.150136399625234,8.127187352021913,-0.02294904760332175,0.003960360499650054,-0.0036560642185918643,-4.075068199812617,0.4,0.03346395492553711,2.468500852584839,GUIDED_NOGPS
0.05,0.004,0.04,0.006331459612396014,0.00034397087621852984,2.5325838449584056e-05,0.005167584256464062,0.005536880971132176,0.08,0.002,0.06,-0.06860630206509592,-0.0026135582534165974,-0.00013721260413019184,-0.005554747066479278,-0.008305517924026068,0.5,0,0,2.834538564114393,3.374523767484649,0.0,-0.0,3.374523767484649,0.002,8e-05,0.0,-0.21140166889833786,-0.00015305049470107425,-1.6912133511867032e-05,0.0,-0.00016996262821294129,-0.03266947816770747,0,0.03266947816770747,0.006879417524370596,0,-0.006879417524370596,-0.07652524735053712,0.5,0.5765252473505371,6.749047534969298,6.7277855841685845,-0.021261950800714094,0.005539962693164695,0.008303462665246786,-3.374523767484649,0.4,0.033583879470825195,2.502078056335449,GUIDED_NOGPS
0.05,0.004,0.04,0.006384491377258176,7.878137829865624e-05,2.5537965509032706e-05,-0.006303239339141843,-0.006198919995334153,0.08,0.002,0.06,-0.06943878599734596,-0.0019787154137406423,-0.00013887757199469193,0.014146368891182004,0.012028775905446671,0.5,0,0,3.0045069786621186,2.524967064571735,0.0,-0.0,2.524967064571735,0.002,8e-05,0.0,-0.2137453963680176,-0.00013926904442852607,-1.709963170944141e-05,0.0,-0.0001563686761379675,-0.024733942671758026,0,0.024733942671758026,0.0015756275659731247,0,-0.0015756275659731247,-0.06963452221426303,0.5,0.569634522214263,5.04993412914347,5.030401940639225,-0.01953218850424501,-0.0062030202567848235,-0.012026661988512235,-2.524967064571735,0.4,0.03365755081176758,2.5357697010040283,GUIDED_NOGPS
0.05,0.004,0.04,0.006457663145378166,0.00010814802901972177,2.5830652581512664e-05,0.0006944635563127644,0.0008284422379139988,0.08,0.002,0.06,-0.07023383337905463,-0.0018801307557436257,-0.00014046766675810925,0.0021856250151992634,0.00016502659269752818,0.5,0,0,3.1104374621895383,1.5656548011536726,0.0,-0.0,1.5656548011536726,0.002,8e-05,0.0,-0.21597297066643933,-0.0001316943821689529,-1.7277837653315147e-05,0.0,-0.00014897221982226806,-0.02350163444679532,0,0.02350163444679532,0.0021629605803944354,0,-0.0021629605803944354,-0.06584719108447645,0.5,0.5658471910844765,3.1313096023073452,3.1102156249790487,-0.021093977328296546,0.0008283814256870889,-0.00016533158026806784,-1.5656548011536726,0.4,0.033829450607299805,2.569593667984009,GUIDED_NOGPS
0.05,0.004,0.04,0.006414977665369746,-6.323942790074275e-05,2.5659910661478985e-05,-0.004062625407187826,-0.00410020492442709,0.08,0.002,0.06,-0.07111287521035788,-0.0020837100579015823,-0.00014222575042071575,-0.004524104659838261,-0.0067500404681605595,0.5,0,0,3.146900266780921,0.540204046331631,0.0,-0.0,0.540204046331631,0.002,8e-05,0.0,-0.21773505353846118,-0.00010442249937766079,-1.7418804283076894e-05,0.0,-0.00012184130366073768,-0.02604637572376978,0,0.02604637572376978,-0.001264788558014855,0,0.001264788558014855,-0.0522112496888304,0.5,0.5522112496888304,1.080408092663262,1.0522740443667222,-0.02813404829653978,-0.004096889945905263,0.0067520529852217355,-0.540204046331631,0.4,0.03374910354614258,2.6033835411071777,GUIDED_NOGPS
0.05,0.004,0.04,0.006390595530638941,-3.637317281740233e-05,2.5562382122555766e-05,0.0006412635808254438,0.0006304527901305972,0.08,0.002,0.06,-0.07185820724515957,-0.0017790134429164456,-0.00014371641449031913,0.006818178200612926,0.004895448343206162,0.5,0,0,3.1124448252320724,-0.5140049236020398,0.0,-0.0,-0.5140049236020398,0.002,8e-05,0.0,-0.2195161943007786,-0.0001062839517132852,-1.756129554406229e-05,-0.0,-0.0001238452472573475,-0.02223766803645557,0,0.02223766803645557,-0.0007274634563480465,0,0.0007274634563480465,-0.0531419758566426,0.5,0.5531419758566426,-1.0280098472040795,-1.0522740443666747,-0.0242641971625951,0.0006283795595992518,-0.0048957148947483915,0.5140049236020398,0.4,0.033516645431518555,2.636854887008667,GUIDED_NOGPS
0.05,0.004,0.04,0.0063460348495775,-6.65464550836106e-05,2.538413939831e-05,-0.0007209674269689962,-0.0007621297426542967,0.08,0.002,0.06,-0.07259166788218682,-0.001752547911742432,-0.00014518333576437364,0.000592850212199528,-0.0013048810353072774,0.5,0,0,3.0089642224828137,-1.5453684995037618,0.0,-0.0,-1.5453684995037618,0.002,8e-05,0.0,-0.2213754783664464,-0.00011106541517445389,-1.7710038269315713e-05,-0.0,-0.0001287754534437696,-0.0219068488967804,0,0.0219068488967804,-0.0013309291016722121,0,0.0013309291016722121,-0.05553270758722695,0.5,0.555532707587227,-3.0907369990075235,-3.110215624979003,-0.019478625971479206,-0.0007616860832296401,0.0013051400582148975,1.5453684995037618,0.4,0.03348088264465332,2.6703567504882812,GUIDED_NOGPS
0.05,0.004,0.04,0.006470473517068391,0.00018441840772667056,2.5881894068273563e-05,0.00595088858831791,0.006161188890112854,0.08,0.002,0.06,-0.07333953645366739,-0.0017733488655540387,-0.00014667907290733477,-0.0004624059617256812,-0.0023824339001870544,0.5,0,0,2.8398082435958476,-2.506895719215586,0.0,-0.0,-2.506895719215586,0.002,8e-05,0.0,-0.22308734294985924,-0.00010147949896354836,-1.784698743598874e-05,0.0,-0.0001193264863995371,-0.022166860819425482,0,0.022166860819425482,0.003688368154533411,0,-0.003688368154533411,-0.05073974948177418,0.5,0.5507397494817742,-5.013791438431172,-5.030401940639183,-0.016610502208010764,0.006161879317727024,0.002380647622429347,2.506895719215586,0.4,0.033738136291503906,2.704089641571045,GUIDED_NOGPS
0.05,0.004,0.04,0.006609402881301048,0.0001842719047632343,2.6437611525204194e-05,-3.109076935603006e-06,0.00020760043935283548,0.08,0.002,0.06,-0.07398584627985855,-0.001371594762817686,-0.0001479716925597171,0.007993125949280387,0.006473559493902984,0.5,0,0,2.586802136695059,-3.35580008537747,0.0,-0.0,-3.35580008537747,0.002,8e-05,0.0,-0.2248985722648817,-9.609449454710428e-05,-1.7991885781190537e-05,0.0,-0.00011408638032829482,-0.017144934535221076,0,0.017144934535221076,0.0036854380952646855,0,-0.0036854380952646855,-0.04804724727355214,0.5,0.5480472472735521,-6.71160017075494,-6.727785584168561,-0.0161854134136213,0.0002057717233329389,-0.006473617880397139,3.35580008537747,0.4,0.03769683837890625,2.7418158054351807,GUIDED_NOGPS
