Mode,Time,Freq,time2delay,actualDelay,North-Desired,East-Desired,Down-Desired,Roll-UAV,Pitch-UAV,Yaw-UAV,Roll-Control,Pitch-Control,Yaw-Control,Thrust-Control,North-Pos,East-Pos,Down-Pos,Yaw-Ang,North-Vel,East-Vel,Down-Vel,Yaw-Vel,North-Acc,East-Acc,Down-Acc,North-Raw,East-Raw,Down-Raw,Yaw-Raw,North-Dif,East-Dif,Down-Dif,Yaw-Dif,Landing-State,Q-Size,Kalman-Time,Kalman-Dt
STABILIZE,0.03433060646057129,29.135811388122843,0.03329447110493978,0.03346753120422363,-10.0,40.0,10.0,0.2475850459441328,0.39513199301393825,-7.088591874900435,1.198975502300233,0.6020330204516832,0.012627067670678156,0.5199693805122867,0.025074869671679444,0.02530857992505695,0.02870853363349969,0.025254135341356312,-0.04092880699317902,0.047941249795258045,1.8387529999017715,-0.03291438812560055,-1.7289329320192337,0.08185644401237369,21.245810389518738,0.0,0.0,0.0,0.0,0.0,0.0,0.0,0.0,False,0,0.059221506118774414,0.034927001953125
STABILIZE,0.06770944595336914,29.9608123263306,0.03240540822347005,0.032540321350097656,-10.0,40.0,10.0,0.2477536128784146,0.39579388103319485,-7.0877107804975035,1.1979361012815193,0.6040798781915645,0.025351884403841805,0.5199297618035295,0.05032551640793987,0.050992958512111164,0.06180955050141623,0.05070376880768361,-0.04092880699317902,0.047941249795258045,1.8387529999017715,-0.03291438812560055,-1.7289329320192337,0.08185644401237369,21.245810389518738,0.0,0.0,0.0,0.0,0.0,0.0,0.0,0.0,False,0,0.0874490737915039,0.034927001953125
STABILIZE,0.10111856460571289,29.93152073075002,0.03250125249226888,0.032640933990478516,-10.0,40.0,10.0,0.24740762110827114,0.39652647218253156,-7.087925931456359,1.1962585026575099,0.6073607376257187,0.0458219388804703,0.5198234016662286,0.09077601847433063,0.0923854045150781,0.12820171277239792,0.0916438777609406,0.087195064406842,0.11617917334660888,1.8971070647239685,0.031755723906144576,1.975761167705059,0.3762810956686735,30.20710051059723,0.0,0.0,0.0,0.0,0.0,0.0,0.0,0.0,False,0,0.1449282169342041,0.02993701171875
STABILIZE,0.1347498893737793,29.737557074388135,0.03255775769551595,0.03269815444946289,-10.0,40.0,10.0,0.24717203294275858,0.3961999571236932,-7.087900318246971,1.1957406906157024,0.6083213456200541,0.052031010805960176,0.5197982554747369,0.10247682445697073,0.10521445975640871,0.15395515764308698,0.10406202161192035,-0.07846989901736379,0.09888178901746869,1.551625318825245,0.041135034389919965,-3.348246216773987,0.09339518146589398,21.368439495563507,0.0,0.0,0.0,0.0,0.0,0.0,0.0,0.0,False,0,0.1735069751739502,0.034927001953125
STABILIZE,0.16813111305236816,29.95375144616,0.03235772450764974,0.032485246658325195,-10.0,40.0,10.0,0.24787575587068145,0.39633906886717934,-7.087674068230715,1.1951572431170507,0.609449488011048,0.059007129018050025,0.5197576940008886,0.11644144864676208,0.11966623746536136,0.1873632870067001,0.11801425803610005,0.07640508119948208,0.08444790146313608,1.9687730818986893,0.032842644458888966,0.1626499928534031,2.0851239562034607,27.170589566230774,0.0,0.0,0.0,0.0,0.0,0.0,0.0,0.0,False,0,0.20220112800598145,0.03492724609375
STABILIZE,0.20157647132873535,29.899302115040527,0.03244903882344564,0.03260922431945801,-10.0,40.0,10.0,0.24801550794440227,0.39531272622267916,-7.086534280412969,1.1946550351357241,0.6103876623564203,0.06452584509193314,0.5197197787471385,0.12825504865009213,0.13243911061062322,0.2194143826054387,0.12905169018386628,0.06458391435444355,0.14900456881150603,1.7471717670559883,-0.07201449972042612,1.177350990474224,0.09754704660736024,22.680005431175232,0.0,0.0,0.0,0.0,0.0,0.0,0.0,0.0,False,0,0.23138070106506348,0.029936767578125
STABILIZE,0.23506808280944824,29.858647986787403,0.03246596654256185,0.03260302543640137,-10.0,40.0,10.0,0.24920806964565706,0.39530365487768776,-7.086460002105745,1.194359973982472,0.6109404594565976,0.06809580638960969,0.5196946386261111,0.1349958670880934,0.1397066961892764,0.24504518089081428,0.13619161277921937,0.041503217653371394,0.07453314610756934,1.7185930162668228,0.09398423674270187,2.7955925092101097,-0.1452482189051807,18.882673978805542,0.0,0.0,0.0,0.0,0.0,0.0,0.0,0.0,False,0,0.26047229766845703,0.03492822265625
STABILIZE,0.26844096183776855,29.96316669286051,0.0324132760365804,0.032575130462646484,-10.0,40.0,10.0,0.24695597484940404,0.39474779487312506,-7.086820721471287,1.1939918389852084,0.6116307404170251,0.07255342275711273,0.5196577855820097,0.14341479499771512,0.14876601862880062,0.27648052303031284,0.14510684551422545,0.041503217653371394,0.07453314610756934,1.7185930162668228,0.09398423674270187,2.7955925092101097,-0.1452482189051807,18.882673978805542,0.0,0.0,0.0,0.0,0.0,0.0,0.0,0.0,False,0,0.2890334129333496,0.03492822265625
STABILIZE,0.3018043041229248,29.97387302404025,0.032526286443074544,0.03263092041015625,-10.0,40.0,10.0,0.2472466314150998,0.3943627963195185,-7.086994464408298,1.1934295177731629,0.6127680593527073,0.07949520556220768,0.5195619445373098,0.15756749171648593,0.1624901771155329,0.33730959311445996,0.15899041112441537,0.13189009623602033,0.08123739389702678,1.6877591609954834,0.1105206316514052,3.584093600511551,-0.06957772420719266,19.546298682689667,0.0,0.0,0.0,0.0,0.0,0.0,0.0,0.0,False,0,0.3464348316192627,0.03492578125
STABILIZE,0.33540797233581543,29.75886705973337,0.03259471257527669,0.0327303409576416,-10.0,40.0,10.0,0.2481510445107447,0.39516710445514036,-7.086845480907027,1.1932400829645033,0.6132114558787939,0.08204744909092702,0.5195233522213504,0.1631918415505197,0.1669525959390168,0.36950857215071853,0.16409489818185405,0.15995848225429654,0.03877511480823159,1.9395560026168823,0.1090288156170326,0.9703481569886208,-0.04540923691820353,25.34661889076233,0.0,0.0,0.0,0.0,0.0,0.0,0.0,0.0,False,0,0.3752918243408203,0.02993798828125
STABILIZE,0.3688340187072754,29.91721648822728,0.032441171010335286,0.03256416320800781,-10.0,40.0,10.0,0.24728697221988521,0.3950547798598054,-7.087076853565161,1.193142948446435,0.6133887192083738,0.08360866961961358,0.5195045513538215,0.16506553912493618,0.16906548943253918,0.3917564543695064,0.16721733923922716,0.11811550939455628,0.14303633943200111,1.6425805166363716,0.23352379419676572,0.6523347459733486,1.9353363662958145,21.154488623142242,0.0,0.0,0.0,0.0,0.0,0.0,0.0,0.0,False,0,0.40380072593688965,0.034927001953125
STABILIZE,0.40807199478149414,25.48520458384474,0.03245118459065755,0.03844642639160156,-10.0,40.0,10.0,0.2478737281582716,0.39562398007759075,-7.08729243141084,1.192983934769504,0.6135931553806394,0.0849246938538086,0.5194774942094007,0.1675657643934882,0.173411839097318,0.4203474245345452,0.1698493877076172,0.03097849548794329,0.18823257414624095,1.686323806643486,0.03754256165979821,-0.37901666946709156,-0.04426965897437185,21.814970672130585,0.0,0.0,0.0,0.0,0.0,0.0,0.0,0.0,False,0,0.4324188232421875,0.034927001953125
STABILIZE,0.4415156841278076,29.90079416000114,0.03254559834798177,0.03265976905822754,-10.0,40.0,10.0,0.24737773903065233,0.39475574564020577,-7.087082403093863,1.19292771567798,0.613620367076362,0.08615359529923118,0.519442766168593,0.16716788341266425,0.1744107980612819,0.4504846466508782,0.17230719059846236,-0.12749622110277414,-0.021006887254770845,1.8789105117321014,0.10193025470751256,-8.880150318145752,-0.10516934562474489,29.60277497768402,0.0,0.0,0.0,0.0,0.0,0.0,0.0,0.0,False,0,0.4611241817474365,0.034927001953125
STABILIZE,0.4750065803527832,29.859073111696446,0.03253677686055501,0.03268599510192871,-10.0,40.0,10.0,0.2477392054481341,0.395469073521649,-7.086632037495464,1.1929511482135353,0.6136878376280753,0.08510379611191168,0.5193700604257688,0.16902092310247793,0.17436821241277548,0.49955948437304953,0.17020759222382337,0.14825169928371906,0.07219288381747901,1.7742766067385674,-0.010627000616172924,2.130468562245369,1.8308863043785095,26.775404810905457,0.0,0.0,0.0,0.0,0.0,0.0,0.0,0.0,False,0,0.5185801982879639,0.02993701171875
STABILIZE,0.5084154605865479,29.932375148081015,0.03251508076985677,0.03262662887573242,-10.0,40.0,10.0,0.2470430064004688,0.3949540345695477,-7.08689499977851,1.1930250520487211,0.6135830032935875,0.08411079753391817,0.5193521750532591,0.1679602910289587,0.17262000668324362,0.5211771998001244,0.16822159506783635,0.10514467721804976,0.05966189783066511,1.8634553998708725,0.04022939399465859,1.3839507475495338,-0.2438611350953579,23.62966686487198,0.0,0.0,0.0,0.0,0.0,0.0,0.0,0.0,False,0,0.5471174716949463,0.034927001953125
STABILIZE,0.5419256687164307,29.84207755247243,0.03253987630208333,0.03267216682434082,-10.0,40.0,10.0,0.24777719837539228,0.39465174533792174,-7.087172476213542,1.1930148909263059,0.6135440553818744,0.08504755557437997,0.5193228643418097,0.16666050111862743,0.17229761997977897,0.5484790089017731,0.17009511114875994,-0.008055180660448968,0.06830578204244375,1.8396593630313873,0.2303593355377871,-1.1586898006498814,-0.0896644894964993,27.70049273967743,0.0,0.0,0.0,0.0,0.0,0.0,0.0,0.0,False,0,0.5758647918701172,0.034927001953125
STABILIZE,0.5753726959228516,29.898236459803545,0.03247812589009603,0.03260469436645508,-10.0,40.0,10.0,0.2474704268321235,0.39381643454677034,-7.0868856082684015,1.1930444560898472,0.6133908369371621,0.08487731512235677,0.5192933694471151,0.1642237498033924,0.1714480822927833,0.5758348685510564,0.16975463024471354,-0.0468887243187055,0.06871206569485366,1.9084492698311806,0.09956520832590308,-0.21526752971112728,-0.2251987811177969,21.559225022792816,0.0,0.0,0.0,0.0,0.0,0.0,0.0,0.0,False,0,0.6046979427337646,0.02993701171875
STABILIZE,0.608759880065918,29.949901459541287,0.032459529240926106,0.03258824348449707,-10.0,40.0,10.0,0.24819330630623415,0.39446487563109844,-7.086979523369489,1.1931283288566188,0.6131445421756526,0.08346302504093596,0.5192814096950488,0.16109789826944645,0.16967987789533293,0.5943977837201775,0.16692605008187192,0.030470022466033697,0.1320037292316556,1.811939850449562,0.05160283957160003,0.5931719206273556,-0.09206769173033535,26.848480105400085,0.0,0.0,0.0,0.0,0.0,0.0,0.0,0.0,False,0,0.6331944465637207,0.06985498046875
STABILIZE,0.6424016952514648,29.730601019301517,0.03254679044087728,0.032688140869140625,-10.0,40.0,10.0,0.2482248425702926,0.3940645625127122,-7.0872074809330385,1.1928534717292723,0.6137394471238944,0.08680656943186801,0.5191623612909786,0.1687024143218953,0.17641008529977606,0.6664253988664424,0.17361313886373603,0.12706875568255782,0.03044714976567775,1.9633939489722252,0.032610924955211,-0.13764475006610155,-0.1780383405275643,29.17085587978363,0.0,0.0,0.0,0.0,0.0,0.0,0.0,0.0,False,0,0.6620402336120605,0.029873046875
STABILIZE,0.6758286952972412,29.913802571801472,0.032335789998372395,0.0324704647064209,-10.0,40.0,10.0,0.2494650555131788,0.3946514785336573,-7.086784862978144,1.193249156851071,0.6129296792226078,0.08053107550781458,0.519128724843097,0.1595493530933375,0.16775249751724142,0.6956814016829729,0.16106215101562915,-0.04504723474383354,0.10970570147037506,1.8206868320703506,-0.14451136821077118,1.3728445395827293,1.8508201465010643,28.244420886039734,0.0,0.0,0.0,0.0,0.0,0.0,0.0,0.0,False,0,0.7196295261383057,0.034927001953125
STABILIZE,0.7092940807342529,29.88140918320094,0.03237965901692708,0.03252887725830078,-10.0,40.0,10.0,0.2501265700064651,0.39466967458449304,-7.08673107523843,1.193406816915085,0.6125826821398647,0.07856038829357298,0.5191131255876745,0.15512888968200217,0.1639267447305968,0.7159212359473284,0.15712077658714596,-0.007850900146877393,0.03738242667168379,1.8662279471755028,0.030746510095422303,1.4585674740374088,-2.2685837000608444,16.21226668357849,0.0,0.0,0.0,0.0,0.0,0.0,0.0,0.0,False,0,0.7514936923980713,0.0399169921875
STABILIZE,0.7426230907440186,29.999599462134867,0.03238633473714193,0.03251171112060547,-10.0,40.0,10.0,0.250106132799808,0.39485707789984525,-7.087641624832157,1.1935499562623042,0.6123051546181663,0.07794310038430187,0.5190883971364685,0.15092613719731282,0.1596182627682227,0.7406653146611154,0.15588620076860374,-0.028784520691260695,-0.0300722720567137,1.8076540902256966,0.1550283787689231,-0.9709706529974937,-2.1993663161993027,20.272275805473328,0.0,0.0,0.0,0.0,0.0,0.0,0.0,0.0,False,0,0.7775535583496094,0.02494677734375
STABILIZE,0.7760715484619141,29.898449584773854,0.03251484235127767,0.03261971473693848,-10.0,40.0,10.0,0.24909558496776343,0.3948740466510645,-7.086988914879598,1.1937988990522483,0.6118320089343232,0.07607942018161905,0.5191050762714144,0.14432526589945613,0.15268289843157806,0.7446950048871391,0.1521588403632381,-0.028784520691260695,-0.0300722720567137,1.8076540902256966,0.1550283787689231,-0.9709706529974937,-2.1993663161993027,20.272275805473328,0.0,0.0,0.0,0.0,0.0,0.0,0.0,0.0,False,0,0.805776834487915,0.02494677734375
STABILIZE,0.8095149993896484,29.901220485913083,0.032488377888997395,0.03263139724731445,-10.0,40.0,10.0,0.2489629298874771,0.39535904344298833,-7.087630525774756,1.1939473919404335,0.6115306857108208,0.07439857837490071,0.5191315340414628,0.14046575419736174,0.14894969007255784,0.7438583874742163,0.14879715674980143,0.11812741868197918,0.14418252976611257,1.4919518493115902,0.1619941178454915,2.2103600203990936,1.9137436524033546,22.374723851680756,0.0,0.0,0.0,0.0,0.0,0.0,0.0,0.0,False,0,0.8346133232116699,0.03492724609375
STABILIZE,0.8514976501464844,23.819363045749853,0.03251007397969564,0.04115128517150879,-10.0,40.0,10.0,0.2484380725384439,0.39540039810397865,-7.087326155469867,1.1942582625141234,0.6107876362588018,0.06709278036311428,0.5190880514739311,0.13315058320981044,0.1438187211590567,0.7810734213237667,0.13418556072622856,0.040989561239257455,0.09791324846446514,1.5845833346247673,-0.15142713484860743,-0.12466711923480034,-0.039755168836563826,23.069699108600616,0.0,0.0,0.0,0.0,0.0,0.0,0.0,0.0,False,0,0.8918330669403076,0.024947998046875
STABILIZE,0.8849847316741943,29.862687162253565,0.032492907842000325,0.03269243240356445,-10.0,40.0,10.0,0.24795227533372677,0.3957531133415863,-7.08688133940017,1.194458617470311,0.6104136887419604,0.06463140882642163,0.519110673945161,0.12862275269083065,0.13890974990107122,0.782118438346167,0.12926281765284325,0.059066072572022676,0.05765241803601384,1.7259091138839722,0.04116813812903205,3.727433830499649,1.8425866961479187,22.722749412059784,0.0,0.0,0.0,0.0,0.0,0.0,0.0,0.0,False,0,0.9204909801483154,0.0349267578125
STABILIZE,0.9184556007385254,29.876513662136365,0.0325200875600179,0.0326533317565918,-10.0,40.0,10.0,0.24720122132928982,0.3974400633448737,-7.086979523369489,1.1946076902570195,0.6101030444663604,0.061051670530236364,0.5191053430834109,0.12593043589826597,0.13649431992562444,0.7971010807549175,0.12210334106047273,0.10363266337662935,0.1313700689934194,1.8222156912088394,-0.15635362223089067,3.4947827458381653,0.001276112743653357,25.26123821735382,0.0,0.0,0.0,0.0,0.0,0.0,0.0,0.0,False,0,0.9491965770721436,0.039916015625
STABILIZE,0.9520022869110107,29.80941551057539,0.03251341183980306,0.03272390365600586,-10.0,40.0,10.0,0.24783082603254747,0.3982579251371298,-7.086384443138051,1.1947074624982972,0.609708434008152,0.06057870229623678,0.5190923014274357,0.11967915933294043,0.13353075838211212,0.815940968942082,0.12115740459247357,-0.1309471670538187,0.07027208339422941,1.7493659630417824,0.2000971952442671,-2.0575040951371193,1.8674388527870178,24.085934460163116,0.0,0.0,0.0,0.0,0.0,0.0,0.0,0.0,False,0,0.9779448509216309,0.024947998046875
STABILIZE,0.986983060836792,28.587326794757324,0.03248766263326009,0.034140586853027344,-10.0,40.0,10.0,0.24853700355970332,0.3993426979155454,-7.0866350257032265,1.1947574909526042,0.60943413295497,0.059697260820752364,0.519118971832847,0.11571905073088529,0.13250494575831,0.8154498031704335,0.11939452164150473,0.06998663884587586,0.2742693293839693,1.7398910596966743,0.20744783949294954,4.590297490358353,1.980743557214737,20.913194119930267,0.0,0.0,0.0,0.0,0.0,0.0,0.0,0.0,False,0,1.0066261291503906,0.03492724609375
STABILIZE,1.0204715728759766,29.859710821758846,0.03248456319173177,0.03261518478393555,-10.0,40.0,10.0,0.24856208316056197,0.4003418798859242,-7.087070023375992,1.1950611599251333,0.6085950654292009,0.055868796682589324,0.5190886240077381,0.1043885763240017,0.12514126780121052,0.8428790464688078,0.11173759336517865,-0.08002715185284615,0.04834169812966138,1.8905829638242722,0.03263535088562173,1.4631752856075764,1.7570897936820984,24.028733372688293,0.0,0.0,0.0,0.0,0.0,0.0,0.0,0.0,False,0,1.0640153884887695,0.034927001953125
STABILIZE,1.0539395809173584,29.879280498664293,0.03242615063985189,0.03256940841674805,-10.0,40.0,10.0,0.2481505642630687,0.4010028074098287,-7.086394688421807,1.195261305901389,0.6081472328697354,0.05245242097201738,0.5190982470390598,0.09929615180703448,0.1209073394013134,0.8503172695975918,0.10490484194403477,-0.04738911520689726,0.015951655223034322,1.5871815383434296,-0.14823667611405777,-1.4253007248044014,-0.34630801528692245,17.782023549079895,0.0,0.0,0.0,0.0,0.0,0.0,0.0,0.0,False,0,1.0926423072814941,0.02993798828125
STABILIZE,1.087397575378418,29.889287953936492,0.032446893056233723,0.032582998275756836,-10.0,40.0,10.0,0.24798407840204964,0.4012803372057134,-7.086284978508264,1.1954356929367294,0.6080120002930103,0.04992642937764622,0.5191145463964941,0.09879531882490807,0.11688344343695443,0.8544018309848149,0.09985285875529244,0.22923678625375032,0.04638024256564677,1.7729487270116806,-0.0350797381853731,2.3887772113084793,-0.29554434586316347,23.69123101234436,0.0,0.0,0.0,0.0,0.0,0.0,0.0,0.0,False,0,1.1227996349334717,0.034927001953125
STABILIZE,1.120774745941162,29.960170290579732,0.032447131474812825,0.03256583213806152,-10.0,40.0,10.0,0.24750879328535194,0.4014763849792339,-7.08655349032001,1.1955483159884257,0.6077899210900658,0.04852561666959944,0.5191294070345385,0.09606590664492844,0.11412954729897785,0.8591983767285795,0.09705123333919888,0.07919851341284811,0.09678645874373615,1.4877378940582275,0.08284383135054744,2.9660070315003395,-0.4101491067558527,17.871786653995514,0.0,0.0,0.0,0.0,0.0,0.0,0.0,0.0,False,0,1.1519684791564941,0.034927001953125
STABILIZE,1.1554923057556152,28.803472098229616,0.03250721295674642,0.033924102783203125,-10.0,40.0,10.0,0.2488011931423653,0.40137974847464875,-7.087309079996942,1.1956771605764016,0.6074358223571078,0.046705183831650364,0.5191399771112764,0.09142802328067602,0.11113716795813773,0.8665970040553616,0.09341036766330073,-0.03855807881336659,0.07975036860443652,1.6881799325346947,0.027648552399358726,-2.333664894104004,-0.3766080364584923,17.835834622383118,0.0,0.0,0.0,0.0,0.0,0.0,0.0,0.0,False,0,1.1836225986480713,0.034890869140625
STABILIZE,1.1889407634735107,29.89631847179158,0.032532723744710286,0.03265786170959473,-10.0,40.0,10.0,0.24959349508608678,0.4019967600166242,-7.088159438548609,1.1957983079939134,0.6072279123227511,0.04652086817908225,0.519151808144314,0.08808790066014288,0.10724003398125323,0.8728965576361791,0.0930417363581645,0.03463017346803099,0.023567712923977524,1.665450632572174,0.21565978126814117,3.075520880520344,-0.33315205946564674,17.921502888202667,0.0,0.0,0.0,0.0,0.0,0.0,0.0,0.0,False,0,1.2123632431030273,0.02993701171875
STABILIZE,1.2236220836639404,28.833965792223506,0.03252986272176107,0.0338287353515625,-10.0,40.0,10.0,0.24999530230835393,0.40311941900059217,-7.087922943248597,1.1959245897220658,0.6070199280639825,0.04631969453839674,0.5191763577159426,0.08475816678911487,0.10318354177361413,0.8732594546744399,0.09263938907679348,0.03463017346803099,0.023567712923977524,1.665450632572174,0.21565978126814117,3.075520880520344,-0.33315205946564674,17.921502888202667,0.0,0.0,0.0,0.0,0.0,0.0,0.0,0.0,False,1,1.2410497665405273,0.02993701171875
STABILIZE,1.2570488452911377,29.917429883876856,0.032465489705403645,0.03259134292602539,-10.0,40.0,10.0,0.24929152601957816,0.4039807165271014,-7.087043983279781,1.196098980900932,0.6063215908317827,0.04240751154870738,0.519193881164715,0.07583900264775283,0.10015970743697108,0.8767063964712781,0.08481502309741476,-0.05865782732143998,0.21604252979159355,1.5432853251695633,-0.10085412638726532,2.169373258948326,1.8053004518151283,24.20138567686081,0.0,0.0,0.0,0.0,0.0,0.0,0.0,0.0,False,0,1.2991900444030762,0.034927001953125
STABILIZE,1.2945139408111572,26.690661490979668,0.03248742421468099,0.0367281436920166,-10.0,40.0,10.0,0.24970811419809605,0.4040337038540219,-7.087169914892603,1.1962801186984888,0.6062687180918722,0.038826203623968734,0.5191987875117067,0.07744758486552865,0.0966436728065955,0.8879353628774336,0.07765240724793747,0.30522115994244814,0.02372016606386751,2.03593373298645,-0.2116778877037295,4.167446494102478,1.6410063952207565,22.702889144420624,0.0,0.0,0.0,0.0,0.0,0.0,0.0,0.0,False,0,1.3280103206634521,0.02993701171875
STABILIZE,1.328080415725708,29.792688037618177,0.03259232838948568,0.03270888328552246,-10.0,40.0,10.0,0.24917599977306976,0.406259385028094,-7.0876557120973205,1.1963531522598838,0.6060772643626431,0.03825593107474748,0.5192246881917729,0.07465222820054217,0.09461896170453012,0.8871802813647608,0.07651186214949496,0.038305443013086915,0.12050020741298795,1.6578180715441704,0.1460741875300215,-4.101841896772385,-0.3060527378693223,19.972336292266846,0.0,0.0,0.0,0.0,0.0,0.0,0.0,0.0,False,0,1.356745958328247,0.034927001953125
STABILIZE,1.361496925354004,29.924900649966823,0.032457621892293294,0.03258514404296875,-10.0,40.0,10.0,0.24932082112781517,0.40640980927239295,-7.087261695559575,1.1964572386786245,0.6058144677781616,0.03517792207381309,0.519228539255669,0.07241387267043878,0.09332530132463888,0.8974314280131219,0.07035584414762618,0.0613412179518491,0.14634948456659913,2.0069658756256104,-0.16350767175731046,2.098797634243965,-0.18888654885813594,24.92726296186447,0.0,0.0,0.0,0.0,0.0,0.0,0.0,0.0,False,0,1.3853678703308105,0.034927978515625
STABILIZE,1.3953680992126465,29.522798620398394,0.0324888547261556,0.03304600715637207,-10.0,40.0,10.0,0.2504964140778507,0.40626754923858627,-7.088058693258351,1.196625983553856,0.6056836985462843,0.03365450901557275,0.5192509241565412,0.07129213037458924,0.08877689769600233,0.8985720159150609,0.0673090180311455,0.12280287919566035,-0.05194158875383437,1.4907934702932835,0.0190520656378101,3.4163273870944977,-0.307925115339458,22.290411591529846,0.0,0.0,0.0,0.0,0.0,0.0,0.0,0.0,False,0,1.4140748977661133,0.02993701171875
STABILIZE,1.4288361072540283,29.880557672990474,0.032502206166585286,0.032620906829833984,-10.0,40.0,10.0,0.25040196536823417,0.40637304364475124,-7.088057839484705,1.1968167944341788,0.6051565554216267,0.02921132972490052,0.5192730528609801,0.06559809216047251,0.08555897396120614,0.8996818525807739,0.05842265944980104,0.24560638703405857,0.11432085884734988,2.063518762588501,-0.10687322392323245,2.8666261583566666,-0.14864950207993388,19.886603951454163,0.0,0.0,0.0,0.0,0.0,0.0,0.0,0.0,False,0,1.47235107421875,0.0349267578125
STABILIZE,1.4622273445129395,29.94690770966314,0.03247574170430501,0.032605648040771484,-10.0,40.0,10.0,0.25071151167585326,0.40593500440337127,-7.087998502216291,1.1970077474661809,0.604799637278608,0.026255602901822064,0.5192873850283506,0.06170556142722414,0.08128201444957606,0.9046830937599882,0.05251120580364413,-0.05848538130521774,-0.049319135723635554,1.7737764865159988,-0.16941044930408242,-2.589709311723709,-0.18432948272675276,22.497248649597168,0.0,0.0,0.0,0.0,0.0,0.0,0.0,0.0,False,0,1.500915288925171,0.029938232421875
STABILIZE,1.495699167251587,29.876726477522848,0.032515796025594075,0.032610416412353516,-10.0,40.0,10.0,0.2512506697334611,0.4056731093373836,-7.0880454597668345,1.1971065023154455,0.6048284192163783,0.025024659443227477,0.5193062089528919,0.06304142755713298,0.07885404957153072,0.9074256825138085,0.050049318886454953,0.25162172969430685,0.0645441294182092,1.9571542739868164,0.02188147817159449,3.537888824939728,-0.00034142321965191513,26.483485102653503,0.0,0.0,0.0,0.0,0.0,0.0,0.0,0.0,False,0,1.5296037197113037,0.034927001953125
STABILIZE,1.5291557312011719,29.889287953936492,0.03247526486714681,0.03260636329650879,-10.0,40.0,10.0,0.25191474554768617,0.40570032337235784,-7.08874000462806,1.1971990364395306,0.6048664379643123,0.023785827618974926,0.5193148795641961,0.06453694604861386,0.07663888496671413,0.9152467757269929,0.04757165523794985,0.25162172969430685,0.0645441294182092,1.9571542739868164,0.02188147817159449,3.537888824939728,-0.00034142321965191513,26.483485102653503,0.0,0.0,0.0,0.0,0.0,0.0,0.0,0.0,False,0,1.5585801601409912,0.034927001953125
STABILIZE,1.563492774963379,29.122864026773872,0.032473357518514,0.03356361389160156,-10.0,40.0,10.0,0.2514395671526943,0.40617432782858615,-7.089625794786046,1.197263379990099,0.6046441802744856,0.022172643355213878,0.5193393791603523,0.06195586364641519,0.07563338124289132,0.9154942203304813,0.044345286710427756,0.0022043459466658533,0.1323425560258329,1.5271044336259365,-0.030127350779118,-4.059934988617897,-0.11916130315512419,22.051173448562622,0.0,0.0,0.0,0.0,0.0,0.0,0.0,0.0,False,0,1.5872132778167725,0.034926025390625
STABILIZE,1.597020149230957,29.827010190512084,0.03255513509114583,0.03268170356750488,-10.0,40.0,10.0,0.2518427617571366,0.4068117232163659,-7.090010846700506,1.1973985588744227,0.6044961128111229,0.022034125920409355,0.5193592432751237,0.05958286091574796,0.07122851891223851,0.9177201026873067,0.04406825184081871,0.012297202192712575,-0.07440875051543117,1.6706481575965881,0.1382859842876351,2.5003070011734962,-0.1748814946040511,22.823789715766907,0.0,0.0,0.0,0.0,0.0,0.0,0.0,0.0,False,0,1.6157870292663574,0.02993798828125
STABILIZE,1.6360485553741455,25.623615514787186,0.032474549611409505,0.03811526298522949,-10.0,40.0,10.0,0.2518465503776918,0.40716625272297186,-7.0895630424230465,1.197517787549439,0.6040087805196844,0.018398836884691527,0.5194006659118623,0.05399269173709304,0.06981801696631658,0.9111722860934124,0.03679767376938305,0.055091455578804016,0.1610191655345261,1.5189411118626595,-0.10237806565507813,3.116939775645733,-0.07818039157427847,21.4807391166687,0.0,0.0,0.0,0.0,0.0,0.0,0.0,0.0,False,0,1.6731796264648438,0.034904052734375
STABILIZE,1.6694152355194092,29.96723419760937,0.03238800366719564,0.03253817558288574,-10.0,40.0,10.0,0.25240278390822474,0.4071801265447234,-7.090047558967294,1.1975658918374417,0.6038364848036464,0.016395715194152345,0.5194268329309557,0.05251661535217434,0.069623918827607,0.9102580922494942,0.03279143038830469,0.055091455578804016,0.1610191655345261,1.5189411118626595,-0.10237806565507813,3.116939775645733,-0.07818039157427847,21.4807391166687,0.0,0.0,0.0,0.0,0.0,0.0,0.0,0.0,False,0,1.701826810836792,0.034904052734375
STABILIZE,1.7037992477416992,29.085704379182413,0.03251031239827474,0.03326845169067383,-10.0,40.0,10.0,0.2522065760521456,0.4080433450619367,-7.09020123822362,1.1975907854697798,0.6038001867978934,0.01659773525870222,0.5194486195128575,0.05177061694083509,0.06865305592675795,0.9117542549602391,0.03319547051740444,0.09430061327293515,0.11013941839337349,1.680060662329197,0.15329745942285375,2.9184523969888687,1.8351031467318535,22.47675359249115,0.0,0.0,0.0,0.0,0.0,0.0,0.0,0.0,False,0,1.7305572032928467,0.02993701171875
STABILIZE,1.7369928359985352,30.125218165755697,0.03219726880391439,0.03233742713928223,-10.0,40.0,10.0,0.2521700238679154,0.4082633518584051,-7.090200811336796,1.1976375122431444,0.6036683498679206,0.016824748115450157,0.5194723980828178,0.04941466460503048,0.0669387738825068,0.9120300932715866,0.033649496230900314,-0.0029189992346800864,0.07008338579908013,1.892092078924179,0.14123138330528412,-1.3170937076210976,-0.04302719025872648,25.390174984931946,0.0,0.0,0.0,0.0,0.0,0.0,0.0,0.0,False,0,1.759065866470337,0.034927734375
STABILIZE,1.770900011062622,29.491038720881996,0.03247264226277669,0.033110857009887695,-10.0,40.0,10.0,0.2523359761204056,0.407820510140265,-7.090325462289149,1.1976800957335154,0.6033096430438536,0.01599911794260357,0.51949817183955,0.04401125194418448,0.06610526548083662,0.9114825941394139,0.03199823588520714,-0.19084196537733078,0.11007038410753012,1.5547656454145908,0.01664525104860041,6.009449064731598,1.8175188452005386,21.432319283485413,0.0,0.0,0.0,0.0,0.0,0.0,0.0,0.0,False,1,1.7878413200378418,0.034926025390625
STABILIZE,1.8060431480407715,28.455057971112815,0.032527955373128255,0.03439521789550781,-10.0,40.0,10.0,0.2531283847858328,0.4068676987510482,-7.09005780425105,1.1977592680964,0.602988299914614,0.014591407474567143,0.519519496422323,0.03963599275359221,0.06445878357969975,0.9136083529021426,0.029182814949134286,0.18615048611536622,0.10096559999510646,1.7932970076799393,0.03026341428388274,7.352802157402039,1.824602484703064,22.31157273054123,0.0,0.0,0.0,0.0,0.0,0.0,0.0,0.0,False,0,1.8452091217041016,0.03492822265625
STABILIZE,1.8396003246307373,29.800308354707383,0.0325808842976888,0.0327000617980957,-10.0,40.0,10.0,0.25320148915429314,0.40702762122716174,-7.089601462237128,1.1978211307840432,0.6027400398280441,0.013926947176719691,0.5195467549785967,0.03596095446622989,0.06286644740231188,0.9121406699645658,0.027853894353439382,-0.09737579384818673,0.055578030878677964,1.542889792472124,0.020763078050697877,-3.535822406411171,-0.06909419316798449,26.625117659568787,0.0,0.0,0.0,0.0,0.0,0.0,0.0,0.0,False,0,1.882575511932373,0.029936767578125
STABILIZE,1.8730347156524658,29.90974955787552,0.03246262868245443,0.03259682655334473,-10.0,40.0,10.0,0.25198571548203086,0.40702100448140327,-7.089945106129744,1.1978694540768398,0.6025901141079503,0.01431165941831333,0.5195814094226051,0.03319363182777062,0.06098862574642883,0.906980387854878,0.02862331883662666,-0.05259168101474643,0.04402775957714766,1.5967339277267456,0.1361803516923539,-1.8011914566159248,-0.30892351642251015,17.048518359661102,0.0,0.0,0.0,0.0,0.0,0.0,0.0,0.0,False,0,1.9113216400146484,0.03492724609375
STABILIZE,1.9063973426818848,29.97344462389412,0.032479317982991536,0.032598018646240234,-10.0,40.0,10.0,0.25291776949947314,0.40837156766806754,-7.091244976506162,1.1979003142713518,0.602508253961152,0.013747411575730931,0.5196032447595583,0.03222236613250521,0.06035649675021969,0.9082200236254381,0.027494823151461862,0.054227723740041256,0.10605292627587914,1.6973752528429031,0.022760718284888185,-0.2498655579984188,-2.2499168291687965,17.924770712852478,0.0,0.0,0.0,0.0,0.0,0.0,0.0,0.0,False,0,1.9399795532226562,0.02993798828125
STABILIZE,1.9448132514953613,26.031205392053423,0.03254369099934896,0.03751873970031738,-10.0,40.0,10.0,0.25268463593319357,0.40761085534925734,-7.090573056646562,1.1979392083296057,0.6022895067720566,0.012130816271278273,0.5196366477020303,0.029703182985334788,0.060195412464633495,0.9054495092282746,0.024261632542556547,-0.048192578833550215,0.13958524214103818,1.7291432246565819,-0.10954225374354716,4.592201113700867,-0.16444423235952854,22.9866161942482,0.0,0.0,0.0,0.0,0.0,0.0,0.0,0.0,False,0,1.9707648754119873,0.034927001953125
STABILIZE,1.9782748222351074,29.885454519544552,0.03243854840596517,0.03257012367248535,-10.0,40.0,10.0,0.25223475058247186,0.40892481299083855,-7.09015897642813,1.1979180986227174,0.6024015788192612,0.01200985901458259,0.5196501715320038,0.03165551469649988,0.060982198469706934,0.910852040767192,0.02401971802916518,0.21934995893388987,0.18339427188038826,1.93734560161829,0.06957832332191331,2.2453369572758675,1.806754432618618,23.153512179851532,0.0,0.0,0.0,0.0,0.0,0.0,0.0,0.0,False,0,2.003500461578369,0.03492724609375
STABILIZE,2.0118141174316406,29.816196542311193,0.03242472012837728,0.03255438804626465,-10.0,40.0,10.0,0.25166469659104024,0.4087496826716512,-7.090679778352343,1.1978697985899152,0.6024459954344454,0.012537589718418089,0.5196731946044058,0.032028278298426804,0.06222196642551044,0.9115109165787694,0.025075179436836178,0.11823715176433325,0.20684334449470043,1.6628250479698181,0.1420726171511064,-0.06913924589753151,-0.11717381421476603,23.743346333503723,0.0,0.0,0.0,0.0,0.0,0.0,0.0,0.0,False,0,2.0321669578552246,0.029936767578125
STABILIZE,2.045078992843628,30.05979990253132,0.0323369820912679,0.03246116638183594,-10.0,40.0,10.0,0.2510929350523161,0.40840118294142186,-7.089826004706092,1.1979507273815324,0.6024535728437848,0.01207315100135954,0.5197068326695312,0.03247773371198524,0.05984951695504755,0.9068461690795856,0.02414630200271908,0.1186127308756113,0.0010218227544100955,1.6185540705919266,0.01828856521443639,1.444181241095066,-0.2764675999060273,20.440399646759033,0.0,0.0,0.0,0.0,0.0,0.0,0.0,0.0,False,0,2.0609371662139893,0.03492724609375
STABILIZE,2.0786736011505127,29.769216574162137,0.03252700169881185,0.03266763687133789,-10.0,40.0,10.0,0.2517191780218417,0.4083943527522519,-7.089805087251759,1.1980243559616526,0.6024658091042645,0.011622012936604979,0.5197311450889216,0.0329956548312915,0.05771104731950878,0.9068654647842633,0.023244025873209957,0.1186127308756113,0.0010218227544100955,1.6185540705919266,0.01828856521443639,1.444181241095066,-0.2764675999060273,20.440399646759033,0.0,0.0,0.0,0.0,0.0,0.0,0.0,0.0,False,0,2.0974369049072266,0.03492724609375
STABILIZE,2.1132254600524902,28.94020561650452,0.03237298329671224,0.033647775650024414,-10.0,40.0,10.0,0.25133401938567645,0.40850315553129607,-7.088942348982221,1.1981113849785407,0.6022281876982779,0.009417898773240245,0.5197534787303129,0.030571333621154852,0.05635664158752253,0.908276307722406,0.01883579754648049,-0.11821060907095671,0.16511759022250772,1.4633038081228733,-0.15934777972786857,0.08526686578989029,1.7132056877017021,20.887041091918945,0.0,0.0,0.0,0.0,0.0,0.0,0.0,0.0,False,0,2.1559202671051025,0.029938232421875
STABILIZE,2.1466662883758545,29.903778696706116,0.03242209752400716,0.032553672790527344,-10.0,40.0,10.0,0.25172627501527617,0.4094374507045597,-7.089417047129538,1.1982372490957216,0.6019718878146566,0.0081171481874147,0.5197911091833934,0.02720588013835162,0.05307450442703446,0.9016562298428601,0.0162342963748294,-0.11892963666468859,-0.06255970220081508,1.5092594549059868,-0.09322606573451062,0.1456737518310547,-0.3128297859802842,22.38631695508957,0.0,0.0,0.0,0.0,0.0,0.0,0.0,0.0,False,0,2.184645414352417,0.034906982421875
STABILIZE,2.180040121078491,29.962096480387466,0.03244045575459798,0.032562255859375,-10.0,40.0,10.0,0.2520255226782873,0.40892401257804517,-7.089604023558066,1.1982491029813642,0.6021460441883598,0.008240446986997484,0.5198090043442217,0.030022464739186763,0.05259139246100287,0.9048518955022593,0.016480893973994968,0.24745548143982887,0.09353727800771594,1.8213316798210144,0.0785770375224456,-4.099266231060028,-0.38610834162682295,20.22511065006256,0.0,0.0,0.0,0.0,0.0,0.0,0.0,0.0,False,0,2.2133452892303467,0.03492724609375
STABILIZE,2.213487386703491,29.898875843829973,0.032512696584065755,0.03263664245605469,-10.0,40.0,10.0,0.2525588110420772,0.4097623649378114,-7.0896437240326176,1.1982767225791648,0.6019179725262761,0.007920906770090112,0.5198278100360293,0.02644393046732978,0.05189659461903869,0.9076108103654179,0.015841813540180223,-0.13787182979285717,0.07853913120925426,1.8003270030021667,0.02169795852581672,1.5664134174585342,-0.27901644352823496,23.937900364398956,0.0,0.0,0.0,0.0,0.0,0.0,0.0,0.0,False,0,2.2426767349243164,0.029936767578125
STABILIZE,2.2469468116760254,29.888223012406204,0.03251198132832845,0.03264641761779785,-10.0,40.0,10.0,0.25313761621338293,0.41020088442686736,-7.0902554528501565,1.1982710068116216,0.6017423411416642,0.006742603804919036,0.5198677205019285,0.024338298130684242,0.052913317842030995,0.8998330354902924,0.013485207609838071,-0.051545718451961875,0.1870576641522348,1.4355603605508804,-0.08774800055610917,2.0098555833101273,1.655142568051815,20.153245329856873,0.0,0.0,0.0,0.0,0.0,0.0,0.0,0.0,False,0,2.2711360454559326,0.03492724609375
STABILIZE,2.280613660812378,29.701126634895232,0.03250888188680013,0.03287148475646973,-10.0,40.0,10.0,0.2532939101514999,0.4100758065876915,-7.090174344353763,1.198293188436189,0.6016601360080287,0.005997311020919824,0.5199070047688318,0.02348775604632388,0.05269609640485227,0.8924611725549719,0.011994622041839648,0.021794578060507774,0.10089495917782187,1.186409592628479,-0.033896227818789884,-6.7745208740234375,-0.2577854786068201,22.47106581926346,0.0,0.0,0.0,0.0,0.0,0.0,0.0,0.0,False,0,2.299837350845337,0.0349267578125
STABILIZE,2.314145803451538,29.822768609438214,0.032524855931599934,0.032712459564208984,-10.0,40.0,10.0,0.2526170810934339,0.41127610561261546,-7.090768997698377,1.1984321318621272,0.6017814243553858,0.005535109623166315,0.5199395199986515,0.02583103208674618,0.04838730835948106,0.8884169731796159,0.01107021924633263,0.13852452393621206,-0.012252680608071387,1.6434038057923317,0.02082704270557398,1.3690384104847908,1.4115159399807453,15.50452709197998,0.0,0.0,0.0,0.0,0.0,0.0,0.0,0.0,False,0,2.3570990562438965,0.029938232421875
STABILIZE,2.347630023956299,29.866514757717095,0.03249934514363607,0.032625436782836914,-10.0,40.0,10.0,0.25207450794124103,0.4112850168750482,-7.091296202924937,1.1984908001450123,0.601617633243035,0.00427427602496464,0.5199697850121896,0.02398018775332542,0.0473150538583733,0.8854752267407854,0.00854855204992928,-0.04613599448930472,0.052963593043386936,1.6934698447585106,-0.11016270706053406,1.9300807267427444,1.3960572890937328,14.423635601997375,0.0,0.0,0.0,0.0,0.0,0.0,0.0,0.0,False,0,2.3862414360046387,0.039916015625
STABILIZE,2.381176710128784,29.807297070653952,0.032421382268269856,0.03271150588989258,-10.0,40.0,10.0,0.25168614765390235,0.4133041381875803,-7.091740165220988,1.1984883901125083,0.6016463335341299,0.004104610391337707,0.5199810871399899,0.024576840359508384,0.04751398490460537,0.8920659545711463,0.008209220782675414,0.09576326701790094,0.11216225102543831,1.7510809004306793,0.030618070522514328,-2.81613077968359,-0.23255040869116783,23.8587886095047,0.0,0.0,0.0,0.0,0.0,0.0,0.0,0.0,False,0,2.4146180152893066,0.02993798828125
STABILIZE,2.4159116744995117,28.792597118203098,0.032523187001546223,0.03371000289916992,-10.0,40.0,10.0,0.2521685831248874,0.4114238618142699,-7.091917323252585,1.1985017273195762,0.6015367719115648,0.004003390233103975,0.5200159020018815,0.022821363270447842,0.0471407606179987,0.887248157525584,0.00800678046620795,-0.04281529982108623,0.09174488368444145,1.5943042933940887,0.024326837639384466,-2.7597106993198395,-0.30359651427716017,22.451086342334747,0.0,0.0,0.0,0.0,0.0,0.0,0.0,0.0,False,0,2.443760871887207,0.029936767578125
STABILIZE,2.4510090351104736,28.489074545763287,0.032286675771077473,0.034353017807006836,-10.0,40.0,10.0,0.254085891930104,0.41000643747893356,-7.102501128258343,1.1985176098097055,0.6014922760480136,0.005012286632416475,0.520049241952339,0.021376200548803955,0.04590567860193002,0.8834680328787498,0.01002457326483295,-0.02687810338102281,0.037137456820346415,1.6356440261006355,0.15706100037723658,-0.1636573113501072,-0.3342841751873493,21.34672999382019,0.0,0.0,0.0,0.0,0.0,0.0,0.0,0.0,False,0,2.4722886085510254,0.03492822265625
STABILIZE,2.4851508140563965,29.292082492370223,0.03259471257527669,0.033246755599975586,-10.0,40.0,10.0,0.25262017602290154,0.41183756850673164,-7.097401111382459,1.1985284459520356,0.601450308096195,0.00602142837609552,0.5200726872834242,0.019972985210676707,0.04483877286741345,0.8841373474523063,0.01204285675219104,-0.02687810338102281,0.037137456820346415,1.6356440261006355,0.15706100037723658,-0.1636573113501072,-0.3342841751873493,21.34672999382019,0.0,0.0,0.0,0.0,0.0,0.0,0.0,0.0,False,1,2.501258373260498,0.03492822265625
STABILIZE,2.518573522567749,29.917643282570705,0.03241709073384603,0.03253984451293945,-10.0,40.0,10.0,0.25303911207894664,0.4108190165467535,-7.096522578300466,1.1986665665095624,0.6017013261399099,0.011333722849687361,0.5200852526716949,0.020451012111424232,0.0365160428186835,0.8900439943613636,0.022667445699374723,0.35327074583619833,-0.28409052174538374,1.7383096739649773,-0.20697491559399228,4.990973696112633,9.311529248952866,18.297719955444336,0.0,0.0,0.0,0.0,0.0,0.0,0.0,0.0,False,0,2.55935001373291,0.029937255859375
STABILIZE,2.552412986755371,29.54942159473588,0.03244808514912923,0.032990455627441406,-10.0,40.0,10.0,0.2505660499908731,0.4067228773963028,-7.136079618878595,1.1984982092406367,0.6014066153663749,0.009152867025133082,0.5200885621574353,0.01706116826079984,0.0436568442199011,0.9007153069832474,0.018305734050266163,-0.15165089862421155,0.5321908742189407,2.509412541985512,-0.22496628753825376,-3.209906443953514,-1.955457404255867,33.032312989234924,0.0,0.0,0.0,0.0,0.0,0.0,0.0,0.0,False,0,2.5889415740966797,0.044906005859375
STABILIZE,2.585813283920288,29.940280821477774,0.032480510075887044,0.03261590003967285,-10.0,40.0,10.0,0.2527631297477958,0.4096286960013201,-7.1165790019113855,1.1984672005485253,0.6008982875913398,0.008156604964433722,0.520098421107626,0.009283943128458542,0.04539202453455107,0.9079546763475058,0.016313209928867443,-0.4026437643915415,0.1770612201653421,1.500086858868599,-0.09605284357618353,-8.381157368421555,-8.323472738265991,7.441564649343491,0.0,0.0,0.0,0.0,0.0,0.0,0.0,0.0,False,0,2.6177778244018555,0.024947998046875
STABILIZE,2.6194567680358887,29.72533344672648,0.0325351079305013,0.032672882080078125,-10.0,40.0,10.0,0.25483006238451805,0.4089360187699456,-7.114097508808555,1.1991738721445866,0.600301101473798,0.01709891240126764,0.5201261023161551,-0.006912498213982831,0.015601432574992427,0.9062873162568004,0.03419782480253528,-0.9321850724518299,-1.6715405508875847,2.076239138841629,1.1122860610528216,-14.049793779850006,-40.475475788116455,72.44076132774353,0.0,0.0,0.0,0.0,0.0,0.0,0.0,0.0,False,0,2.646467685699463,0.029937744140625
STABILIZE,2.6527163982391357,30.06389368732663,0.03234127362569173,0.03246760368347168,-10.0,40.0,10.0,0.2549166670487597,0.4098408587524136,-7.1498441576034635,1.198624993057138,0.600692110050488,-0.0077791212900871175,0.520169285308917,0.016959426634618288,0.05127215346745255,0.8968676097772545,-0.015558242580174235,1.4813538640737534,2.246413193643093,1.3022981584072113,-2.9647411528831187,36.83803379535675,81.98450207710266,21.002469956874847,0.0,0.0,0.0,0.0,0.0,0.0,0.0,0.0,False,0,2.675178050994873,0.03492724609375
STABILIZE,2.686864137649536,29.28696915106065,0.032541545232137044,0.033287763595581055,-10.0,40.0,10.0,0.2519859289254424,0.4104100056093461,-7.113137867230169,1.1987720393955255,0.5996122456384145,0.012091347599226483,0.520194960064337,-0.014896177596146074,0.03249968179719777,0.8964361402488892,0.024182695198452966,-1.8758457154035568,-1.0509026236832142,1.565181277692318,2.4443678230400647,-60.98107695579529,-59.01336073875427,16.003961861133575,0.0,0.0,0.0,0.0,0.0,0.0,0.0,0.0,False,1,2.7039177417755127,0.0349267578125
STABILIZE,2.720355987548828,29.858647986787403,0.032448800404866536,0.03257417678833008,-10.0,40.0,10.0,0.25893228467219825,0.41050536145346184,-7.109575496691184,1.198627979663632,0.5996617272300141,-0.015960712376074125,0.5202424890971402,0.00549050809979071,0.05687660867192156,0.8848704950181652,-0.03192142475214825,1.0079683735966682,1.496607717126608,1.3438173569738865,-2.0960168628686016,-24.60409253835678,0.26881026569753885,25.278714299201965,0.0,0.0,0.0,0.0,0.0,0.0,0.0,0.0,False,0,2.7615346908569336,0.02993701171875
STABILIZE,2.7537167072296143,29.9743014364325,0.03240183194478353,0.03253936767578125,-10.0,40.0,10.0,0.257319026006753,0.40004519354385176,-7.129758278801749,1.1982966501626,0.5999105630627052,-0.03352706478406198,0.5202844361694137,0.021875614361048765,0.0802084942247156,0.8761023438228227,-0.06705412956812395,1.0079683735966682,1.496607717126608,1.3438173569738865,-2.0960168628686016,-24.60409253835678,0.26881026569753885,25.278714299201965,0.0,0.0,0.0,0.0,0.0,0.0,0.0,0.0,False,0,2.7901055812835693,0.02993701171875
STABILIZE,2.7872204780578613,29.84738658601672,0.03250697453816732,0.03268170356750488,-10.0,40.0,10.0,0.247568343997178,0.3732817376113915,-7.077179909457813,1.1982369962976163,0.5993497209273012,-0.00819154201168612,0.5203058950965889,-0.0051280196792995,0.06448099997575098,0.877593756664044,-0.01638308402337224,-1.6082799062132835,-0.8493462577462196,1.9405428320169449,3.0673301673298874,-40.0348037481308,-33.24523568153381,-1.888161525130272,0.0,0.0,0.0,0.0,0.0,0.0,0.0,0.0,False,0,2.8191277980804443,0.034927978515625
STABILIZE,2.821570873260498,29.111544521332345,0.032483609517415364,0.03344988822937012,-10.0,40.0,10.0,0.24113905491493326,0.37025484323116514,-7.048274548890319,1.1982246923019233,0.601116195949343,-0.028063896791256253,0.5203692478926595,0.03816176624471404,0.07882482870389808,0.8584562762575172,-0.056127793582512506,2.642850950360298,0.9378721006214619,0.4311110358685255,-2.3764975139181175,103.40878963470459,30.62867522239685,-34.960341453552246,0.0,0.0,0.0,0.0,0.0,0.0,0.0,0.0,False,0,2.8474583625793457,0.034926025390625
STABILIZE,2.8549964427948,29.918710321706257,0.032439263661702473,0.032575368881225586,-10.0,40.0,10.0,0.21724369146449654,0.37205806653290135,-6.985727518452751,1.1993876782511654,0.603932898171002,-0.03265875972778494,0.5203734366555043,0.08833023855772046,0.04338626534978513,0.8685829991484821,-0.06531751945556988,3.0099328607320786,-2.0537754520773888,2.2112835198640823,-0.5144319190387892,-17.77709424495697,-89.94624018669128,37.19888627529144,0.0,0.0,0.0,0.0,0.0,0.0,0.0,0.0,False,0,2.876117706298828,0.02993798828125
STABILIZE,2.8884167671203613,29.91999086914341,0.03213694890340169,0.03233504295349121,-10.0,40.0,10.0,0.2219613244685655,0.3742426598502476,-7.031800132612249,1.1984752326010573,0.6056978175461709,-0.05983633576374965,0.5204172502202673,0.13666213894887116,0.09308303078226554,0.8589221938229766,-0.1196726715274993,0.9981771931052208,1.6912005841732025,1.3736863620579243,0.18327696061882479,-10.156024992465973,-32.439985871315,72.68831729888916,0.0,0.0,0.0,0.0,0.0,0.0,0.0,0.0,False,0,2.9337799549102783,0.0349267578125
STABILIZE,2.921912670135498,29.85354743195536,0.032566340764363606,0.032706499099731445,-10.0,40.0,10.0,0.22047079576476888,0.37110216021421694,-7.01058983391842,1.1976362273736587,0.6067631297891682,-0.05840860805603433,0.5204488880941653,0.1533943610211284,0.12011189963513687,0.8553501819794299,-0.11681721611206866,0.9981771931052208,1.6912005841732025,1.3736863620579243,0.18327696061882479,-10.156024992465973,-32.439985871315,72.68831729888916,0.0,0.0,0.0,0.0,0.0,0.0,0.0,0.0,False,0,2.962376356124878,0.0349267578125
STABILIZE,2.9553487300872803,29.90889643172937,0.03253987630208333,0.032642364501953125,-10.0,40.0,10.0,0.2140223501363364,0.37602992825696957,-7.008197560161623,1.1986655852544836,0.6079961579072451,-0.039411795953386675,0.5205234798482092,0.16074372802941328,0.07239960295684522,0.8303086195977922,-0.07882359190677335,0.457532936707139,-2.7723370119929314,0.10099641513079405,2.244551065758165,21.35155349969864,-99.44590926170349,-27.37424671649933,0.0,0.0,0.0,0.0,0.0,0.0,0.0,0.0,False,0,2.990967273712158,0.02993798828125
STABILIZE,2.98893404006958,29.777670495690572,0.03252890904744466,0.03267383575439453,-10.0,40.0,10.0,0.21044759987948097,0.3820007408911772,-7.036413498509769,1.1980069111560803,0.6064866143426955,-0.06260219351751276,0.5205641235910358,0.15171805666134794,0.11070867252160667,0.8222796258474948,-0.1252043870350255,-0.38428844418376684,2.444886788725853,1.3323809951543808,-2.89779932260147,-7.775525003671646,111.67963743209839,20.96545845270157,0.0,0.0,0.0,0.0,0.0,0.0,0.0,0.0,False,0,3.0197768211364746,0.03492724609375
STABILIZE,3.0279383659362793,25.63630140335436,0.03239110310872396,0.038106441497802734,-10.0,40.0,10.0,0.20840718758664542,0.39435425858305595,-6.981415534652357,1.1986604545741393,0.6054749587540822,-0.050633986983395635,0.5205942937923059,0.12654326367167001,0.08038565452247914,0.8215352636343255,-0.10126797396679127,-1.4358757995069027,-1.72180887311697,1.5407266095280647,1.390245198359839,-46.720725297927856,-88.79740238189697,3.7432797253131866,0.0,0.0,0.0,0.0,0.0,0.0,0.0,0.0,False,0,3.048475980758667,0.034927001953125
STABILIZE,3.061406373977661,29.878641952442692,0.03243068059285482,0.0325620174407959,-10.0,40.0,10.0,0.2260337714003327,0.40974304830906494,-7.100545986608427,1.197510061974049,0.6062815956305305,-0.07182389544535056,0.5206095367884632,0.15469994575103674,0.1337908307780177,0.8261768389508526,-0.14364779089070112,2.167356200516224,1.5240823850035667,2.152436040341854,-1.818896664890732,66.87358021736145,-26.15426778793335,59.71531271934509,0.0,0.0,0.0,0.0,0.0,0.0,0.0,0.0,False,0,3.1056907176971436,0.029937255859375
STABILIZE,3.0947954654693604,29.951612442514783,0.03241732915242513,0.03255057334899902,-10.0,40.0,10.0,0.22911946944044465,0.41703021982323385,-7.121777629643412,1.1984008527303054,0.6023492962862776,-0.035264773809647175,0.5206517712923122,0.06373397383089115,0.0780510220872773,0.8173466367531826,-0.07052954761929435,-5.239897593855858,-3.155561164021492,1.2541400268673897,4.2066490499005615,-93.59938502311707,4.318604990839958,104.53879833221436,0.0,0.0,0.0,0.0,0.0,0.0,0.0,0.0,False,0,3.1344850063323975,0.0349267578125
STABILIZE,3.1282923221588135,29.854184906009554,0.03247669537862142,0.03259587287902832,-10.0,40.0,10.0,0.231099904134631,0.4015390306205276,-7.015939152699009,1.1992969573774697,0.5984147705019272,0.0011741527165466878,0.5206862346353108,-0.02723973299979794,0.02261724015103523,0.8124059098167478,0.0023483054330933756,-5.239897593855858,-3.155561164021492,1.2541400268673897,4.2066490499005615,-93.59938502311707,4.318604990839958,104.53879833221436,0.0,0.0,0.0,0.0,0.0,0.0,0.0,0.0,False,0,3.163060426712036,0.0349267578125
STABILIZE,3.1616785526275635,29.950543055248104,0.032415183385213216,0.0325472354888916,-10.0,40.0,10.0,0.24021874028512694,0.39946510771207666,-7.109896515582174,1.1978508302504092,0.5997706439868647,-0.00285956601548645,0.5207997952233994,-0.0018298717542261644,0.07363478112395183,0.7679770527233845,-0.0057191320309729,1.7360445111989975,3.2099131494760513,-1.088095922023058,-0.6576584246130177,217.0525312423706,152.80624628067017,70.83826661109924,0.0,0.0,0.0,0.0,0.0,0.0,0.0,0.0,False,0,3.19217848777771,0.029938232421875
STABILIZE,3.1951375007629395,29.888010033206495,0.032491238911946614,0.03261685371398926,-10.0,40.0,10.0,0.2306637325231022,0.4120186218805899,-7.0309092198123855,1.1984942101035887,0.6024969625142526,-0.009927995983179927,0.5209089524533853,0.048537790242324054,0.05715528836812299,0.7258048813042891,-0.019855991966359853,3.1510598957538605,-0.8319851011037827,-0.7888823747634888,-0.9636071435302186,45.205071568489075,-168.32376718521118,69.73870396614075,0.0,0.0,0.0,0.0,0.0,0.0,0.0,0.0,False,0,3.2204341888427734,0.034867431640625
STABILIZE,3.228656053543091,29.834435861323318,0.03245261510213216,0.03260993957519531,-10.0,40.0,10.0,0.22847124179952813,0.41141329636539753,-7.015420058322088,1.1991101571524378,0.6000792272441487,0.03454149502320404,0.520997259615965,-0.022783440819260557,0.005572791138430691,0.6941250610036663,0.06908299004640808,-4.123038426041603,-2.936309762299061,-0.32772342674434185,5.179113881567229,-148.96889925003052,24.261896312236786,36.80347204208374,0.0,0.0,0.0,0.0,0.0,0.0,0.0,0.0,False,0,3.2491302490234375,0.03492724609375
STABILIZE,3.2620162963867188,29.97451564722109,0.032429011662801106,0.03255057334899902,-10.0,40.0,10.0,0.23785293351136377,0.4026243903683249,-7.111169065201913,1.1984451348443106,0.5986365514213241,0.0067722558392604845,0.521030019021234,-0.02744622212895325,0.047112772103621754,0.6901839160313017,0.013544511678520969,2.8260277584195137,-1.5530708245933056,1.8902609124779701,-0.015921864646387302,117.88537502288818,-151.74449682235718,14.42449539899826,0.0,0.0,0.0,0.0,0.0,0.0,0.0,0.0,False,0,3.306630849838257,0.03492724609375
STABILIZE,3.2965681552886963,29.01046486695855,0.03252867062886556,0.033696651458740234,-10.0,40.0,10.0,0.2320664292630407,0.4048372115768504,-7.04176025596942,1.1994033767123993,0.6006955365188721,0.025600793610894883,0.5210494043948809,-0.006275559380374312,0.0020099649347083276,0.6933287119314078,0.05120158722178977,1.3855896890163422,-2.5681598111987114,1.6747672110795975,2.1582599498881048,-32.49342739582062,16.107647120952606,8.009058237075806,0.0,0.0,0.0,0.0,0.0,0.0,0.0,0.0,False,0,3.3352742195129395,0.039916748046875
STABILIZE,3.330148935317993,29.71206743881274,0.03246644337972005,0.03263378143310547,-10.0,40.0,10.0,0.22819413889046658,0.4102055801819217,-7.019354247284016,1.2003929411052676,0.6028238635812483,0.045355703223676096,0.5210624053970642,0.015377191736829787,-0.044861156020085696,0.699293270299912,0.09071140644735219,1.3855896890163422,-2.5681598111987114,1.6747672110795975,2.1582599498881048,-32.49342739582062,16.107647120952606,8.009058237075806,0.0,0.0,0.0,0.0,0.0,0.0,0.0,0.0,False,0,3.363870859146118,0.039916748046875
STABILIZE,3.3651888370513916,28.533844918840224,0.032282145818074544,0.03421282768249512,-10.0,40.0,10.0,0.23712743935546146,0.4015318802662402,-7.110374201937252,1.1988507877496068,0.5983773837194858,0.021625941951840828,0.5210661498663964,-0.04212974167964179,0.023261536776424216,0.7105070645004522,0.043251883903681655,-3.255680575966835,4.1514284908771515,1.9568786025047302,-2.913826788375728,-123.50733280181885,126.45200490951538,23.074139654636383,0.0,0.0,0.0,0.0,0.0,0.0,0.0,0.0,False,0,3.3924551010131836,0.024947265625
STABILIZE,3.3987815380096436,29.77090697443323,0.03258636792500814,0.032711029052734375,-10.0,40.0,10.0,0.23452481711656928,0.3993463264535419,-7.0559209456661485,1.1992810900724085,0.5977618545264198,0.03481061842606095,0.5210927796209844,-0.06159761050984273,-0.00021855957795288358,0.7096272715761291,0.0696212368521219,-1.1854850687086582,-1.3195574283599854,1.718035340309143,1.6226138901740792,36.49093210697174,-118.47914457321167,20.413951575756073,0.0,0.0,0.0,0.0,0.0,0.0,0.0,0.0,False,0,3.421152353286743,0.0349267578125
STABILIZE,3.432535409927368,29.62392908853339,0.03243068059285482,0.03293776512145996,-10.0,40.0,10.0,0.2317494124360169,0.40409533563911065,-7.036487349930169,1.1999921088692758,0.6013212621357314,0.04622864451989152,0.521120731846646,-0.010265468942644046,-0.03202962131200832,0.7082237001081838,0.09245728903978304,3.117067925632,-1.788964681327343,1.317802257835865,1.315234033182349,104.04869318008423,1.4460944570600986,22.882013022899628,0.0,0.0,0.0,0.0,0.0,0.0,0.0,0.0,False,1,3.4499309062957764,0.03492822265625
STABILIZE,3.4659862518310547,29.894826873458683,0.03251245816548665,0.032678842544555664,-10.0,40.0,10.0,0.2335731263052632,0.40615319693084145,-7.0960030570367225,1.1991066420246557,0.5970625043575509,0.03193993991750135,0.5211381660556185,-0.07124612511701373,0.0076143298843857725,0.7119468130386122,0.0638798798350027,-3.167204186320305,-0.8196357637643814,1.71144288033247,1.278512801770245,-85.45240759849548,-81.10144138336182,26.079130172729492,0.0,0.0,0.0,0.0,0.0,0.0,0.0,0.0,False,0,3.5072710514068604,0.029937255859375
STABILIZE,3.499547243118286,29.796497708947538,0.03254655202229818,0.032674551010131836,-10.0,40.0,10.0,0.23172625382586232,0.40111534544857524,-7.052461881738361,1.1994961146889667,0.5983294343525295,0.036296808085002887,0.5211584161022601,-0.05318007008414856,-0.008441122969828,0.7142462638135274,0.07259361617000577,1.0518098250031471,-0.905788317322731,1.6930362209677696,0.5814878348239182,82.09456205368042,7.322432100772858,21.88582569360733,0.0,0.0,0.0,0.0,0.0,0.0,0.0,0.0,False,0,3.535921573638916,0.0349267578125
STABILIZE,3.532898426055908,29.98480136687613,0.032439502080281575,0.03256392478942871,-10.0,40.0,10.0,0.23395044089605352,0.40443812575808064,-7.08864993150838,1.1992043088344881,0.5990176492373664,0.016620611596164427,0.5211950680360259,-0.02796987420590359,0.014945388752772999,0.708350621404322,0.033241223192328855,1.5163078904151917,1.4408102259039879,1.004229485988617,-2.3013129259687326,-36.86910271644592,-10.539204627275467,20.85927128791809,0.0,0.0,0.0,0.0,0.0,0.0,0.0,0.0,False,0,3.564767837524414,0.034927001953125
STABILIZE,3.5663907527923584,29.856947608200457,0.03253320058186849,0.032668113708496094,-10.0,40.0,10.0,0.2326612960510665,0.40849931354988794,-7.08752593850309,1.1989084048181253,0.5997256005551872,-0.003403799195497253,0.5212318601063475,-0.0021992561484896547,0.03876200150264701,0.7023985481780944,-0.006807598390994506,1.5163078904151917,1.4408102259039879,1.004229485988617,-2.3013129259687326,-36.86910271644592,-10.539204627275467,20.85927128791809,0.0,0.0,0.0,0.0,0.0,0.0,0.0,0.0,False,0,3.5934550762176514,0.034927001953125
STABILIZE,3.5998213291168213,29.91209590574878,0.032492669423421223,0.03264951705932617,-10.0,40.0,10.0,0.23036464494264972,0.40715691457371594,-7.051390395812315,1.1991771108351779,0.5986156629341212,0.011341230612440134,0.5212455309985855,-0.03098530917998429,0.019533366624106974,0.70801204561489,0.022682461224880268,-1.7085136845707893,-1.102108508348465,1.684562861919403,1.8064450165903874,-86.51553392410278,-43.783509731292725,25.75516402721405,0.0,0.0,0.0,0.0,0.0,0.0,0.0,0.0,False,0,3.622507333755493,0.02993798828125
STABILIZE,3.633455276489258,29.732076274190117,0.032550843556722005,0.032805442810058594,-10.0,40.0,10.0,0.23473084336958036,0.4023834127566704,-7.090586717024902,1.1987532924652784,0.5978192736851,0.008947529024398326,0.5212666307847358,-0.042585988418210576,0.035335016587422594,0.709930143993173,0.017895058048796653,-0.7154235616326332,0.9824848733842373,1.6470205038785934,-0.22878705800736188,48.26282858848572,62.13238835334778,17.60699898004532,0.0,0.0,0.0,0.0,0.0,0.0,0.0,0.0,False,1,3.650688648223877,0.03492724609375
STABILIZE,3.6668972969055176,29.90164682398232,0.03248313268025716,0.032640695571899414,-10.0,40.0,10.0,0.23360797094220084,0.406393160686291,-7.089210860793967,1.199063584449581,0.59822130803384,0.01629798866165805,0.5212932528495154,-0.041015742621172926,0.01987590815481071,0.7090616870053853,0.0325959773233161,0.7978766225278378,-1.8299253657460213,0.9540699422359467,1.1994854853607875,-9.11807119846344,-57.627177238464355,16.84936136007309,0.0,0.0,0.0,0.0,0.0,0.0,0.0,0.0,False,0,3.708014488220215,0.059875
STABILIZE,3.700709342956543,29.855884969925615,0.032503636678059895,0.03268027305603027,-10.0,40.0,10.0,0.2299337026947042,0.40745738953634364,-7.051767763763958,1.1998555278800955,0.5980294193761172,0.0306171883118238,0.5212847006724639,-0.05422095497460405,-0.016466045573453665,0.7257639972566415,0.0612343766236476,-0.6365738809108734,-1.9599966704845428,1.382390595972538,1.5539327095316045,-57.46127963066101,-30.13230562210083,23.3253076672554,0.0,0.0,0.0,0.0,0.0,0.0,0.0,0.0,False,0,3.736875534057617,0.01496875
STABILIZE,3.733879804611206,29.862687162253565,0.03218057950337728,0.03232431411743164,-10.0,40.0,10.0,0.23380748717115926,0.40400013987755357,-7.087989537593005,1.199144809690125,0.5963186805470181,0.02441096618666082,0.5213192942376204,-0.07838885444731894,0.011583349795679806,0.7208851950856281,0.04882193237332164,-1.5946971252560616,1.578015275299549,1.9053982570767403,-0.5282214840036631,-26.35461688041687,62.2795045375824,24.603690207004547,0.0,0.0,0.0,0.0,0.0,0.0,0.0,0.0,False,0,3.7653887271881104,0.024947998046875
STABILIZE,3.7674410343170166,29.796921065905103,0.032506736119588216,0.03262782096862793,-10.0,40.0,10.0,0.23379473392731837,0.40413316848381015,-7.089548955157883,1.198487103592968,0.5946412715465561,0.019234321317387486,0.5213389329045353,-0.10272553370406809,0.037130725233470226,0.7234740961642695,0.03846864263477497,-1.5946971252560616,1.578015275299549,1.9053982570767403,-0.5282214840036631,-26.35461688041687,62.2795045375824,24.603690207004547,0.0,0.0,0.0,0.0,0.0,0.0,0.0,0.0,False,0,3.7940852642059326,0.024947998046875
STABILIZE,3.8008334636688232,29.947549177108993,0.032380135854085286,0.03250432014465332,-10.0,40.0,10.0,0.23086901172417285,0.40833160038925237,-7.056063952751896,1.1991116793382952,0.5962157335255878,0.028728292772162524,0.5213861054383362,-0.08311738593705961,0.00970115394668647,0.7123145337455099,0.05745658554432505,1.0466068051755428,-1.6144560649991035,1.0419218800961971,1.2480797199844895,13.734431564807892,-30.01883625984192,22.79137820005417,0.0,0.0,0.0,0.0,0.0,0.0,0.0,0.0,False,0,3.8228960037231445,0.064864013671875
