Mode,Time,Freq,time2delay,actualDelay,North-Desired,East-Desired,Down-Desired,Roll-UAV,Pitch-UAV,Yaw-UAV,Roll-Control,Pitch-Control,Yaw-Control,Thrust-Control,North-Pos,East-Pos,Down-Pos,Yaw-Ang,North-Vel,East-Vel,Down-Vel,Yaw-Vel,North-Acc,East-Acc,Down-Acc,North-Raw,East-Raw,Down-Raw,Yaw-Raw,North-Dif,East-Dif,Down-Dif,Yaw-Dif,Landing-State,Q-Size,Kalman-Time,Kalman-Dt
STABILIZE,0.03437042236328125,29.103262604254848,0.0333135445912679,0.03343534469604492,0,0,0.0,2.6807068824744924,-0.8115126511749333,20.496634425568516,0,0,0.0,0.0,0.02953742809755345,0.029566288121642,0.032922671707598994,0.029762790249812536,-0.04105301050003618,0.01728293573250994,1.3873623684048653,0.24088692488502458,1.1464632116258144,1.0846885852515697,22.344034910202026,0.0,0.0,0.0,0.0,0.0,0.0,0.0,0.0,False,0,0.05861616134643555,0.029937255859375
STABILIZE,0.06774592399597168,29.96530734718372,0.0323062260945638,0.032431840896606445,0,0,0.0,2.6801192727624596,-0.8108425989451845,20.498789350251656,0,0,0.0,0.0,0.050412271915414565,0.050592246123780715,0.059399054774249505,0.05142893609877873,-0.04105301050003618,0.01728293573250994,1.3873623684048653,0.24088692488502458,1.1464632116258144,1.0846885852515697,22.344034910202026,0.0,0.0,0.0,0.0,0.0,0.0,0.0,0.0,False,0,0.08716654777526855,0.029937255859375
STABILIZE,0.10116815567016602,29.917003095621904,0.03237870534261068,0.03251004219055176,0,0,0.0,2.6804498966069707,-0.8107879574318244,20.500078548457495,0,0,0.0,0.0,0.06853097593544219,0.06847873176521851,0.08653772250795604,0.06952531246097149,0.09449503268115222,-0.008110209455480799,1.9385317340493202,-0.052479985271417756,-1.2344644404947758,-0.8316650055348873,24.52554553747177,0.0,0.0,0.0,0.0,0.0,0.0,0.0,0.0,False,0,0.11585712432861328,0.069849853515625
STABILIZE,0.13670921325683594,28.135717831412588,0.032419713338216145,0.03475522994995117,0,0,0.0,2.680298351784761,-0.8096149791635805,20.502424718437396,0,0,0.0,0.0,0.12066108954498966,0.12472393660192053,0.17682631011527444,0.12586209758087688,-0.11464864946901798,0.12891050428152084,1.393762230873108,-0.04262371547418524,-2.7233226224780083,1.3107574544847012,20.607510209083557,0.0,0.0,0.0,0.0,0.0,0.0,0.0,0.0,False,0,0.1732027530670166,0.034785888671875
STABILIZE,0.17026853561401367,29.79903803116097,0.03252366383870443,0.032655954360961914,0,0,0.0,2.680749571156805,-0.8089224620147647,20.5035858505963,0,0,0.0,0.0,0.13060618240455973,0.13626403321422506,0.20790573362697726,0.13609205328660784,-0.04159742093179375,0.08340725908055902,1.909712702035904,-0.10042954075092043,-3.7167057394981384,-0.5898835137486458,24.912485480308533,0.0,0.0,0.0,0.0,0.0,0.0,0.0,0.0,False,0,0.20194458961486816,0.0399150390625
STABILIZE,0.20375537872314453,29.862899780708,0.03243068059285482,0.03257274627685547,0,0,0.0,2.6810603447640404,-0.8083763136854281,20.50435766197251,0,0,0.0,0.0,0.140336026496482,0.1491837485283013,0.24165051395228612,0.1474782592549054,-0.16763571184128523,0.1030662446282804,1.4894718304276466,-0.05364207792567196,-3.830545023083687,1.296266820281744,24.14310574531555,0.0,0.0,0.0,0.0,0.0,0.0,0.0,0.0,False,0,0.2308657169342041,0.024947021484375
STABILIZE,0.2371811866760254,29.915936178255816,0.032399924596150716,0.032544612884521484,0,0,0.0,2.6817023825460216,-0.8089062936763388,20.505614416779792,0,0,0.0,0.0,0.14027407362335376,0.15024321244532732,0.25851767459279945,0.14715837731101275,-0.06205590907484293,0.030876489472575486,1.577603816986084,-0.10860835877668014,-0.8230850100517273,1.0179816745221615,22.520674765110016,0.0,0.0,0.0,0.0,0.0,0.0,0.0,0.0,False,0,0.2595818042755127,0.034925048828125
STABILIZE,0.27060818672180176,29.916149555641148,0.03243974049886068,0.0325779914855957,0,0,0.0,2.6811038872199995,-0.8087511736769855,20.506625284776952,0,0,0.0,0.0,0.14470467254875216,0.1563603890704758,0.28689144710621156,0.15154208706528227,-0.06205590907484293,0.030876489472575486,1.577603816986084,-0.10860835877668014,-0.8230850100517273,1.0179816745221615,22.520674765110016,0.0,0.0,0.0,0.0,0.0,0.0,0.0,0.0,False,0,0.28794312477111816,0.034925048828125
STABILIZE,0.3039579391479492,29.984158302593578,0.032471688588460286,0.03257346153259277,0,0,0.0,2.680277434330428,-0.8089713939168655,20.50772153013874,0,0,0.0,0.0,0.14595916619412874,0.16112055279372328,0.3139229977347507,0.1555754418032632,-0.22693185601383448,0.03985704970546067,1.498109195381403,0.01073519641551548,-4.282849282026291,-0.9319051168859005,22.03959822654724,0.0,0.0,0.0,0.0,0.0,0.0,0.0,0.0,False,0,0.31675195693969727,0.03492578125
STABILIZE,0.3374783992767334,29.833587026104276,0.03255775769551595,0.03267669677734375,0,0,0.0,2.6801472338493744,-0.8094447580428591,20.508107435826847,0,0,0.0,0.0,0.14932274869081497,0.16741219539510915,0.3734666110967037,0.164602243132872,-0.06765639409422874,0.0747377926018089,1.8223902210593224,0.2592904427168008,0.24325535632669926,1.0858263820409775,23.250123858451843,0.0,0.0,0.0,0.0,0.0,0.0,0.0,0.0,False,0,0.37414002418518066,0.02993603515625
STABILIZE,0.37092161178588867,29.902499536594757,0.032473119099934895,0.03261113166809082,0,0,0.0,2.6794217396934723,-0.8095642863533343,20.509417124600194,0,0,0.0,0.0,0.14758788708063847,0.16710982186731593,0.39318281051178106,0.16385000262290716,-0.03474027325864881,0.0662581471260637,1.535090059041977,0.029502621923793233,-1.931384764611721,0.90277548879385,19.538341462612152,0.0,0.0,0.0,0.0,0.0,0.0,0.0,0.0,False,0,0.4031031131744385,0.03492578125
STABILIZE,0.4044356346130371,29.83698265682132,0.03248146375020345,0.0326077938079834,0,0,0.0,2.679576272723444,-0.809834932599196,20.512424115382295,0,0,0.0,0.0,0.14709206438084588,0.1683658292866112,0.4184426602818909,0.16458580643351656,-0.03474027325864881,0.0662581471260637,1.535090059041977,0.029502621923793233,-1.931384764611721,0.90277548879385,19.538341462612152,0.0,0.0,0.0,0.0,0.0,0.0,0.0,0.0,False,0,0.4316887855529785,0.03492578125
STABILIZE,0.43791651725769043,29.868641623642514,0.03241995175679525,0.03257155418395996,0,0,0.0,2.6796930262695686,-0.8089172326511814,20.513173728643704,0,0,0.0,0.0,0.14405862547951578,0.16871317826605262,0.4462103789405778,0.16288976565721275,-0.1739709754474461,0.05289652617648244,1.7901219427585602,-0.09726274755462783,-5.70036843419075,1.2267490848898888,30.50803542137146,0.0,0.0,0.0,0.0,0.0,0.0,0.0,0.0,False,0,0.46049952507019043,0.034925048828125
STABILIZE,0.47128868103027344,29.96530734718372,0.03240660031636556,0.032544612884521484,0,0,0.0,2.6785690332642784,-0.8089319068857264,20.51485054008494,0,0,0.0,0.0,0.14551202030780516,0.16842040881796858,0.4711615280344306,0.16373642890724774,0.2062017098069191,0.05398833891376853,1.6320349648594856,0.14467415883272755,5.633880198001862,0.8099897764623165,17.94576197862625,0.0,0.0,0.0,0.0,0.0,0.0,0.0,0.0,False,0,0.48923540115356445,0.02993701171875
STABILIZE,0.5047762393951416,29.860561144215914,0.03249529202779134,0.03261733055114746,0,0,0.0,2.678391448345858,-0.8088292939656174,20.51659565341788,0,0,0.0,0.0,0.14537822006487922,0.1659946886701786,0.48920403029082676,0.16260863210196924,0.2062017098069191,0.05398833891376853,1.6320349648594856,0.14467415883272755,5.633880198001862,0.8099897764623165,17.94576197862625,0.0,0.0,0.0,0.0,0.0,0.0,0.0,0.0,False,0,0.5180401802062988,0.02993701171875
STABILIZE,0.5381348133087158,29.978157699125166,0.032449992497762044,0.03256988525390625,0,0,0.0,2.67816775965054,-0.8084963222435794,20.51683471003883,0,0,0.0,0.0,0.13738787522808532,0.16081777888129892,0.5261297731849219,0.15894132847578307,-0.12949336087331176,0.023228165809996426,1.6868891194462776,0.21313626649365947,-2.4720728397369385,-1.098224613815546,20.11231780052185,0.0,0.0,0.0,0.0,0.0,0.0,0.0,0.0,False,0,0.5749950408935547,0.06486181640625
STABILIZE,0.571845531463623,29.66604424828835,0.032535823186238606,0.03274106979370117,0,0,0.0,2.6770721546189877,-0.8071684907802466,20.518094879940698,0,0,0.0,0.0,0.13605095908378131,0.1667540571055308,0.578065566430531,0.16514073370250643,-0.28227195143699646,0.08110030903480947,1.2800447642803192,0.09018737860579541,-3.477950766682625,0.8625440299510956,19.325125217437744,0.0,0.0,0.0,0.0,0.0,0.0,0.0,0.0,False,0,0.6035399436950684,0.03492626953125
STABILIZE,0.6051762104034424,29.999814034661078,0.03233507474263509,0.03247857093811035,0,0,0.0,2.6772441900087074,-0.8068566499559532,20.519093795106812,0,0,0.0,0.0,0.12753470065410485,0.16394438528635116,0.5905915121228653,0.16258174881562096,-0.28227195143699646,0.08110030903480947,1.2800447642803192,0.09018737860579541,-3.477950766682625,0.8625440299510956,19.325125217437744,0.0,0.0,0.0,0.0,0.0,0.0,0.0,0.0,False,0,0.633385181427002,0.03492626953125
STABILIZE,0.6386911869049072,29.83698265682132,0.032483609517415364,0.03262138366699219,0,0,0.0,2.6760072854387005,-0.8059998347410868,20.520324936704707,0,0,0.0,0.0,0.12396302670120433,0.16036896294962186,0.6125576979128421,0.15791753312095064,0.0317080324748531,0.047236631507985294,1.9028844311833382,-0.023998536659500934,0.6602476350963116,-0.9596019051969051,24.65895414352417,0.0,0.0,0.0,0.0,0.0,0.0,0.0,0.0,False,0,0.6620907783508301,0.034925048828125
STABILIZE,0.6720833778381348,29.948618350589076,0.032429011662801106,0.032530784606933594,0,0,0.0,2.6751018584868507,-0.8052758346890655,20.522290323638376,0,0,0.0,0.0,0.11596629507702022,0.15655568008718965,0.6332534895243614,0.15603281351819753,-0.22817440330982208,0.04339658480603248,1.8631495535373688,0.15351573199160326,-4.39390055835247,1.0868984274566174,31.537732481956482,0.0,0.0,0.0,0.0,0.0,0.0,0.0,0.0,False,0,0.690962553024292,0.02985595703125
STABILIZE,0.7054944038391113,29.92938490081347,0.03246262868245443,0.03259634971618652,0,0,0.0,2.675381042469175,-0.8058690472906517,20.52289821047451,0,0,0.0,0.0,0.1113176280430936,0.15185154474610743,0.6419479331627781,0.1501982465310254,-0.0005986352334730327,0.048415447236038744,1.539875753223896,-0.023871404427488783,-0.3962932154536247,0.9231087751686573,23.809286952018738,0.0,0.0,0.0,0.0,0.0,0.0,0.0,0.0,False,0,0.7196905612945557,0.034926025390625
STABILIZE,0.7405290603637695,28.543748256126527,0.032511027654012044,0.03417825698852539,0,0,0.0,2.675055754709953,-0.804726217904291,20.525452701224093,0,0,0.0,0.0,0.10758510463825077,0.14876297589079565,0.6592224526803505,0.14490378718430336,0.023279963352251798,0.09054630063474178,1.7211178317666054,-0.0445314593465212,3.005417063832283,-0.8735246956348419,25.18945038318634,0.0,0.0,0.0,0.0,0.0,0.0,0.0,0.0,False,0,0.7488672733306885,0.034925048828125
STABILIZE,0.7741787433624268,29.716277586878743,0.0324585755666097,0.03286910057067871,0,0,0.0,2.6750990837225004,-0.804192022406002,20.526340625816196,0,0,0.0,0.0,0.0917107343082914,0.13817589962333268,0.6787699839361477,0.13382966518649514,-0.2912987256422639,0.030512810917571187,1.4582693576812744,-0.030799404040850232,-1.8773648887872696,-1.0727030225098133,20.60297429561615,0.0,0.0,0.0,0.0,0.0,0.0,0.0,0.0,False,0,0.8081815242767334,0.03492626953125
STABILIZE,0.8076317310333252,29.89312237189081,0.03255132039388021,0.03266143798828125,0,0,0.0,2.674945831352998,-0.8042282544251147,20.52741638061047,0,0,0.0,0.0,0.08602603760342324,0.13444315460405842,0.6905554255871029,0.13165240435456196,-0.09856836404651403,0.05528302281163633,1.509372517466545,0.14389486359689818,-4.571763426065445,-1.0224916972219944,23.6969456076622,0.0,0.0,0.0,0.0,0.0,0.0,0.0,0.0,False,0,0.8368608951568604,0.034925048828125
STABILIZE,0.8412034511566162,29.790148797897654,0.032492669423421223,0.03264737129211426,0,0,0.0,2.6744557652800496,-0.8043920722434893,20.528702163721725,0,0,0.0,0.0,0.08298781068727004,0.12988437609504175,0.7015143589249294,0.12461260022649537,0.0526274845469743,0.007356572314165533,1.5077249146997929,-0.1427193640283552,2.5716930627822876,-0.9739473462104797,25.490686297416687,0.0,0.0,0.0,0.0,0.0,0.0,0.0,0.0,False,0,0.8656437397003174,0.029936767578125
STABILIZE,0.8746271133422852,29.916149555641148,0.032404216130574544,0.032531023025512695,0,0,0.0,2.674305287674898,-0.8047835274602956,20.5298240222929,0,0,0.0,0.0,0.080017294553912,0.12489929285968973,0.7063606617143545,0.11720456621884001,0.0526274845469743,0.007356572314165533,1.5077249146997929,-0.1427193640283552,2.5716930627822876,-0.9739473462104797,25.490686297416687,0.0,0.0,0.0,0.0,0.0,0.0,0.0,0.0,False,0,0.8941795825958252,0.029936767578125
STABILIZE,0.9081261157989502,29.852485035693697,0.03244641621907552,0.03259539604187012,0,0,0.0,2.6740011308134206,-0.8045041833954126,20.53167158846339,0,0,0.0,0.0,0.07880986986002513,0.1211930680493423,0.712791119446546,0.11193520102844176,0.14889083104208112,0.07373056141659617,1.6113629564642906,-0.027429239293977847,0.8686235174536705,0.9841709397733212,24.9270960688591,0.0,0.0,0.0,0.0,0.0,0.0,0.0,0.0,False,0,0.9231107234954834,0.034925048828125
STABILIZE,0.9415309429168701,29.93579330526015,0.032416375478108723,0.03255319595336914,0,0,0.0,2.67266262717951,-0.8048679443295688,20.53295395648006,0,0,0.0,0.0,0.06978463154040633,0.11739599567156647,0.7243526689996334,0.1068723075143168,-0.32842885702848434,0.038409544504247606,1.6133474186062813,-0.03899823905655057,-7.64777809381485,0.7622255478054285,19.684603810310364,0.0,0.0,0.0,0.0,0.0,0.0,0.0,0.0,False,0,0.9523684978485107,0.034926025390625
STABILIZE,0.9813294410705566,25.126275242767882,0.03247121175130208,0.03900003433227539,0,0,0.0,2.6719796082625087,-0.8050516657460715,20.5350405792715,0,0,0.0,0.0,0.06945571250943207,0.11325007954201405,0.7281283451802872,0.10410957013358985,0.18597620073705912,0.015957123832777143,1.1937451548874378,0.09446629868771668,5.118241906166077,0.7945075631141663,19.41079944372177,0.0,0.0,0.0,0.0,0.0,0.0,0.0,0.0,False,1,0.9804508686065674,0.02993603515625
STABILIZE,1.0148208141326904,29.858010322121373,0.032523187001546223,0.0326535701751709,0,0,0.0,2.6717687261718845,-0.8050882179303016,20.535979730282374,0,0,0.0,0.0,0.06778532112493624,0.10617124930474942,0.7292899915034231,0.09614902363712484,0.10321771260350943,0.10713598458096385,1.5023788437247276,-0.04856632689764012,4.7621265053749084,0.7897792384028435,17.96429753303528,0.0,0.0,0.0,0.0,0.0,0.0,0.0,0.0,False,0,1.0442006587982178,0.034925048828125
STABILIZE,1.0484766960144043,29.713119863984133,0.03247192700703939,0.032761573791503906,0,0,0.0,2.671204381791712,-0.8057206507587625,20.53757287190628,0,0,0.0,0.0,0.0636279157370239,0.10114112980058163,0.7389556985216057,0.09483463440130073,-0.06744419224560261,-0.05474292556755245,1.606561802327633,0.1617253925903338,0.36698635667562485,-1.1747483164072037,21.92876487970352,0.0,0.0,0.0,0.0,0.0,0.0,0.0,0.0,False,0,1.0730020999908447,0.034926025390625
STABILIZE,1.0823554992675781,29.515319550194924,0.03244021733601888,0.033124446868896484,0,0,0.0,2.6712782332121128,-0.80755749139782,20.539630466393746,0,0,0.0,0.0,0.061348864885140596,0.09770589137272118,0.7471421875312398,0.0882683952719093,0.04133913025725633,0.038722436875104904,1.5521788969635963,-0.15848765614012297,2.235027402639389,-1.1051900684833527,24.22364354133606,0.0,0.0,0.0,0.0,0.0,0.0,0.0,0.0,False,0,1.1016390323638916,0.064862060546875
STABILIZE,1.1159586906433105,29.76140096926865,0.032579692204793294,0.032709598541259766,0,0,0.0,2.671685056354552,-0.8082283440403621,20.54073695703929,0,0,0.0,0.0,0.05508314217285552,0.09491460858543177,0.7778349272681946,0.08735504088594252,-0.18328781006857753,0.021005042071919888,1.2454417534172535,0.14292631075607864,-4.171506687998772,0.4803616087883711,14.547257125377655,0.0,0.0,0.0,0.0,0.0,0.0,0.0,0.0,False,0,1.1305198669433594,0.034925048828125
STABILIZE,1.1500494480133057,29.333053591535013,0.032421143849690755,0.033265113830566406,0,0,0.0,2.67111943131391,-0.8084336766022856,20.544295485596866,0,0,0.0,0.0,0.04877232495540697,0.09099109600916667,0.7763722177106211,0.08590424136493598,-0.18328781006857753,0.021005042071919888,1.2454417534172535,0.14292631075607864,-4.171506687998772,0.4803616087883711,14.547257125377655,0.0,0.0,0.0,0.0,0.0,0.0,0.0,0.0,False,1,1.1593506336212158,0.034925048828125
STABILIZE,1.1838171482086182,29.61618957506602,0.03250625928243001,0.03263711929321289,0,0,0.0,2.67079030157328,-0.807473981663046,20.54623696686844,0,0,0.0,0.0,0.046132587231121056,0.08260646575844877,0.784205454759043,0.08163214298504283,-0.07733190432190895,-0.052039604634046555,1.4545700512826443,0.15648611722861835,5.128870904445648,-1.2674522586166859,18.268871307373047,0.0,0.0,0.0,0.0,0.0,0.0,0.0,0.0,False,0,1.2165489196777344,0.02993603515625
STABILIZE,1.2170345783233643,30.102516255903083,0.032175334294637044,0.032347679138183594,0,0,0.0,2.6707392885979164,-0.8060662690029358,20.549061250090244,0,0,0.0,0.0,0.039041892234980786,0.07912590036048661,0.7835024807150188,0.08168490555394252,-0.256290752440691,0.028075036243535578,1.5752291306853294,0.21445709434505034,-2.811814285814762,0.8736244402825832,23.964720964431763,0.0,0.0,0.0,0.0,0.0,0.0,0.0,0.0,False,0,1.2453224658966064,0.03492578125
STABILIZE,1.250556230545044,29.83316262660749,0.03245142300923665,0.03261256217956543,0,0,0.0,2.669805046785506,-0.80649534362103,20.55107957098998,0,0,0.0,0.0,0.036557589526962246,0.07501115629681977,0.7851298554936351,0.07525403020285602,0.001011502172332257,-0.0186517063411884,1.4408282935619354,-0.1626550320291828,-5.909642577171326,-1.4382465742528439,16.315065324306488,0.0,0.0,0.0,0.0,0.0,0.0,0.0,0.0,False,0,1.2739734649658203,0.034925048828125
STABILIZE,1.2845466136932373,29.417816337838502,0.03240850766499837,0.033086299896240234,0,0,0.0,2.6693446493467645,-0.8066611891518144,20.55267442016118,0,0,0.0,0.0,0.03394431470081195,0.07102189390398697,0.7843614762703701,0.06501113612932517,-0.013580999802798033,-0.01819807366700843,1.3213875703513622,-0.3797419493078864,1.8635593354701996,-1.1293351650238037,24.35704469680786,0.0,0.0,0.0,0.0,0.0,0.0,0.0,0.0,False,0,1.3037192821502686,0.029937255859375
STABILIZE,1.3180105686187744,29.883112349223765,0.03242305119832357,0.032561302185058594,0,0,0.0,2.6704596777287692,-0.8073764380239618,20.553818476847155,0,0,0.0,0.0,0.035040366976543585,0.06871359178737468,0.7827239941828933,0.06093900069998963,0.17990943742915988,0.06864272290840745,1.529021468013525,-0.04271965828768276,-3.951723873615265,-1.1005289852619171,23.588204383850098,0.0,0.0,0.0,0.0,0.0,0.0,0.0,0.0,False,0,1.3314158916473389,0.0349248046875
STABILIZE,1.3516247272491455,29.748946733810907,0.03242352803548177,0.03277993202209473,0,0,0.0,2.670444523246548,-0.8067049450511848,20.554499788216866,0,0,0.0,0.0,0.036096337268075124,0.06653710874214325,0.7856575477131552,0.056948504910280966,0.17990943742915988,0.06864272290840745,1.529021468013525,-0.04271965828768276,-3.951723873615265,-1.1005289852619171,23.588204383850098,0.0,0.0,0.0,0.0,0.0,0.0,0.0,0.0,False,1,1.360102653503418,0.0349248046875
STABILIZE,1.385094404220581,29.87715211739146,0.03244617780049642,0.03263235092163086,0,0,0.0,2.6705672532081968,-0.8059628023091806,20.556219288340415,0,0,0.0,0.0,0.027999035237746907,0.06164843983028063,0.8010491916944732,0.049292125705236355,-0.12511382810771465,0.08710490074008703,1.5972908586263657,0.07452369377601327,-11.153742671012878,0.9227501228451729,25.923287868499756,0.0,0.0,0.0,0.0,0.0,0.0,0.0,0.0,False,0,1.4174561500549316,0.029936279296875
STABILIZE,1.4187870025634766,29.68010925790952,0.03252771695454915,0.03287935256958008,0,0,0.0,2.669253082123204,-0.8060128014283392,20.556757165737555,0,0,0.0,0.0,0.02316797769447574,0.059244220281225786,0.7972243356436042,0.052330310813061325,-0.18058413406834006,0.03550818073563278,1.429343968629837,0.3316432769249806,-3.7873029708862305,-1.1762033216655254,21.26745581626892,0.0,0.0,0.0,0.0,0.0,0.0,0.0,0.0,False,0,1.4459772109985352,0.03492578125
STABILIZE,1.4525034427642822,29.660170282578566,0.03250602086385091,0.03262972831726074,0,0,0.0,2.66910367173511,-0.8056449317085106,20.55783292053183,0,0,0.0,0.0,0.018651979137706814,0.05616828987548272,0.7996515324703918,0.052306363373976136,-0.15870467759668827,-0.009547013905830681,1.5241622924804688,0.15333913424896142,-4.055459424853325,0.949245598167181,25.186878442764282,0.0,0.0,0.0,0.0,0.0,0.0,0.0,0.0,False,0,1.4748387336730957,0.034925048828125
STABILIZE,1.4856891632080078,30.132793080161502,0.032204421361287434,0.0323336124420166,0,0,0.0,2.6690970549893516,-0.8060865994878871,20.560961147171696,0,0,0.0,0.0,0.016259800228083224,0.05390505949768523,0.8009999378198681,0.05340053338988232,-0.0416567811043933,0.031766598112881184,1.475868932902813,0.21117325411794194,-2.9091540724039078,-1.0820455849170685,22.135120630264282,0.0,0.0,0.0,0.0,0.0,0.0,0.0,0.0,False,0,1.503438949584961,0.02993603515625
STABILIZE,1.5191214084625244,29.91145595618439,0.032496007283528645,0.03261303901672363,0,0,0.0,2.6693030278815097,-0.8067511021889353,20.561750034020832,0,0,0.0,0.0,0.015140738271091537,0.0533486297428428,0.7968081011646753,0.05238952265536295,0.012679968494921923,0.12360393302515149,1.413765735924244,0.0864036539088067,2.9890114441514015,1.0644870810210705,26.26388967037201,0.0,0.0,0.0,0.0,0.0,0.0,0.0,0.0,False,0,1.5321667194366455,0.03492578125
STABILIZE,1.552988052368164,29.52778677329879,0.03250125249226888,0.03308916091918945,0,0,0.0,2.6679036928753033,-0.8071938905462226,20.564060345507592,0,0,0.0,0.0,0.010521280951137305,0.05076029062801264,0.8002352516915477,0.04912925250785342,-0.052248325664550066,0.07263977895490825,1.5022999607026577,0.04081975179061512,-1.3703234493732452,-1.1649981141090393,20.533868670463562,0.0,0.0,0.0,0.0,0.0,0.0,0.0,0.0,True,0,1.58968186378479,0.034925048828125
STABILIZE,1.586622714996338,29.734394827696214,0.032547982533772786,0.03267240524291992,0,0,0.0,2.669041986589168,-0.8071740936698001,20.56505755312641,0,0,0.0,0.0,0.007422899706598565,0.04770317357487598,0.8035539009748701,0.04737884935341064,-0.10647359304130077,-0.03750198520720005,1.612931489944458,0.028100555508929526,-3.6646761000156403,-1.2502762489020824,19.049200415611267,0.0,0.0,0.0,0.0,0.0,0.0,0.0,0.0,True,0,1.61830735206604,0.02993701171875
STABILIZE,1.6200475692749023,29.917643282570705,0.03233054478963216,0.03251910209655762,0,0,0.0,2.6687651504843712,-0.8079136217300126,20.56663874191927,0,0,0.0,0.0,0.0051160400315493765,0.04478865925177973,0.8003905189675239,0.045609089224647584,-0.0801388407126069,-0.03492867690511048,1.4870786108076572,0.024937140721635557,-0.6304631009697914,-1.239699125289917,18.421414494514465,0.0,0.0,0.0,0.0,0.0,0.0,0.0,0.0,True,0,1.647033452987671,0.034925048828125
STABILIZE,1.6535301208496094,29.86587675700309,0.03243091901143392,0.03255271911621094,0,0,0.0,2.668493650464863,-0.8072856712131946,20.56916420436488,0,0,0.0,0.0,0.0027350666486296057,0.04295056331458553,0.8014176606851392,0.04507127738234708,-0.07494519231840968,0.02428337902529165,1.4737568795681,0.0909503921113865,0.43272534385323524,-1.0939845815300941,23.191457986831665,0.0,0.0,0.0,0.0,0.0,0.0,0.0,0.0,True,0,1.6757619380950928,0.0347626953125
STABILIZE,1.6869680881500244,29.91721648822728,0.03238561948140462,0.03251290321350098,0,0,0.0,2.668324816726317,-0.807665867290041,20.57031679878732,0,0,0.0,0.0,0.002140121686079,0.040596569063166735,0.7949037180168235,0.04476155217484397,0.023879975196905434,-0.01078132409020327,1.0506159625947475,0.10032084469358203,-0.6421326659619808,0.5582252983003855,14.770565927028656,0.0,0.0,0.0,0.0,0.0,0.0,0.0,0.0,True,0,1.704359531402588,0.029935791015625
STABILIZE,1.7207489013671875,29.58840252548411,0.03239444096883138,0.03295779228210449,0,0,0.0,2.6666815159006942,-0.8080705559983643,20.571696496999664,0,0,0.0,0.0,0.0003447092100989547,0.03867082535906577,0.8004626458655852,0.04337154922191184,-0.06606425158679485,0.007130987069103867,2.000644989311695,0.03619077117351748,-0.5066342651844025,-1.0660036467015743,24.919678270816803,0.0,0.0,0.0,0.0,0.0,0.0,0.0,0.0,True,0,1.7331461906433105,0.03492529296875
STABILIZE,1.7542450428009033,29.855672451347466,0.03251770337422689,0.03270363807678223,0,0,0.0,2.6666915477410376,-0.8077369973069444,20.572707364996827,0,0,0.0,0.0,0.005228386435329834,0.039343086341798894,0.7978897716759406,0.04477482854953068,0.19063256913796067,0.13569893781095743,1.3450175523757935,0.1509000763643925,3.1514205038547516,0.8613763377070427,22.12596833705902,0.0,0.0,0.0,0.0,0.0,0.0,0.0,0.0,True,0,1.7906742095947266,0.034926025390625
STABILIZE,1.7906599044799805,27.462753802536554,0.03253367741902669,0.035474300384521484,0,0,0.0,2.667215978203248,-0.8077461753736416,20.574051204716028,0,0,0.0,0.0,0.00037944116221541764,0.037000336383253334,0.7994320590449046,0.04334602119662424,-0.24805853608995676,-0.029790669213980436,1.527875754982233,0.020152326403777173,0.6676090881228447,0.7515548728406429,21.276487410068512,0.0,0.0,0.0,0.0,0.0,0.0,0.0,0.0,True,0,1.8192648887634277,0.034926025390625
STABILIZE,1.8240127563476562,29.97922905930368,0.03235486348470052,0.032492637634277344,0,0,0.0,2.6669557906845527,-0.8080044952624855,20.57659203508727,0,0,0.0,0.0,0.002536032413772819,0.0377630617035697,0.8043493620633635,0.04423418552549304,0.16252362402155995,0.14968597097322345,1.7330719158053398,0.15453432397222108,3.4439459443092346,-1.028330996632576,22.924675047397614,0.0,0.0,0.0,0.0,0.0,0.0,0.0,0.0,True,0,1.8478713035583496,0.029935791015625
STABILIZE,1.8574597835540771,29.8978102189781,0.03248575528462728,0.0326077938079834,0,0,0.0,2.6676014570045306,-0.8072508265762569,20.577631931388407,0,0,0.0,0.0,0.004861475752083021,0.03855309218952004,0.8051287083890117,0.0450310033521715,0.16252362402155995,0.14968597097322345,1.7330719158053398,0.15453432397222108,3.4439459443092346,-1.028330996632576,22.924675047397614,0.0,0.0,0.0,0.0,0.0,0.0,0.0,0.0,True,0,1.8765664100646973,0.029935791015625
STABILIZE,1.8908233642578125,29.974087228705578,0.03248265584309896,0.032588958740234375,0,0,0.0,2.6652717221673212,-0.8172798387945099,20.58144146939798,0,0,0.0,0.0,0.0039060949188778715,0.03652634684024443,0.8014680046060316,0.04241109002782279,-0.03333032946102321,-0.020934066560585052,1.4527486637234688,-0.0515036017254365,2.7833789587020874,0.9706290438771248,24.630726873874664,0.0,0.0,0.0,0.0,0.0,0.0,0.0,0.0,True,0,1.9052493572235107,0.03492626953125
STABILIZE,1.9251201152801514,29.158091583418493,0.032527955373128255,0.033475399017333984,0,0,0.0,2.6711533688163485,-0.8262977695721895,20.59177042297033,0,0,0.0,0.0,-0.00111662381590893,0.03607280775961512,0.8079440520055041,0.036408083428224325,-0.273730861954391,0.06737826624885201,1.8017370253801346,-0.26314016144860214,-5.591198056936264,2.910512499511242,23.634351789951324,0.0,0.0,0.0,0.0,0.0,0.0,0.0,0.0,True,1,1.9341349601745605,0.034925048828125
STABILIZE,1.9586584568023682,29.815136802746718,0.03247812589009603,0.03261995315551758,0,0,0.0,2.6636798612038852,-0.8136141616443288,20.585573733845838,0,0,0.0,0.0,-0.003996144272175141,0.03258312559721716,0.799544099417086,0.038067716248913135,0.008048277231864631,-0.024564124760217965,1.1820049956440926,0.08540593936188237,-2.2140130400657654,2.241167239844799,3.2479260116815567,0.0,0.0,0.0,0.0,0.0,0.0,0.0,0.0,True,0,1.9916021823883057,0.034926025390625
STABILIZE,1.9922106266021729,29.806026151222284,0.03244951566060384,0.032578468322753906,0,0,0.0,2.6643837975752196,-0.81266962118731,20.585782054615525,0,0,0.0,0.0,0.0017888538317674474,0.03906262112489475,0.7941040773707171,0.008832376234174603,0.3685583360493183,0.47548129223287106,1.0960371233522892,-1.6612395704258534,2.7300115674734116,5.013881251215935,-33.430615067481995,0.0,0.0,0.0,0.0,0.0,0.0,0.0,0.0,True,0,2.0204031467437744,0.03492578125
STABILIZE,2.025569438934326,29.97751491977272,0.032335789998372395,0.03246188163757324,0,0,0.0,2.6648038542091754,-0.8130693473363144,20.595434819460042,0,0,0.0,0.0,0.007711635331274685,0.045681910662334256,0.7884237242049393,-0.020750273577136435,0.3685583360493183,0.47548129223287106,1.0960371233522892,-1.6612395704258534,2.7300115674734116,5.013881251215935,-33.430615067481995,0.0,0.0,0.0,0.0,0.0,0.0,0.0,0.0,True,0,2.048814296722412,0.03492578125
STABILIZE,2.0589394569396973,29.964451048751215,0.03242090543111165,0.03254556655883789,0,0,0.0,2.666539576032005,-0.8094816303922066,20.579882478719924,0,0,0.0,0.0,-0.009204544545001357,0.030475927518090806,0.7988326034014884,0.06965861507894007,-0.9942465461790562,-0.8270476944744587,2.0633570849895477,5.479004009247217,-9.668701887130737,-12.009359151124954,49.53145980834961,0.0,0.0,0.0,0.0,0.0,0.0,0.0,0.0,True,0,2.077606201171875,0.034925048828125
STABILIZE,2.0924417972564697,29.849298300549403,0.03250935872395833,0.03266429901123047,0,0,0.0,2.6649679921926674,-0.8116046986461698,20.592670300393483,0,0,0.0,0.0,0.027451720079040166,0.04375343126678072,0.7942463276810607,0.06457744555750022,2.189512923359871,0.8711444213986397,1.1728905141353607,-0.2569606545187389,69.00612115859985,20.64444273710251,25.490999221801758,0.0,0.0,0.0,0.0,0.0,0.0,0.0,0.0,True,0,2.1061551570892334,0.029936279296875
STABILIZE,2.1262121200561523,29.61096246302428,0.032479317982991536,0.03287029266357422,0,0,0.0,2.663636318747926,-0.8097313058228823,20.598892602727364,0,0,0.0,0.0,0.0369363493615434,0.035495626390394386,0.8045628505313549,0.09065599125557987,0.5864100996404886,-0.4049778915941715,2.2960247471928596,1.6514999341128267,23.375695943832397,-25.591591000556946,47.927382588386536,0.0,0.0,0.0,0.0,0.0,0.0,0.0,0.0,True,1,2.1349050998687744,0.03492578125
STABILIZE,2.1595959663391113,29.9563186538489,0.03242472012837728,0.032559871673583984,0,0,0.0,2.6609339117141286,-0.8099997642737755,20.591874583355175,0,0,0.0,0.0,0.020190921899112067,0.03529166538967772,0.8036800685302008,0.11704498493234419,-0.06542898481711745,0.665659224614501,1.3103649951517582,-1.4367612412068589,6.829924136400223,-4.992147907614708,9.904972463846207,0.0,0.0,0.0,0.0,0.0,0.0,0.0,0.0,True,0,2.1927404403686523,0.034926025390625
STABILIZE,2.193127155303955,29.822344517679515,0.03245404561360677,0.03263998031616211,0,0,0.0,2.660234457654437,-0.8113618534046642,20.598796980078983,0,0,0.0,0.0,0.027519077099400758,0.028144961933744748,0.8032095881340532,0.12869612421052876,0.4541948437690735,-0.35453452728688717,1.3935881666839123,0.7619538657743786,20.333832502365112,-7.588104158639908,-5.289296805858612,0.0,0.0,0.0,0.0,0.0,0.0,0.0,0.0,True,0,2.2212822437286377,0.0349248046875
STABILIZE,2.226656198501587,29.82828290011734,0.03246930440266927,0.032657623291015625,0,0,0.0,2.6570310989337007,-0.8095699426037407,20.61560436807909,0,0,0.0,0.0,0.029073860004333863,0.03005447872917475,0.8022198428687201,0.1318733022862396,0.1068046665750444,0.19042143831029534,1.3741472736001015,0.2666318288575067,-35.30782163143158,4.373059421777725,7.167515158653259,0.0,0.0,0.0,0.0,0.0,0.0,0.0,0.0,True,0,2.2499964237213135,0.029937255859375
STABILIZE,2.2601048946380615,29.893335423957122,0.032433303197224934,0.032556772232055664,0,0,0.0,2.6580872169341143,-0.8120430046918142,20.617054075730426,0,0,0.0,0.0,0.018792979210697607,0.029764374758574394,0.7995315097413984,0.11356663042616237,-0.5836992058902979,0.058942241594195366,1.5140365809202194,-0.930950408282801,-2.8825078159570694,12.128454446792603,4.619507864117622,0.0,0.0,0.0,0.0,0.0,0.0,0.0,0.0,True,0,2.2787163257598877,0.034925048828125
STABILIZE,2.293480396270752,29.962096480387466,0.032441171010335286,0.03255271911621094,0,0,0.0,2.6577568065330146,-0.810670456833759,20.608036518478716,0,0,0.0,0.0,0.03245619707512469,0.03444482576689753,0.797362407677072,0.11633590796790856,0.8450094610452652,0.3510842099785805,1.2961306609213352,0.28107778567378944,28.763848543167114,6.346445530653,5.838464200496674,0.0,0.0,0.0,0.0,0.0,0.0,0.0,0.0,True,0,2.307971477508545,0.03492578125
STABILIZE,2.3273632526397705,29.51261970602101,0.032500298817952473,0.033075809478759766,0,0,0.0,2.6582519952478405,-0.8073039206248832,20.603736914396194,0,0,0.0,0.0,0.03258312440869867,0.036367083029336916,0.8015942245991328,0.11667556807063426,0.027117339777760208,0.18080464797094464,1.6894301399588585,0.14608179145155842,-36.19788885116577,-16.919144988059998,20.45397013425827,0.0,0.0,0.0,0.0,0.0,0.0,0.0,0.0,True,1,2.336275815963745,0.029936279296875
STABILIZE,2.3608157634735107,29.893761537200568,0.03251365025838216,0.03262948989868164,0,0,0.0,2.65420809637237,-0.8071933035768407,20.601959357664697,0,0,0.0,0.0,0.009783000281033086,0.031365329781007104,0.7986591346118791,0.12709027225185396,-1.3258344493806362,-0.33480459824204445,1.4662413857877254,0.8698344091980558,-15.542502701282501,-5.390186607837677,14.943084120750427,0.0,0.0,0.0,0.0,0.0,0.0,0.0,0.0,True,0,2.3936808109283447,0.03492578125
STABILIZE,2.3943169116973877,29.85206009836089,0.03250697453816732,0.032624244689941406,0,0,0.0,2.6598652005524333,-0.8066840275968516,20.571308883764267,0,0,0.0,0.0,0.011289263733350454,0.034455924535114424,0.7933594171359424,0.12206388819901187,0.13389958767220378,0.2537655644118786,1.0881299152970314,-0.16700388817892395,31.90741240978241,19.88762617111206,14.781560003757477,0.0,0.0,0.0,0.0,0.0,0.0,0.0,0.0,True,0,2.4222376346588135,0.034925048828125
STABILIZE,2.427856683731079,29.814077138510967,0.032422812779744466,0.03257942199707031,0,0,0.0,2.6590297830395757,-0.8032703203940205,20.586833903747706,0,0,0.0,0.0,0.016606536077435844,0.026882109970364925,0.7939031631444279,0.12555745313457106,0.3587129060178995,-0.3916590940207243,1.4560669660568237,0.3629984876095406,1.987481489777565,-19.116564095020294,25.15423893928528,0.0,0.0,0.0,0.0,0.0,0.0,0.0,0.0,True,0,2.4511067867279053,0.02993603515625
STABILIZE,2.4611828327178955,30.005393997925385,0.03237608273824056,0.032495975494384766,0,0,0.0,2.655725252141759,-0.807946171850276,20.60983285823043,0,0,0.0,0.0,0.006785216272640747,0.015593978962773262,0.7925307289591634,0.11742999623644033,-0.5588666535913944,-0.6142457015812397,1.5757795423269272,-0.27967436856233696,-11.99764683842659,-1.6488276422023773,22.404028475284576,0.0,0.0,0.0,0.0,0.0,0.0,0.0,0.0,True,0,2.4796831607818604,0.039916015625
STABILIZE,2.494901418685913,29.657024471989082,0.03247526486714681,0.03288006782531738,0,0,0.0,2.6678620714100485,-0.8195622425552049,20.566309185291818,0,0,0.0,0.0,4.7053376982284824e-05,0.02834937974830247,0.8007476263522104,0.1125857179111637,-0.3575517563149333,0.840233825147152,1.6791632398962975,-0.16415907436897398,-12.064707279205322,39.831456542015076,29.69300150871277,0.0,0.0,0.0,0.0,0.0,0.0,0.0,0.0,True,0,2.508384943008423,0.02993603515625
STABILIZE,2.5288188457489014,29.48481930082318,0.032502206166585286,0.03307986259460449,0,0,0.0,2.670442175369021,-0.8267798848780572,20.562967515240388,0,0,0.0,0.0,0.007174194907609245,0.055136560526222414,0.7852264118298771,0.12794368226244368,0.8458535186946392,0.9117706678807735,0.7126341573894024,1.5375273421971742,27.674123644828796,-8.067098259925842,1.7442401498556137,0.0,0.0,0.0,0.0,0.0,0.0,0.0,0.0,True,0,2.565769672393799,0.02993603515625
STABILIZE,2.5623795986175537,29.79903803116097,0.03247693379720052,0.03262734413146973,0,0,0.0,2.6595616840211904,-0.8337654608516878,20.618908472090084,0,0,0.0,0.0,0.03727496268744787,0.025470673070191296,0.780912313515523,0.15225399427168435,1.8663868308067322,-1.7417306080460548,1.377796195447445,1.7094377607994002,0.8928649127483368,-28.00549566745758,13.209664821624756,0.0,0.0,0.0,0.0,0.0,0.0,0.0,0.0,True,0,2.5945324897766113,0.0399150390625
STABILIZE,2.5966882705688477,29.14735232800556,0.03237298329671224,0.0333859920501709,0,0,0.0,2.6663005194110543,-0.8521430453089591,20.60842242416682,0,0,0.0,0.0,0.029309335289685247,0.026206996644825224,0.7832145843783994,0.15320766968502106,-0.49896351993083954,0.10821112664416432,1.3229812495410442,0.14101192345755778,-28.363633155822754,52.15584635734558,16.073182225227356,0.0,0.0,0.0,0.0,0.0,0.0,0.0,0.0,True,0,2.6232821941375732,0.029935791015625
STABILIZE,2.630094289779663,29.932161539175176,0.032399924596150716,0.032534122467041016,0,0,0.0,2.638134313377803,-0.8398925674240123,20.596705234645665,0,0,0.0,0.0,0.05401654468194558,0.02754268887071097,0.7862549809656925,0.12118745025199376,1.5335941687226295,0.14739028410986066,1.835949532687664,-1.6880072952265448,41.973596811294556,-16.187578439712524,16.95091426372528,0.0,0.0,0.0,0.0,0.0,0.0,0.0,0.0,True,0,2.6518449783325195,0.034926025390625
STABILIZE,2.6635193824768066,29.916789706060673,0.032464059193929036,0.03258371353149414,0,0,0.0,2.6455183882008213,-0.8430629491376619,20.617122377622128,0,0,0.0,0.0,0.08326943692341643,0.011447115481321012,0.7902658587061808,0.10183076286595244,1.76836047321558,-0.9082352742552757,1.6529260203242302,-0.9588411655934307,20.939284563064575,-32.14077353477478,13.945716619491577,0.0,0.0,0.0,0.0,0.0,0.0,0.0,0.0,True,0,2.6838488578796387,0.02993603515625
STABILIZE,2.6981537342071533,28.876049899485032,0.032483609517415364,0.03261280059814453,0,0,0.0,2.6492148012022674,-0.8439404150025969,20.596737678044224,0,0,0.0,0.0,0.09394377044044144,0.011040965249248899,0.8107513165447084,0.09688936567335069,0.7124036084860563,0.03504935884848237,2.8878236189484596,-0.06004477996296389,-61.36515736579895,42.97955632209778,44.33418810367584,0.0,0.0,0.0,0.0,0.0,0.0,0.0,0.0,True,0,2.712141275405884,0.034926025390625
STABILIZE,2.7304298877716064,30.97896478373907,0.03128984769185384,0.03141903877258301,0,0,0.0,2.6440210826687074,-0.8468630956371277,20.63125233146759,0,0,0.0,0.0,0.10565505503825443,0.010544258633704746,0.8356361036027309,0.09227804614783996,0.7124036084860563,0.03504935884848237,2.8878236189484596,-0.06004477996296389,-61.36515736579895,42.97955632209778,44.33418810367584,0.0,0.0,0.0,0.0,0.0,0.0,0.0,0.0,True,0,2.7425425052642822,0.034926025390625
STABILIZE,2.763972282409668,29.814289065332204,0.03247502644856771,0.03261375427246094,0,0,0.0,2.63904891839635,-0.8474852831818336,20.612319047088317,0,0,0.0,0.0,0.09143003852212052,-0.007040116368654661,0.8362358842086195,0.09324257048765833,0.14666359638795257,-1.2017043307423592,0.4660646431148052,1.4176955151907087,56.9377601146698,9.54827070236206,23.54838252067566,0.0,0.0,0.0,0.0,0.0,0.0,0.0,0.0,True,0,2.799201250076294,0.029936767578125
STABILIZE,2.7973287105560303,29.976872167984105,0.03236869176228841,0.03252410888671875,0,0,0.0,2.640956248722076,-0.8482594424355722,20.59829666872228,0,0,0.0,0.0,0.078703742138937,0.011690155070656493,0.824096490266673,0.06722987547531115,-0.6491947919130325,1.1687790043652058,0.9601323865354061,-1.349697460186941,-34.261688590049744,28.72927486896515,13.33422064781189,0.0,0.0,0.0,0.0,0.0,0.0,0.0,0.0,True,0,2.8278348445892334,0.03492529296875
STABILIZE,2.8307814598083496,29.893761537200568,0.03249839146931966,0.032622575759887695,0,0,0.0,2.6280819824668367,-0.8501990027164442,20.64734425715214,0,0,0.0,0.0,0.07358652787274103,-0.00734736135055699,0.8114722366800295,0.09497725367865556,-0.22713840007781982,-1.0977144353091717,0.6721138022840023,1.8750967420420666,19.6535661816597,-49.53327775001526,20.350569486618042,0.0,0.0,0.0,0.0,0.0,0.0,0.0,0.0,True,0,2.857787847518921,0.034926025390625
STABILIZE,2.864331007003784,29.80666159739051,0.03248480161031087,0.032721757888793945,0,0,0.0,2.6214287378850094,-0.847282405219143,20.614895735952704,0,0,0.0,0.0,0.06825027595955271,-0.026618151675651226,0.798410446304426,0.12331118175553082,-0.22713840007781982,-1.0977144353091717,0.6721138022840023,1.8750967420420666,19.6535661816597,-49.53327775001526,20.350569486618042,0.0,0.0,0.0,0.0,0.0,0.0,0.0,0.0,True,0,2.8865339756011963,0.034926025390625
STABILIZE,2.897778034210205,29.899088977915913,0.03249862988789876,0.03262472152709961,0,0,0.0,2.608291722790136,-0.8483568793529507,20.637981775347345,0,0,0.0,0.0,0.056755609010195496,-0.028345963077738016,0.793120934563538,0.12657782734216788,-0.5826302338391542,-0.04790315870195627,1.1539999395608902,0.3617883701876847,-39.14892077445984,-30.321434140205383,11.950618028640747,0.0,0.0,0.0,0.0,0.0,0.0,0.0,0.0,True,0,2.9152028560638428,0.034926025390625
STABILIZE,2.9312386512756348,29.884602778767366,0.032488377888997395,0.032610177993774414,0,0,0.0,2.6086878737619967,-0.8479871953641237,20.646193370276993,0,0,0.0,0.0,0.050491997790600464,-0.05221277453387123,0.7969880691222307,0.13821568665081757,-0.26063965633511543,-1.3693149201571941,1.7041081562638283,0.8624781887402462,-6.649092584848404,-33.28791856765747,36.22588515281677,0.0,0.0,0.0,0.0,0.0,0.0,0.0,0.0,True,0,2.943777084350586,0.034925048828125
STABILIZE,2.9647462368011475,29.84696179381898,0.03247645696004232,0.032625675201416016,0,0,0.0,2.601834846146947,-0.8460424057196684,20.621744708142934,0,0,0.0,0.0,0.04319646848863403,-0.017614343581528025,0.7810743224160535,0.12799123772087545,-0.1006026635877788,1.0390874929726124,1.1121006682515144,-0.09458093781004578,9.744635224342346,48.33684861660004,9.732741862535477,0.0,0.0,0.0,0.0,0.0,0.0,0.0,0.0,True,0,3.0013372898101807,0.02993701171875
STABILIZE,2.998173713684082,29.912949214431915,0.03242662747701009,0.032568931579589844,0,0,0.0,2.622721991515669,-0.8563560980880934,20.636494501655577,0,0,0.0,0.0,0.027246481099344418,-0.010066032414291368,0.7754717049291564,0.11930759741277014,-0.8445916697382927,0.44186036102473736,1.3352718204259872,-0.28273973611749753,-32.41456151008606,-8.143316209316254,23.497489094734192,0.0,0.0,0.0,0.0,0.0,0.0,0.0,0.0,True,0,3.0299556255340576,0.034925048828125
STABILIZE,3.03157901763916,29.93579330526015,0.03247526486714681,0.03259134292602539,0,0,0.0,2.610580903379148,-0.8533613803021601,20.649282323329132,0,0,0.0,0.0,0.006610851525164132,-0.019101576105213035,0.775681592201264,0.12883709370301766,-1.1186016723513603,-0.5456187296658754,1.4582525938749313,0.7685562574634008,-14.539039134979248,1.8165502697229385,26.886790990829468,0.0,0.0,0.0,0.0,0.0,0.0,0.0,0.0,True,0,3.058974504470825,0.03492578125
STABILIZE,3.0651094913482666,29.826585978111687,0.03248742421468099,0.03261160850524902,0,0,0.0,2.6105943503140767,-0.8463954411223934,20.63368900145399,0,0,0.0,0.0,-0.014173060526734288,-0.02823216905720439,0.775863472929805,0.13844258996920342,-1.1186016723513603,-0.5456187296658754,1.4582525938749313,0.7685562574634008,-14.539039134979248,1.8165502697229385,26.886790990829468,0.0,0.0,0.0,0.0,0.0,0.0,0.0,0.0,True,0,3.087463617324829,0.03492578125
STABILIZE,3.098525285720825,29.92233882416728,0.03240540822347005,0.03255748748779297,0,0,0.0,2.6087563890971084,-0.8515705900791474,20.662749748825103,0,0,0.0,0.0,-0.014551821594652244,-0.030317687593059493,0.7711677424289418,0.19564383635928756,0.0951649562921375,-0.12469153152778745,1.170405000448227,3.591105144823019,17.25858747959137,1.8477004021406174,18.749523162841797,0.0,0.0,0.0,0.0,0.0,0.0,0.0,0.0,True,0,3.1162025928497314,0.0648623046875
STABILIZE,3.132014274597168,29.860348559061396,0.03249100049336751,0.0326075553894043,0,0,0.0,2.609867788941117,-0.8624833113821238,20.70476565750444,0,0,0.0,0.0,-0.04216268464007421,-0.02923371692986915,0.7772875534692391,0.15909469702423956,-1.2080934830009937,0.1707770279608667,0.6871122401207685,-2.393199460872914,10.24152860045433,4.664215445518494,39.68144953250885,0.0,0.0,0.0,0.0,0.0,0.0,0.0,0.0,True,0,3.144887685775757,0.0349248046875
STABILIZE,3.166595935821533,28.919253973178886,0.03243568738301595,0.033719539642333984,0,0,0.0,2.603091600954229,-0.8510091271850312,20.67351071186246,0,0,0.0,0.0,-0.012980032361311275,-0.022370200237433968,0.7614106340697566,0.15030035560916827,1.6612211242318153,0.34657048527151346,0.7103684823960066,-0.19412646265133882,20.44471502304077,14.977623522281647,-0.7637962698936462,0.0,0.0,0.0,0.0,0.0,0.0,0.0,0.0,True,1,3.1741580963134766,0.02993701171875
STABILIZE,3.2000510692596436,29.88843599464128,0.03245356877644857,0.03258991241455078,0,0,0.0,2.605955157763757,-0.8521889356424451,20.681747920001495,0,0,0.0,0.0,0.026678008214523014,-0.005212033752522809,0.7381994366779614,0.1283130416903014,0.5987013690173626,0.5348262842744589,1.4327988028526306,-0.389053845024141,-26.764515042304993,-18.761838972568512,-22.255490720272064,0.0,0.0,0.0,0.0,0.0,0.0,0.0,0.0,True,0,3.2316176891326904,0.03472998046875
STABILIZE,3.233614444732666,29.794804401412204,0.03245237668355306,0.03275108337402344,0,0,0.0,2.6104056663382553,-0.8637280066366527,20.71395567703269,0,0,0.0,0.0,0.014413129874209693,0.003072400592696296,0.7336656310313441,0.09220134883533976,-0.6714846007525921,0.42863008566200733,1.2578313238918781,-1.7493389788786744,8.113568276166916,29.802241921424866,25.5398690700531,0.0,0.0,0.0,0.0,0.0,0.0,0.0,0.0,True,0,3.2612452507019043,0.03492626953125
STABILIZE,3.2670702934265137,29.88907495955932,0.03252557118733724,0.032653093338012695,0,0,0.0,2.6066904703165914,-0.8568850108619462,20.67962202362233,0,0,0.0,0.0,0.017456919108983553,0.00413809931448521,0.723723041415412,0.10872609891542956,0.19876202568411827,0.02205766359111294,0.9328218176960945,1.223983132757802,-4.3037064373493195,-15.74496179819107,6.831823289394379,0.0,0.0,0.0,0.0,0.0,0.0,0.0,0.0,True,0,3.2893614768981934,0.029935791015625
STABILIZE,3.300525426864624,29.892270193993472,0.032518895467122395,0.03263401985168457,0,0,0.0,2.6108107819334014,-0.8495106477141539,20.678296966923345,0,0,0.0,0.0,0.020358843667157584,0.004882816644556606,0.7112588757180264,0.1251744100781881,0.19876202568411827,0.02205766359111294,0.9328218176960945,1.223983132757802,-4.3037064373493195,-15.74496179819107,6.831823289394379,0.0,0.0,0.0,0.0,0.0,0.0,0.0,0.0,True,0,3.3179216384887695,0.029935791015625
STABILIZE,3.334019422531128,29.85503491376549,0.03249338467915853,0.03262662887573242,0,0,0.0,2.626919142760642,-0.8417264732161608,20.679114882076455,0,0,0.0,0.0,-0.0021434283682879446,0.0009874155766398116,0.7066437402340453,0.13585558850689708,-1.2689179740846157,-0.24376430083066225,1.349338609725237,0.9054916252035189,1.4894915744662285,8.719051629304886,39.164191484451294,0.0,0.0,0.0,0.0,0.0,0.0,0.0,0.0,True,0,3.346473217010498,0.034926025390625
STABILIZE,3.367572546005249,29.80454354885701,0.03246000607808431,0.032660484313964844,0,0,0.0,2.6371289949093417,-0.8416210321708487,20.65606299362766,0,0,0.0,0.0,-0.05826728797874618,0.009167323115284329,0.6982835614497603,0.13203959758564351,-2.6290545240044594,-1.1930912733078003,1.6395172104239464,0.8945954457649387,-44.39214766025543,-64.53502774238586,13.177686929702759,0.0,0.0,0.0,0.0,0.0,0.0,0.0,0.0,True,0,3.4039299488067627,0.02993603515625
STABILIZE,3.401020050048828,29.8978102189781,0.03238824208577474,0.03250837326049805,0,0,0.0,2.639184454962692,-0.8498200339392143,20.724260724942948,0,0,0.0,0.0,-0.10299056558547467,-0.011172500981040567,0.6994586194503374,0.14247341110714296,-2.6290545240044594,-1.1930912733078003,1.6395172104239464,0.8945954457649387,-44.39214766025543,-64.53502774238586,13.177686929702759,0.0,0.0,0.0,0.0,0.0,0.0,0.0,0.0,True,0,3.432906150817871,0.02993603515625
STABILIZE,3.434499502182007,29.868641623642514,0.032421143849690755,0.03256964683532715,0,0,0.0,2.646149967255636,-0.854005018909728,20.74244268851352,0,0,0.0,0.0,-0.13771354502414646,-0.05287518817659707,0.6936971007451319,0.14088380708665912,-2.0965727046132088,-2.4790165945887566,1.2105245143175125,0.19268402541620996,-10.362838953733444,-48.52911829948425,11.682365834712982,0.0,0.0,0.0,0.0,0.0,0.0,0.0,0.0,True,0,3.461240530014038,0.034926025390625
STABILIZE,3.467951536178589,29.89312237189081,0.03241399129231771,0.03262591361999512,0,0,0.0,2.6294838787939816,-0.8662258281604676,20.742205339439863,0,0,0.0,0.0,-0.10755111787616,-0.020508412340790226,0.6961909690921675,0.09751480972181417,1.8301542848348618,1.9224774092435837,1.5031998045742512,-2.318500670128247,3.596154972910881,18.4445783495903,17.280113697052002,0.0,0.0,0.0,0.0,0.0,0.0,0.0,0.0,True,0,3.4899725914001465,0.034926025390625
STABILIZE,3.5016162395477295,29.70386108042265,0.03249696095784505,0.03282928466796875,0,0,0.0,2.609509630896514,-0.8788565554831137,20.655907606824044,0,0,0.0,0.0,-0.10123732862830628,-0.015681145164999306,0.6948728504760977,0.0735856148901656,0.37113039288669825,0.2690435852855444,1.2717526406049728,-1.1452961518680815,-13.624735176563263,-32.14718699455261,29.738467931747437,0.0,0.0,0.0,0.0,0.0,0.0,0.0,0.0,True,0,3.5185718536376953,0.034925048828125
STABILIZE,3.5351102352142334,29.856522543813444,0.03248551686604818,0.03263974189758301,0,0,0.0,2.6212035550858106,-0.8749178842095435,20.66371622059266,0,0,0.0,0.0,-0.08164079141300574,-0.032258017813899705,0.7006075270455099,0.07310527910433355,1.1220226995646954,-0.9924194775521755,1.682025007903576,0.23504916753749996,-55.892765522003174,-76.43081545829773,68.14406514167786,0.0,0.0,0.0,0.0,0.0,0.0,0.0,0.0,True,0,3.547311544418335,0.02993701171875
STABILIZE,3.5700199604034424,28.64511722885066,0.032465251286824544,0.03412294387817383,0,0,0.0,2.6129119188768266,-0.8639653557103107,20.653820984032606,0,0,0.0,0.0,-0.0845289798179591,-0.05702624588037922,0.7056783061945017,0.07275710850285874,-0.27557765133678913,-1.5049870125949383,1.8238432705402374,0.21771593501257946,-50.33934712409973,22.502046823501587,34.98584032058716,0.0,0.0,0.0,0.0,0.0,0.0,0.0,0.0,True,1,3.575819492340088,0.034925048828125
STABILIZE,3.6034865379333496,29.88162206833661,0.0325351079305013,0.03265500068664551,0,0,0.0,2.6255063608195073,-0.8656349100755557,20.641642756742474,0,0,0.0,0.0,-0.12304378966487471,-0.04249644187968487,0.7200685624810942,0.07149775135814387,-1.3643327169120312,-1.2095427140593529,1.2693323194980621,-0.18545873915118108,-1.1617222800850868,-110.58328151702881,35.13096868991852,0.0,0.0,0.0,0.0,0.0,0.0,0.0,0.0,True,0,3.636326789855957,0.034925048828125
STABILIZE,3.6369380950927734,29.892483233912753,0.03250912030537923,0.03263545036315918,0,0,0.0,2.622415486776665,-0.8617264410447217,20.687384533614047,0,0,0.0,0.0,-0.11966452769836183,-0.05111419336668476,0.7286570187469327,0.07701070086436372,0.14106954913586378,-0.5366715602576733,1.804204285144806,0.5462821583556164,-8.85431319475174,70.13844847679138,44.79270577430725,0.0,0.0,0.0,0.0,0.0,0.0,0.0,0.0,True,0,3.664919853210449,0.034926025390625
STABILIZE,3.670459747314453,29.83316262660749,0.03249362309773763,0.032628536224365234,0,0,0.0,2.6142446595386253,-0.8629985637776365,20.67085718336991,0,0,0.0,0.0,-0.11588889259056026,-0.05971919665573874,0.737218232948954,0.08276307547567685,0.14106954913586378,-0.5366715602576733,1.804204285144806,0.5462821583556164,-8.85431319475174,70.13844847679138,44.79270577430725,0.0,0.0,0.0,0.0,0.0,0.0,0.0,0.0,True,0,3.6937265396118164,0.034926025390625
STABILIZE,3.7038841247558594,29.917856684308887,0.032439263661702473,0.03257012367248535,0,0,0.0,2.6268173302533264,-0.8715129281865863,20.64419724749206,0,0,0.0,0.0,-0.15405083845689702,-0.002228749225062804,0.7328562725577487,0.05146324771886516,-2.3595433682203293,3.370019420981407,1.0432702489197254,-1.6566015518142974,-51.843154430389404,55.46606183052063,10.258256644010544,0.0,0.0,0.0,0.0,0.0,0.0,0.0,0.0,True,0,3.722728729248047,0.029855224609375
STABILIZE,3.7391490936279297,28.35579412778788,0.03247216542561849,0.03448653221130371,0,0,0.0,2.617432010003494,-0.866899989175889,20.769329728181276,0,0,0.0,0.0,-0.1278085269849989,-0.03977759795352447,0.7260549043809871,0.05972982506356743,1.3766568154096603,-2.2964509204030037,1.1258446611464024,0.6840256762127644,78.55449914932251,-135.4953408241272,29.795700311660767,0.0,0.0,0.0,0.0,0.0,0.0,0.0,0.0,True,0,3.751173257827759,0.03492626953125
STABILIZE,3.7725982666015625,29.895892285651154,0.032544644673665364,0.03266191482543945,0,0,0.0,2.6308117102573143,-0.8534560424551882,20.692872590612154,0,0,0.0,0.0,-0.14848493311744215,0.015569745545861421,0.7288096701675083,0.012225560787010446,-3.0376650393009186,5.148715153336525,1.0988574475049973,-2.4723831245813415,-97.06476330757141,139.43079710006714,1.0117817670106888,0.0,0.0,0.0,0.0,0.0,0.0,0.0,0.0,True,0,3.8084189891815186,0.029935791015625
STABILIZE,3.8060781955718994,29.869492454832255,0.03254082997639974,0.032663583755493164,0,0,0.0,2.631009785743245,-0.8503209856261524,20.630079246477642,0,0,0.0,0.0,-0.15884079707852455,-0.021888380193038216,0.7200126435889151,0.06944843273002232,-0.8318978361785412,-2.29747761040926,0.999687984585762,3.583238474446457,55.46581745147705,-155.86477518081665,-0.09010173380374908,0.0,0.0,0.0,0.0,0.0,0.0,0.0,0.0,True,0,3.837209701538086,0.034926025390625
STABILIZE,3.840532064437866,29.027128778651313,0.03250315984090169,0.033551692962646484,0,0,0.0,2.620253945347767,-0.8595218907683942,20.774242341741807,0,0,0.0,0.0,-0.17053360385097582,-0.05940921150308276,0.7149171676662958,0.12696400611131203,-0.8318978361785412,-2.29747761040926,0.999687984585762,3.583238474446457,55.46581745147705,-155.86477518081665,-0.09010173380374908,0.0,0.0,0.0,0.0,0.0,0.0,0.0,0.0,True,0,3.865910530090332,0.034926025390625
STABILIZE,3.8740060329437256,29.87140700225052,0.0323977788289388,0.032540082931518555,0,0,0.0,2.618706053727113,-0.8533523089571687,20.739987235506902,0,0,0.0,0.0,-0.1334377126903377,-0.09698171913775026,0.7096568014584004,0.14178143209562816,2.0575670525431633,-2.2697119042277336,1.000119000673294,0.9979196660428354,70.82387208938599,-6.835327297449112,-0.2389274537563324,0.0,0.0,0.0,0.0,0.0,0.0,0.0,0.0,True,0,3.8946502208709717,0.034925048828125
STABILIZE,3.9073843955993652,29.95888630162426,0.03239897092183431,0.03253364562988281,0,0,0.0,2.629957296280828,-0.8635573586291082,20.644257011647294,0,0,0.0,0.0,-0.15750407616430687,-0.03172505947673526,0.7010585698016035,0.0626648134335744,-1.6141746193170547,3.8397345691919327,0.8103426545858383,-4.562165518841603,-74.55377578735352,113.89178037643433,-12.621375918388367,0.0,0.0,0.0,0.0,0.0,0.0,0.0,0.0,True,0,3.923290729522705,0.02993603515625
STABILIZE,3.9409945011138916,29.7542226793885,0.03248432477315267,0.032608985900878906,0,0,0.0,2.616095213916876,-0.874266241474042,20.74058146196469,0,0,0.0,0.0,-0.1698321612894717,-0.04672621138950402,0.6895832048113396,0.10779842490652214,-0.9942886419594288,-0.979198794811964,0.8254120126366615,2.882618586840882,37.46170103549957,-89.32702541351318,-11.491052806377411,0.0,0.0,0.0,0.0,0.0,0.0,0.0,0.0,True,0,3.9520347118377686,0.034926025390625
STABILIZE,3.9745967388153076,29.759711648301746,0.03231504758199056,0.032788991928100586,0,0,0.0,2.617321659759716,-0.865439929519093,20.664056022503868,0,0,0.0,0.0,-0.15007723070641757,-0.10477290683162821,0.6789131847029087,0.1772830357626607,1.7898505553603172,-2.5991883128881454,1.1632864363491535,1.535446268934436,-1.004568673670292,37.199002504348755,39.32565152645111,0.0,0.0,0.0,0.0,0.0,0.0,0.0,0.0,True,0,4.009344100952148,0.03492578125
STABILIZE,4.008170127868652,29.78697535686386,0.03251508076985677,0.03266000747680664,0,0,0.0,2.6243172675736903,-0.8648743044784513,20.63937684148532,0,0,0.0,0.0,-0.11596370222740245,-0.14792659795419885,0.6764178167123377,0.20088023471523977,1.7898505553603172,-2.5991883128881454,1.1632864363491535,1.535446268934436,-1.004568673670292,37.199002504348755,39.32565152645111,0.0,0.0,0.0,0.0,0.0,0.0,0.0,0.0,True,0,4.03798508644104,0.03492578125
STABILIZE,4.042910099029541,28.784298116185706,0.03239444096883138,0.033837318420410156,0,0,0.0,2.614334305771482,-0.866788678436759,20.71440646951791,0,0,0.0,0.0,-0.12469568361573552,-0.17386072358534346,0.676154321069584,0.2508902282314789,-0.766174029558897,-1.5727728605270386,1.2925856746733189,3.099951150805868,29.655006527900696,-109.82563495635986,39.9915874004364,0.0,0.0,0.0,0.0,0.0,0.0,0.0,0.0,True,0,4.066749334335327,0.06985107421875
STABILIZE,4.0764079093933105,29.853122464376717,0.032431634267171223,0.03255891799926758,0,0,0.0,2.6135400828370563,-0.8601703318527224,20.69022418476148,0,0,0.0,0.0,-0.11526587572268428,-0.2003801017047114,0.6966655328374971,0.2891489758011097,0.45923409052193165,-0.747469998896122,1.3343054801225662,1.2635960955097603,-23.369108140468597,56.31132125854492,32.74874687194824,0.0,0.0,0.0,0.0,0.0,0.0,0.0,0.0,True,0,4.095345973968506,0.02993603515625
STABILIZE,4.109824895858765,29.923406198276354,0.03235891660054525,0.03255605697631836,0,0,0.0,2.622345477337672,-0.8600827133322758,20.683897722042758,0,0,0.0,0.0,-0.15674439430784637,-0.1351594958480557,0.6915763211600623,0.203492338622167,-2.5571156293153763,3.270702064037323,1.3050960376858711,-4.226649124450828,-53.3826470375061,50.18003582954407,16.15869849920273,0.0,0.0,0.0,0.0,0.0,0.0,0.0,0.0,True,0,4.1241374015808105,0.02993701171875
STABILIZE,4.143428564071655,29.758233649766577,0.03249100049336751,0.03282284736633301,0,0,0.0,2.6353008520893053,-0.8608331803673309,20.745693858558447,0,0,0.0,0.0,-0.19726239358108483,-0.07153838705035823,0.6870527168731567,0.1199650826298223,-2.5571156293153763,3.270702064037323,1.3050960376858711,-4.226649124450828,-53.3826470375061,50.18003582954407,16.15869849920273,0.0,0.0,0.0,0.0,0.0,0.0,0.0,0.0,True,0,4.1528966426849365,0.02993701171875
STABILIZE,4.176972150802612,29.812593735117883,0.03254559834798177,0.032670021057128906,0,0,0.0,2.640524025813661,-0.8679831077678649,20.68200405209537,0,0,0.0,0.0,-0.18786350407084984,-0.057213831062156675,0.6911179706653781,0.11297020373800729,0.2033839700743556,0.5798323545604944,1.760726049542427,-0.029472292949031465,6.345324218273163,84.26763415336609,31.380954384803772,0.0,0.0,0.0,0.0,0.0,0.0,0.0,0.0,True,0,4.187896966934204,0.06985107421875
STABILIZE,4.210315227508545,29.99016130877474,0.0324275811513265,0.032532691955566406,0,0,0.0,2.6272260743864693,-0.8722064058307543,20.670575438066646,0,0,0.0,0.0,-0.2086881472086897,-0.04209411220915718,0.7004222949772853,0.13836001027234712,0.23986431770026684,-2.7185529470443726,1.0544199496507645,3.61557429752459,43.917348980903625,-95.2371597290039,-19.627416133880615,0.0,0.0,0.0,0.0,0.0,0.0,0.0,0.0,True,0,4.245600700378418,0.02993603515625
STABILIZE,4.243895769119263,29.781899257281623,0.03253343900044759,0.03266334533691406,0,0,0.0,2.606558775731657,-0.8815408198269287,20.705848242487885,0,0,0.0,0.0,-0.19635429020284234,-0.0906982959626143,0.6900106386512345,0.2006577095010672,0.23986431770026684,-2.7185529470443726,1.0544199496507645,3.61557429752459,43.917348980903625,-95.2371597290039,-19.627416133880615,0.0,0.0,0.0,0.0,0.0,0.0,0.0,0.0,True,0,4.274328231811523,0.02993603515625
STABILIZE,4.277286767959595,29.94498347219545,0.032392295201619466,0.03251385688781738,0,0,0.0,2.597010598158802,-0.895301409848683,20.6863019486306,0,0,0.0,0.0,-0.17496440507321706,-0.08029702381123942,0.6702441216856029,0.16284015602907456,0.7521313615143299,0.36850282922387123,0.5101497750729322,-1.6565205500396092,1.8899165093898773,59.37830209732056,-19.882073998451233,0.0,0.0,0.0,0.0,0.0,0.0,0.0,0.0,True,0,4.304029703140259,0.034926025390625
STABILIZE,4.310695171356201,29.933015993091782,0.03245118459065755,0.0325930118560791,0,0,0.0,2.596759161819981,-0.9151559159922638,20.713009695832643,0,0,0.0,0.0,-0.16629407872515625,-0.08610019606115929,0.664655548747413,0.1443721482939861,0.13954699970781803,-0.4735622089356184,1.0800618678331375,-0.6992628677557108,-10.31019389629364,-8.450379967689514,15.217842161655426,0.0,0.0,0.0,0.0,0.0,0.0,0.0,0.0,True,0,4.331714630126953,0.034926025390625
STABILIZE,4.344214677810669,29.834223647990214,0.03250625928243001,0.03264307975769043,0,0,0.0,2.575079501064126,-0.9346218484050943,21.011220877637278,0,0,0.0,0.0,-0.04487253709947159,-0.15043914496074062,0.6641725328974112,0.0771746956536291,6.239030510187149,-3.639235347509384,1.3416835106909275,-3.335809322234044,114.89453315734863,-104.01356220245361,28.756067156791687,0.0,0.0,0.0,0.0,0.0,0.0,0.0,0.0,True,0,4.360905885696411,0.064861083984375
STABILIZE,4.3778977394104,29.68788221970555,0.03244617780049642,0.032900094985961914,0,0,0.0,2.5900602403480795,-0.9440633042721676,21.08340060923868,0,0,0.0,0.0,0.09256265208026947,-0.22841164144851825,0.6807340550559356,0.002220758435599962,6.239030510187149,-3.639235347509384,1.3416835106909275,-3.335809322234044,114.89453315734863,-104.01356220245361,28.756067156791687,0.0,0.0,0.0,0.0,0.0,0.0,0.0,0.0,True,0,4.391588449478149,0.064861083984375
