Mode,Time,Freq,time2delay,actualDelay,North-Desired,East-Desired,Down-Desired,Roll-UAV,Pitch-UAV,Yaw-UAV,Roll-Control,Pitch-Control,Yaw-Control,Thrust-Control,North-Pos,East-Pos,Down-Pos,Yaw-Ang,North-Vel,East-Vel,Down-Vel,Yaw-Vel,North-Acc,East-Acc,Down-Acc,North-Raw,East-Raw,Down-Raw,Yaw-Raw,North-Dif,East-Dif,Down-Dif,Yaw-Dif,Landing-State,Q-Size,Kalman-Time,Kalman-Dt
STABILIZE,0.034856557846069336,28.701374062517107,0.03331497510274251,0.03387308120727539,0,0,0.0,2.6771142029710657,-0.7673441656899881,1.5958233269283504,0,0,0.0,0.0,0.029325124462809955,0.02930640736340244,0.033323035981382594,0.02919272432932385,-0.1563766272738576,-0.11291885748505592,1.725938729941845,0.004961251977941567,-5.855639278888702,-1.5384959056973457,25.971323251724243,0.0,0.0,0.0,0.0,0.0,0.0,0.0,0.0,False,0,0.05991625785827637,0.02993408203125
STABILIZE,0.07476806640625,25.05288559175238,0.03223708470662435,0.03905606269836426,0,0,0.0,2.67657675246075,-0.76779442456668,1.5992473861366425,0,0,0.0,0.0,0.049789178915033816,0.04985448201964403,0.06083934246462362,0.04992405192023379,-0.1563766272738576,-0.11291885748505592,1.725938729941845,0.004961251977941567,-5.855639278888702,-1.5384959056973457,25.971323251724243,0.0,0.0,0.0,0.0,0.0,0.0,0.0,0.0,False,0,0.08874869346618652,0.02993408203125
STABILIZE,0.10819220542907715,29.918710321706257,0.03251245816548665,0.03261899948120117,0,0,0.0,2.6759534976989867,-0.7673437921640178,1.6001926202847487,0,0,0.0,0.0,0.06736186115195904,0.06730807304934405,0.08804726429510973,0.06794715788671485,-0.005504919681698084,-0.055895326659083366,1.7687037587165833,0.11728321929091201,2.375473268330097,2.3676445707678795,26.37310028076172,0.0,0.0,0.0,0.0,0.0,0.0,0.0,0.0,False,0,0.11782431602478027,0.034923828125
STABILIZE,0.14159703254699707,29.93472504728259,0.03250912030537923,0.032627105712890625,0,0,0.0,2.6750775259379322,-0.7677243617668345,1.60054650946112,0,0,0.0,0.0,0.10185993787374012,0.10272683671949474,0.14944829125822706,0.10353979812166547,-0.003696852218126878,-0.047140821698121727,1.2870948761701584,-0.00893006546328838,-3.5086408257484436,0.3207830246537924,24.3537500500679,0.0,0.0,0.0,0.0,0.0,0.0,0.0,0.0,False,0,0.17478227615356445,0.029742919921875
STABILIZE,0.17515206336975098,29.80348463746696,0.03255894978841146,0.03268790245056152,0,0,0.0,2.675392781856811,-0.7674541424077959,1.602822029671792,0,0,0.0,0.0,0.11096467582609333,0.11171095915560104,0.1735537473250837,0.11504236130566224,-0.14498523669317365,-0.18491174560040236,1.4930680394172668,0.23473255091687287,0.6441131234169006,-3.538185730576515,23.67255836725235,0.0,0.0,0.0,0.0,0.0,0.0,0.0,0.0,False,0,0.20347952842712402,0.0349228515625
STABILIZE,0.20855140686035156,29.941776959209605,0.032431634267171223,0.03256416320800781,0,0,0.0,2.675737919853308,-0.7676485359948768,1.6030543628252782,0,0,0.0,0.0,0.12281199445529473,0.1226191500086819,0.2051536537521005,0.12825963885858924,0.05541109130717814,-0.0981153454631567,1.8211409449577332,0.17079805826286604,2.570423297584057,0.4616222810000181,27.607902884483337,0.0,0.0,0.0,0.0,0.0,0.0,0.0,0.0,False,0,0.2321491241455078,0.034924072265625
STABILIZE,0.24808788299560547,25.291116189603294,0.032485040028889973,0.03859210014343262,0,0,0.0,2.6758679068909497,-0.7670055377175435,1.6046247727258522,0,0,0.0,0.0,0.1316048217183036,0.13144123361005977,0.2341146146260707,0.13786044341820985,-0.10299491696059704,-0.09014554088935256,1.4710287563502789,-0.07650888425621351,-0.024088681675493717,-3.380688652396202,23.243652284145355,0.0,0.0,0.0,0.0,0.0,0.0,0.0,0.0,False,0,0.2609262466430664,0.029933837890625
STABILIZE,0.2814929485321045,29.93793004996431,0.03237775166829427,0.032525062561035156,0,0,0.0,2.677162868068902,-0.7690276472378376,1.605433082925441,0,0,0.0,0.0,0.1361925786081093,0.13518683357747394,0.25763770253731144,0.14458522847445202,-0.04621295665856451,-0.14469748130068183,1.5763094648718834,0.17011539953162177,-0.3218442900106311,-1.329225953668356,24.556763470172882,0.0,0.0,0.0,0.0,0.0,0.0,0.0,0.0,False,0,0.28952765464782715,0.034924072265625
STABILIZE,0.3149111270904541,29.92426015239291,0.03243878682454427,0.0325465202331543,0,0,0.0,2.67843541768864,-0.7693397015055425,1.6037444253748612,0,0,0.0,0.0,0.14697431307799552,0.1441534495543166,0.31462952677436157,0.1594183837660793,-0.029222379089333117,-0.09341836557723582,1.5340721234679222,0.051783379347249185,0.42222742922604084,-3.600398078560829,14.197371900081635,0.0,0.0,0.0,0.0,0.0,0.0,0.0,0.0,False,0,0.3472883701324463,0.0349228515625
STABILIZE,0.3484201431274414,29.844200939234383,0.03244593938191732,0.03256869316101074,0,0,0.0,2.6764941498604755,-0.7694035210855998,1.6043112243542663,0,0,0.0,0.0,0.14739441362275849,0.14596885802248066,0.34352269385514944,0.16569200294533903,-0.3178179496899247,-0.1653818995691836,1.6818394884467125,0.18367359183836154,-4.734888672828674,-3.2017309218645096,26.2625515460968,0.0,0.0,0.0,0.0,0.0,0.0,0.0,0.0,False,0,0.37574315071105957,0.029935302734375
STABILIZE,0.38181495666503906,29.943487014006884,0.03235772450764974,0.032521963119506836,0,0,0.0,2.676320833810286,-0.7700961449561214,1.605532227390112,0,0,0.0,0.0,0.1443329134980542,0.14454203642207525,0.3660241396971055,0.16856999464693984,-0.3178179496899247,-0.1653818995691836,1.6818394884467125,0.18367359183836154,-4.734888672828674,-3.2017309218645096,26.2625515460968,0.0,0.0,0.0,0.0,0.0,0.0,0.0,0.0,False,0,0.4049220085144043,0.029935302734375
STABILIZE,0.41533684730529785,29.829343574425717,0.03245261510213216,0.03262829780578613,0,0,0.0,2.67656714750723,-0.7714946261886815,1.6073128790510756,0,0,0.0,0.0,0.14115806050028243,0.14478443942172015,0.3878631036127953,0.16814181619370938,-0.2558456966653466,0.042754499008879066,1.6500962898135185,-0.06335654125634738,-3.23520228266716,0.580500764772296,16.143278777599335,0.0,0.0,0.0,0.0,0.0,0.0,0.0,0.0,False,0,0.438812255859375,0.0349228515625
STABILIZE,0.44886350631713867,29.826373876436456,0.032447131474812825,0.032576560974121094,0,0,0.0,2.677566703003579,-0.7709431417740559,1.6055150451954812,0,0,0.0,0.0,0.14207998351690748,0.14646037056642258,0.41302104883447033,0.17036965368958892,0.014705404464621097,0.056897662580013275,1.4581105671823025,0.04217571109352793,-2.192321792244911,4.419660195708275,21.5956449508667,0.0,0.0,0.0,0.0,0.0,0.0,0.0,0.0,False,0,0.46889352798461914,0.06984716796875
STABILIZE,0.48224973678588867,29.95268190614935,0.03237036069234212,0.032497406005859375,0,0,0.0,2.6772676687839794,-0.7702845087668256,1.6067580329027178,0,0,0.0,0.0,0.14815540546119862,0.15648956505323974,0.4811881373171932,0.1869917856968915,-0.3046342870220542,-0.08616918930783868,1.6619354486465454,0.16820356021382646,-5.535190925002098,-3.42039130628109,23.069769144058228,0.0,0.0,0.0,0.0,0.0,0.0,0.0,0.0,False,0,0.4962613582611084,0.029934814453125
STABILIZE,0.5156064033508301,29.978371965034913,0.03243211110432943,0.032544612884521484,0,0,0.0,2.6753552158163756,-0.7715280300825911,1.6160604303871577,0,0,0.0,0.0,0.14034795902071898,0.15187239290632776,0.4985333365603265,0.18576677987247542,-0.3046342870220542,-0.08616918930783868,1.6619354486465454,0.16820356021382646,-5.535190925002098,-3.42039130628109,23.069769144058228,0.0,0.0,0.0,0.0,0.0,0.0,0.0,0.0,False,0,0.5249569416046143,0.029934814453125
STABILIZE,0.5493619441986084,29.624556793942734,0.03251078923543294,0.03291916847229004,0,0,0.0,2.6752875542549104,-0.7693576841129667,1.6143000558502927,0,0,0.0,0.0,0.13854463797877295,0.14335850916244994,0.5350778535188975,0.17996587216605858,0.33492131624370813,0.02611226518638432,1.343059353530407,-0.13364404365339164,8.350333571434021,2.563992142677307,20.883673429489136,0.0,0.0,0.0,0.0,0.0,0.0,0.0,0.0,False,0,0.583228588104248,0.02993505859375
STABILIZE,0.5830657482147217,29.672970124017517,0.03249195416768392,0.03284454345703125,0,0,0.0,2.675862570805661,-0.7682051964122328,1.6116598675709655,0,0,0.0,0.0,0.13839987712316817,0.13988381647092515,0.5485029992513272,0.17319293562819685,0.24783012922853231,0.03282101533841342,1.5016336925327778,-0.1550699068526853,-3.944135084748268,0.5913891829550266,24.94141161441803,0.0,0.0,0.0,0.0,0.0,0.0,0.0,0.0,False,0,0.6165282726287842,0.0349228515625
STABILIZE,0.6166088581085205,29.810898597695758,0.0324282964070638,0.03267717361450195,0,0,0.0,2.6726071318925033,-0.7730085803068971,1.6261436038710948,0,0,0.0,0.0,0.1392550022429473,0.13727653686090494,0.567317060121084,0.1674586421451668,0.24783012922853231,0.03282101533841342,1.5016336925327778,-0.1550699068526853,-3.944135084748268,0.5913891829550266,24.94141161441803,0.0,0.0,0.0,0.0,0.0,0.0,0.0,0.0,False,0,0.6452927589416504,0.0349228515625
STABILIZE,0.6501529216766357,29.813017549595912,0.0324735959370931,0.032651424407958984,0,0,0.0,2.670316030312787,-0.7724751318605486,1.6365297602777455,0,0,0.0,0.0,0.12990525353885005,0.13201469893248086,0.5831886755296517,0.17603129166853876,-0.3983907401561737,-0.12264038668945432,1.3748306781053543,0.7888388243688711,-6.600957363843918,-7.302691042423248,23.944947123527527,0.0,0.0,0.0,0.0,0.0,0.0,0.0,0.0,False,0,0.6740880012512207,0.034924072265625
STABILIZE,0.6836490631103516,29.85206009836089,0.03243115743001302,0.032694101333618164,0,0,0.0,2.667765808431434,-0.7756700595665278,1.654794006283477,0,0,0.0,0.0,0.13433568617793784,0.12940275689757502,0.6026897866296668,0.17393983962546022,0.49711931496858597,0.06095117423683405,1.6669895499944687,0.10642838117310892,15.123575925827026,-2.9507679864764214,36.594945192337036,0.0,0.0,0.0,0.0,0.0,0.0,0.0,0.0,False,0,0.7026333808898926,0.06485791015625
STABILIZE,0.7176415920257568,29.417816337838502,0.032521994908650716,0.0332183837890625,0,0,0.0,2.665273856601437,-0.7753493608406545,1.6421961492462116,0,0,0.0,0.0,0.1407269080297309,0.1359916543791681,0.6565936491245966,0.16843776044122483,0.30749307479709387,0.37298176903277636,1.7411984503269196,-0.44729868337782136,-18.64173710346222,10.444538295269012,27.584707736968994,0.0,0.0,0.0,0.0,0.0,0.0,0.0,0.0,False,0,0.7317447662353516,0.034923095703125
STABILIZE,0.7511448860168457,29.848873453934726,0.032555611928304036,0.0326838493347168,0,0,0.0,2.6629409201130545,-0.7752419988046384,1.639093642537439,0,0,0.0,0.0,0.1417663213008695,0.13812368883481457,0.6728911429824331,0.15487991673596982,0.30749307479709387,0.37298176903277636,1.7411984503269196,-0.44729868337782136,-18.64173710346222,10.444538295269012,27.584707736968994,0.0,0.0,0.0,0.0,0.0,0.0,0.0,0.0,False,0,0.7600271701812744,0.034923095703125
STABILIZE,0.7845356464385986,29.947121529091728,0.032497676213582356,0.03261280059814453,0,0,0.0,2.6673991126503687,-0.7679862568328222,1.6234926366994837,0,0,0.0,0.0,0.1277146464180526,0.11538039035988043,0.692986860086429,0.1602829212851643,0.36443951539695263,-0.5521174985915422,1.5301894396543503,0.6004708515180877,15.301492810249329,-16.905274987220764,28.568318486213684,0.0,0.0,0.0,0.0,0.0,0.0,0.0,0.0,False,0,0.8179275989532471,0.02993408203125
STABILIZE,0.8180427551269531,29.84611224569668,0.03254893620808919,0.03267264366149902,0,0,0.0,2.670662875856577,-0.6922403660718799,1.5817078872348729,0,0,0.0,0.0,0.12909617053469863,0.10065399293184045,0.69795236141047,0.16465301529663443,0.36443951539695263,-0.5521174985915422,1.5301894396543503,0.6004708515180877,15.301492810249329,-16.905274987220764,28.568318486213684,0.0,0.0,0.0,0.0,0.0,0.0,0.0,0.0,False,0,0.8462789058685303,0.02993408203125
STABILIZE,0.8515176773071289,29.872470745760538,0.03247979482014974,0.03261232376098633,0,0,0.0,2.6916607983559,-0.7517217087891707,1.6471246643409045,0,0,0.0,0.0,0.05996964279599738,0.09918808351580018,0.6974883208769788,0.1648457997871229,-3.670399636030197,0.18290476873517036,1.2248077429831028,0.36155158140298216,-82.36526250839233,15.792156755924225,25.315266847610474,0.0,0.0,0.0,0.0,0.0,0.0,0.0,0.0,False,0,0.8748335838317871,0.06984814453125
STABILIZE,0.8849341869354248,29.92511415525114,0.0324590524037679,0.032590389251708984,0,0,0.0,2.6850478945788585,-0.7897993197209041,1.67151729757943,0,0,0.0,0.0,0.03449619493600675,0.05971099096313074,0.7057613703139634,0.20860791033700474,-0.8763020858168602,-1.871056854724884,-0.44374088756740093,2.2612651789874207,91.29011631011963,-81.46904706954956,-255.67224025726318,0.0,0.0,0.0,0.0,0.0,0.0,0.0,0.0,False,0,0.9035184383392334,0.029933837890625
STABILIZE,0.9184014797210693,29.881196301098555,0.0324888547261556,0.03261208534240723,0,0,0.0,2.688304187265662,-0.767661609403835,1.5919098419773448,0,0,0.0,0.0,0.014466315966429836,0.020180979730962112,0.6695767765004201,0.24353612528180096,-0.8763020858168602,-1.871056854724884,-0.44374088756740093,2.2612651789874207,91.29011631011963,-81.46904706954956,-255.67224025726318,0.0,0.0,0.0,0.0,0.0,0.0,0.0,0.0,False,0,0.932288646697998,0.029933837890625
STABILIZE,0.9517850875854492,29.952895808041134,0.0324738343556722,0.03258776664733887,0,0,0.0,2.6839057588835855,-0.7649213695253376,1.62923896022558,0,0,0.0,0.0,0.20547943669563778,0.02661893415803554,0.7279836830497517,-0.08459285483342238,10.46481505036354,0.5341744050383568,4.580596089363098,-17.265067023560384,162.46150732040405,128.3389687538147,189.73854780197144,0.0,0.0,0.0,0.0,0.0,0.0,0.0,0.0,False,0,0.9609944820404053,0.034924072265625
STABILIZE,0.9852592945098877,29.874811248183708,0.032526524861653645,0.03265047073364258,0,0,0.0,2.680349578203536,-0.7691660119293832,1.6958063040416416,0,0,0.0,0.0,0.19302766054769344,-0.004768661944710841,0.6585047098464422,-0.02455423097716289,2.298966608941555,0.4511595703661442,0.46228179708123207,-5.308230923863503,131.58273696899414,17.143143713474274,43.75195503234863,0.0,0.0,0.0,0.0,0.0,0.0,0.0,0.0,False,0,1.0184800624847412,0.0349228515625
STABILIZE,1.0187485218048096,29.860561144215914,0.03249719937642415,0.03269767761230469,0,0,0.0,2.690562632003409,-0.7555710006341488,1.5428171102659376,0,0,0.0,0.0,0.23350603514356394,0.001610572828695327,0.6409972692849628,-0.13476350332841708,2.298966608941555,0.4511595703661442,0.46228179708123207,-5.308230923863503,131.58273696899414,17.143143713474274,43.75195503234863,0.0,0.0,0.0,0.0,0.0,0.0,0.0,0.0,False,0,1.0469684600830078,0.0349228515625
STABILIZE,1.0522785186767578,29.82425302558414,0.03250840504964193,0.032651662826538086,0,0,0.0,2.68760195844162,-0.7661083283370389,1.5863131422827539,0,0,0.0,0.0,0.3334591031049232,0.005219333895978546,0.6751011772936713,-0.0775416680128839,5.3568195551633835,0.2993764355778694,3.061758168041706,3.1001940494082265,15.411028265953064,-8.22116881608963,66.95177555084229,0.0,0.0,0.0,0.0,0.0,0.0,0.0,0.0,False,0,1.0771100521087646,0.034924072265625
STABILIZE,1.085681676864624,29.93643429664471,0.032459290822347005,0.03258991241455078,0,0,0.0,2.678595073360489,-0.7579096467337906,1.6857171541421807,0,0,0.0,0.0,0.21471879306921698,-0.032091986590472445,0.699961047367552,-0.02689285544420693,-5.771652981638908,-1.807454600930214,2.596382796764374,2.752699424203954,-170.49400806427002,-35.924431681632996,67.63380169868469,0.0,0.0,0.0,0.0,0.0,0.0,0.0,0.0,False,0,1.1045544147491455,0.029933837890625
STABILIZE,1.1195993423461914,29.483368480247435,0.032514365514119466,0.0331265926361084,0,0,0.0,2.6912554693173423,-0.7707905830956413,1.5770146935014278,0,0,0.0,0.0,0.18652805709995032,0.0005102279649930597,0.7096150504666792,-0.11843638049509778,-1.0665402747690678,1.7420172691345215,2.032633125782013,-4.732440854189551,48.171839118003845,45.81596851348877,91.44198894500732,0.0,0.0,0.0,0.0,0.0,0.0,0.0,0.0,False,0,1.1330223083496094,0.034924072265625
STABILIZE,1.153104543685913,29.845262745935177,0.03253010114034017,0.032663822174072266,0,0,0.0,2.6900956178189097,-0.7630759911498177,1.566091940358108,0,0,0.0,0.0,0.25957365373989705,-0.01034497386513231,0.7335014191275306,-0.07656695753907951,4.176391661167145,-0.488842511549592,2.5618277490139008,2.327082589376956,122.5938081741333,-40.677642822265625,74.156254529953,0.0,0.0,0.0,0.0,0.0,0.0,0.0,0.0,False,0,1.1620368957519531,0.034609130859375
STABILIZE,1.189420461654663,27.537219165670916,0.032479317982991536,0.0355074405670166,0,0,0.0,2.6811149862774006,-0.7630226836577798,1.6744287724348537,0,0,0.0,0.0,0.23843271442946984,-0.024811162992205916,0.7176702042128932,-0.04762321405317569,-0.7882015779614449,-0.6973918527364731,0.4791515413671732,1.6194025273254096,-128.6033034324646,61.8369460105896,-26.92303955554962,0.0,0.0,0.0,0.0,0.0,0.0,0.0,0.0,False,1,1.1905770301818848,0.034924072265625
STABILIZE,1.2231051921844482,29.687251827891536,0.032512696584065755,0.03284454345703125,0,0,0.0,2.6864039005725178,-0.7676903175426902,1.6217340764316168,0,0,0.0,0.0,0.13116236775406842,-0.0016162705590745327,0.7233916049367713,-0.05900606621224329,-4.291730746626854,2.0677071064710617,2.4640724062919617,-2.129267504408693,-72.32843041419983,52.60010361671448,58.6081862449646,0.0,0.0,0.0,0.0,0.0,0.0,0.0,0.0,False,0,1.2502005100250244,0.02993408203125
STABILIZE,1.2565455436706543,29.90228635388224,0.032477649052937825,0.03261590003967285,0,0,0.0,2.6891946731787026,-0.761430715972638,1.5752562399552668,0,0,0.0,0.0,0.15887733882028368,-0.01951238677584393,0.7295232678237916,-0.07023629914203498,1.8854569643735886,-0.9573093615472317,1.8805352970957756,-0.6403757514962112,90.59515595436096,-56.23188614845276,1.813911460340023,0.0,0.0,0.0,0.0,0.0,0.0,0.0,0.0,False,0,1.2788431644439697,0.034924072265625
STABILIZE,1.2900383472442627,29.859073111696446,0.032503398259480794,0.032625675201416016,0,0,0.0,2.682260323623847,-0.7646705201558983,1.6493636857281995,0,0,0.0,0.0,0.19004757871366726,-0.03021136001836515,0.7279894894291482,-0.030243709321171687,2.065361477434635,-0.5530779249966145,1.2149769812822342,2.2410446173930096,-27.572181820869446,41.47968292236328,15.79592227935791,0.0,0.0,0.0,0.0,0.0,0.0,0.0,0.0,False,0,1.3075504302978516,0.039912841796875
STABILIZE,1.3239622116088867,29.477566625435735,0.03244641621907552,0.03308272361755371,0,0,0.0,2.682817197484615,-0.7634442343956166,1.64208259735126,0,0,0.0,0.0,0.14651521883779708,-0.0032189768060452706,0.7327304034179718,-0.0474737239934285,-2.1046679466962814,1.5407757833600044,1.3460032641887665,-0.9031606097058404,-81.8976640701294,10.8367919921875,23.720945417881012,0.0,0.0,0.0,0.0,0.0,0.0,0.0,0.0,False,0,1.3363394737243652,0.024945068359375
STABILIZE,1.3574039936065674,29.901007321437483,0.03248098691304525,0.03260970115661621,0,0,0.0,2.6845527058640326,-0.7625897136974245,1.61419386775304,0,0,0.0,0.0,0.10237856756154083,0.02399603859715975,0.7247279130837976,-0.06202061472124917,-2.1046679466962814,1.5407757833600044,1.3460032641887665,-0.9031606097058404,-81.8976640701294,10.8367919921875,23.720945417881012,0.0,0.0,0.0,0.0,0.0,0.0,0.0,0.0,False,0,1.364955186843872,0.024945068359375
STABILIZE,1.3908278942108154,29.919564007818185,0.032495768864949544,0.03261446952819824,0,0,0.0,2.6850370089648687,-0.7645004591177356,1.6128684908889404,0,0,0.0,0.0,0.11729724723422048,-0.00034026698885681987,0.7300552165284411,-0.05520816477162603,2.8044115751981735,-0.6085807923227549,1.6572706401348114,0.9443525200948353,67.11515188217163,24.640528857707977,33.44740271568298,0.0,0.0,0.0,0.0,0.0,0.0,0.0,0.0,False,0,1.4233860969543457,0.034924072265625
STABILIZE,1.4244191646575928,29.774499712498848,0.03250602086385091,0.03265953063964844,0,0,0.0,2.680748503939747,-0.761171915836118,1.6357136593936348,0,0,0.0,0.0,0.06658489088312487,-0.000363621584622047,0.7280375807172645,-0.05870069621429036,-2.6495447382330894,0.01749640650814399,1.1447770521044731,-0.21668617727349423,-78.25893759727478,-18.876737356185913,15.154032409191132,0.0,0.0,0.0,0.0,0.0,0.0,0.0,0.0,False,0,1.4522747993469238,0.0548798828125
STABILIZE,1.4577422142028809,30.00389149593682,0.03238538106282552,0.032512664794921875,0,0,0.0,2.6835785501336598,-0.7664201158004794,1.6235748124129354,0,0,0.0,0.0,0.008157606637712561,-0.009291941801265404,0.7554459941501309,-0.06480653440533782,-2.8038302436470985,-0.4594688769429922,1.9205499440431595,-0.20878074023730694,-40.681806206703186,-26.09787881374359,35.40249764919281,0.0,0.0,0.0,0.0,0.0,0.0,0.0,0.0,False,0,1.4821717739105225,0.014967041015625
STABILIZE,1.4912073612213135,29.882260741943988,0.032517464955647786,0.0326387882232666,0,0,0.0,2.684917694097805,-0.7639436386178209,1.6026343061913224,0,0,0.0,0.0,0.02841847609992523,-0.011910362830185877,0.7441571431010026,-0.0650554069507512,1.1673402041196823,-0.18907682970166206,1.6908321529626846,-0.22954246092130942,76.7316222190857,17.111630737781525,38.17148208618164,0.0,0.0,0.0,0.0,0.0,0.0,0.0,0.0,False,0,1.5102639198303223,0.02993505859375
STABILIZE,1.524611234664917,29.93664796653962,0.03249314626057943,0.032616376876831055,0,0,0.0,2.6794253682314686,-0.7628792496852096,1.6466935086495476,0,0,0.0,0.0,0.063624474296051,-0.006766644759414729,0.7450604368468732,-0.05620598693457739,2.327451668679714,0.31010336242616177,1.583387516438961,0.4468045885604797,23.4904482960701,-4.554777964949608,34.206175804138184,0.0,0.0,0.0,0.0,0.0,0.0,0.0,0.0,False,0,1.539564847946167,0.02993408203125
STABILIZE,1.5580849647521973,29.874385675009616,0.032535823186238606,0.03264188766479492,0,0,0.0,2.6798210923165064,-0.7638356896124229,1.643685770815509,0,0,0.0,0.0,0.027101178926288307,-0.016358208094536607,0.7442507324691262,-0.051024608943524175,-1.9640684127807617,-0.5725699942559004,1.4664792455732822,0.23181854142093683,-68.2962715625763,-16.67006015777588,29.4533371925354,0.0,0.0,0.0,0.0,0.0,0.0,0.0,0.0,True,0,1.5682339668273926,0.034923828125
STABILIZE,1.5917091369628906,29.739876482808988,0.03248575528462728,0.032823801040649414,0,0,0.0,2.6829638331083583,-0.7632525088511802,1.609812835009006,0,0,0.0,0.0,0.025409216412950297,-0.0045117355597760886,0.7521248146841393,-0.05984347655954303,1.6863683238625526,0.18495380645617843,1.3504980131983757,0.37512567524388335,60.30424237251282,-10.698498040437698,20.79671025276184,0.0,0.0,0.0,0.0,0.0,0.0,0.0,0.0,True,0,1.625725507736206,0.02993408203125
STABILIZE,1.6251821517944336,29.875662430907745,0.03253057797749837,0.03267383575439453,0,0,0.0,2.67939143072903,-0.7639661035368879,1.6344276628389682,0,0,0.0,0.0,0.050693635651010024,-0.0013910069865308429,0.7491933463261623,-0.05204917376184709,1.6863683238625526,0.18495380645617843,1.3504980131983757,0.37512567524388335,60.30424237251282,-10.698498040437698,20.79671025276184,0.0,0.0,0.0,0.0,0.0,0.0,0.0,0.0,True,0,1.6543467044830322,0.02993408203125
STABILIZE,1.658623218536377,29.901433653428008,0.032518895467122395,0.03263401985168457,0,0,0.0,2.677253581518816,-0.7628066789252782,1.6526222195708244,0,0,0.0,0.0,0.05808212587592129,-0.0209553770797946,0.7486824809846099,-0.038923874803147046,0.6137197837233543,-1.1888658627867699,1.4826707541942596,0.704204989867891,-23.255234956741333,-14.93605226278305,24.478307366371155,0.0,0.0,0.0,0.0,0.0,0.0,0.0,0.0,True,0,1.6902344226837158,0.03475244140625
STABILIZE,1.6920573711395264,29.91038943442512,0.03252080281575521,0.03264880180358887,0,0,0.0,2.6825932953458853,-0.7638675994024515,1.6009890843749957,0,0,0.0,0.0,0.028167657027990768,-0.014056646744730537,0.7477374855445899,-0.06471615853218612,-1.6471322625875473,0.42669433169066906,1.2052894569933414,-1.6362088481084607,-21.21320366859436,14.673115313053131,20.845918357372284,0.0,0.0,0.0,0.0,0.0,0.0,0.0,0.0,True,0,1.7117724418640137,0.0349228515625
STABILIZE,1.7255079746246338,29.89418766259221,0.03253224690755208,0.032654523849487305,0,0,0.0,2.6813773082302115,-0.7642180201233849,1.6160981031492987,0,0,0.0,0.0,0.03223967669227303,-0.01728761266164048,0.7540066490157648,-0.06123241368997281,0.41470425203442574,-0.19355859840288758,1.6479285433888435,0.14666327800572188,45.77597379684448,-24.254755675792694,25.456461310386658,0.0,0.0,0.0,0.0,0.0,0.0,0.0,0.0,True,0,1.7402822971343994,0.02993505859375
STABILIZE,1.7590413093566895,29.8244650970967,0.03252271016438802,0.03265643119812012,0,0,0.0,2.677730414100248,-0.7624277101480482,1.6433159801049764,0,0,0.0,0.0,0.050508566204882026,-0.0254236003280757,0.7493018469334121,-0.04219699128238985,1.2447400018572807,-0.5071455147117376,1.2414433993399143,1.053476531473425,-5.136211961507797,6.789422035217285,22.448240220546722,0.0,0.0,0.0,0.0,0.0,0.0,0.0,0.0,True,0,1.7690680027008057,0.034923095703125
STABILIZE,1.7924509048461914,29.92981204241533,0.03243616422017415,0.03258824348449707,0,0,0.0,2.679671255041589,-0.7620096278656494,1.6140588647952268,0,0,0.0,0.0,0.01097730410641924,-0.016402044854095396,0.757870642074595,-0.05402874945520156,-0.8067852817475796,-0.24588610976934433,1.6285013407468796,0.1413021397962172,15.604938566684723,-18.470366299152374,25.32431185245514,0.0,0.0,0.0,0.0,0.0,0.0,0.0,0.0,True,0,1.8264529705047607,0.029933837890625
STABILIZE,1.8261065483093262,29.714593384483504,0.03250840504964193,0.032654762268066406,0,0,0.0,2.6800460616722934,-0.7630731630246145,1.6114438628384637,0,0,0.0,0.0,0.023727324651967162,-0.023088326965759416,0.7566254003496551,-0.03990314289920978,0.8829839527606964,-0.4255926236510277,1.4635738916695118,0.7534366732402257,34.18802320957184,3.2105702906847,30.52963614463806,0.0,0.0,0.0,0.0,0.0,0.0,0.0,0.0,True,0,1.855154275894165,0.034924072265625
STABILIZE,1.8598833084106445,29.606155149290604,0.03231218655904134,0.03294253349304199,0,0,0.0,2.6788872773909187,-0.7617414362190207,1.6345116528214183,0,0,0.0,0.0,0.03637928583178987,-0.03002004522870775,0.7595670080733703,-0.025889652400113698,0.8829839527606964,-0.4255926236510277,1.4635738916695118,0.7534366732402257,34.18802320957184,3.2105702906847,30.52963614463806,0.0,0.0,0.0,0.0,0.0,0.0,0.0,0.0,True,0,1.8837246894836426,0.034924072265625
STABILIZE,1.89347505569458,29.767103843751773,0.03248551686604818,0.03275561332702637,0,0,0.0,2.680376898960216,-0.7611847224408117,1.6256833131540593,0,0,0.0,0.0,0.04156123578848566,-0.025986569484525907,0.7632519467877048,-0.0452074653504203,0.4144191276282072,0.2330457093194127,1.521787978708744,-1.2537850623755658,-21.531595289707184,10.67078486084938,20.153595507144928,0.0,0.0,0.0,0.0,0.0,0.0,0.0,0.0,True,0,1.9124948978424072,0.034923828125
STABILIZE,1.926959753036499,29.865451438336656,0.032500537236531575,0.03261518478393555,0,0,0.0,2.6810338777810068,-0.7601482412342623,1.6189197183284543,0,0,0.0,0.0,0.011632986919147301,-0.023882690207364915,0.7641772123425703,-0.04342578012340856,-1.6878670081496239,0.10854533175006509,1.3693966902792454,0.026759867415103375,-24.623417854309082,-10.839151591062546,19.033528864383698,0.0,0.0,0.0,0.0,0.0,0.0,0.0,0.0,True,0,1.9421472549438477,0.02993408203125
STABILIZE,1.9604003429412842,29.90228635388224,0.03244832356770833,0.03259015083312988,0,0,0.0,2.6808752893262153,-0.7627623894173788,1.6262843698010205,0,0,0.0,0.0,0.015536109129109205,-0.027113050122043285,0.7576281895331393,-0.03346005249804616,0.32525991555303335,-0.22899974137544632,1.1690950952470303,0.5069438972743395,27.734506130218506,2.8772300109267235,19.5933535695076,0.0,0.0,0.0,0.0,0.0,0.0,0.0,0.0,True,0,1.9708068370819092,0.034924072265625
STABILIZE,1.9940707683563232,29.700075059126764,0.03246477444966634,0.03280758857727051,0,0,0.0,2.6803775392904505,-0.7618352445984026,1.6284650144152528,0,0,0.0,0.0,0.023640789294679804,-0.02598155474529162,0.760900002550636,-0.03811304984289605,-0.629954319447279,-0.23841282818466425,1.2103408575057983,-0.15778019795249776,-28.608641028404236,-7.092274725437164,18.137019872665405,0.0,0.0,0.0,0.0,0.0,0.0,0.0,0.0,True,0,2.028169631958008,0.029933837890625
STABILIZE,2.0273852348327637,30.017419433331664,0.03246191342671712,0.032576560974121094,0,0,0.0,2.681983060632227,-0.7620951119519804,1.6225165599784066,0,0,0.0,0.0,0.010354669519717509,-0.022231445951626762,0.7580689541324384,-0.03522165630053495,-0.7192149292677641,0.18560165772214532,1.3992559164762497,0.0869821722655281,-4.087270423769951,8.841096609830856,23.620225489139557,0.0,0.0,0.0,0.0,0.0,0.0,0.0,0.0,True,0,2.056866407394409,0.034923095703125
STABILIZE,2.060912609100342,29.825949682135594,0.03259137471516927,0.03271651268005371,0,0,0.0,2.6827689592736013,-0.7625999056203266,1.6201615320969274,0,0,0.0,0.0,0.01756464453003837,-0.018001817618611374,0.7584440844560121,-0.028417937409442214,0.5206828471273184,0.22265121806412935,1.3502824120223522,0.3289319853091764,27.616459131240845,-1.11895389854908,16.291344165802002,0.0,0.0,0.0,0.0,0.0,0.0,0.0,0.0,True,0,2.085489273071289,0.034924072265625
STABILIZE,2.094526767730713,29.750423809962903,0.03250768979390462,0.03262186050415039,0,0,0.0,2.682541215153464,-0.7619267051002573,1.6261947235681642,0,0,0.0,0.0,0.02502219860931329,-0.013689380547691473,0.7586246004842089,-0.02154462537846649,0.5206828471273184,0.22265121806412935,1.3502824120223522,0.3289319853091764,27.616459131240845,-1.11895389854908,16.291344165802002,0.0,0.0,0.0,0.0,0.0,0.0,0.0,0.0,True,0,2.1186485290527344,0.034924072265625
STABILIZE,2.1278529167175293,30.005393997925385,0.032332690556844075,0.0324552059173584,0,0,0.0,2.680813390736862,-0.7616779368040807,1.6282080285477312,0,0,0.0,0.0,0.027428813300119564,-0.019893593210515564,0.7622434936687261,-0.017768712214682507,0.20941328257322311,-0.4051871132105589,1.5649594366550446,0.14295708662798337,-25.96774697303772,0.8479046635329723,25.005069375038147,0.0,0.0,0.0,0.0,0.0,0.0,0.0,0.0,True,0,2.14719557762146,0.034923828125
STABILIZE,2.1612632274627686,29.932161539175176,0.03244665463765462,0.03258633613586426,0,0,0.0,2.6814138070535884,-0.7621041299361189,1.6204421034614267,0,0,0.0,0.0,0.01355652404376835,-0.01776087935998192,0.7612913452034216,-0.0170865542206998,-0.7576524745672941,0.09398693218827248,1.301331166177988,-0.03780804524314279,-10.215148329734802,10.579723864793777,19.951030611991882,0.0,0.0,0.0,0.0,0.0,0.0,0.0,0.0,True,0,2.1759302616119385,0.02993408203125
STABILIZE,2.194739818572998,29.8711942626395,0.03249815305074056,0.032629966735839844,0,0,0.0,2.680164949652534,-0.7610296558023113,1.6321155370832132,0,0,0.0,0.0,0.01569630602869903,-0.01576687936578301,0.7593374082955984,-0.009572776225507274,0.18846543971449137,0.08065154543146491,1.4714510180056095,0.3823529758811089,21.469613909721375,-8.89391005039215,19.951361417770386,0.0,0.0,0.0,0.0,0.0,0.0,0.0,0.0,True,0,2.2044503688812256,0.034924072265625
STABILIZE,2.228350877761841,29.7542226793885,0.0324735959370931,0.0326075553894043,0,0,0.0,2.680110308139174,-0.7612292253921226,1.632079465146659,0,0,0.0,0.0,0.025184509387404165,-0.02068009475917797,0.7623172890850283,-0.007829001916552872,0.627894839271903,-0.32674395479261875,1.5285814180970192,0.03054888150663489,0.6113983690738678,0.8079495280981064,20.35316824913025,0.0,0.0,0.0,0.0,0.0,0.0,0.0,0.0,True,0,2.233271360397339,0.034923828125
STABILIZE,2.2616055011749268,30.06777303846016,0.03230861028035482,0.03243398666381836,0,0,0.0,2.681106448540938,-0.760751965923868,1.624364019427189,0,0,0.0,0.0,0.015025863334173372,-0.015572731022509877,0.7623484224647281,-0.016483848818969804,-0.5479116924107075,0.27145983185619116,1.3611909933388233,-0.5801850829614441,-20.78663855791092,8.688399195671082,20.197471976280212,0.0,0.0,0.0,0.0,0.0,0.0,0.0,0.0,True,0,2.266817808151245,0.02993408203125
STABILIZE,2.2950496673583984,29.90079416000114,0.03251078923543294,0.032623291015625,0,0,0.0,2.681351054690589,-0.761612356315878,1.6299595451830164,0,0,0.0,0.0,0.015335733852238631,-0.02064178707690202,0.7611737261972523,-0.0077218006766672275,0.6135250441730022,-0.3785996465012431,1.369717251509428,0.26460561055154014,22.198055684566498,-3.087238036096096,18.74295026063919,0.0,0.0,0.0,0.0,0.0,0.0,0.0,0.0,True,0,2.3241982460021973,0.0349228515625
STABILIZE,2.328509569168091,29.886732221747184,0.03250292142232259,0.032646894454956055,0,0,0.0,2.6810680287268567,-0.7604725151372792,1.632741139722504,0,0,0.0,0.0,0.024836968810187682,-0.02650680639484956,0.7613015518205636,-0.002343980785484228,0.6135250441730022,-0.3785996465012431,1.369717251509428,0.26460561055154014,22.198055684566498,-3.087238036096096,18.74295026063919,0.0,0.0,0.0,0.0,0.0,0.0,0.0,0.0,True,0,2.35298228263855,0.0349228515625
STABILIZE,2.3623287677764893,29.56983728603254,0.032479317982991536,0.03295016288757324,0,0,0.0,2.682180282344511,-0.7596630843597798,1.6268680308099392,0,0,0.0,0.0,0.032126296736082784,-0.023997715418321155,0.7600496881457887,-0.010535452119273923,0.47312634997069836,0.11997058754786849,1.2968288734555244,-0.5369451296776503,-2.353488467633724,6.804412603378296,23.14099371433258,0.0,0.0,0.0,0.0,0.0,0.0,0.0,0.0,True,0,2.3849408626556396,0.029935302734375
STABILIZE,2.400070905685425,26.494078112070543,0.03247264226277669,0.03692960739135742,0,0,0.0,2.6834276456416846,-0.7600565139281431,1.6290354419326547,0,0,0.0,0.0,0.022243081893488927,-0.023237188105105132,0.7569644746454272,-0.010558030843280462,-0.5373653955757618,0.0033080916182370856,1.4109954237937927,-0.04058889273069001,-9.502364695072174,-2.9839780181646347,19.307082891464233,0.0,0.0,0.0,0.0,0.0,0.0,0.0,0.0,True,0,2.410862445831299,0.034923828125
STABILIZE,2.434011220932007,29.464520797184424,0.03252080281575521,0.03302812576293945,0,0,0.0,2.68359498527635,-0.7592976158783312,1.6291127084476404,0,0,0.0,0.0,0.023750095113628553,-0.022617225284183685,0.7547732530065453,-0.009649706561788542,0.1347967190667987,0.0038197362300707027,1.2322803027927876,0.013755680823288336,11.793766170740128,-0.9430501610040665,19.827428460121155,0.0,0.0,0.0,0.0,0.0,0.0,0.0,0.0,True,0,2.4419710636138916,0.0349228515625
STABILIZE,2.467336654663086,30.006037973415747,0.03240660031636556,0.03251528739929199,0,0,0.0,2.6838750230323205,-0.7590694448713705,1.6280776146232663,0,0,0.0,0.0,0.027162650477652907,-0.022537842954641292,0.7518500115752822,-0.015779200372503126,-0.3377861110493541,-0.1201822655275464,1.551777496933937,-0.21916310802340236,-13.865309953689575,-2.9539890587329865,21.290969848632812,0.0,0.0,0.0,0.0,0.0,0.0,0.0,0.0,True,0,2.499131679534912,0.034923095703125
STABILIZE,2.5007522106170654,29.926181727373265,0.032511027654012044,0.03262591361999512,0,0,0.0,2.683852184587283,-0.7594408364074899,1.6289133523012407,0,0,0.0,0.0,0.019295260370042276,-0.022835214836560112,0.7513038805188953,-0.010752128401619935,-0.4255569539964199,-0.05308436811901629,1.327674463391304,0.26845498243779764,9.541414678096771,2.9561862349510193,21.68886810541153,0.0,0.0,0.0,0.0,0.0,0.0,0.0,0.0,True,0,2.5278778076171875,0.034924072265625
STABILIZE,2.534242868423462,29.859923397832926,0.0325351079305013,0.0326535701751709,0,0,0.0,2.684075873282601,-0.7595292553407299,1.6297869761847676,0,0,0.0,0.0,0.021983560812098783,-0.02101981542810367,0.7459861769444904,-0.016265937440549615,0.20837271586060524,0.07174676284193993,1.051570102572441,-0.361264259890592,10.752169042825699,0.9146534837782383,16.039562225341797,0.0,0.0,0.0,0.0,0.0,0.0,0.0,0.0,True,0,2.5567128658294678,0.029934814453125
STABILIZE,2.5676562786102295,29.926822307209317,0.03248289426167806,0.03260350227355957,0,0,0.0,2.68365368221453,-0.759010587850632,1.629229248550354,0,0,0.0,0.0,0.02461552788196472,-0.019091951314159483,0.737144053848661,-0.02172165054786895,0.20837271586060524,0.07174676284193993,1.051570102572441,-0.361264259890592,10.752169042825699,0.9146534837782383,16.039562225341797,0.0,0.0,0.0,0.0,0.0,0.0,0.0,0.0,True,0,2.5851762294769287,0.029934814453125
STABILIZE,2.6016767024993896,29.39369560037563,0.032514127095540364,0.03293800354003906,0,0,0.0,2.684500198784788,-0.7593560993730994,1.6298641359780477,0,0,0.0,0.0,0.0268931152132658,-0.0206855873102506,0.7321959773183875,-0.018902951146515353,0.18857968971133232,-0.1393764279782772,1.2644904665648937,0.13510004788536795,-10.024265944957733,0.980182271450758,19.640077650547028,0.0,0.0,0.0,0.0,0.0,0.0,0.0,0.0,True,0,2.6143734455108643,0.0349228515625
STABILIZE,2.6366045475006104,28.633188607629503,0.03224352200826009,0.03406834602355957,0,0,0.0,2.6849902648577366,-0.760132232978395,1.6299105599200627,0,0,0.0,0.0,0.01945256753769725,-0.018732372898527454,0.7343964639424356,-0.015275020330175595,-0.4068296868354082,0.0809566699899733,1.4772032387554646,0.19042219226430437,-1.7410458996891975,2.997916378080845,21.353107690811157,0.0,0.0,0.0,0.0,0.0,0.0,0.0,0.0,True,0,2.6467366218566895,0.034924072265625
STABILIZE,2.6702077388763428,29.75717802640634,0.03245142300923665,0.032759666442871094,0,0,0.0,2.6855123474424194,-0.758882201638577,1.6306840788435666,0,0,0.0,0.0,0.02160920896728124,-0.02034820295485331,0.7278035916764507,-0.01398534928034072,0.30945190228521824,-0.17817345215007663,1.2410875409841537,-0.04441642668790202,3.858792781829834,-1.1187352240085602,13.9044389128685,0.0,0.0,0.0,0.0,0.0,0.0,0.0,0.0,True,0,2.704132318496704,0.03459326171875
STABILIZE,2.703859567642212,29.715856518381546,0.03248623212178548,0.03292346000671387,0,0,0.0,2.684965718865407,-0.7587471453199105,1.6301238966099199,0,0,0.0,0.0,0.017842745088308888,-0.019256111078992767,0.7308156771115576,-0.017429454830760662,-0.18408119212836027,0.029526959406211972,1.5307217836380005,-0.2384499347335052,-8.68712067604065,4.8782143741846085,20.807762444019318,0.0,0.0,0.0,0.0,0.0,0.0,0.0,0.0,True,0,2.732719898223877,0.034923828125
STABILIZE,2.7374279499053955,29.789937214125402,0.03259924252827962,0.03278851509094238,0,0,0.0,2.6850523768905012,-0.757619363694065,1.6300424679484085,0,0,0.0,0.0,0.011577588346589028,-0.017669234841115686,0.7329109588576069,-0.01962949475684119,-0.3311875741928816,0.05836858181282878,1.462429203093052,-0.16004784743736844,-5.875283479690552,-2.9136253520846367,18.111659586429596,0.0,0.0,0.0,0.0,0.0,0.0,0.0,0.0,True,0,2.761488676071167,0.034923095703125
STABILIZE,2.7709147930145264,29.863537654237483,0.03254082997639974,0.032659292221069336,0,0,0.0,2.6856137330629117,-0.758043262309429,1.632726945735635,0,0,0.0,0.0,0.0052462130128408235,-0.016060973751388423,0.7349572932227822,-0.02185108930666498,-0.3311875741928816,0.05836858181282878,1.462429203093052,-0.16004784743736844,-5.875283479690552,-2.9136253520846367,18.111659586429596,0.0,0.0,0.0,0.0,0.0,0.0,0.0,0.0,True,0,2.790207624435425,0.034923095703125
STABILIZE,2.8043081760406494,29.946266269696775,0.03249028523763021,0.03260540962219238,0,0,0.0,2.684897203530295,-0.7569315956611565,1.6315272870409459,0,0,0.0,0.0,0.009067858294660898,-0.018509762404945236,0.7380830891497315,-0.02008510743708737,0.274185324087739,-0.18348331796005368,1.52969965711236,0.07753659427256904,7.9872675240039825,-1.0263118892908096,16.873878240585327,0.0,0.0,0.0,0.0,0.0,0.0,0.0,0.0,True,0,2.8187882900238037,0.034924072265625
STABILIZE,2.837900161743164,29.769216574162137,0.032529385884602864,0.03273177146911621,0,0,0.0,2.6852523733671356,-0.7563153311711215,1.6315636791426174,0,0,0.0,0.0,0.007118092687958065,-0.01793459361023947,0.7403294014512382,-0.020234177955248733,-0.0749827187974006,-0.0016556088667130098,1.4800786040723324,-0.03887490211520027,-9.221751987934113,2.9001181945204735,19.85860764980316,0.0,0.0,0.0,0.0,0.0,0.0,0.0,0.0,True,0,2.8475377559661865,0.034923095703125
STABILIZE,2.871656894683838,29.624138320714206,0.03240230878194173,0.032915592193603516,0,0,0.0,2.685206269590238,-0.7575322787821474,1.6333558567478053,0,0,0.0,0.0,-0.003976581068548021,-0.018462521284904703,0.7359684037158287,-0.014509575524650169,-0.2950041089206934,-0.05358464550226927,1.3272439129650593,0.13536148938410605,-10.088298469781876,-0.9220315143465996,23.505638539791107,0.0,0.0,0.0,0.0,0.0,0.0,0.0,0.0,True,0,2.905751943588257,0.029934814453125
STABILIZE,2.9051098823547363,29.8905659839512,0.032544883092244466,0.03273630142211914,0,0,0.0,2.6846722341745077,-0.7575412967662859,1.6327461556426757,0,0,0.0,0.0,-0.006366357606376762,-0.015966514483951942,0.7346316475902016,-0.013625241667940807,-0.11878988007083535,0.110568234231323,1.4668380841612816,0.016989748714862928,6.9797709584236145,-0.9763616137206554,18.028318881988525,0.0,0.0,0.0,0.0,0.0,0.0,0.0,0.0,True,0,2.9346137046813965,0.034924072265625
STABILIZE,2.9386956691741943,29.77471107703666,0.03261569341023763,0.03282761573791504,0,0,0.0,2.6858995337909946,-0.7588651795265048,1.634342392196049,0,0,0.0,0.0,-0.001327154168049489,-0.015346637820842092,0.7363966130367112,-0.014946231817490212,0.3377087879925966,0.001504423562437296,1.4287902042269707,-0.11283912735897413,4.043233767151833,1.0459600016474724,19.402284920215607,0.0,0.0,0.0,0.0,0.0,0.0,0.0,0.0,True,0,2.963529586791992,0.029933837890625
STABILIZE,2.972231149673462,29.820436254017007,0.03256848653157552,0.032706499099731445,0,0,0.0,2.685989180023851,-0.7596977155533059,1.6355408769519746,0,0,0.0,0.0,-0.004081310764394553,-0.015051201733841911,0.7358887465735642,-0.015106756068422628,-0.14755813172087073,-0.019798042194452137,1.508928369730711,-0.04463163100761031,8.572564274072647,2.9220351949334145,15.160056948661804,0.0,0.0,0.0,0.0,0.0,0.0,0.0,0.0,True,0,2.9922165870666504,0.069847900390625
STABILIZE,3.0056517124176025,29.920631183969295,0.0324895699818929,0.032647132873535156,0,0,0.0,2.685968689456341,-0.7603909797540622,1.6345598910324315,0,0,0.0,0.0,-0.008372287572839579,-0.015051434198212603,0.7636192330243277,-0.015722323654751222,-0.14755813172087073,-0.019798042194452137,1.508928369730711,-0.04463163100761031,8.572564274072647,2.9220351949334145,15.160056948661804,0.0,0.0,0.0,0.0,0.0,0.0,0.0,0.0,True,0,3.0210671424865723,0.069847900390625
STABILIZE,3.039120674133301,29.878003433513083,0.03254869778951009,0.032668113708496094,0,0,0.0,2.685729846278802,-0.7595606315222296,1.634719333260869,0,0,0.0,0.0,-0.007416101627281265,-0.011425698482171402,0.7846912289694206,-0.017797735413979443,0.12973896227777004,0.1602201140485704,1.2988006696105003,-0.11582928279198522,5.118553712964058,-0.795298907905817,22.012439370155334,0.0,0.0,0.0,0.0,0.0,0.0,0.0,0.0,True,0,3.049591302871704,0.02993408203125
STABILIZE,3.073056697845459,29.466797808065195,0.03252080281575521,0.033182382583618164,0,0,0.0,2.6866696376199135,-0.7586546709618509,1.6365927260841566,0,0,0.0,0.0,-0.0016442246210407363,-0.01732096528404321,0.7664653167908579,-0.015908317011517306,0.14448383590206504,-0.1851869048550725,1.2154261581599712,0.011838185255086592,-4.044680297374725,-1.197330467402935,8.478917926549911,0.0,0.0,0.0,0.0,0.0,0.0,0.0,0.0,True,0,3.1071839332580566,0.034924072265625
STABILIZE,3.107015609741211,29.44921186589433,0.03257730801900228,0.03314566612243652,0,0,0.0,2.6877648157646425,-0.7598019826598543,1.6352430166711385,0,0,0.0,0.0,-0.005622825242238692,-0.015983452460760533,0.7668158488352164,-0.014988517436874524,-0.20721026230603456,0.03611464926507324,1.5761461108922958,0.01396492206768609,-2.1729851141572,3.0525410547852516,20.9653839468956,0.0,0.0,0.0,0.0,0.0,0.0,0.0,0.0,True,0,3.135730266571045,0.039912841796875
STABILIZE,3.140439033508301,29.918283496918512,0.032500537236531575,0.03262495994567871,0,0,0.0,2.6868704878701943,-0.7599273273032947,1.6350223161835824,0,0,0.0,0.0,-0.006995097402633777,-0.01863032104862478,0.7696699572840942,-0.01522341226924929,-0.06806169403716922,-0.16508562257513404,1.5113367699086666,-0.04254218009096821,0.6244802847504616,-0.9051834233105183,18.92315000295639,0.0,0.0,0.0,0.0,0.0,0.0,0.0,0.0,True,0,3.1647167205810547,0.0249453125
STABILIZE,3.1739189624786377,29.869492454832255,0.03252986272176107,0.03266429901123047,0,0,0.0,2.687587871176457,-0.7598043838982345,1.6364492921115863,0,0,0.0,0.0,-0.0030322662968383252,-0.015649181251949248,0.7552454281158145,-0.006013367447473213,0.19716841634362936,0.11342961806803942,1.1647026054561138,0.45113522197895867,-1.828310452401638,-0.9813313372433186,17.89499521255493,0.0,0.0,0.0,0.0,0.0,0.0,0.0,0.0,True,0,3.1933658123016357,0.034924072265625
STABILIZE,3.207448720932007,29.822556562051165,0.03246930440266927,0.03266549110412598,0,0,0.0,2.688698203803407,-0.7591228057242613,1.6365689271437673,0,0,0.0,0.0,-0.00435990107526209,-0.014873964941383336,0.7486476703838076,-0.004115865721678243,-0.07424920331686735,0.00925212589208968,1.1504845693707466,0.06946501155079986,-6.459614634513855,2.9755376279354095,21.53930515050888,0.0,0.0,0.0,0.0,0.0,0.0,0.0,0.0,True,0,3.2220726013183594,0.0298408203125
STABILIZE,3.2409205436706543,29.87715211739146,0.03248480161031087,0.03262591361999512,0,0,0.0,2.688605569362789,-0.7581840282393547,1.6372535468863552,0,0,0.0,0.0,-0.005151753091647589,-0.0164749152204249,0.7400171497954458,-0.005519654268995874,-0.049367506289854646,-0.12227410916239023,1.2141985818743706,-0.10076466691739402,2.8658797964453697,-1.1772934347391129,9.744693338871002,0.0,0.0,0.0,0.0,0.0,0.0,0.0,0.0,True,0,3.2510738372802734,0.034923095703125
STABILIZE,3.27424955368042,30.003676865079083,0.0324738343556722,0.032578229904174805,0,0,0.0,2.6883660858550154,-0.7587173699639975,1.6395250116722075,0,0,0.0,0.0,-0.002361145345120886,-0.015447993992687738,0.7380245428238026,0.0005673749939817996,0.11741095222532749,0.05521021084859967,1.4653224498033524,0.08296533401257963,-0.8035013452172279,1.1888384819030762,24.222321808338165,0.0,0.0,0.0,0.0,0.0,0.0,0.0,0.0,True,0,3.308328628540039,0.02993408203125
STABILIZE,3.307832956314087,29.777459089134215,0.032581599553426106,0.03272080421447754,0,0,0.0,2.6869507425929418,-0.7583765541965845,1.640310483426759,0,0,0.0,0.0,-0.004091873294470979,-0.014260534209428641,0.7334927437749339,0.0011876853013750824,-0.10219820542261004,0.03130707482341677,1.3900726102292538,0.018076902721338717,0.6795568391680717,-0.7472432684153318,25.115308165550232,0.0,0.0,0.0,0.0,0.0,0.0,0.0,0.0,True,0,3.3370749950408936,0.034924072265625
STABILIZE,3.3412394523620605,29.935365992919948,0.03244808514912923,0.032570838928222656,0,0,0.0,2.6875259725871037,-0.7582082540665671,1.6406669339240691,0,0,0.0,0.0,-0.004283603695188088,-0.015665149110112683,0.7307028858413517,-0.001399893230726376,-0.015384385187644511,-0.10952987940981984,1.2714972719550133,-0.16729341082649582,5.117971450090408,-0.9324006736278534,19.289368391036987,0.0,0.0,0.0,0.0,0.0,0.0,0.0,0.0,True,0,3.3657071590423584,0.034923828125
STABILIZE,3.3747334480285645,29.853122464376717,0.03248480161031087,0.03265070915222168,0,0,0.0,2.6883660858550154,-0.757495353071947,1.6415823927162625,0,0,0.0,0.0,0.0007292818793466736,-0.01643793022881063,0.7284109024499865,-0.0031387761027828406,0.2763659693300724,-0.07360976305790246,1.295479666441679,-0.11683613538496708,7.146903872489929,-0.9870958514511585,19.07716989517212,0.0,0.0,0.0,0.0,0.0,0.0,0.0,0.0,True,0,3.3946239948272705,0.02993408203125
STABILIZE,3.4081332683563232,29.941776959209605,0.03242662747701009,0.03255772590637207,0,0,0.0,2.687965452571512,-0.7570609423685636,1.6424262412438764,0,0,0.0,0.0,0.005642200056979415,-0.017115937273571823,0.7228620505154563,-0.004927312612791932,0.2763659693300724,-0.07360976305790246,1.295479666441679,-0.11683613538496708,7.146903872489929,-0.9870958514511585,19.07716989517212,0.0,0.0,0.0,0.0,0.0,0.0,0.0,0.0,True,0,3.42311429977417,0.02993408203125
STABILIZE,3.4415555000305176,29.91999086914341,0.032479317982991536,0.03260087966918945,0,0,0.0,2.68729737469332,-0.7575022366219699,1.6419870814245856,0,0,0.0,0.0,0.002041048097336311,-0.018137514902596102,0.7167988707157809,-0.0055832538194064245,-0.20871581509709358,-0.09417342371307313,1.2389881536364555,-0.05337216539153745,-5.381356179714203,0.9855495765805244,19.376131892204285,0.0,0.0,0.0,0.0,0.0,0.0,0.0,0.0,True,0,3.45184326171875,0.034924072265625
STABILIZE,3.475022077560425,29.88162206833661,0.0325043519337972,0.0326235294342041,0,0,0.0,2.687135798030767,-0.7580528672629493,1.6414095035528964,0,0,0.0,0.0,0.0015279278150040513,-0.0180908448337223,0.7192903359387633,-0.0007675186238908687,-0.034269242314621806,-0.026165848248638213,1.5179104171693325,0.2636160335346816,6.812203675508499,0.9207966737449169,15.336650609970093,0.0,0.0,0.0,0.0,0.0,0.0,0.0,0.0,True,0,3.4869091510772705,0.034924072265625
STABILIZE,3.5084474086761475,29.916149555641148,0.03247502644856771,0.03261160850524902,0,0,0.0,2.686395362836055,-0.7580095916112549,1.6421828090329889,0,0,0.0,0.0,0.0066859933385533515,-0.015998398675059994,0.7187641559649702,-0.0031729337107961617,0.2949393121525645,0.09153131977654994,1.3405371457338333,-0.155090557502754,11.788508296012878,1.0731245391070843,20.242302119731903,0.0,0.0,0.0,0.0,0.0,0.0,0.0,0.0,True,0,3.516526699066162,0.029933837890625
STABILIZE,3.5419061183929443,29.887158146759965,0.03251150449117025,0.03265237808227539,0,0,0.0,2.6858340066636446,-0.7569441888224387,1.6444984566050347,0,0,0.0,0.0,0.010697216970739797,-0.01492999161492948,0.7166233676411934,-0.0017053331918161045,0.23738725576549768,0.02762002986855805,1.4413734897971153,0.07368724906673794,-2.0751576870679855,-0.7455849088728428,23.069384694099426,0.0,0.0,0.0,0.0,0.0,0.0,0.0,0.0,True,0,3.545053243637085,0.034923828125
STABILIZE,3.5753040313720703,29.94134947602867,0.03249052365620931,0.03259849548339844,0,0,0.0,2.685876481902546,-0.7575549037837731,1.6440993174254122,0,0,0.0,0.0,0.01257208010232,-0.016675551954006208,0.7140192864769699,-0.0022831993663281636,0.10511006694287062,-0.1327555743046105,1.1950177140533924,-0.0472377150318338,1.4032423496246338,1.047210581600666,17.351631820201874,0.0,0.0,0.0,0.0,0.0,0.0,0.0,0.0,True,1,3.5818350315093994,0.034923095703125
STABILIZE,3.609109401702881,29.58255926309924,0.03255203564961751,0.03298497200012207,0,0,0.0,2.686647012618288,-0.7577786458399439,1.6461963989440176,0,0,0.0,0.0,0.010932879908338314,-0.014639374734892236,0.7179503123522616,-0.009799993206927891,-0.061826559249311686,0.04371411632746458,1.4791613444685936,-0.2963532903091114,-1.6797026619315147,1.1784335598349571,20.086172223091125,0.0,0.0,0.0,0.0,0.0,0.0,0.0,0.0,True,0,3.640096426010132,0.034924072265625
STABILIZE,3.642693042755127,29.77661349292555,0.03249862988789876,0.032654523849487305,0,0,0.0,2.6869381494316595,-0.7573966354940992,1.6476272168534294,0,0,0.0,0.0,0.010310764535861125,-0.014517698037369246,0.7197344388937699,-0.012374395959602881,-0.03239487414248288,-0.02348093257751316,1.451538223773241,-0.15831566077104295,-0.8952140808105469,1.2199381366372108,22.84388244152069,0.0,0.0,0.0,0.0,0.0,0.0,0.0,0.0,True,0,3.6686034202575684,0.02993408203125
STABILIZE,3.676053524017334,29.975586747091278,0.03236440022786458,0.03249382972717285,0,0,0.0,2.687811132984952,-0.757943157349406,1.6477023489342997,0,0,0.0,0.0,0.01012929373228774,-0.01395707467364222,0.7170918232682231,-0.010673453259546693,0.001854696893133223,-0.000416698821936734,1.3939715921878815,0.08447784738776722,2.8601936995983124,-0.8213667199015617,18.979334831237793,0.0,0.0,0.0,0.0,0.0,0.0,0.0,0.0,True,0,3.697425365447998,0.034753173828125
STABILIZE,3.709526538848877,29.876513662136365,0.03247812589009603,0.03261685371398926,0,0,0.0,2.6879259655403724,-0.7578348881788907,1.6497213101642731,0,0,0.0,0.0,0.009175688785299334,-0.014359347137377262,0.7157136418166755,-0.011279249877375391,-0.04910944262519479,-0.0536344014108181,1.2528244405984879,-0.045862599182733214,-0.44902367517352104,-0.8072945289313793,20.10982632637024,0.0,0.0,0.0,0.0,0.0,0.0,0.0,0.0,True,0,3.7263236045837402,0.029934814453125
STABILIZE,3.742983341217041,29.935152341324503,0.03245571454366048,0.03257918357849121,0,0,0.0,2.686236134051029,-0.7579377145424111,1.6503142559615949,0,0,0.0,0.0,0.0054284095154790175,-0.014856453326408291,0.7133279770667951,-0.01188843524862847,-0.20983831491321325,-0.06225252873264253,1.390609610825777,-0.05311517952401572,-6.284407526254654,1.1115948669612408,19.110964238643646,0.0,0.0,0.0,0.0,0.0,0.0,0.0,0.0,True,0,3.7547998428344727,0.034923095703125
STABILIZE,3.777794599533081,28.68135505135464,0.03245046933492025,0.03392744064331055,0,0,0.0,2.68638789231665,-0.7587997591208608,1.6493886586073523,0,0,0.0,0.0,0.0017141656162068227,-0.015426550470006708,0.714681149824436,-0.012595614406306604,-0.20983831491321325,-0.06225252873264253,1.390609610825777,-0.05311517952401572,-6.284407526254654,1.1115948669612408,19.110964238643646,0.0,0.0,0.0,0.0,0.0,0.0,0.0,0.0,True,1,3.7835514545440674,0.034923095703125
STABILIZE,3.8125739097595215,28.75233244445663,0.032416375478108723,0.03397250175476074,0,0,0.0,2.684819296685075,-0.7593564728990697,1.6505049676498262,0,0,0.0,0.0,0.0030074958407076517,-0.014617485854767265,0.7070525853435227,-0.006379800428396273,-0.07895206799730659,0.013237667735666037,0.9040839970111847,0.33078446067813083,3.40316966176033,0.9428871795535088,12.755589187145233,0.0,0.0,0.0,0.0,0.0,0.0,0.0,0.0,True,0,3.8412652015686035,0.02993505859375
STABILIZE,3.846055269241333,29.868641623642514,0.03254535992940267,0.03265953063964844,0,0,0.0,2.6853876964900665,-0.7595211978519434,1.6508158479787676,0,0,0.0,0.0,0.0060803726103086635,-0.011074789960951192,0.7059554693244224,-0.0035664871602213185,0.19366659689694643,0.17927470616996288,1.4545564539730549,0.15026196060509878,4.346149787306786,1.0180269367992878,18.35787743330002,0.0,0.0,0.0,0.0,0.0,0.0,0.0,0.0,True,0,3.8702588081359863,0.034923095703125
STABILIZE,3.8796513080596924,29.766258835552275,0.03249696095784505,0.03275132179260254,0,0,0.0,2.6853981552172335,-0.7594791494998655,1.6512256593289685,0,0,0.0,0.0,0.005293989876212906,-0.013944610268506661,0.7078520811158772,-0.008013726604927239,-0.03823322185780853,-0.20066604483872652,1.415905449539423,-0.28296801384616405,3.789003938436508,-0.9687935933470726,21.609479188919067,0.0,0.0,0.0,0.0,0.0,0.0,0.0,0.0,True,0,3.8991620540618896,0.034923828125
STABILIZE,3.913100481033325,29.89631847179158,0.032475980122884114,0.03261590003967285,0,0,0.0,2.6854421245600153,-0.7578341411269502,1.6512019671102849,0,0,0.0,0.0,0.005055115171967764,-0.011729724771011293,0.7073864028358826,-0.005376970838403287,-0.004857496242038906,0.10404749773442745,1.2773632071912289,0.1417450882360631,-1.577976904809475,0.9769228287041187,19.65698003768921,0.0,0.0,0.0,0.0,0.0,0.0,0.0,0.0,True,0,3.9274394512176514,0.02993505859375
STABILIZE,3.9466068744659424,29.84313920808282,0.03248718579610189,0.03272867202758789,0,0,0.0,2.685926641104263,-0.757861568605336,1.6523130467891756,0,0,0.0,0.0,0.004792418871523673,-0.009496499734740406,0.7035404769425897,-0.002747321110722372,-0.004857496242038906,0.10404749773442745,1.2773632071912289,0.1417450882360631,-1.577976904809475,0.9769228287041187,19.65698003768921,0.0,0.0,0.0,0.0,0.0,0.0,0.0,0.0,True,0,3.9560952186584473,0.02993505859375
STABILIZE,3.9800848960876465,29.87013061003575,0.0325498898824056,0.032689571380615234,0,0,0.0,2.6863195904249504,-0.7579433707928176,1.6531779194928284,0,0,0.0,0.0,0.008333172081160418,-0.009953486584294426,0.7019221616145266,-0.0015149519745724822,0.1520699355751276,-0.03278477524872869,1.188381388783455,0.01776514193832466,-0.3739721141755581,0.868894811719656,16.352733969688416,0.0,0.0,0.0,0.0,0.0,0.0,0.0,0.0,True,0,4.013495683670044,0.034924072265625
STABILIZE,4.013529300689697,29.901220485913083,0.032534154256184895,0.03264474868774414,0,0,0.0,2.687373573991248,-0.7579094332903791,1.6539983959668763,0,0,0.0,0.0,0.007486570340366225,-0.009406522331793577,0.6987252709982839,-0.006013823470450119,-0.04318063729442656,0.006742986442986876,1.0867273434996605,-0.2847227854934755,3.4302987158298492,0.7879619486629963,12.747375667095184,0.0,0.0,0.0,0.0,0.0,0.0,0.0,0.0,True,0,4.042354345321655,0.02993505859375
STABILIZE,4.0470521450042725,29.831465149359886,0.03251818021138509,0.03264141082763672,0,0,0.0,2.6870243805699308,-0.7571327660765546,1.6552071260065568,0,0,0.0,0.0,0.008865970186908047,-0.009349735823098672,0.697213990774822,-0.0005560237339523521,0.0959433033131063,-0.022520576021634042,1.390827912837267,0.31784327991336647,3.230726718902588,1.012711226940155,18.70347112417221,0.0,0.0,0.0,0.0,0.0,0.0,0.0,0.0,True,0,4.071231365203857,0.034923095703125
STABILIZE,4.080376148223877,30.006037973415747,0.03243091901143392,0.03255939483642578,0,0,0.0,2.687196202516239,-0.7573162206887929,1.6558030600116405,0,0,0.0,0.0,0.008191480518814964,-0.008329360663920702,0.7006958638933668,-0.0018890950379087334,-0.03220720973331481,0.03693338658194989,1.4767543412745,-0.09432509920086121,-0.24045296013355255,-0.8274402469396591,24.12794381380081,0.0,0.0,0.0,0.0,0.0,0.0,0.0,0.0,True,0,4.099790096282959,0.034923828125
STABILIZE,4.113826513290405,29.896105377202485,0.032553704579671223,0.03267049789428711,0,0,0.0,2.6874393145620092,-0.7562061015052542,1.6561606844477141,0,0,0.0,0.0,0.007490104842265524,-0.007308891491155147,0.7041427904988117,-0.003268530971980781,-0.03220720973331481,0.03693338658194989,1.4767543412745,-0.09432509920086121,-0.24045296013355255,-0.8274402469396591,24.12794381380081,0.0,0.0,0.0,0.0,0.0,0.0,0.0,0.0,True,0,4.128544569015503,0.034923828125
STABILIZE,4.147347927093506,29.83252605000178,0.032558472951253255,0.0326840877532959,0,0,0.0,2.6878378134113974,-0.7557641135607603,1.656312122548218,0,0,0.0,0.0,0.005951396265211768,-0.0069247501713541465,0.7061127084149296,-0.006882076558000961,-0.08091760100796819,-0.000820538480184041,1.3913201168179512,-0.22553444721940777,-5.47226257622242,-0.7464873604476452,25.234463810920715,0.0,0.0,0.0,0.0,0.0,0.0,0.0,0.0,True,0,4.157387733459473,0.02993505859375
STABILIZE,4.180712938308716,29.97001786352269,0.03247860272725423,0.032590627670288086,0,0,0.0,2.6878049431260167,-0.7556509351917792,1.6566151054709315,0,0,0.0,0.0,0.006756868037877011,-0.007212432649610469,0.7045807294173778,-0.009137029861301346,0.062060519121587276,-0.03935661807190627,1.3896147720515728,-0.14663674432162196,3.1038500368595123,0.9860314428806305,19.851291179656982,0.0,0.0,0.0,0.0,0.0,0.0,0.0,0.0,True,1,4.186386823654175,0.039912841796875
STABILIZE,4.214747428894043,29.383193807138603,0.03255823453267415,0.0332179069519043,0,0,0.0,2.6873697320098398,-0.7555769770496726,1.657530991149948,0,0,0.0,0.0,0.008563840170395059,-0.007664972374802234,0.704295311766085,-0.006071079549802053,0.03174790181219578,-0.045895823859609663,1.3127158395946026,0.08574199267317494,-0.4732509609311819,-0.8712721988558769,22.532299160957336,0.0,0.0,0.0,0.0,0.0,0.0,0.0,0.0,True,0,4.2434258460998535,0.029934814453125
STABILIZE,4.248138904571533,29.9460524624809,0.03249362309773763,0.03261566162109375,0,0,0.0,2.687479868810206,-0.755438078749598,1.6574601279373091,0,0,0.0,0.0,0.008853832972787837,-0.0064022302186144955,0.7037690471327154,-0.006539647163126164,0.03215246833860874,0.056110124569386244,1.4448247849941254,-0.04047347654094068,0.5969773046672344,1.1302748695015907,23.319269716739655,0.0,0.0,0.0,0.0,0.0,0.0,0.0,0.0,True,0,4.272115468978882,0.034924072265625
STABILIZE,4.282341718673706,29.239398523496483,0.032550843556722005,0.03333115577697754,0,0,0.0,2.689059350055772,-0.7561299555681792,1.6585913780185924,0,0,0.0,0.0,0.0073653308747226,-0.006858249372658619,0.7035195949184311,-0.009161708360793195,-0.07843447383493185,-0.04689282504841685,1.2422548606991768,-0.16739166149688087,-0.8001668378710747,0.8110873401165009,13.073059916496277,0.0,0.0,0.0,0.0,0.0,0.0,0.0,0.0,True,0,4.300847291946411,0.0349228515625
STABILIZE,4.315739631652832,29.941776959209605,0.03244522412618001,0.03256583213806152,0,0,0.0,2.6883009856144886,-0.7572065107752496,1.659276211204592,0,0,0.0,0.0,0.005720367806390672,-0.005120864281970605,0.701071435245219,-0.00973995702469871,-0.08578933775424957,0.08558254921808839,1.119046937674284,-0.04322546581223394,-0.63975490629673,0.8835161104798317,15.10598212480545,0.0,0.0,0.0,0.0,0.0,0.0,0.0,0.0,True,0,4.3296544551849365,0.029935302734375
STABILIZE,4.3494651317596436,29.6519925627956,0.032491477330525716,0.03285360336303711,0,0,0.0,2.6887771778656857,-0.7567407772512192,1.6594615868075344,0,0,0.0,0.0,0.00425342308725981,-0.004598208259064553,0.697652934513583,-0.006114320021274683,-0.07412707200273871,0.013951220898889005,1.266684290021658,0.20446363379503577,0.4606913775205612,1.0519773699343204,19.68633681535721,0.0,0.0,0.0,0.0,0.0,0.0,0.0,0.0,True,0,4.358474493026733,0.034923828125
STABILIZE,4.382899045944214,29.909109708703248,0.03244832356770833,0.03258943557739258,0,0,0.0,2.6888764290520624,-0.757450903481489,1.6610061700553094,0,0,0.0,0.0,0.0017461322241290069,-0.004739080481591349,0.6961655313003715,-0.0007870350178485184,-0.06101760664023459,-0.021608620590995997,1.2172682210803032,0.14680795261812185,2.0522158592939377,1.0215261951088905,17.45767891407013,0.0,0.0,0.0,0.0,0.0,0.0,0.0,0.0,True,0,4.41576361656189,0.034923095703125
