Mode,Time,Freq,time2delay,actualDelay,North-Desired,East-Desired,Down-Desired,Roll-UAV,Pitch-UAV,Yaw-UAV,Roll-Control,Pitch-Control,Yaw-Control,Thrust-Control,North-Pos,East-Pos,Down-Pos,Yaw-Ang,North-Vel,East-Vel,Down-Vel,Yaw-Vel,North-Acc,East-Acc,Down-Acc,North-Raw,East-Raw,Down-Raw,Yaw-Raw,North-Dif,East-Dif,Down-Dif,Yaw-Dif,Landing-State,Q-Size,Kalman-Time,Kalman-Dt
STABILIZE,0.03442859649658203,29.054072401324447,0.03329923947652181,0.033429622650146484,0.0,0.0,0.0,0.721286759373564,0.02400149818683637,64.95507168606458,-0.01797209966367884,0.01800314006659529,0.025313432028039432,0.4,0.05033021976328909,0.05159589191897759,0.0634967121999066,0.050626864056078864,0.05795870674774051,0.16264078440144658,2.01761182397604,-0.02875368234315208,7.754063606262207,-0.2958842320367694,21.52779847383499,0.0,0.0,0.0,0.0,0.0,0.0,0.0,0.0,False,0,0.08731961250305176,0.03492626953125
STABILIZE,0.06760239601135254,30.143404362355817,0.0322604497273763,0.032382965087890625,0.0,0.0,0.0,0.7214932658742511,0.02471205130392926,64.95828870516365,-0.010311911022162768,0.011051593696981455,0.035846693076252635,0.4,0.07267092700601913,0.07364242296403081,0.09811889527530852,0.07169338615250527,0.2497146837413311,-0.01969257282325998,2.191207930445671,-0.1830170532446073,3.3943481743335724,-0.6613393314182758,25.17169713973999,0.0,0.0,0.0,0.0,0.0,0.0,0.0,0.0,False,0,0.11597990989685059,0.039915771484375
STABILIZE,0.10108518600463867,29.86672743067918,0.0325496514638265,0.03268790245056152,0.0,0.0,0.0,0.7207362888151433,0.025022611467753277,64.96009870529372,-0.011750804628071213,0.012204580936623651,0.04716428135261815,0.4,0.09458387590072836,0.0967135753363949,0.1371986961409448,0.0943285627052363,-0.09288290166296065,0.11523936409503222,1.8293766304850578,0.16899675595183386,-3.9917677640914917,1.570730283856392,28.34143340587616,0.0,0.0,0.0,0.0,0.0,0.0,0.0,0.0,False,0,0.14493203163146973,0.024947021484375
STABILIZE,0.13459348678588867,29.8437762377083,0.03253177007039388,0.03264331817626953,0.0,0.0,0.0,0.7207404509616688,0.02501546111346592,64.9615125544519,-0.007952529288854922,0.008402643621359694,0.05163191514662607,0.4,0.10222121415579333,0.1056005301471933,0.1588794631536372,0.10326383029325215,-0.09288290166296065,0.11523936409503222,1.8293766304850578,0.16899675595183386,-3.9917677640914917,1.570730283856392,28.34143340587616,0.0,0.0,0.0,0.0,0.0,0.0,0.0,0.0,False,0,0.17634844779968262,0.024947021484375
STABILIZE,0.16797518730163574,29.95567681067299,0.032439263661702473,0.03256940841674805,0.0,0.0,0.0,0.7214130111515035,0.026400068524274442,64.96440172447082,-0.007751098634525053,0.009068676948748912,0.055047155746787584,0.4,0.11043747545799867,0.11262941817827872,0.18123371138254105,0.11009431149357517,0.25533102452754974,-0.01052514708135277,1.9356608390808105,-0.017887223232105374,1.397312618792057,-0.6147233303636312,29.2970210313797,0.0,0.0,0.0,0.0,0.0,0.0,0.0,0.0,False,0,0.20509648323059082,0.03492578125
STABILIZE,0.20145249366760254,29.87140700225052,0.0325200875600179,0.03265881538391113,0.0,0.0,0.0,0.7202554008088922,0.026474987161733018,64.96702451711211,-0.009861906387710154,0.010320373481298871,0.060690613888879585,0.4,0.12078984328474382,0.12469332759301227,0.21745519847387543,0.12138122777775917,-0.30302403029054403,-0.07482804358005524,2.195785380899906,-0.15064920031452678,-4.950599372386932,-0.6958098616451025,28.2272607088089,0.0,0.0,0.0,0.0,0.0,0.0,0.0,0.0,False,0,0.23387813568115234,0.03492626953125
STABILIZE,0.23500442504882812,29.804755340164576,0.03249839146931966,0.03269195556640625,0.0,0.0,0.0,0.7191496572152906,0.02727486634656498,64.96984538523932,-0.009971242925451903,0.010022449601674753,0.06566365380192947,0.4,0.12859696810882998,0.13535300537434183,0.25247378357776695,0.13132730760385894,-0.295615429058671,0.03672308521345258,1.9837308675050735,-0.01830652280896077,-2.251150459051132,-0.4411435220390558,28.131547570228577,0.0,0.0,0.0,0.0,0.0,0.0,0.0,0.0,False,1,0.26250386238098145,0.029936767578125
STABILIZE,0.268435001373291,29.91316254920979,0.03245976765950521,0.032604217529296875,0.0,0.0,0.0,0.7193756937881356,0.02647370650126364,64.97211300804376,-0.010950979176207904,0.010262714905918102,0.07121593494767181,0.4,0.13576990875259026,0.1472711726480653,0.30904839320668065,0.14243186989534362,0.04745066398754716,0.17218290595337749,1.9348477944731712,0.17631102143905802,2.1830013021826744,1.408754475414753,20.69152593612671,0.0,0.0,0.0,0.0,0.0,0.0,0.0,0.0,False,0,0.31993842124938965,0.069852294921875
STABILIZE,0.3019556999206543,29.83252605000178,0.03249839146931966,0.03261089324951172,0.0,0.0,0.0,0.7186773069455018,0.026085879822453854,64.97410059309223,-0.016282865242419235,0.015693673132290992,0.08296871854373324,0.4,0.15691996236281988,0.17269163804472304,0.3887517257484117,0.16593743708746647,-0.07362668984569609,0.07448639953508973,1.8768180161714554,-0.016725604155420577,0.14219949953258038,1.3602430932223797,23.744453489780426,0.0,0.0,0.0,0.0,0.0,0.0,0.0,0.0,False,0,0.34856653213500977,0.03492578125
STABILIZE,0.335324764251709,29.967020090880514,0.0324127991994222,0.03253436088562012,0.0,0.0,0.0,0.7194802810598014,0.026732613359489437,64.97799380091915,-0.009355526241649524,0.009673275088167399,0.08639697020286168,0.4,0.15771720275896986,0.1746733943201844,0.4206987574447263,0.17279394040572335,-0.09737064247019589,-0.042351477895863354,1.9662844017148018,0.3926968171314172,-2.4383559823036194,-0.7363184820860624,23.51003587245941,0.0,0.0,0.0,0.0,0.0,0.0,0.0,0.0,False,0,0.37726807594299316,0.02993701171875
STABILIZE,0.36870479583740234,29.957174487536605,0.03248718579610189,0.032610416412353516,0.0,0.0,0.0,0.7189627875084672,0.027151602776387406,64.98052780110122,-0.008810270124114854,0.009512602493138428,0.08583610373524597,0.4,0.15792860256857444,0.17481103748921553,0.44485036290029206,0.17167220747049194,0.11115445522591472,0.09293773327954113,1.9116425886750221,-0.026400935638133914,2.1983686834573746,1.3031942769885063,21.358373761177063,0.0,0.0,0.0,0.0,0.0,0.0,0.0,0.0,False,0,0.4061307907104492,0.03492626953125
STABILIZE,0.40215158462524414,29.898449584773854,0.032540114720662434,0.03265547752380371,0.0,0.0,0.0,0.7199518842776497,0.02801498137615933,64.98545919768196,-0.008962678339564874,0.009134611065382032,0.08526732371426997,0.4,0.1570530377951186,0.17536922799146532,0.4764048047083575,0.17053464742853994,-0.08777010953053832,0.0009259634680347517,1.979907974600792,-0.1402486764982353,5.800726264715195,-0.6585548166185617,25.882312655448914,0.0,0.0,0.0,0.0,0.0,0.0,0.0,0.0,False,0,0.4351484775543213,0.03492578125
STABILIZE,0.439054012298584,27.09883833619765,0.032540114720662434,0.033057451248168945,0.0,0.0,0.0,0.7206202823209589,0.02807890767792242,64.9876175374597,-0.0086683218510238,0.00876452503553805,0.08415094187218432,0.4,0.15527141969707836,0.17500468627289245,0.5073228517334754,0.16830188374436864,-0.08777010953053832,0.0009259634680347517,1.979907974600792,-0.1402486764982353,5.800726264715195,-0.6585548166185617,25.882312655448914,0.0,0.0,0.0,0.0,0.0,0.0,0.0,0.0,False,1,0.46395254135131836,0.03492578125
STABILIZE,0.46970534324645996,32.62805622758637,0.02947095235188802,0.029732227325439453,0.0,0.0,0.0,0.7212093861368725,0.028672707248890403,64.98928410361718,-0.007740410576610083,0.007690074558456071,0.08141668815362267,0.4,0.1507865417030148,0.17203744968593251,0.5597354109813422,0.16283337630724534,-0.02118355769198388,0.08959671249613166,2.1523240953683853,-0.032012936557291094,-2.227691374719143,1.4907538890838623,27.788737416267395,0.0,0.0,0.0,0.0,0.0,0.0,0.0,0.0,False,0,0.5210647583007812,0.034926025390625
STABILIZE,0.503277063369751,29.78697535686386,0.03238848050435384,0.03254199028015137,0.0,0.0,0.0,0.7211932711592995,0.027485961880600686,64.99235085855452,-0.00854181294113515,0.007623329803774353,0.08109341052928762,0.4,0.14688575877932966,0.17180331476069133,0.586102545248576,0.16218682105857524,-0.12140151811763644,0.1296225585974753,1.8050869926810265,0.1062046858076844,3.19385826587677,1.53888538479805,26.798105239868164,0.0,0.0,0.0,0.0,0.0,0.0,0.0,0.0,False,0,0.5499744415283203,0.02993701171875
STABILIZE,0.5394587516784668,27.6390186684942,0.03224662144978841,0.035233259201049805,0.0,0.0,0.0,0.7211118424977883,0.02804454328866079,64.99423599076543,-0.007237753680484701,0.006991575569389989,0.07891095129111234,0.4,0.14151320328362335,0.16758718250021618,0.6046232555994552,0.15782190258222467,-0.11576291872188449,-0.019054826407227665,1.8179243430495262,-0.03526828208895586,-0.3362948074936867,1.1967090889811516,20.225968956947327,0.0,0.0,0.0,0.0,0.0,0.0,0.0,0.0,False,0,0.5787498950958252,0.03492578125
STABILIZE,0.573063850402832,29.755911377228518,0.03241422971089681,0.032562255859375,0.0,0.0,0.0,0.7215884616358081,0.028402061003028646,64.99733689664862,-0.007765600334811151,0.00817625772900671,0.07824759514282899,0.4,0.14069589876043165,0.1657641186887475,0.6268599055839853,0.15649519028565798,0.1339206355623901,0.0657239812426269,1.6433853656053543,0.09949267091650477,0.2391686663031578,1.2831746600568295,23.35849553346634,0.0,0.0,0.0,0.0,0.0,0.0,0.0,0.0,False,0,0.6073191165924072,0.034926025390625
STABILIZE,0.6064531803131104,29.94840450978572,0.03225234349568685,0.03246283531188965,0.0,0.0,0.0,0.7216315772049439,0.028539838725192498,64.99926984018373,-0.007277686601597842,0.008086455404105035,0.0770191958062775,0.4,0.1397584183586032,0.1627990877603643,0.6521032905032965,0.154038391612555,0.13781484449282289,0.01357543224003166,1.9229721277952194,0.04360444792967709,2.4235924705863,-0.7222142070531845,24.263174831867218,0.0,0.0,0.0,0.0,0.0,0.0,0.0,0.0,False,0,0.6359820365905762,0.03492626953125
STABILIZE,0.639847993850708,29.944769683296684,0.03243592580159505,0.03255915641784668,0.0,0.0,0.0,0.7213193094938274,0.028199503205455455,65.00125059504303,-0.006329717878664974,0.0015586189771873054,0.07551539450228562,0.4,0.1207939720593543,0.15760187564025885,0.6932073527881899,0.15103078900457123,-0.37087721284478903,0.09673390304669738,1.9336257129907608,0.15773860316766944,-2.5815611705183983,-0.5411910824477673,29.12825047969818,0.0,0.0,0.0,0.0,0.0,0.0,0.0,0.0,False,0,0.693535566329956,0.0300869140625
STABILIZE,0.6754679679870605,28.07545149068905,0.03248551686604818,0.03469395637512207,0.0,0.0,0.0,0.7213612511241995,0.02850739532663494,65.00542384062591,-0.006407036929145988,0.005908005932320536,0.0744387403230123,0.4,0.11691891798286036,0.15311074910111294,0.705468252763373,0.1488774806460246,0.019346288172528148,0.012071649689460173,1.6796788200736046,0.14935945515994473,-3.6548934876918793,1.2392602860927582,26.928243041038513,0.0,0.0,0.0,0.0,0.0,0.0,0.0,0.0,False,0,0.7223012447357178,0.034926025390625
STABILIZE,0.708782434463501,30.01548612403212,0.03238728841145833,0.032503604888916016,0.0,0.0,0.0,0.7206103572023213,0.029908437880133802,65.00758218040365,-0.006479830693370329,0.005227904186758169,0.0709068437449541,0.4,0.11198890205024001,0.14970746497938822,0.7264626242692903,0.1418136874899082,-0.08020948152989149,0.028862032922916114,1.8611103296279907,-0.21670652109865884,-5.003590881824493,1.1685725301504135,24.597127735614777,0.0,0.0,0.0,0.0,0.0,0.0,0.0,0.0,False,0,0.7509937286376953,0.034926025390625
STABILIZE,0.7423031330108643,29.83337482484654,0.03251317342122396,0.03265213966369629,0.0,0.0,0.0,0.7218578272212006,0.03310560674193446,65.01480169035635,-0.006284723626927961,0.004278625035383245,0.07012137705241653,0.4,0.10522609471828473,0.14623345327375797,0.7500131460385054,0.14024275410483306,-0.1887482707388699,0.035404181107878685,2.089085429906845,0.14598355412138658,-3.138761594891548,-0.8078724145889282,21.057811379432678,0.0,0.0,0.0,0.0,0.0,0.0,0.0,0.0,False,0,0.7797045707702637,0.02993701171875
STABILIZE,0.7757463455200195,29.901220485913083,0.032447131474812825,0.032575130462646484,0.0,0.0,0.0,0.720881963943535,0.03238993098296406,65.01577157721849,-0.005820302841501792,0.003747678350851845,0.0689577279662964,0.4,0.09812269782887416,0.1419373562079579,0.7659245459233601,0.1379154559325928,-0.1887482707388699,0.035404181107878685,2.089085429906845,0.14598355412138658,-3.138761594891548,-0.8078724145889282,21.057811379432678,0.0,0.0,0.0,0.0,0.0,0.0,0.0,0.0,False,0,0.8082809448242188,0.02993701171875
STABILIZE,0.8154652118682861,25.17498769552117,0.03245261510213216,0.03898954391479492,0.0,0.0,0.0,0.7221474699306915,0.03141332065335802,65.01431674692527,-0.00728948976387206,0.003415468727912483,0.0686427968723323,0.4,0.09023140909559586,0.14254997477521772,0.7698706028944786,0.1372855937446646,-0.2465748693794012,0.33960698638111353,1.3650973327457905,0.24853836426145204,-7.825054228305817,3.2542921602725983,16.661973297595978,0.0,0.0,0.0,0.0,0.0,0.0,0.0,0.0,False,1,0.8369343280792236,0.034926025390625
STABILIZE,0.8490548133850098,29.774076992425694,0.032610209782918294,0.03274106979370117,0.0,0.0,0.0,0.7222465076736566,0.03450558207837551,65.01786844529367,-0.00377217408117363,0.0027542007984343937,0.07897738803084174,0.4,0.08284710151121057,0.13290781329328158,0.8055112490692282,0.15795477606168348,-0.33144496846944094,0.0337333302013576,2.089027501642704,2.1802559337798963,4.146211594343185,1.254786178469658,25.074684619903564,0.0,0.0,0.0,0.0,0.0,0.0,0.0,0.0,False,0,0.9007213115692139,0.029937255859375
STABILIZE,0.8837871551513672,28.790818357793,0.03246000607808431,0.03389167785644531,0.0,0.0,0.0,0.7200682109369515,0.03176027291885351,65.02498550240884,-0.004447176106363983,0.0016861751879434109,0.062187101305856876,0.4,0.0734295243528883,0.12638861730602222,0.820237132570969,0.12437420261171375,-0.35509495064616203,-0.10922768851742148,2.1882692351937294,-1.7960968531109949,-2.679269015789032,-4.111888259649277,45.16344964504242,0.0,0.0,0.0,0.0,0.0,0.0,0.0,0.0,False,0,0.9293067455291748,0.03492578125
STABILIZE,0.9224929809570312,25.83638144399751,0.03247884114583333,0.03778719902038574,0.0,0.0,0.0,0.720477168513506,0.03168578116821806,65.02432297405934,-0.004460532703683702,0.0014036715854477651,0.045498884568340475,0.4,0.06403394217900162,0.12036102060592836,0.8410256898093268,0.09099776913668095,-0.35509495064616203,-0.10922768851742148,2.1882692351937294,-1.7960968531109949,-2.679269015789032,-4.111888259649277,45.16344964504242,0.0,0.0,0.0,0.0,0.0,0.0,0.0,0.0,False,0,0.9582536220550537,0.03492578125
STABILIZE,0.9591934680938721,27.246355723008964,0.03239587148030599,0.03587698936462402,0.0,0.0,0.0,0.7209340441359563,0.02885370726189574,65.035196635218,-0.00574102636938532,0.0037897698046228476,0.04844220068758327,0.4,0.06390571543089418,0.11948062070664889,0.8505016919261363,0.09688440137516655,0.20988201722502708,0.20834498573094606,1.5530805103480816,0.6356467526304765,-3.906524181365967,16.565702855587006,19.278070330619812,0.0,0.0,0.0,0.0,0.0,0.0,0.0,0.0,False,1,0.9867956638336182,0.034926025390625
STABILIZE,0.9928483963012695,29.71354085492852,0.03250888188680013,0.03281664848327637,0.0,0.0,0.0,0.7205581702881941,0.02964750330949816,65.0333524841421,-0.003932828550145381,-0.00031345066916242697,0.04361878861124141,0.4,0.05231744339240451,0.11360655526812273,0.917121940495261,0.08723757722248282,0.028913147980347276,0.19728485494852066,1.7409715801477432,0.8723116334326547,3.99622842669487,6.7200616002082825,12.897458672523499,0.0,0.0,0.0,0.0,0.0,0.0,0.0,0.0,False,0,1.0441994667053223,0.034926025390625
STABILIZE,1.0263829231262207,29.81958821522011,0.032488377888997395,0.03271818161010742,0.0,0.0,0.0,0.7199992687150166,0.027384042651579402,65.03590014470251,-0.003357803891647528,0.0015667251872417017,0.03576561611563549,0.4,0.04793813485949794,0.10692848952376724,0.9196538056092383,0.07153123223127097,-0.06653787568211555,-0.11044412385672331,1.559980120509863,-0.64221926224188,2.8061488643288612,-9.022858738899231,13.398469984531403,0.0,0.0,0.0,0.0,0.0,0.0,0.0,0.0,False,0,1.0739574432373047,0.034926025390625
STABILIZE,1.0599451065063477,29.796709385922536,0.03248623212178548,0.032614707946777344,0.0,0.0,0.0,0.7195556265840831,0.02588663039775989,65.0444447113542,-0.0030387950932754815,0.0013557058791449975,0.027922235988346093,0.4,0.043708512664592296,0.10030893337382807,0.921552966037585,0.055844471976692185,-0.06653787568211555,-0.11044412385672331,1.559980120509863,-0.64221926224188,2.8061488643288612,-9.022858738899231,13.398469984531403,0.0,0.0,0.0,0.0,0.0,0.0,0.0,0.0,False,0,1.1028001308441162,0.034926025390625
STABILIZE,1.0932796001434326,29.9989557629725,0.03238800366719564,0.03250455856323242,0.0,0.0,0.0,0.7191812468402018,0.029035027440018422,65.04112523941757,-0.0020421157308911078,0.0011874916720280011,0.029411830811018527,0.4,0.03971871211360394,0.09178944180639541,0.9244991840225055,0.05882366162203705,-0.06164629012346268,-0.2201169030740857,1.6496894881129265,0.3828441091711151,5.288296565413475,-0.9479515254497528,26.791343092918396,0.0,0.0,0.0,0.0,0.0,0.0,0.0,0.0,False,0,1.1314795017242432,0.02993701171875
STABILIZE,1.1267642974853516,29.863112402190087,0.03249314626057943,0.032607078552246094,0.0,0.0,0.0,0.7202317085902086,0.025983106819786318,65.041664824362,-0.006991405197559318,0.0032147038846777666,0.019166189676653303,0.4,0.04204765476812417,0.09866418823870496,0.9205964562784958,0.038332379353306606,0.26997553650289774,0.6344604305922985,1.610896736383438,-0.9555570185414181,1.4815974980592728,12.774080038070679,22.97162115573883,0.0,0.0,0.0,0.0,0.0,0.0,0.0,0.0,False,0,1.160581350326538,0.034926025390625
STABILIZE,1.1613051891326904,28.95279118087625,0.03244736989339193,0.03369283676147461,0.0,0.0,0.0,0.7195532787065559,0.025851625678263573,65.05251116476398,-0.0013618380710164332,-0.0019870312166004062,0.018932262117968432,0.4,0.029142557872471844,0.08814533181166337,0.9328946064598078,0.037864524235936864,-0.5801168270409107,-0.3545414423570037,2.1939149126410484,0.17477328172066636,2.5230146944522858,-12.356279045343399,38.004136085510254,0.0,0.0,0.0,0.0,0.0,0.0,0.0,0.0,False,1,1.1888587474822998,0.04000927734375
STABILIZE,1.2006592750549316,25.410783957348844,0.03246739705403646,0.038532257080078125,0.0,0.0,0.0,0.7200032174181306,0.027143918813571144,65.04863844750459,-0.0032197182907233884,0.0003978800638219815,0.01224417501195462,0.4,0.024844908036391538,0.08423786992824073,0.939338264156439,0.02448835002390924,0.10221924167126417,0.42436830699443817,2.0808013156056404,0.14246403234727306,-2.5517920032143593,-6.704070419073105,28.87609302997589,0.0,0.0,0.0,0.0,0.0,0.0,0.0,0.0,False,0,1.246286392211914,0.034926025390625
STABILIZE,1.234177827835083,29.833799230380755,0.03249648412068685,0.03263258934020996,0.0,0.0,0.0,0.7213543142133237,0.026061653995241466,65.04527799443294,-0.0008270011465988699,2.036927948776575e-05,0.011065675133410047,0.4,0.020747674015531677,0.07453289846707795,0.9460445120315186,0.022131350266820095,-0.10984075488522649,-0.3346806624904275,1.9224228337407112,0.03198782360589939,-4.175392538309097,-6.813088804483414,28.26821804046631,0.0,0.0,0.0,0.0,0.0,0.0,0.0,0.0,False,0,1.2758097648620605,0.034927001953125
STABILIZE,1.2678070068359375,29.735238027719685,0.03243759473164876,0.032572269439697266,0.0,0.0,0.0,0.7221493909213955,0.026563139290708495,65.0605024860929,-0.0011544264746023323,0.00037504926734575233,0.008509662865990255,0.4,0.01832552280061446,0.06716159309701822,0.9494530153454506,0.01701932573198051,-0.022366372286342084,-0.20571588538587093,1.7604492604732513,-0.13811242811360802,6.828030198812485,1.0063955560326576,24.07473623752594,0.0,0.0,0.0,0.0,0.0,0.0,0.0,0.0,False,0,1.3037288188934326,0.02993603515625
STABILIZE,1.3009941577911377,30.131277792544594,0.032265456517537434,0.032377004623413086,0.0,0.0,0.0,0.722879153945529,0.025323566678056963,65.05433482527238,-0.0008831024993862823,0.00038747169452589515,0.006311219655232915,0.4,0.016343573827717794,0.06007326343945027,0.9469679348120758,0.01262243931046583,-0.022366372286342084,-0.20571588538587093,1.7604492604732513,-0.13811242811360802,6.828030198812485,1.0063955560326576,24.07473623752594,0.0,0.0,0.0,0.0,0.0,0.0,0.0,0.0,False,0,1.332369089126587,0.02993603515625
STABILIZE,1.3346033096313477,29.75654468833804,0.032520564397176106,0.03270697593688965,0.0,0.0,0.0,0.7214650913439249,0.02606400187276866,65.05097437220073,-0.002721065273936818,-0.0018597426916680561,0.003998107648124072,0.4,0.008421162681336197,0.05926304951531726,0.9490281455370002,0.007996215296248143,-0.2873908495530486,0.27046920731663704,1.767043024301529,-0.20105339504764244,-15.198872983455658,-8.683441579341888,26.440730690956116,0.0,0.0,0.0,0.0,0.0,0.0,0.0,0.0,False,0,1.3901300430297852,0.034926025390625
STABILIZE,1.3720860481262207,26.677250292576197,0.032412083943684895,0.03658723831176758,0.0,0.0,0.0,0.7189864797271507,0.025384398050352388,65.07207965673607,-0.000998010888048985,-0.0019432016013089643,0.009553731046212039,0.4,0.000925865661549753,0.05305853522721753,0.951392888289722,0.019107462092424077,-0.34507440868765116,-0.17773521831259131,1.730700396001339,0.7608844609215956,3.1419117003679276,-3.027936629951,20.772644877433777,0.0,0.0,0.0,0.0,0.0,0.0,0.0,0.0,False,0,1.4184858798980713,0.029936767578125
STABILIZE,1.4055511951446533,29.882899442853276,0.03243211110432943,0.03258109092712402,0.0,0.0,0.0,0.7178088057038524,0.025407129773683836,65.06570709024045,-0.0005889355869292395,-0.0024284371453982844,0.015279687034147012,0.4,-0.005997182410536151,0.04714407091276905,0.9481514931454393,0.030559374068294023,-0.34507440868765116,-0.17773521831259131,1.730700396001339,0.7608844609215956,3.1419117003679276,-3.027936629951,20.772644877433777,0.0,0.0,0.0,0.0,0.0,0.0,0.0,0.0,False,0,1.4472696781158447,0.029936767578125
STABILIZE,1.439192295074463,29.725965456877795,0.032385857899983723,0.03274226188659668,0.0,0.0,0.0,0.7158995543874223,0.02426968983346515,65.06613739215815,-0.0016485643006969616,0.00010481927461974685,0.00820895118328024,0.4,-0.004694466539788038,0.045102035731472555,0.9458274474476915,0.01641790236656048,0.13232043711468577,0.0408345804316923,1.7702540382742882,-0.7534604721806148,15.429577231407166,8.563283085823059,16.929277777671814,0.0,0.0,0.0,0.0,0.0,0.0,0.0,0.0,False,0,1.4758460521697998,0.03492626953125
STABILIZE,1.4726769924163818,29.863750284802915,0.03245690663655599,0.032581329345703125,0.0,0.0,0.0,0.7143870943730876,0.024141730508233195,65.07786482696307,-0.0015228740192656841,7.935682871357929e-05,0.010870927526161173,0.4,-0.0036871014271878545,0.04300362831936058,0.9534538166789488,0.021741855052322345,0.13317035045474768,0.04042294749524444,2.0433850586414337,0.4077139218366158,-5.673584342002869,-8.622681349515915,27.916112542152405,0.0,0.0,0.0,0.0,0.0,0.0,0.0,0.0,False,0,1.5046496391296387,0.034927001953125
STABILIZE,1.5153985023498535,23.40702048105363,0.03239157994588216,0.04184412956237793,0.0,0.0,0.0,0.7155184511760767,0.02253183357652003,65.06311844854501,-0.003599552752732813,-0.0001956838173447512,-0.008045823528461593,0.4,-0.0036035917875581083,0.04811126948032738,0.9966808829354107,-0.016091647056923186,0.10827337391674519,0.30721593648195267,1.9855381920933723,-0.9375337501473412,2.860620990395546,10.76909452676773,27.269959449768066,0.0,0.0,0.0,0.0,0.0,0.0,0.0,0.0,False,0,1.5621354579925537,0.064863037109375
STABILIZE,1.5488245487213135,29.91657631954351,0.03248313268025716,0.032608747482299805,0.0,0.0,0.0,0.7154268839525162,0.02346767621451756,65.06858259988103,0.00047533903212533855,-0.0006694226371306687,-0.0046259822122280215,0.4,-0.004864993450455367,0.03986160616362866,1.0224270958222874,-0.009251964424456043,0.03684125258587301,-0.2919980324804783,1.604832150042057,0.5835828352692609,4.615545272827148,-18.903163075447083,15.485969185829163,0.0,0.0,0.0,0.0,0.0,0.0,0.0,0.0,False,0,1.5906052589416504,0.03492578125
STABILIZE,1.5823557376861572,29.824040957087497,0.0325043519337972,0.03263401985168457,0.0,0.0,0.0,0.716874884056559,0.025659099721033838,65.07403992102786,0.0016069257336156651,-0.00040701768938561985,-0.0004131847439904869,0.4,-0.005185868553593997,0.02953723497076858,1.0180390092328537,-0.0008263694879809737,0.001106869603972882,-0.4002825357019901,1.8105918541550636,0.45526049615508773,-5.712812766432762,2.7011996135115623,25.5473792552948,0.0,0.0,0.0,0.0,0.0,0.0,0.0,0.0,True,0,1.6194775104522705,0.02993701171875
STABILIZE,1.6162242889404297,29.52383767993524,0.032416375478108723,0.033136606216430664,0.0,0.0,0.0,0.7178518145512823,0.02563177896435379,65.06460742978408,-0.004814496020883565,-0.004467144452857113,-0.008025557316329071,0.4,-0.01692290454175961,0.03923018755166039,1.010281070295607,-0.016051114632658143,-0.6045111455023289,0.6101431325078011,1.8773779273033142,-0.775993266252487,-11.863598227500916,18.45969557762146,20.553822815418243,0.0,0.0,0.0,0.0,0.0,0.0,0.0,0.0,True,0,1.6480236053466797,0.03492529296875
STABILIZE,1.6543831825256348,26.2078480379905,0.032601149876912434,0.037346839904785156,0.0,0.0,0.0,0.7168230173075492,0.023185077137608284,65.07412871348707,0.000769536262869915,-0.004027868389828883,0.008474038625882294,0.4,-0.026263439069997778,0.03049584871386431,0.9982358164686169,0.016948077251764587,-0.23471817839890718,-0.11778482003137469,1.658475212752819,0.8832037574464152,15.328827500343323,-20.710083842277527,12.631037831306458,0.0,0.0,0.0,0.0,0.0,0.0,0.0,0.0,True,0,1.705587387084961,0.0349267578125
STABILIZE,1.6908807754516602,27.39870920540357,0.032501967748006184,0.03557133674621582,0.0,0.0,0.0,0.7141096179380558,0.024199146785943614,65.09018648822577,0.0021841279999667497,0.0019733322801163823,0.007498047939318308,0.4,-0.015665009774722932,0.019075874649518793,0.9925557447148046,0.014996095878636616,0.5623770877718925,-0.5001449957489967,1.6608750447630882,-0.08760992934925442,21.151867508888245,-4.823169112205505,24.679437279701233,0.0,0.0,0.0,0.0,0.0,0.0,0.0,0.0,True,0,1.7341275215148926,0.02993603515625
STABILIZE,1.7269628047943115,27.71389492741653,0.0323970635732015,0.035260915756225586,0.0,0.0,0.0,0.7140910483612498,0.024457733479052064,65.08312407262397,-0.003197783136734043,-0.0015166563822544012,0.0007268703435778633,0.4,-0.017379377607058485,0.025951435343983444,0.9858663975182148,0.0014537406871557267,-0.10795881971716881,0.45594489201903343,1.8509961664676666,-0.7060879342838461,-30.389031767845154,12.653838098049164,21.781808137893677,0.0,0.0,0.0,0.0,0.0,0.0,0.0,0.0,True,0,1.7628164291381836,0.034927001953125
STABILIZE,1.7604689598083496,29.84653701371247,0.03250935872395833,0.0326535701751709,0.0,0.0,0.0,0.7127778377716091,0.022201209732009102,65.09953701719952,-0.0008304839523618442,-0.004614867135423724,0.007634865138580758,0.4,-0.027333713053311167,0.024615936287447217,0.979368063004464,0.015269730277161516,-0.5439183674752712,0.02129105996573344,1.5653004869818687,0.7668110907696097,-15.786591172218323,-20.638369023799896,19.800786674022675,0.0,0.0,0.0,0.0,0.0,0.0,0.0,0.0,True,0,1.7915704250335693,0.034926025390625
STABILIZE,1.795088768005371,28.884401900695543,0.032457860310872395,0.03383016586303711,0.0,0.0,0.0,0.7137831562400704,0.022307931437790553,65.08825354469066,0.003785735438356126,-0.001251613000720385,0.007905805530291571,0.4,-0.026221946110306052,0.009793694074264121,0.9595737944187654,0.015811611060583142,0.011644710320979357,-0.3259730990976095,1.4920849353075027,0.035358495280874244,15.125463902950287,6.816862523555756,24.3598073720932,0.0,0.0,0.0,0.0,0.0,0.0,0.0,0.0,True,0,1.8490254878997803,0.029936767578125
STABILIZE,1.828597068786621,29.844413294530344,0.03253796895345052,0.03268003463745117,0.0,0.0,0.0,0.7134923395918159,0.022370683800790044,65.08559660110353,-0.002124922152148769,0.001071233532553164,0.0025638472550263266,0.4,-0.01884884648637308,0.01448292678177614,0.9543762416086304,0.005127694510052653,0.3849288448691368,0.33091201912611723,1.834782212972641,-0.5776778699275205,3.343198448419571,8.831728994846344,24.639412760734558,0.0,0.0,0.0,0.0,0.0,0.0,0.0,0.0,True,0,1.8775806427001953,0.03492626953125
STABILIZE,1.8620836734771729,29.861836718711064,0.03248766263326009,0.03261923789978027,0.0,0.0,0.0,0.7122316360814196,0.02204272799892365,65.10323897972967,0.0005417726568851015,-0.005732599664787249,0.007041574563545934,0.4,-0.03166786581021325,0.01085950608704608,0.955427970916826,0.014083149127091868,-0.7416493725031614,-0.1289646839722991,1.9008014351129532,0.5261883821476736,0.6208206526935101,5.046038329601288,30.755838751792908,0.0,0.0,0.0,0.0,0.0,0.0,0.0,0.0,True,0,1.9062180519104004,0.06486279296875
STABILIZE,1.8954837322235107,29.939853381016626,0.032460721333821614,0.03259420394897461,0.0,0.0,0.0,0.7138456951596582,0.022091606540171553,65.09668882831562,0.0011932807752829669,-0.007631350601460123,0.012225586191295683,0.4,-0.04763557911615708,0.005893337951554153,0.9834979549006543,0.024451172382591365,-0.7416493725031614,-0.1289646839722991,1.9008014351129532,0.5261883821476736,0.6208206526935101,5.046038329601288,30.755838751792908,0.0,0.0,0.0,0.0,0.0,0.0,0.0,0.0,True,0,1.9350194931030273,0.06486279296875
STABILIZE,1.928971290588379,29.862474546826718,0.03251221974690755,0.032639503479003906,0.0,0.0,0.0,0.7148947695274899,0.023750808899955747,65.08075399698198,-0.0034652093388558196,0.0008865499628288886,0.0029938540556214577,0.4,-0.03720442004432793,0.014977070679440254,1.0062068790318688,0.0059877081112429155,0.634793983772397,0.5632128100842237,1.7803570255637169,-0.9560206176313327,28.36633026599884,12.78844028711319,24.947281181812286,0.0,0.0,0.0,0.0,0.0,0.0,0.0,0.0,True,0,1.9638991355895996,0.03492626953125
STABILIZE,1.9627246856689453,29.626440069787318,0.032465489705403645,0.03290104866027832,0.0,0.0,0.0,0.7123614096756499,0.02068042542462345,65.09981022476632,0.0025855576939972035,-0.0006802509490125799,0.006107068995031648,0.4,-0.03284989335296974,0.005348461767181985,1.0010323620392942,0.012214137990063295,0.15324109699577093,-0.43218876235187054,1.8776673823595047,0.33745814246661504,-16.870829463005066,-20.676863193511963,23.72111678123474,0.0,0.0,0.0,0.0,0.0,0.0,0.0,0.0,True,0,1.992476463317871,0.034926025390625
STABILIZE,2.0015218257904053,25.77382861707684,0.032479317982991536,0.037932634353637695,0.0,0.0,0.0,0.706692992994774,0.01926273428502268,65.1114761878687,0.0057463239039985264,-0.01042871052103072,0.013568989080446354,0.4,-0.059479080273715845,-0.014178850485441758,0.9916274296323765,0.02713797816089271,-0.7319109980016947,-0.4545314237475395,1.8571415916085243,0.40558898595280135,-19.19141411781311,0.7886837236583233,27.409347891807556,0.0,0.0,0.0,0.0,0.0,0.0,0.0,0.0,True,0,2.0498080253601074,0.03492578125
STABILIZE,2.034968852996826,29.899728398406033,0.032414944966634114,0.03263044357299805,0.0,0.0,0.0,0.698386735912098,0.012214939556921553,65.1126851313518,0.00198982336604892,-0.004806228726310829,0.013572975507614955,0.4,-0.06293273380461942,-0.01784683924581175,0.9799671630433898,0.02714595101522991,-0.24765327107161283,-0.16128146089613438,1.4639094471931458,0.0347951247362672,14.61378037929535,8.32701176404953,10.69972887635231,0.0,0.0,0.0,0.0,0.0,0.0,0.0,0.0,True,0,2.0786590576171875,0.029937255859375
STABILIZE,2.0686099529266357,29.724912121555732,0.03252366383870443,0.03275251388549805,0.0,0.0,0.0,0.6932008080630601,0.011621460151070915,65.13333279321274,-0.00023160614101519635,-0.004022006209359331,0.023003091241703875,0.4,-0.06361973337644673,-0.014606590909629912,0.9730952467977207,0.04600618248340775,-0.14463255647569895,0.16705235466361046,1.914815790951252,1.0355966970519184,-10.091167688369751,-7.287327200174332,21.289151906967163,0.0,0.0,0.0,0.0,0.0,0.0,0.0,0.0,True,0,2.107616901397705,0.069852783203125
STABILIZE,2.102185010910034,29.783802591869343,0.032457621892293294,0.03260493278503418,0.0,0.0,0.0,0.6871375210707927,0.00802312439723779,65.14128996359581,0.0005032848616360921,-0.00583224160348596,0.03514412974363834,0.4,-0.06924268879288022,-0.013934513945046093,1.0028874648812762,0.07028825948727668,-0.14463255647569895,0.16705235466361046,1.914815790951252,1.0355966970519184,-10.091167688369751,-7.287327200174332,21.289151906967163,0.0,0.0,0.0,0.0,0.0,0.0,0.0,0.0,True,0,2.1359448432922363,0.069852783203125
STABILIZE,2.135580539703369,29.94434211465696,0.0323517640431722,0.032553911209106445,0.0,0.0,0.0,0.6859520563629724,0.004852315796765152,65.13087392511154,0.003101324161078263,0.001984713563971303,0.024699326583440404,0.4,-0.05212907810143909,-0.02083768612128113,1.015127475248271,0.04939865316688081,0.8368451148271561,-0.2313562436029315,1.2848258949816227,-1.1099960266901632,9.245947748422623,-3.4376785159111023,24.197012186050415,0.0,0.0,0.0,0.0,0.0,0.0,0.0,0.0,True,0,2.1647086143493652,0.029935791015625
STABILIZE,2.169029951095581,29.895253029223092,0.03248194058736165,0.03261280059814453,0.0,0.0,0.0,0.6941233104878349,0.0049713104987114684,65.1445274732624,0.0027563417931642698,0.00509234303075637,0.033716000415722945,0.4,-0.029247293850009775,-0.025765932009086452,0.9908779411189879,0.06743200083144589,0.6686544045805931,-0.2135422546416521,1.9673041999340057,0.8602337245459566,29.087254405021667,-9.954294562339783,12.227561324834824,0.0,0.0,0.0,0.0,0.0,0.0,0.0,0.0,True,0,2.2220001220703125,0.034926025390625
STABILIZE,2.2035725116729736,28.9555894596591,0.03248766263326009,0.03260016441345215,0.0,0.0,0.0,0.7100837550308622,0.008593978801462763,65.13327815169939,-0.001230701919847672,0.0044598848934847,0.017038284994134595,0.4,-0.011940089422260068,-0.018558358309004014,0.9806852354762381,0.03407656998826919,0.7310060784220695,0.3222623374313116,1.696992665529251,-1.4954345938896783,-22.351373732089996,15.784136950969696,29.572024941444397,0.0,0.0,0.0,0.0,0.0,0.0,0.0,0.0,True,0,2.2507543563842773,0.02993701171875
STABILIZE,2.2359423637390137,30.887028241098715,0.03134921391805013,0.03149271011352539,0.0,0.0,0.0,0.7097808788298544,0.0270112637332848,65.10897633863247,0.0021156582962295234,-0.01774218099994284,0.0474481551181711,0.4,-0.05940526806953348,-0.021879572376451068,0.9637147200568642,0.0948963102363422,-2.4233276024460793,-0.19730855710804462,1.5297876670956612,3.1093223837905373,-100.52065849304199,-19.906707108020782,18.09091418981552,0.0,0.0,0.0,0.0,0.0,0.0,0.0,0.0,True,0,2.27960467338562,0.034926025390625
STABILIZE,2.2693536281585693,29.930666362196185,0.03246882756551107,0.03260016441345215,0.0,0.0,0.0,0.7153849423221441,-0.005750912559444955,65.14546320917869,0.0023564255526036418,-0.02009416960128727,0.07720119179020365,0.4,-0.10546261273046495,-0.025341383328922964,0.9525081577510892,0.1544023835804073,-2.4233276024460793,-0.19730855710804462,1.5297876670956612,3.1093223837905373,-100.52065849304199,-19.906707108020782,18.09091418981552,0.0,0.0,0.0,0.0,0.0,0.0,0.0,0.0,True,0,2.30818772315979,0.034926025390625
STABILIZE,2.3028478622436523,29.855672451347466,0.032511266072591145,0.03264284133911133,0.0,0.0,0.0,0.7179240651460963,0.009093222941108382,65.09939358322696,0.0037076475884518776,-0.02858121947267404,0.09534406094945352,0.4,-0.1675160394412495,-0.032065411817133356,0.9292672334073674,0.19068812189890705,-3.288865089416504,-0.3688810393214226,0.8773313835263252,1.9957300490589507,50.32755732536316,25.933972001075745,-58.640843629837036,0.0,0.0,0.0,0.0,0.0,0.0,0.0,0.0,True,0,2.3371381759643555,0.034926025390625
STABILIZE,2.3362762928009033,29.91486933698505,0.03245690663655599,0.032576560974121094,0.0,0.0,0.0,0.7141508125164875,0.021685317006261577,65.11365501821393,-0.008775736288195028,0.0021749164548994556,0.03187699073714868,0.4,-0.13345142639234633,-0.0023491998910429024,0.9587367106134405,0.06375398147429737,1.6014724969863892,1.5025276690721512,3.5475924611091614,-6.376052880306365,137.76910305023193,26.032283902168274,5.570080131292343,0.0,0.0,0.0,0.0,0.0,0.0,0.0,0.0,True,0,2.3794150352478027,0.02993701171875
STABILIZE,2.3704605102539062,29.256122484567364,0.03247526486714681,0.03328657150268555,0.0,0.0,0.0,0.7131320471130977,0.014486617786185482,65.15069513408292,0.005561540322690073,0.025996354130258345,0.0519759374183217,0.4,-0.03716388808631116,-0.01835679093131408,0.9557608240560798,0.1039518748366434,4.86459843814373,-0.8652589283883572,2.0958399400115013,2.2862152196952428,-32.91856050491333,-16.609860956668854,-18.575705587863922,0.0,0.0,0.0,0.0,0.0,0.0,0.0,0.0,True,0,2.4059650897979736,0.034926025390625
STABILIZE,2.40393328666687,29.872257990997664,0.03237584431966146,0.032506704330444336,0.0,0.0,0.0,0.7176627036886376,0.0146499019960311,65.11182452751638,-0.0032895140103297318,-0.04153789041209145,-0.0018380647018047674,0.4,-0.146671501042791,-0.006307407661045632,0.9700223532630968,-0.003676129403609535,-5.984453111886978,0.6174207665026188,2.7261437848210335,-5.594936652011251,-143.1364893913269,36.94841265678406,4.239978641271591,0.0,0.0,0.0,0.0,0.0,0.0,0.0,0.0,True,0,2.434495687484741,0.03492578125
STABILIZE,2.437321662902832,29.94968760041415,0.03240040143330892,0.03251218795776367,0.0,0.0,0.0,0.7180392178666345,0.016005481102867068,65.10541097988573,-0.00887199689792904,-0.032466914779608745,-0.12876325968182076,0.4,-0.21267022858577472,0.019584840299513448,1.0192995141379941,-0.2575265193636415,-2.009102702140808,0.6878501269966364,3.4327704459428787,-6.862034927017936,23.744794726371765,-5.1076490432024,95.71077823638916,0.0,0.0,0.0,0.0,0.0,0.0,0.0,0.0,True,0,2.491975784301758,0.029937255859375
STABILIZE,2.47076678276062,29.899302115040527,0.03245285352071126,0.03256416320800781,0.0,0.0,0.0,0.71052526272768,0.026331873354280094,65.1628392104272,0.0033497221033695073,0.008042866175308716,-0.0832335334444251,0.4,-0.1546913469712415,0.007246928159657126,1.0017927671286935,-0.1664670668888502,2.9485534876585007,-0.689095864072442,1.242708694189787,4.947225544150711,29.87564206123352,-14.716459810733795,25.16486346721649,0.0,0.0,0.0,0.0,0.0,0.0,0.0,0.0,True,0,2.52079176902771,0.03492578125
STABILIZE,2.5042481422424316,29.868854326895686,0.0324433167775472,0.0325772762298584,0.0,0.0,0.0,0.7127555329351007,0.022725426750807583,65.14166562400015,-0.001891872401919961,-0.018648888882896106,-0.09876800327043511,0.4,-0.18080881882782276,0.011446350079213432,0.9835491836500136,-0.19753600654087022,-1.654021255671978,0.2209770493209362,0.8415752090513706,-1.6999956646020924,-138.30671310424805,31.00806474685669,-6.932421773672104,0.0,0.0,0.0,0.0,0.0,0.0,0.0,0.0,True,0,2.549532651901245,0.034926025390625
STABILIZE,2.537724494934082,29.870981526058657,0.03240326245625814,0.03263568878173828,0.0,0.0,0.0,0.7150823862862538,0.02189833353100135,65.13014309487035,-0.006242287418090524,-0.036867385194504644,-0.10973990484753286,0.4,-0.2534949400037349,0.027320320244940983,0.9882244091048115,-0.21947980969506573,-4.302967339754105,0.8849726989865303,2.136514149606228,-1.227379871209414,-55.51308989524841,8.713460713624954,33.683955669403076,0.0,0.0,0.0,0.0,0.0,0.0,0.0,0.0,True,0,2.5778908729553223,0.02993701171875
STABILIZE,2.579399824142456,23.995148685911737,0.0324895699818929,0.04088997840881348,0.0,0.0,0.0,0.7118602445453002,0.027565896438230993,65.1561661156081,0.0030955605121766095,0.004081596619258012,-0.1054916419214144,0.4,-0.18908872936098148,0.011971696171015376,0.9726615362122437,-0.2109832838428288,3.349003940820694,-0.8677818812429905,1.2730306014418602,0.28749541540967755,176.8355131149292,-32.59966969490051,10.233819484710693,0.0,0.0,0.0,0.0,0.0,0.0,0.0,0.0,True,1,2.607400417327881,0.034926025390625
STABILIZE,2.6132280826568604,29.56066756878665,0.03253606160481771,0.032958269119262695,0.0,0.0,0.0,0.7123577811376534,0.024427531236315914,65.15836543652084,-0.008416958964537318,-0.02354551339261416,-0.11767648080681234,0.4,-0.2234753542635409,0.034301693835316796,0.9674388788106709,-0.23535296161362468,-3.7640266120433807,1.1145026423037052,1.8490498885512352,-0.38370473968696317,-125.87579488754272,27.678462862968445,20.15088051557541,0.0,0.0,0.0,0.0,0.0,0.0,0.0,0.0,True,0,2.668793201446533,0.029935791015625
STABILIZE,2.646625280380249,29.942631962192493,0.0324588139851888,0.032575368881225586,0.0,0.0,0.0,0.7167349719002795,0.02004116240699257,65.13723283122881,0.0032269499644896654,-0.010453840382988704,-0.11785346860448405,0.4,-0.21522091762911363,0.020041263832347993,0.9684300713695821,-0.2357069372089681,0.1294887508265674,-0.8091630414128304,2.178426831960678,-0.300025877689742,95.243901014328,-32.4226051568985,28.11800241470337,0.0,0.0,0.0,0.0,0.0,0.0,0.0,0.0,True,0,2.6976099014282227,0.045245849609375
STABILIZE,2.6801884174346924,29.794592751502407,0.03249862988789876,0.03261590003967285,0.0,0.0,0.0,0.7161192943796263,0.02184315840911234,65.14283358634823,0.0015918868942180803,0.005834000192755208,-0.12055216429377491,0.4,-0.1629936470639593,0.012680866996825088,0.9753048727163856,-0.24110432858754982,2.943139150738716,-0.44360519386827946,1.608087308704853,-0.13966148033281253,52.00796127319336,14.528675377368927,29.207587242126465,0.0,0.0,0.0,0.0,0.0,0.0,0.0,0.0,True,0,2.726184606552124,0.024947265625
STABILIZE,2.714487075805664,29.155456694008063,0.03237012227376302,0.0332646369934082,0.0,0.0,0.0,0.7129706838939561,0.025404781896156647,65.16486777661069,-0.0033104265892258183,-0.014574362437573233,-0.11365501577877186,0.4,-0.1767059294603147,0.020368488688601354,0.9641587272893531,-0.22731003155754373,-1.20821762830019,0.4784747492522001,1.7860747873783112,0.31562346843311234,-92.17981696128845,4.165763407945633,22.627732157707214,0.0,0.0,0.0,0.0,0.0,0.0,0.0,0.0,True,0,2.7549421787261963,0.03492578125
STABILIZE,2.7570581436157227,23.489737285715087,0.032288344701131184,0.0418241024017334,0.0,0.0,0.0,0.7170369943276409,0.020529520932648482,65.14849581317017,0.0003976427322359812,-0.012417581244142922,-0.11357456083910139,0.4,-0.18286285896763757,0.015219059351388382,0.9555597871281275,-0.22714912167820278,1.2203249149024487,-0.10721385478973389,1.3815861195325851,0.060936613237539794,87.48949766159058,4.364755004644394,14.665356278419495,0.0,0.0,0.0,0.0,0.0,0.0,0.0,0.0,True,0,2.8128225803375244,0.034926025390625
STABILIZE,2.7905991077423096,29.815984588371613,0.03258875211079915,0.03271961212158203,0.0,0.0,0.0,0.7161409588858999,0.0227414350066748,65.14820211503586,-0.000671814828186154,0.00018532332991963167,-0.109919775599204,0.4,-0.15177052166584243,0.014965494119251611,0.9540025380624703,-0.219839551198408,1.5475159510970116,0.00208606925298227,1.6802595928311348,0.19100259826119678,-7.770884037017822,-3.607499599456787,20.203296840190887,0.0,0.0,0.0,0.0,0.0,0.0,0.0,0.0,True,0,2.8418614864349365,0.034926025390625
STABILIZE,2.84857177734375,17.249223758939625,0.03248790105183919,0.0565190315246582,0.0,0.0,0.0,0.7118358052746763,0.024732114984616173,65.17881502289586,-0.0013936013625094707,-0.02657256843460629,-0.10671601863673195,0.4,-0.22692868479492692,0.0174213487873718,0.9574940433002607,-0.2134320372734639,-2.4685626849532127,0.08708881214261055,1.7401974648237228,-0.04263638867674678,-34.1423898935318,6.179607659578323,23.24535697698593,0.0,0.0,0.0,0.0,0.0,0.0,0.0,0.0,True,0,2.899075508117676,0.039916015625
STABILIZE,2.8813717365264893,30.48717799616212,0.03185394605000814,0.0319826602935791,0.0,0.0,0.0,0.7156942218254988,0.02257719030147715,65.1518835869985,-0.0028560068067023615,-0.018242365413554715,-0.10798418322976967,0.4,-0.23964095926356843,0.022822206219430787,0.9604244685591937,-0.21596836645953935,-0.9233119897544384,0.32218755222857,1.706879772245884,-0.37525336776485085,19.21289712190628,8.26457217335701,19.925686717033386,0.0,0.0,0.0,0.0,0.0,0.0,0.0,0.0,True,0,2.928250312805176,0.02494677734375
STABILIZE,2.91677188873291,28.248656366599764,0.03252366383870443,0.03465914726257324,0.0,0.0,0.0,0.7143519829318855,0.02337909719871896,65.16075600273035,-3.527184950115569e-05,0.00044521894720188165,-0.1031396037943708,0.4,-0.19631988988104757,0.01949798393358539,0.9432339435679554,-0.2062792075887416,2.01810821890831,-0.14877630164846778,1.3673619367182255,0.07030998065632448,63.79745602607727,-11.358092725276947,12.69332617521286,0.0,0.0,0.0,0.0,0.0,0.0,0.0,0.0,True,0,2.9567556381225586,0.03492724609375
STABILIZE,2.950464963912964,29.680529313944024,0.03258517583211263,0.032720088958740234,0.0,0.0,0.0,0.713508881456212,0.025114392134725324,65.18547445733662,0.001337837514937522,-0.010431256627118869,-0.09712165783935614,0.4,-0.19253347965610196,0.012735179952726465,0.9462646762130114,-0.19424331567871228,-0.10348304640501738,-0.3747260896489024,1.953364722430706,0.381600908020467,-42.01940894126892,-3.495682403445244,25.629407167434692,0.0,0.0,0.0,0.0,0.0,0.0,0.0,0.0,True,0,2.985326051712036,0.029935791015625
STABILIZE,2.98374080657959,30.051615676721358,0.03234365781148275,0.0324556827545166,0.0,0.0,0.0,0.7159428833999695,0.024677580192961852,65.16852192781666,-0.0028853795052609797,-0.022495080766100937,-0.09787394552550024,0.4,-0.2228983914999655,0.018927694850132265,0.9410211216923866,-0.1957478910510005,-2.1991686895489693,0.39771832525730133,1.732175424695015,-0.48979606703278783,-52.27730870246887,16.04761779308319,25.044026970863342,0.0,0.0,0.0,0.0,0.0,0.0,0.0,0.0,True,0,3.0140480995178223,0.03492724609375
STABILIZE,3.017265558242798,29.83019216818628,0.03249862988789876,0.03260946273803711,0.0,0.0,0.0,0.7170610067114418,0.023480376097505553,65.16163709713328,0.002022350750191764,0.0012898143458524728,-0.08596650591843609,0.4,-0.18205726377726977,0.010437061452136196,0.9386353352639174,-0.17193301183687218,1.2376785278320312,-0.43903165496885777,1.5097159892320633,0.560634413514223,28.35095524787903,-9.349220991134644,15.720625221729279,0.0,0.0,0.0,0.0,0.0,0.0,0.0,0.0,True,0,3.0720112323760986,0.02993701171875
STABILIZE,3.054558277130127,26.813343050388042,0.032406123479207356,0.03644895553588867,0.0,0.0,0.0,0.7150353220140041,0.026222803770971453,65.19229781631746,-0.0019784543254003444,-0.014725235582624858,-0.08613265871084978,0.4,-0.19368065856388728,0.01488408304426491,0.928174602485846,-0.17226531742169957,-1.094763819128275,0.29553831554949284,1.3928426429629326,-0.41031139475320405,-45.80950736999512,10.278160870075226,21.23076170682907,0.0,0.0,0.0,0.0,0.0,0.0,0.0,0.0,True,0,3.100736141204834,0.03492626953125
STABILIZE,3.0880250930786133,29.880557672990474,0.03247645696004232,0.032631635665893555,0.0,0.0,0.0,0.7152913473861738,0.02635353786055373,65.18504415541891,-0.002371011779428711,-0.016167169158307272,-0.0867130844778968,0.4,-0.20637261723881514,0.019408219648112412,0.9225761291406428,-0.1734261689557936,-1.094763819128275,0.29553831554949284,1.3928426429629326,-0.41031139475320405,-45.80950736999512,10.278160870075226,21.23076170682907,0.0,0.0,0.0,0.0,0.0,0.0,0.0,0.0,True,0,3.1297452449798584,0.03492626953125
STABILIZE,3.1216347217559814,29.75654468833804,0.0324895699818929,0.03269147872924805,0.0,0.0,0.0,0.7162237749295863,0.026105303172906078,65.1741363433144,-0.0007511485216745917,-0.013476788412546714,-0.08688476506278754,0.4,-0.20943235477426725,0.018661578530204413,0.9234767822210284,-0.17376953012557508,-0.5177464336156845,-0.019872825942002237,1.7834937199950218,-0.35872833871781323,27.285784482955933,-11.060674488544464,22.8558287024498,0.0,0.0,0.0,0.0,0.0,0.0,0.0,0.0,True,0,3.1584739685058594,0.03492578125
STABILIZE,3.154994010925293,29.97451564722109,0.03238347371419271,0.03250432014465332,0.0,0.0,0.0,0.7151135490243419,0.02719226374629014,65.19133475964449,5.730644401232983e-05,-0.0062792479041240724,-0.08183004927922981,0.4,-0.19191949436677486,0.0157722953163468,0.9232305092582398,-0.16366009855845962,0.6934899371117353,-0.1444689347408712,1.7149584367871284,0.26068481516368835,39.62401747703552,-3.155374899506569,26.43633782863617,0.0,0.0,0.0,0.0,0.0,0.0,0.0,0.0,True,0,3.1871016025543213,0.02993701171875
STABILIZE,3.1884045600891113,29.930666362196185,0.03248551686604818,0.032592058181762695,0.0,0.0,0.0,0.7147451456959844,0.02881390006563926,65.18983894821626,-0.0013481865165905016,-0.007940201791375537,-0.07914655065909902,0.4,-0.1819780798524324,0.017311759242563604,0.9178316552824276,-0.15829310131819804,0.18348839366808534,0.1252370304428041,1.6648337244987488,-0.05618472256591499,-26.869916915893555,8.406789600849152,22.96063005924225,0.0,0.0,0.0,0.0,0.0,0.0,0.0,0.0,True,1,3.2157557010650635,0.035060302734375
STABILIZE,3.221900463104248,29.854184906009554,0.03250768979390462,0.03264927864074707,0.0,0.0,0.0,0.7148021350868716,0.028983907742949108,65.18551543847164,-0.004079514407367821,-0.020235995835291596,-0.07655184259842614,0.4,-0.20797552759089283,0.026370672573827855,0.9095146011097803,-0.15310368519685227,-1.1222589761018753,0.29545510187745094,1.4562235213816166,-0.17884120632015107,-25.833037495613098,-1.3872991316020489,18.249762058258057,0.0,0.0,0.0,0.0,0.0,0.0,0.0,0.0,True,0,3.2732155323028564,0.034926025390625
STABILIZE,3.2554290294647217,29.826161777777777,0.03245499928792318,0.03259611129760742,0.0,0.0,0.0,0.7156332837314976,0.028829694878094916,65.19003702370219,0.0003637289720385859,-0.010445774642605666,-0.070069795377682,0.4,-0.20230704543765937,0.021473996393418376,0.9052936174539877,-0.140139590755364,-0.008236299618147314,-0.2637472003698349,1.4624773524701595,0.43764453115112567,26.00405514240265,-3.4532438963651657,13.440345227718353,0.0,0.0,0.0,0.0,0.0,0.0,0.0,0.0,True,0,3.30193829536438,0.02993701171875
STABILIZE,3.288830280303955,29.93793004996431,0.03240469296773275,0.03253793716430664,0.0,0.0,0.0,0.7146598750530649,0.030219424930780947,65.20198985474971,-0.0004871760858788146,-0.006557646610461562,-0.06692370349528912,0.4,-0.18676747922842768,0.019749816931514827,0.9000926860530998,-0.13384740699057823,0.5130046512931585,-0.063732685521245,1.6481656581163406,0.025550723828812776,7.057861238718033,0.6301173008978367,18.77065747976303,0.0,0.0,0.0,0.0,0.0,0.0,0.0,0.0,True,0,3.3305139541625977,0.034926025390625
STABILIZE,3.3224289417266846,29.763935310355595,0.03244903882344564,0.03258872032165527,0.0,0.0,0.0,0.7149598697680166,0.029840242710139457,65.19945585456763,-0.0016772705480342107,-0.01161035125198651,-0.06708222530051473,0.4,-0.18790740455010593,0.021653302583406878,0.89991431824328,-0.13416445060102947,-0.4235378932207823,0.14496614458039403,1.6765180975198746,-0.3416830680355175,-32.780930399894714,0.6465154234319925,22.696863114833832,0.0,0.0,0.0,0.0,0.0,0.0,0.0,0.0,True,0,3.3591086864471436,0.034927001953125
STABILIZE,3.355644702911377,30.104676868306967,0.032312901814778645,0.03243374824523926,0.0,0.0,0.0,0.7163253739934903,0.028580819860212575,65.19994762818789,-0.0014700364179209783,-0.015081097616308803,-0.06636348182026058,0.4,-0.1984920417696271,0.022660372863264402,0.9002971517378313,-0.13272696364052117,-0.9817428886890411,0.09112830157391727,1.7102323472499847,-0.2286350862983291,-5.063353478908539,0.750473141670227,24.268348515033722,0.0,0.0,0.0,0.0,0.0,0.0,0.0,0.0,True,0,3.3878955841064453,0.02993603515625
STABILIZE,3.389127254486084,29.865238783546115,0.03254750569661458,0.03267264366149902,0.0,0.0,0.0,0.7150535714256927,0.028509102873927442,65.20731057211316,-0.0014597146395594388,-0.01533450878822742,-0.06553506465239217,0.4,-0.2080451705674088,0.023496262800160924,0.8965491472063821,-0.13107012930478434,-0.9817428886890411,0.09112830157391727,1.7102323472499847,-0.2286350862983291,-5.063353478908539,0.750473141670227,24.268348515033722,0.0,0.0,0.0,0.0,0.0,0.0,0.0,0.0,True,0,3.424262285232544,0.02993603515625
STABILIZE,3.4225895404815674,29.885454519544552,0.0325196107228597,0.03264784812927246,0.0,0.0,0.0,0.7133274545563836,0.029420292797889453,65.21130623277762,-0.0006072473050065747,-0.009566567781707388,-0.0626237934928687,0.4,-0.19992645847787854,0.021810205827261776,0.8929991945089564,-0.1252475869857374,0.08091524359770119,-0.060491194017231464,1.697980985045433,0.03120423949151894,-8.378025144338608,-1.270292792469263,20.7185760140419,0.0,0.0,0.0,0.0,0.0,0.0,0.0,0.0,True,0,3.4566171169281006,0.034926025390625
STABILIZE,3.4560546875,29.88140918320094,0.03250745137532552,0.03264021873474121,0.0,0.0,0.0,0.7136708850055883,0.028407290366611937,65.204612647391,-0.0013654863012575002,-0.016457563380185287,-0.061432580404941,0.4,-0.21236638540560945,0.02249714056811506,0.8930749771378412,-0.122865160809882,-1.091104093939066,0.07443426875397563,1.643729954957962,-0.15073575161791553,-32.74165689945221,4.574543610215187,23.26456904411316,0.0,0.0,0.0,0.0,0.0,0.0,0.0,0.0,True,0,3.4858579635620117,0.02993701171875
STABILIZE,3.4894967079162598,29.902499536594757,0.03249076207478841,0.032614946365356445,0.0,0.0,0.0,0.7125231997816146,0.02884911822854714,65.20960551567428,-0.0018995594608804333,-0.014405659017572873,-0.05551795733214243,0.4,-0.21701049068717748,0.02463678867227691,0.8798614945359294,-0.11103591466428486,-0.014942485722713172,0.14058159431442618,1.3187573291361332,0.2682938059816412,13.836999237537384,0.47668972983956337,11.879311501979828,0.0,0.0,0.0,0.0,0.0,0.0,0.0,0.0,True,0,3.54351806640625,0.034926025390625
STABILIZE,3.528507947921753,25.633167917471336,0.03247121175130208,0.0382997989654541,0.0,0.0,0.0,0.7120758223909787,0.02972861180589206,65.21863502575704,-0.0012570703332114238,-0.013018217758718286,-0.05551795733214243,0.4,-0.21701049068717748,0.02463678867227691,0.8798614945359294,-0.11103591466428486,-0.014942485722713172,0.14058159431442618,1.3187573291361332,0.2682938059816412,13.836999237537384,0.47668972983956337,11.879311501979828,0.0,0.0,0.0,0.0,0.0,0.0,0.0,0.0,True,0,3.54351806640625,0.034926025390625
STABILIZE,3.562117338180542,29.753589467113105,0.032620938618977864,0.03275609016418457,0.0,0.0,0.0,0.712797901452296,0.029071419541689895,65.21335528952861,-0.0014493445745042692,-0.007441243679314518,-0.052515588824372315,0.4,-0.20146493187207382,0.025221363409060303,0.8775309235328252,-0.10503117764874463,-0.4344295710325241,0.10544647229835391,1.6339544206857681,-0.3942598632342923,-22.540965676307678,6.758365780115128,27.751365303993225,0.0,0.0,0.0,0.0,0.0,0.0,0.0,0.0,True,0,3.6009154319763184,0.03492724609375
STABILIZE,3.5954699516296387,29.984372654289658,0.03246453603108724,0.03258109092712402,0.0,0.0,0.0,0.7131954398063319,0.02828295957937655,65.22129879953334,-0.0007850508942396083,-0.012803773835251282,-0.05008977472645358,0.4,-0.20346185584321555,0.023793954435983866,0.8815925039394658,-0.10017954945290716,-0.4777223337441683,-0.050805084174498916,1.8604105338454247,0.02883181597199732,5.10956346988678,-1.1245200410485268,21.693938970565796,0.0,0.0,0.0,0.0,0.0,0.0,0.0,0.0,True,0,3.6298117637634277,0.029935791015625
STABILIZE,3.6289970874786377,29.825949682135594,0.03254869778951009,0.03267645835876465,0.0,0.0,0.0,0.7132151833219015,0.0294649024709061,65.22597064892562,-3.573769922867548e-05,-0.006503576728918117,-0.04572580228612628,0.4,-0.18756442772633522,0.020455875271736524,0.8781286962083539,-0.09145160457225256,0.5465271417051554,-0.15703882090747356,1.6535356640815735,0.2638471127081249,19.408202171325684,-2.9319746419787407,23.78409206867218,0.0,0.0,0.0,0.0,0.0,0.0,0.0,0.0,True,0,3.658414840698242,0.03492724609375
STABILIZE,3.662463426589966,29.88077054599339,0.03247097333272298,0.03258514404296875,0.0,0.0,0.0,0.7139647965833104,0.029493824053172874,65.22419479974143,-0.0005832303232903147,-0.0034183791371549285,-0.04109293880686695,0.4,-0.16575173016347972,0.01918298096412422,0.8776174645784144,-0.0821858776137339,0.03237225173506886,0.1604663673788309,1.5133334323763847,-0.2079698820569927,-7.635833323001862,2.9273323714733124,20.00972181558609,0.0,0.0,0.0,0.0,0.0,0.0,0.0,0.0,True,0,3.7158987522125244,0.034926025390625
STABILIZE,3.6958320140838623,29.96830477714743,0.03244212468465169,0.03256821632385254,0.0,0.0,0.0,0.7140627671092178,0.028172182448775406,65.22441336579486,-0.0016191796999113343,-0.01131366764218717,-0.03941496339618947,0.4,-0.16957022615578374,0.021029662737229202,0.8756416799786483,-0.07882992679237893,-0.598566047847271,0.1495370757766068,1.4902865514159203,-0.03712555993467042,-14.57453966140747,0.8538302034139633,14.544689655303955,0.0,0.0,0.0,0.0,0.0,0.0,0.0,0.0,True,0,3.744462251663208,0.029936767578125
STABILIZE,3.7293014526367188,29.877577769388033,0.032517226537068684,0.03265643119812012,0.0,0.0,0.0,0.7138445212208947,0.027481266125546303,65.23082008323634,-0.0006821787724809189,-0.005649951135026069,-0.038276473601394675,0.4,-0.15696718633003873,0.01994957342337004,0.8700676150552119,-0.07655294720278935,0.366040226072073,-0.021449603082146496,1.519780233502388,-0.09143843714203168,8.6928591132164,2.9474204406142235,18.682071566581726,0.0,0.0,0.0,0.0,0.0,0.0,0.0,0.0,True,0,3.773392677307129,0.034926025390625
STABILIZE,3.7638115882873535,28.97719437631697,0.03251150449117025,0.0337224006652832,0.0,0.0,0.0,0.7139994811376893,0.02786236933689186,65.2321246493678,-0.0014895276390801473,-0.00842186286301243,-0.037118603756747276,0.4,-0.1541242750028931,0.021365811652455335,0.8679423718642657,-0.07423720751349455,-0.18891757354140282,0.12288166908547282,1.4665769413113594,-0.08239624718660667,-15.660764276981354,0.9436928667128086,15.940821170806885,0.0,0.0,0.0,0.0,0.0,0.0,0.0,0.0,True,0,3.8020482063293457,0.02993701171875
STABILIZE,3.8032219409942627,25.373736396029063,0.03253296216328939,0.038600921630859375,0.0,0.0,0.0,0.7148909275460817,0.027693322154934044,65.2329237815007,-0.0012074135096006948,-0.010554133493154452,-0.03351265895298545,0.4,-0.15829252765302798,0.021783083817731832,0.8641061411160438,-0.0670253179059709,-0.630062585696578,0.06876554107293487,1.6070084646344185,0.22352751886176117,-5.9819296002388,-1.013149693608284,17.29476749897003,0.0,0.0,0.0,0.0,0.0,0.0,0.0,0.0,True,1,3.8310325145721436,0.034926025390625
STABILIZE,3.8367156982421875,29.857160144932696,0.03251388867696126,0.03263235092163086,0.0,0.0,0.0,0.7150438597504666,0.027702286778219686,65.23854502718763,-8.843062404843186e-05,-0.008077132544606501,-0.02749906388499646,0.4,-0.15433638299131067,0.018893637027401447,0.8626884090430277,-0.05499812776999292,0.19299155101180077,-0.1689429976977408,1.4722105115652084,0.08773816881896405,10.440155863761902,-1.1154473759233952,12.98893690109253,0.0,0.0,0.0,0.0,0.0,0.0,0.0,0.0,True,0,3.888160467147827,0.034927001953125
STABILIZE,3.8701953887939453,29.86757815281635,0.03246501286824544,0.03266263008117676,0.0,0.0,0.0,0.7148915678763165,0.027822989027458504,65.23983593294075,-3.564774723955103e-05,-0.007654009806105715,-0.026156507419528467,0.4,-0.1498533035590934,0.0162634139167012,0.8644042238152079,-0.05231301483905693,-0.06652119918726385,-0.11770734563469887,1.6929874196648598,-0.0341397367359034,-14.961299300193787,-0.901850126683712,19.23985779285431,0.0,0.0,0.0,0.0,0.0,0.0,0.0,0.0,True,0,3.9172661304473877,0.034926025390625
STABILIZE,3.903650999069214,29.891205039944698,0.032509835561116536,0.03263425827026367,0.0,0.0,0.0,0.7148135543093902,0.027756074517933535,65.24052578204693,-0.0012260941397705617,-0.009356269988522693,-0.024411356189618705,0.4,-0.15087282836560098,0.017423391914751105,0.8627086191398182,-0.04882271237923741,-0.39157955907285213,0.1091448008082807,1.492829155176878,0.02290146420449408,-6.483285129070282,1.1760681867599487,20.68355083465576,0.0,0.0,0.0,0.0,0.0,0.0,0.0,0.0,True,0,3.945563316345215,0.02993701171875
STABILIZE,3.9371228218078613,29.878641952442692,0.03249362309773763,0.032614946365356445,0.0,0.0,0.0,0.714498191668806,0.027331749015746493,65.24315540487738,-0.0012439379294791034,-0.008014672304980994,-0.022709667429768828,0.4,-0.14798535004929161,0.01847317675398567,0.8624139313811845,-0.045419334859537655,-0.18033990636467934,0.10450903791934252,1.8158704042434692,0.03788281713825592,9.875258058309555,-0.6699437275528908,24.32895004749298,0.0,0.0,0.0,0.0,0.0,0.0,0.0,0.0,True,0,3.9743149280548096,0.039916015625
STABILIZE,3.970529079437256,29.93194793331811,0.03245070775349935,0.0325770378112793,0.0,0.0,0.0,0.7141232783163958,0.027572940070812568,65.24632461265226,-0.0012688443059430598,-0.003816948723221471,-0.022469576868727442,0.4,-0.13388708641963992,0.01945368721260693,0.8630219649470168,-0.044939153737454884,0.5401691421866417,0.09038327843882143,1.3775840401649475,-0.1506317379754183,4.2952872812747955,-2.773422934114933,17.589326202869415,0.0,0.0,0.0,0.0,0.0,0.0,0.0,0.0,True,0,4.006084442138672,0.02993603515625
