Mode,Time,Freq,time2delay,actualDelay,North-Desired,East-Desired,Down-Desired,Roll-UAV,Pitch-UAV,Yaw-UAV,Roll-Control,Pitch-Control,Yaw-Control,Thrust-Control,North-Pos,East-Pos,Down-Pos,Yaw-Ang,North-Vel,East-Vel,Down-Vel,Yaw-Vel,North-Acc,East-Acc,Down-Acc,North-Raw,East-Raw,Down-Raw,Yaw-Raw,North-Dif,East-Dif,Down-Dif,Yaw-Dif,Landing-State,Q-Size,Kalman-Time,Kalman-Dt
STABILIZE,0.034314632415771484,29.150188343549754,0.033309253056844075,0.03343701362609863,0.0,0.0,0.0,1.4324390121227102,-0.08717562536757681,12.58208698424548,-0.016623350627444928,0.017515300081062894,0.02523754437191598,0.4,0.050361904417422776,0.050621641353570786,0.06074939276885338,0.05047508874383196,-0.14426895650103688,0.08051887270994484,1.7921369522809982,-0.17626751900373888,0.503917783498764,-1.5253384597599506,25.450649857521057,0.0,0.0,0.0,0.0,0.0,0.0,0.0,0.0,False,0,0.08715176582336426,0.034925048828125
STABILIZE,0.06796574592590332,29.716277586878743,0.032369407018025716,0.032796621322631836,0.0,0.0,0.0,1.4338327976002159,-0.08712941486897344,12.584603055180983,-0.008626316234919103,0.01016484848200157,0.03603282896601757,0.4,0.07247691686239291,0.07236756426715983,0.0932580794205202,0.07206565793203513,0.1335382228717208,-0.03095456340815872,1.8432628363370895,-0.04842088855803314,4.377415776252747,0.1430085627362132,26.188600063323975,0.0,0.0,0.0,0.0,0.0,0.0,0.0,0.0,False,0,0.1158299446105957,0.034923828125
STABILIZE,0.10888671875,24.43734669502141,0.032488139470418294,0.0401301383972168,0.0,0.0,0.0,1.4337678040813948,-0.08666891070852649,12.585775286397286,-0.007323862913349935,0.009674552682874477,0.04580193965673433,0.4,0.09307446406240133,0.0910947351201322,0.12449512705132881,0.09160387931346867,0.4763458389788866,0.043684631236828864,1.5712345018982887,0.2600236208355194,4.35638502240181,-1.5915533527731895,25.08493661880493,0.0,0.0,0.0,0.0,0.0,0.0,0.0,0.0,False,0,0.1445310115814209,0.02993603515625
STABILIZE,0.1426081657409668,29.655346979177715,0.03253939946492513,0.03290057182312012,0.0,0.0,0.0,1.4323669749713077,-0.0850402307565958,12.58794984787429,-0.006805517536529129,0.00982910305115575,0.052602141386154475,0.4,0.10803391391180225,0.10350195917499296,0.14981596912200132,0.10520428277230895,0.4763458389788866,0.043684631236828864,1.5712345018982887,0.2600236208355194,4.35638502240181,-1.5915533527731895,25.08493661880493,0.0,0.0,0.0,0.0,0.0,0.0,0.0,0.0,False,0,0.1732769012451172,0.02993603515625
STABILIZE,0.17606902122497559,29.88694518273609,0.03248599370320638,0.032648563385009766,0.0,0.0,0.0,1.4327809484680338,-0.08486734159322984,12.589165621546552,-0.0063594769202487585,0.009007483889439795,0.05829062548850858,0.4,0.11841140044728321,0.11334680717916232,0.1751582333748583,0.11658125097701716,-0.10591498576104641,-0.08478754898533225,1.6286512836813927,0.13630312167464223,-2.3743778467178345,0.15351991169154644,26.892632246017456,0.0,0.0,0.0,0.0,0.0,0.0,0.0,0.0,False,1,0.20251870155334473,0.03516064453125
STABILIZE,0.21040582656860352,29.12326845763406,0.0325200875600179,0.03350424766540527,0.0,0.0,0.0,1.4328318547216916,-0.08433896242790588,12.59181061230264,-0.011758095724895081,0.014110195398307046,0.07117496166865327,0.4,0.14247016292773074,0.13922446053152054,0.24734597558517082,0.14234992333730653,-0.11861621169373393,-0.07632271735928953,2.0573537796735764,-0.03684006603149182,1.73648651689291,-1.837334968149662,24.14303570985794,0.0,0.0,0.0,0.0,0.0,0.0,0.0,0.0,False,0,0.2593507766723633,0.02494580078125
STABILIZE,0.24393844604492188,29.82319271325877,0.03248408635457357,0.03261876106262207,0.0,0.0,0.0,1.4337093205866267,-0.08365039398220397,12.59359158412872,-0.005136917866856084,0.006882599806012642,0.07232103083494189,0.4,0.14181650821548109,0.14209226897002603,0.26839231548538306,0.14464206166988378,-0.32784496434032917,0.10717475088313222,1.958560012280941,0.026776532676471808,-10.594607889652252,2.309572696685791,19.568145275115967,0.0,0.0,0.0,0.0,0.0,0.0,0.0,0.0,False,0,0.2880408763885498,0.034925048828125
STABILIZE,0.27727651596069336,29.992305822118617,0.0323822816212972,0.03250455856323242,0.0,0.0,0.0,1.4348041785662387,-0.08294869876669095,12.594971282341064,-0.006688915853533187,0.011024977329730816,0.07652062652213885,0.4,0.15313831319592763,0.149375688169629,0.3010047489235677,0.1530412530442777,0.518736382946372,0.04285603063181043,1.8624044954776764,0.15202727102085617,2.4502594023942947,0.2897402737289667,23.138320446014404,0.0,0.0,0.0,0.0,0.0,0.0,0.0,0.0,False,0,0.3167150020599365,0.034925048828125
STABILIZE,0.3107438087463379,29.88077054599339,0.032517464955647786,0.03263044357299805,0.0,0.0,0.0,1.4352422711684714,-0.08313108616187144,12.597043390980515,-0.006468867641740964,0.009150882264220648,0.08034369715142836,0.4,0.15746947798686153,0.155336857809564,0.33067014274573087,0.16068739430285672,-0.13326865155249834,0.0534197548404336,1.5894481912255287,0.2063823033020011,4.433996602892876,0.1292400760576129,18.463627994060516,0.0,0.0,0.0,0.0,0.0,0.0,0.0,0.0,False,0,0.34586167335510254,0.0349248046875
STABILIZE,0.344210147857666,29.88140918320094,0.0324738343556722,0.03258943557739258,0.0,0.0,0.0,1.4341620340625516,-0.08365626367602196,12.6005319100991,-0.006337937203272586,0.009994806650982553,0.08432828917639873,0.4,0.16359889122429871,0.16034520236028146,0.35712453276314116,0.16865657835279746,0.19020502222701907,0.08320431807078421,1.3576947152614594,0.3404706027361345,7.620981335639954,2.1491218358278275,19.511015713214874,0.0,0.0,0.0,0.0,0.0,0.0,0.0,0.0,False,0,0.37409019470214844,0.029936279296875
STABILIZE,0.37753891944885254,30.00303299092964,0.03244593938191732,0.03256368637084961,0.0,0.0,0.0,1.435805548331586,-0.08441099957930837,12.603863334866773,-0.005005173228150042,0.009905470171098453,0.08565061095022461,0.4,0.16858444871743003,0.1608471197339763,0.37708692172812086,0.17130122190044922,0.3879324998706579,-0.021857651881873608,1.4233342371881008,0.1535795515716606,6.4787693321704865,0.03607883700169623,21.282561123371124,0.0,0.0,0.0,0.0,0.0,0.0,0.0,0.0,False,0,0.4030156135559082,0.034925048828125
STABILIZE,0.4110851287841797,29.810686719072056,0.03256181081136068,0.03269386291503906,0.0,0.0,0.0,1.4356166509123527,-0.08348817698941617,12.604525863216265,-0.006183136849396083,0.011813696739468674,0.08960470501295685,0.4,0.17834342273834336,0.1648641936801044,0.43014796945430256,0.1792094100259137,0.0868704984895885,0.07369733066298068,1.6936546191573143,0.15274376053283314,0.7530861534178257,0.17722650663927197,26.341915130615234,0.0,0.0,0.0,0.0,0.0,0.0,0.0,0.0,False,0,0.46256375312805176,0.02993603515625
STABILIZE,0.4445521831512451,29.882260741943988,0.03246501286824544,0.03258705139160156,0.0,0.0,0.0,1.4352454728196449,-0.08341219113489978,12.605484651021005,-0.004803332116792485,0.008840656140125042,0.08991476385337671,0.4,0.17816728747649055,0.16434647079401138,0.4509574992817953,0.17982952770675342,0.0868704984895885,0.07369733066298068,1.6936546191573143,0.15274376053283314,0.7530861534178257,0.17722650663927197,26.341915130615234,0.0,0.0,0.0,0.0,0.0,0.0,0.0,0.0,False,0,0.4911003112792969,0.02993603515625
STABILIZE,0.4783036708831787,29.626230805091332,0.032430442174275716,0.0328671932220459,0.0,0.0,0.0,1.4363222948309797,-0.08230079129089177,12.608486519161225,-0.004372732115336691,0.008463190365633835,0.09077745594135024,0.4,0.17692110365080346,0.16255431947830745,0.4712765742124128,0.18155491188270048,0.03447986673563719,0.0004707199423137354,1.6890479251742363,0.26864732163204225,2.031620964407921,-1.8696824088692665,21.828649938106537,0.0,0.0,0.0,0.0,0.0,0.0,0.0,0.0,False,0,0.5202944278717041,0.034925048828125
STABILIZE,0.5119264125823975,29.74536015942471,0.03244474728902181,0.03257393836975098,0.0,0.0,0.0,1.4356657428970123,-0.08273119993030835,12.609452990928782,-0.004405389472985266,0.009168491841501017,0.09206687387426975,0.4,0.1778852173646444,0.16103269240857188,0.4973058423124076,0.1841337477485395,0.09592104470357299,-0.07179666426964104,1.6917778179049492,0.20753860630371665,1.8554264679551125,0.0044675805838778615,19.475984573364258,0.0,0.0,0.0,0.0,0.0,0.0,0.0,0.0,False,0,0.5487923622131348,0.034925048828125
STABILIZE,0.5453741550445557,29.892909322861357,0.03224829037984212,0.03257942199707031,0.0,0.0,0.0,1.4360593325479343,-0.0830128385118656,12.61164462787871,-0.004132549503845449,0.008994278705053333,0.09307253455929339,0.4,0.17821187658183615,0.15880833926802318,0.5224519084427421,0.18614506911858678,0.09592104470357299,-0.07179666426964104,1.6917778179049492,0.20753860630371665,1.8554264679551125,0.0044675805838778615,19.475984573364258,0.0,0.0,0.0,0.0,0.0,0.0,0.0,0.0,False,0,0.5773959159851074,0.034925048828125
STABILIZE,0.5788562297821045,29.868641623642514,0.03247574170430501,0.03261518478393555,0.0,0.0,0.0,1.4362821674696058,-0.08272010087290708,12.613821750676651,-0.004940048857670687,0.0089216713759598,0.09246005225258709,0.4,0.17828921065717082,0.15925534117016438,0.5481630658113553,0.18492010450517418,0.118580786511302,0.16185188433155417,1.7971301451325417,0.013873875112441291,3.1276095658540726,2.344423532485962,28.906959295272827,0.0,0.0,0.0,0.0,0.0,0.0,0.0,0.0,False,0,0.6115303039550781,0.029934814453125
STABILIZE,0.6122760772705078,29.920844628334997,0.03243401845296224,0.032552242279052734,0.0,0.0,0.0,1.437044373892297,-0.08263867221139584,12.615227062098382,-0.004130537080976082,0.008288594330032852,0.09204626378969925,0.4,0.1765343890722548,0.15720811637273574,0.5670227829762999,0.1840925275793985,0.12755169300362468,0.09778232779353857,1.810021512210369,0.19451327547394368,1.6453061252832413,-1.5561508014798164,31.589403748512268,0.0,0.0,0.0,0.0,0.0,0.0,0.0,0.0,False,0,0.6400659084320068,0.034925048828125
STABILIZE,0.645740270614624,29.882899442853276,0.03246811230977376,0.03261160850524902,0.0,0.0,0.0,1.4372488526805742,-0.08280505135070912,12.616167920656551,-0.003840353226467265,0.006480596811419436,0.09087368896697787,0.4,0.16984383468889047,0.15448201809903958,0.6212495196528255,0.18174737793395573,-0.04965857369825244,0.040673979674465954,1.9523147493600845,0.08425446551735342,5.736003071069717,0.01945566909853369,19.679582118988037,0.0,0.0,0.0,0.0,0.0,0.0,0.0,0.0,False,0,0.6973261833190918,0.02524267578125
STABILIZE,0.6791443824768066,29.93622062979987,0.03247049649556478,0.03259015083312988,0.0,0.0,0.0,1.4385685732942677,-0.08338636448210067,12.61978962846395,-0.003912529206078902,0.007428984051354426,0.08850440318617454,0.4,0.1668334854999196,0.15221912427687254,0.6268615968474136,0.1770088063723491,0.1728541566990316,0.1919882488436997,1.4993435703217983,0.07282836611882207,1.784616895020008,0.12993820710107684,22.16470241546631,0.0,0.0,0.0,0.0,0.0,0.0,0.0,0.0,False,0,0.7264270782470703,0.034925048828125
STABILIZE,0.7128286361694336,29.6880923562596,0.03251007397969564,0.03289985656738281,0.0,0.0,0.0,1.439284249053238,-0.08252127833503624,12.620005633196453,-0.0036906171862071888,0.006842729917887339,0.08684133598230798,0.4,0.16254301029779217,0.14947490444749234,0.6463202901745004,0.17368267196461595,-0.058213144075125456,0.027507662889547646,1.6368811950087547,0.004673481900881848,0.927162729203701,-0.05514415679499507,18.73268336057663,0.0,0.0,0.0,0.0,0.0,0.0,0.0,0.0,False,0,0.7660503387451172,0.039913818359375
STABILIZE,0.7463555335998535,29.826585978111687,0.03254297574361165,0.032679080963134766,0.0,0.0,0.0,1.4378006038994644,-0.08150176587970606,12.621401553108074,-0.004305318214841684,0.006443605201237645,0.08649616770349074,0.4,0.15775207243289166,0.14887129427915596,0.6697233835681516,0.17299233540698147,-0.12514509726315737,0.12620685156434774,1.5726592391729355,0.128687460750078,1.8070187419652939,0.23617041297256947,26.334071159362793,0.0,0.0,0.0,0.0,0.0,0.0,0.0,0.0,False,0,0.7834324836730957,0.024946044921875
STABILIZE,0.779923677444458,29.790148797897654,0.03246954282124837,0.032602548599243164,0.0,0.0,0.0,1.4380189565094932,-0.08196696579520739,12.623412190044997,-0.002569290404662588,0.005014254194513373,0.08484454365467205,0.4,0.1495390008197709,0.14305933518658698,0.6775964333750867,0.1696890873093441,-0.15892941737547517,-0.030261973734013736,1.823853887617588,0.18177478590888477,-1.5124035067856312,0.20507702138274908,27.684691548347473,0.0,0.0,0.0,0.0,0.0,0.0,0.0,0.0,False,0,0.8121428489685059,0.034925048828125
STABILIZE,0.8132963180541992,29.965521429438954,0.03235653241475423,0.03250432014465332,0.0,0.0,0.0,1.4379500142875583,-0.08122983897337492,12.625120591111145,-0.003346366696791407,0.006936241084157816,0.08383498213667072,0.4,0.14801657638634083,0.14012176828373576,0.6933993284693949,0.16766996427334144,0.16541557852178812,0.047535699559375644,1.5650991350412369,0.12806268520400696,5.569799244403839,0.11912842746824026,20.8156555891037,0.0,0.0,0.0,0.0,0.0,0.0,0.0,0.0,False,0,0.8408827781677246,0.034925048828125
STABILIZE,0.846721887588501,29.91486933698505,0.03244736989339193,0.032586097717285156,0.0,0.0,0.0,1.4371673172973571,-0.08110582835125688,12.626596765745514,-0.0017147210103474065,0.0032960891802998396,0.08214244238545652,0.4,0.13626874355829532,0.13252756905336333,0.7204047378513425,0.16428488477091305,0.14168844791129231,0.019910479022655636,1.5695206820964813,0.06876726503840074,6.465737521648407,0.14091730117797852,23.37939441204071,0.0,0.0,0.0,0.0,0.0,0.0,0.0,0.0,False,0,0.8984396457672119,0.0349248046875
STABILIZE,0.8802027702331543,29.87013061003575,0.032486947377522786,0.03260087966918945,0.0,0.0,0.0,1.4375933503468368,-0.08076303823228687,12.627588850722459,-0.003503201066237366,0.004623980341670135,0.08344006273204065,0.4,0.13002493173786536,0.13105016644350656,0.7371166513482772,0.1668801254640813,-0.1174167962744832,0.1547279069200158,1.7745120450854301,0.4342791955614399,4.151639714837074,0.19445823272690177,22.783449292182922,0.0,0.0,0.0,0.0,0.0,0.0,0.0,0.0,False,0,0.9274744987487793,0.034925048828125
STABILIZE,0.9136307239532471,29.913589227894505,0.03243115743001302,0.032572269439697266,0.0,0.0,0.0,1.437044373892297,-0.07981673686712276,12.628218081899746,-0.003449241357304234,0.004272980919567802,0.08474157625499704,0.4,0.12366748515535733,0.12954537513311234,0.7529382750152209,0.16948315250999407,-0.1174167962744832,0.1547279069200158,1.7745120450854301,0.4342791955614399,4.151639714837074,0.19445823272690177,22.783449292182922,0.0,0.0,0.0,0.0,0.0,0.0,0.0,0.0,False,0,0.9557533264160156,0.034925048828125
STABILIZE,0.9471309185028076,29.852272565515083,0.03247216542561849,0.03261303901672363,0.0,0.0,0.0,1.4375094670860926,-0.07860587239332643,12.629045388562965,-0.0011723606510161105,0.0033501338033841274,0.08541482987454982,0.4,0.1155570486908275,0.12126332854194313,0.7631380105921965,0.17082965974909964,-0.21980083547532558,-0.25702205020934343,1.4852368272840977,0.3582679679594985,-3.030911087989807,-5.880770832300186,19.513356685638428,0.0,0.0,0.0,0.0,0.0,0.0,0.0,0.0,False,0,0.9845273494720459,0.029935302734375
STABILIZE,0.9805982112884521,29.880557672990474,0.032425912221272786,0.032559871673583984,0.0,0.0,0.0,1.4364025495537274,-0.07771538648028602,12.631320695330224,-0.0024064726056841437,0.003009088088889608,0.08223364333779964,0.4,0.10763902125113328,0.11749190011497161,0.7691060451931776,0.1644672866755993,-0.19501924980431795,0.047516170889139175,1.625894196331501,-0.05416149246771027,-3.1663328409194946,0.1723074819892645,22.577515244483948,0.0,0.0,0.0,0.0,0.0,0.0,0.0,0.0,False,0,1.0131030082702637,0.0349248046875
STABILIZE,1.0140705108642578,29.873747337981925,0.03240516980489095,0.03261899948120117,0.0,0.0,0.0,1.4348060995569427,-0.07732499848053748,12.63487751634051,-0.002483036242879733,0.004551575881085192,0.08234706529185506,0.4,0.10527520481373902,0.11427869043628516,0.7825726052783089,0.16469413058371013,0.12821989366784692,0.05451324977912009,1.761641912162304,0.29705586597869715,3.34232822060585,-1.6639996320009232,26.911520957946777,0.0,0.0,0.0,0.0,0.0,0.0,0.0,0.0,False,0,1.0420498847961426,0.034925048828125
STABILIZE,1.0476140975952148,29.813017549595912,0.0324590524037679,0.03260374069213867,0.0,0.0,0.0,1.4346828359867652,-0.07783160641788202,12.63528049750154,-0.0011602273036623648,0.00431909772109563,0.08046787653968339,0.4,0.10257658326274731,0.10734466898356575,0.8073767199196276,0.16093575307936678,0.2296088496223092,0.022286380408331752,1.7756544053554535,0.052382748457237636,0.029670260846614838,4.144811257719994,24.447476863861084,0.0,0.0,0.0,0.0,0.0,0.0,0.0,0.0,False,0,1.099325180053711,0.034925048828125
STABILIZE,1.0809876918792725,29.962738598696994,0.03239420255025228,0.03252243995666504,0.0,0.0,0.0,1.4367523833052789,-0.07764601737152808,12.638422384519746,-0.002453119690900997,0.0031022488949384334,0.07838689944173742,0.4,0.09679061429484451,0.10498757734229489,0.8163640774455284,0.15677379888347484,-0.09604094084352255,0.10260633425787091,1.63262989372015,0.045857069664352414,-9.195900708436966,-1.7362959682941437,24.015305936336517,0.0,0.0,0.0,0.0,0.0,0.0,0.0,0.0,False,0,1.132676601409912,0.02993603515625
STABILIZE,1.1145603656768799,29.785917693427546,0.032462151845296223,0.03272557258605957,0.0,0.0,0.0,1.4361372393931546,-0.07729180803003945,12.642276318758926,-0.0015338771144860841,0.0023315620304401696,0.07699002393996741,0.4,0.08959153456063985,0.10003940332915379,0.8224396077700441,0.15398004787993483,-0.17897826619446278,-0.041820461046881974,1.8256984651088715,0.16953834192824827,-3.5622011870145798,-1.7444385215640068,24.153658747673035,0.0,0.0,0.0,0.0,0.0,0.0,0.0,0.0,False,0,1.1607530117034912,0.0399140625
STABILIZE,1.1481342315673828,29.78443709079547,0.03248647054036458,0.03281521797180176,0.0,0.0,0.0,1.4369933609169334,-0.07660270597580864,12.64373285659943,-0.0014776130737629179,0.0022757346086173112,0.07472890997099073,0.4,0.08325688399861303,0.0953662242157463,0.8371233539348146,0.14945781994198146,-0.13611397007480264,-0.052932981634512544,1.706436648964882,-0.009973503591033443,0.7324798032641411,4.095293954014778,25.207233428955078,0.0,0.0,0.0,0.0,0.0,0.0,0.0,0.0,False,0,1.1892645359039307,0.029935791015625
STABILIZE,1.181595802307129,29.884602778767366,0.03256800969441732,0.032689571380615234,0.0,0.0,0.0,1.4376311298306834,-0.07703962463927788,12.646105493562363,-0.0024992560471472384,0.0036739094109984613,0.07431871939986354,0.4,0.08187431264343861,0.09423761042775494,0.8398435341407088,0.14863743879972707,0.15325425192713737,0.17617795383557677,1.7031533643603325,0.285049727439137,-1.944747380912304,-1.5035832300782204,28.03139090538025,0.0,0.0,0.0,0.0,0.0,0.0,0.0,0.0,False,0,1.2178630828857422,0.02993505859375
STABILIZE,1.215139389038086,29.814077138510967,0.03255322774251302,0.032682180404663086,0.0,0.0,0.0,1.437185033100517,-0.07683674667658735,12.649275555110895,-0.002499576196811591,0.0036494761583683692,0.0739510038250834,0.4,0.08061925845185229,0.09321281908311455,0.8424903968485119,0.1479020076501668,0.15325425192713737,0.17617795383557677,1.7031533643603325,0.285049727439137,-1.944747380912304,-1.5035832300782204,28.03139090538025,0.0,0.0,0.0,0.0,0.0,0.0,0.0,0.0,False,0,1.2466893196105957,0.02993505859375
STABILIZE,1.2485878467559814,29.895892285651154,0.03245261510213216,0.03263401985168457,0.0,0.0,0.0,1.43764841874702,-0.07607955617406796,12.648307375796046,-0.002198669342759773,0.0021140866461137947,0.07325302757005504,0.4,0.07513583397776122,0.09137710574642857,0.8451460080704454,0.1465060551401101,-0.10971970623359084,0.12129516107961535,1.708247885107994,0.24035379660379336,-4.5821599662303925,2.354423888027668,25.579625368118286,0.0,0.0,0.0,0.0,0.0,0.0,0.0,0.0,False,0,1.2752594947814941,0.0349248046875
STABILIZE,1.2880291938781738,25.35349053695454,0.0325045903523763,0.038588762283325195,0.0,0.0,0.0,1.4378851274904432,-0.07607742173995234,12.649646946647016,-0.0015291286982935764,0.0011375912909026233,0.06827883333960325,0.4,0.06651983840372439,0.08709280399800687,0.8565603065991391,0.1365576666792065,0.07991096936166286,0.12828635517507792,1.3654696755111217,-0.12620895585500963,0.6263185292482376,0.18955313134938478,17.40434616804123,0.0,0.0,0.0,0.0,0.0,0.0,0.0,0.0,False,0,1.332704782485962,0.029936279296875
STABILIZE,1.3214433193206787,29.928317100146277,0.0324740727742513,0.03258991241455078,0.0,0.0,0.0,1.4363908101660914,-0.07509238039558956,12.657587895330801,-0.001167946375907357,0.0011252813816416188,0.067450144326802,0.4,0.06023001648265253,0.08269911596739907,0.8600206639266875,0.134900288653604,-0.18203785875812173,-0.0476486689876765,1.8277842551469803,0.21498762128470314,-3.623100370168686,0.27984133921563625,22.906267642974854,0.0,0.0,0.0,0.0,0.0,0.0,0.0,0.0,False,0,1.3613903522491455,0.034925048828125
STABILIZE,1.3549792766571045,29.819164213908913,0.03249672253926595,0.03262495994567871,0.0,0.0,0.0,1.4357442900724673,-0.07475535324873174,12.658088206687504,-0.002405468231451613,0.0011572414725417235,0.06481244910614466,0.4,0.0549314607948598,0.08246158902190276,0.8636535369251822,0.1296248982122893,-0.12234378373250365,0.18840542761608958,1.5346795320510864,-0.03461996106654678,-3.036222979426384,2.33923252671957,23.08272272348404,0.0,0.0,0.0,0.0,0.0,0.0,0.0,0.0,False,0,1.3906567096710205,0.034923583984375
STABILIZE,1.3885462284088135,29.791629968463223,0.03240564664204915,0.03271842002868652,0.0,0.0,0.0,1.4349402487411098,-0.07534659149876097,12.660389126664153,-0.0016673636483746602,0.0013494560055545741,0.06526342696087209,0.4,0.05092090285019459,0.07998898936481882,0.8731952913896961,0.13052685392174418,-0.051045394502580166,0.04918207414448261,1.9224224612116814,0.33551860886616947,9.103799611330032,2.3152492940425873,26.91558599472046,0.0,0.0,0.0,0.0,0.0,0.0,0.0,0.0,False,0,1.4193751811981201,0.029936279296875
STABILIZE,1.4220075607299805,29.883112349223765,0.03247836430867513,0.032631635665893555,0.0,0.0,0.0,1.4338940558593343,-0.07525374361473111,12.663981806167579,-0.0008916996147727387,0.0018864004412725113,0.06306965262049771,0.4,0.049034409871772315,0.07538767532508679,0.8719928063349457,0.12613930524099543,0.05739789339713752,-0.0746935314964503,1.605403982102871,0.037810273058750975,-0.506853498518467,-3.7524525076150894,17.62891560792923,0.0,0.0,0.0,0.0,0.0,0.0,0.0,0.0,False,0,1.4536659717559814,0.034925048828125
STABILIZE,1.455526351928711,29.835072519436917,0.03249409993489583,0.03264141082763672,0.0,0.0,0.0,1.4337653494821618,-0.0751145785103921,12.664103042025348,-0.001457791525998067,0.0008543810239898875,0.06155968042183129,0.4,0.04446328842117831,0.07293699307248604,0.8684479724094404,0.12311936084366258,-0.10137389181181788,0.04302379093132913,1.1661604978144169,0.09163692617457195,-0.2685578539967537,4.016830399632454,14.166682958602905,0.0,0.0,0.0,0.0,0.0,0.0,0.0,0.0,False,0,1.4824793338775635,0.0349248046875
STABILIZE,1.4889154434204102,29.94968760041415,0.032418282826741536,0.03253030776977539,0.0,0.0,0.0,1.4352787699918488,-0.07540315400282514,12.664574325078078,-0.0018869007642820354,-0.0009758983109189537,0.05698095357177045,0.4,0.035311969469482826,0.0720278048665871,0.8673020712931019,0.1139619071435409,0.058550352696329355,0.0727567938156426,1.2888308614492416,0.03295454216740082,3.994392976164818,0.22645751014351845,21.831423044204712,0.0,0.0,0.0,0.0,0.0,0.0,0.0,0.0,False,0,1.539879322052002,0.034925048828125
STABILIZE,1.5223538875579834,29.90484474706784,0.03248408635457357,0.032620906829833984,0.0,0.0,0.0,1.4359092818296055,-0.07606568235231638,12.666848778071692,-0.001353661420283687,0.0022863683838766874,0.05491811611385481,0.4,0.036811994068135255,0.06956032315825236,0.8693918333489206,0.10983623222770962,0.24154458660632372,0.02663483319338411,1.5597661957144737,0.016140217256416147,-2.9846947640180588,0.21470054052770138,24.655717611312866,0.0,0.0,0.0,0.0,0.0,0.0,0.0,0.0,False,0,1.568532943725586,0.034925048828125
STABILIZE,1.5563254356384277,29.43639770645743,0.03250912030537923,0.0332331657409668,0.0,0.0,0.0,1.4366674328274769,-0.076148391674297,12.669489499959548,-0.0013069404517498811,0.0024231662335808253,0.05287672933664078,0.4,0.03851290524594715,0.06713889858753377,0.8710937193309741,0.10575345867328156,0.24154458660632372,0.02663483319338411,1.5597661957144737,0.016140217256416147,-2.9846947640180588,0.21470054052770138,24.655717611312866,0.0,0.0,0.0,0.0,0.0,0.0,0.0,0.0,True,0,1.5973479747772217,0.034925048828125
STABILIZE,1.589871883392334,29.810474843460153,0.03258565266927083,0.032718658447265625,0.0,0.0,0.0,1.4371931439501564,-0.07640078850847012,12.670569523622056,-0.0015285075722874066,0.00029782000906258355,0.051323695512052195,0.4,0.033852847015125156,0.06565987302243313,0.8746345532305454,0.10264739102410439,-0.14634879771620035,0.07956339395605028,1.690003089606762,0.07087532555248849,1.7398128286004066,2.287452667951584,27.39635407924652,0.0,0.0,0.0,0.0,0.0,0.0,0.0,0.0,True,0,1.625915288925171,0.0349248046875
STABILIZE,1.6234662532806396,29.768582723549827,0.03248265584309896,0.032616615295410156,0.0,0.0,0.0,1.4361861179344027,-0.07593633564490926,12.670907617985971,-0.001204359336600801,0.001757311323488664,0.050789338340439846,0.4,0.034044281068536575,0.06332350476067306,0.8760001288331589,0.10157867668087969,0.13692273059859872,0.02492759085725993,1.5788448974490166,0.1867712560497342,9.716995060443878,-1.8072143197059631,21.601684391498566,0.0,0.0,0.0,0.0,0.0,0.0,0.0,0.0,True,0,1.6546037197113037,0.02993505859375
STABILIZE,1.6567895412445068,30.006467305766204,0.03234365781148275,0.03246498107910156,0.0,0.0,0.0,1.436704571981089,-0.07337917685267996,12.671057882147712,-0.001129903214638658,0.0018432895643965919,0.050208155410088634,0.4,0.03445419559877226,0.06097373077415533,0.8726118528619324,0.10041631082017727,0.13692273059859872,0.02492759085725993,1.5788448974490166,0.1867712560497342,9.716995060443878,-1.8072143197059631,21.601684391498566,0.0,0.0,0.0,0.0,0.0,0.0,0.0,0.0,True,0,1.6832315921783447,0.02993505859375
STABILIZE,1.690216302871704,29.917003095621904,0.0324738343556722,0.032605648040771484,0.0,0.0,0.0,1.43748726897129,-0.0740790577991947,12.673886434237744,0.0009443129049138574,0.0006125326842727983,0.04584645519288365,0.4,0.03126828996057013,0.052539043525609355,0.8772677238675349,0.0916929103857673,-0.15699954237788916,-0.18946380587294698,1.51181910187006,0.12633872944923988,2.386048249900341,0.19557811319828033,24.118249118328094,0.0,0.0,0.0,0.0,0.0,0.0,0.0,0.0,True,0,1.740736722946167,0.029936279296875
STABILIZE,1.72371244430542,29.85354743195536,0.032494576772054036,0.03263735771179199,0.0,0.0,0.0,1.4376003939794184,-0.07454201655887463,12.674056335193349,-0.0016613055991569325,0.0019990097375564802,0.043882141505054734,0.4,0.03252419145106637,0.05278860122988906,0.8758311238598036,0.08776428301010947,0.1765372813679278,0.16548647545278072,1.6886629164218903,-0.0004196380847659226,8.837644010782242,4.13007028400898,24.428169429302216,0.0,0.0,0.0,0.0,0.0,0.0,0.0,0.0,True,0,1.769479513168335,0.034925048828125
STABILIZE,1.7571444511413574,29.91166926966332,0.032465251286824544,0.0325925350189209,0.0,0.0,0.0,1.4353997924062047,-0.07566440873857813,12.680781510204872,-0.0009651514920200108,0.0006487123786573255,0.04252967339974927,0.4,0.029727489933477357,0.05090574492355341,0.8794537917548636,0.08505934679949854,-0.0697113573551178,0.030675900052301586,1.7133861780166626,0.06015887880665748,-1.7825640738010406,-1.7535127699375153,22.943618893623352,0.0,0.0,0.0,0.0,0.0,0.0,0.0,0.0,True,0,1.7981047630310059,0.029934814453125
STABILIZE,1.7905991077423096,29.891205039944698,0.03248098691304525,0.03261542320251465,0.0,0.0,0.0,1.4361363856195084,-0.07559279847399877,12.680619293212084,-0.0009281707972774988,0.0005502791211795359,0.04117546703469227,0.4,0.027048397608842905,0.04908216531872829,0.8783476678794675,0.08235093406938454,-0.0697113573551178,0.030675900052301586,1.7133861780166626,0.06015887880665748,-1.7825640738010406,-1.7535127699375153,22.943618893623352,0.0,0.0,0.0,0.0,0.0,0.0,0.0,0.0,True,0,1.8266363143920898,0.029934814453125
STABILIZE,1.8240556716918945,29.889713951797955,0.03248098691304525,0.03262972831726074,0.0,0.0,0.0,1.4351769574845332,-0.07271515439930779,12.681550760260144,-0.002043836336393656,0.0015616821727260641,0.04079749841315528,0.4,0.027656680981566536,0.05081312439105688,0.8739617034768736,0.08159499682631056,0.12656821636483073,0.24329025764018297,1.5009792521595955,0.17236565337845008,4.297514259815216,7.883819192647934,21.682392060756683,0.0,0.0,0.0,0.0,0.0,0.0,0.0,0.0,True,0,1.8560824394226074,0.034925048828125
STABILIZE,1.8575453758239746,29.85928567869067,0.03249505360921224,0.032648563385009766,0.0,0.0,0.0,1.4356401296876247,-0.07255293740651998,12.68839375603485,-0.00036755769870125816,-0.0030916833961631626,0.04104178158764491,0.4,0.014828599188677478,0.047307864709259774,0.8736054962370302,0.08208356317528982,-0.6927803624421358,-0.08414884214289486,1.4678152278065681,0.23485023827792334,-9.921279549598694,-5.906664207577705,18.58290135860443,0.0,0.0,0.0,0.0,0.0,0.0,0.0,0.0,True,0,1.8936874866485596,0.034925048828125
STABILIZE,1.8916304111480713,29.339414373452342,0.03247550328572591,0.033303260803222656,0.0,0.0,0.0,1.4392795532981837,-0.07395835554995588,12.680627830948547,-0.0005777368702608123,0.002434795922522199,0.04236293876292615,0.4,0.019768000124719333,0.04469146068455084,0.8695870379094808,0.0847258775258523,0.5349689163267612,0.05131871439516544,1.3103396631777287,0.18067539225677717,1.0060797445476055,-0.023944643908180296,13.158699870109558,0.0,0.0,0.0,0.0,0.0,0.0,0.0,0.0,True,0,1.9427285194396973,0.029935791015625
STABILIZE,1.925189733505249,29.797344434893187,0.03254583676656087,0.03269004821777344,0.0,0.0,0.0,1.4375320920877181,-0.07207791909408674,12.69961404929389,0.0013178729241778346,-0.0034187382173374178,0.04311266823847625,0.4,0.007119592562527054,0.03661615578661958,0.8629999431738828,0.0862253364769525,-0.6991985253989697,-0.3685584058985114,1.3953275978565216,0.29307194470187564,-19.3354994058609,11.54894158244133,7.0822663605213165,0.0,0.0,0.0,0.0,0.0,0.0,0.0,0.0,True,0,1.971400260925293,0.034925048828125
STABILIZE,1.9585812091827393,29.947549177108993,0.03244736989339193,0.032553911209106445,0.0,0.0,0.0,1.4366437406087935,-0.07445610558572056,12.709919950977792,-0.004948674294109969,-4.650879496330382e-05,0.03842767148641337,0.4,0.005986221959680142,0.04830950268299955,0.8654462621405598,0.07685534297282674,0.009240745566785336,0.8263376541435719,1.6770612448453903,-0.3845623286341964,24.818353354930878,19.31028515100479,5.065497010946274,0.0,0.0,0.0,0.0,0.0,0.0,0.0,0.0,True,0,2.0027778148651123,0.03492529296875
STABILIZE,1.992077112197876,29.853972411633237,0.03248551686604818,0.032675981521606445,0.0,0.0,0.0,1.4375508751079358,-0.07478736976046618,12.69046671844795,-0.005384649526630035,-6.0832596511769534e-05,0.03368922885949876,0.4,0.004970527498445464,0.06029518831239973,0.8677366236603103,0.06737845771899752,0.009240745566785336,0.8263376541435719,1.6770612448453903,-0.3845623286341964,24.818353354930878,19.31028515100479,5.065497010946274,0.0,0.0,0.0,0.0,0.0,0.0,0.0,0.0,True,0,2.032240629196167,0.03492529296875
STABILIZE,2.0255255699157715,29.896531569418507,0.032449992497762044,0.032605648040771484,0.0,0.0,0.0,1.4351285058301084,-0.07232807477243847,12.705188337430267,-0.0008900683179072465,0.0024813073355337747,0.038124969364712005,0.4,0.011367982164597168,0.057494147954648106,0.8645846751588558,0.07624993872942401,0.4456845112144947,-0.0699893047567457,1.3608245179057121,0.7152964700280513,-8.134977519512177,-27.465930581092834,7.28534609079361,0.0,0.0,0.0,0.0,0.0,0.0,0.0,0.0,True,0,2.061084747314453,0.039913818359375
STABILIZE,2.068253755569458,23.40401644969952,0.03247240384419759,0.04160785675048828,0.0,0.0,0.0,1.4421394815697148,-0.0689629259457378,12.696840992490865,0.00010059611280256053,-0.00477764928318701,0.0412145299471807,0.4,-0.007438036364922427,0.05061302866568064,0.8557455540313934,0.0824290598943614,-0.1856721704825759,0.6562893278896809,1.7594512552022934,-0.4371107091788069,10.38224846124649,19.67148333787918,15.036869049072266,0.0,0.0,0.0,0.0,0.0,0.0,0.0,0.0,True,0,2.1183254718780518,0.034924072265625
STABILIZE,2.101459503173828,30.11548458434453,0.03220513661702474,0.0323634147644043,0.0,0.0,0.0,1.444941353233301,-0.07320927589707589,12.685010251074756,-0.00457794480964661,-0.0017921153301243965,0.03619862917875414,0.4,-0.011469290609799352,0.059866988140084926,0.8592199469651287,0.07239725835750828,-0.1856721704825759,0.6562893278896809,1.7594512552022934,-0.4371107091788069,10.38224846124649,19.67148333787918,15.036869049072266,0.0,0.0,0.0,0.0,0.0,0.0,0.0,0.0,True,0,2.1470210552215576,0.034924072265625
STABILIZE,2.134981632232666,29.8321016806902,0.0324735959370931,0.03262448310852051,0.0,0.0,0.0,1.437810422296396,-0.07666247013104624,12.71063797461429,-2.5565372210178077e-05,0.0026735307410527607,0.02722244775741586,0.4,-0.002159247784833545,0.054474126827569594,0.8708933581264972,0.05444489551483172,0.6036115810275078,-0.22502795327454805,2.251773700118065,-0.9011215847951801,26.555493474006653,-32.6982855796814,37.72288262844086,0.0,0.0,0.0,0.0,0.0,0.0,0.0,0.0,True,0,2.175576686859131,0.029935791015625
STABILIZE,2.1683552265167236,29.96316669286051,0.03241780598958333,0.03253459930419922,0.0,0.0,0.0,1.437940409334038,-0.07753107809440146,12.712907304966027,0.0015707923551165394,0.00025426086599957513,0.036027271224402135,0.4,-0.00112730155472868,0.044734291398315376,0.8685492860812912,0.07205454244880427,0.08619163418188691,-0.46968306414783,1.667012833058834,1.2280939461427975,-9.701317548751831,14.160926640033722,35.739412903785706,0.0,0.0,0.0,0.0,0.0,0.0,0.0,0.0,True,0,2.204397201538086,0.034925048828125
STABILIZE,2.201859474182129,29.84908587573034,0.0324893315633138,0.032610416412353516,0.0,0.0,0.0,1.4371466132864357,-0.07635543178351302,12.705082469498132,-0.005290401731935263,-0.008175974526842288,0.02505472418488265,0.4,-0.024378294585060377,0.05675655122242644,0.8698768999429536,0.0501094483697653,-1.3595765456557274,0.8246617391705513,1.6193574294447899,-1.1567389598836744,-10.358354449272156,12.075937539339066,26.751673221588135,0.0,0.0,0.0,0.0,0.0,0.0,0.0,0.0,True,0,2.2330331802368164,0.035239013671875
STABILIZE,2.2354254722595215,29.793534547056023,0.03242185910542806,0.03256583213806152,0.0,0.0,0.0,1.4386891688218006,-0.07355814915327545,12.708370351809846,-0.005732499157838346,-0.009441798781417411,0.013934418635719658,0.4,-0.047941682521062984,0.06902473108509947,0.8712882918494252,0.027868837271439316,-1.3595765456557274,0.8246617391705513,1.6193574294447899,-1.1567389598836744,-10.358354449272156,12.075937539339066,26.751673221588135,0.0,0.0,0.0,0.0,0.0,0.0,0.0,0.0,True,0,2.2621140480041504,0.035239013671875
STABILIZE,2.268728017807007,30.024510365364794,0.03230312665303548,0.03242778778076172,0.0,0.0,0.0,1.436607882115651,-0.075964296731824,12.732006221432675,-0.0012369375795317137,-0.019116179464139245,0.014379771963610382,0.4,-0.09583984263981053,0.06651985620819387,0.9071763831692887,0.028759543927220764,-2.0366137847304344,-0.2902411390095949,1.7545541748404503,-0.001959610621345748,-39.472442865371704,-13.49799782037735,33.91920328140259,0.0,0.0,0.0,0.0,0.0,0.0,0.0,0.0,True,0,2.3192665576934814,0.029935791015625
STABILIZE,2.3021764755249023,29.896957773786102,0.032467158635457356,0.03261542320251465,0.0,0.0,0.0,1.4381922725596823,-0.0797439526637798,12.71981945640608,-0.0019683432220868637,0.0015447169980515078,0.005868485839376525,0.4,-0.07767091952851687,0.0664360061500084,0.9016095058705001,0.01173697167875305,0.9055766277015209,0.13850661925971508,1.6908356919884682,-0.8228680007526382,52.09276080131531,23.256659507751465,11.370393633842468,0.0,0.0,0.0,0.0,0.0,0.0,0.0,0.0,True,0,2.3478281497955322,0.034924072265625
STABILIZE,2.337282657623291,28.485204930557913,0.03248003323872884,0.03430366516113281,0.0,0.0,0.0,1.4401918104392035,-0.0773754778473721,12.721256357452722,-0.0020851366948761887,0.0018477220316435972,-0.002757263180454843,0.4,-0.06054679869106594,0.06672911314856284,0.9009067748310031,-0.005514526360909686,0.9055766277015209,0.13850661925971508,1.6908356919884682,-0.8228680007526382,52.09276080131531,23.256659507751465,11.370393633842468,0.0,0.0,0.0,0.0,0.0,0.0,0.0,0.0,True,0,2.3788046836853027,0.034924072265625
STABILIZE,2.3707985877990723,29.836345917184175,0.03249505360921224,0.032608747482299805,0.0,0.0,0.0,1.438890659402316,-0.0832549900622837,12.759692393233323,-0.00297716293013632,0.0066927485304520045,-0.012915332427180758,0.4,-0.03268658880008948,0.06970413929108635,0.8926391372590388,-0.025830664854361515,1.476183719933033,0.2857539337128401,1.2698525562882423,-0.9991130281568836,-38.01044225692749,-21.32871001958847,28.642907738685608,0.0,0.0,0.0,0.0,0.0,0.0,0.0,0.0,True,0,2.405165195465088,0.029935791015625
STABILIZE,2.404195785522461,29.941776959209605,0.032442601521809895,0.03257560729980469,0.0,0.0,0.0,1.4451639747115612,-0.08751745499119479,12.732363098816808,0.0021417034652774485,-0.005095555098936005,-0.0021897527470998695,0.4,-0.04260175010245212,0.05683986267125947,0.8890189450435204,-0.004379505494199739,-0.6261887960135937,-0.5730077624320984,1.7507556825876236,1.2488238904389035,-36.27079129219055,7.5339533388614655,10.198193043470383,0.0,0.0,0.0,0.0,0.0,0.0,0.0,0.0,True,0,2.4339210987091064,0.034925048828125
STABILIZE,2.4379184246063232,29.65366967612395,0.03250840504964193,0.03289508819580078,0.0,0.0,0.0,1.444386186919826,-0.09201481439453084,12.736112018897499,-0.004179037717000656,0.0016035520821718063,-0.015437775177986394,0.4,-0.03183917736881899,0.06441471105735232,0.8890466860982739,-0.030875550355972788,0.5375211592763662,0.5461934488266706,1.6929477453231812,-1.3877663732996532,44.79875564575195,13.72920423746109,15.824013948440552,0.0,0.0,0.0,0.0,0.0,0.0,0.0,0.0,True,1,2.4627833366394043,0.029936279296875
STABILIZE,2.471407890319824,29.86098632360584,0.0324890931447347,0.03261971473693848,0.0,0.0,0.0,1.43211874028366,-0.0924045620640447,12.801423141514807,0.001934276576272405,0.003095926076862037,-0.0077703464469934935,0.4,-0.018402691440767796,0.05266186477618552,0.8784276668263469,-0.015540692893986987,-0.008542367140762508,-0.03781029372476041,1.3012701645493507,0.3127815494494317,9.851951152086258,21.290957927703857,12.642017006874084,0.0,0.0,0.0,0.0,0.0,0.0,0.0,0.0,True,0,2.520181894302368,0.034925048828125
STABILIZE,2.504925489425659,29.836770407255912,0.032449992497762044,0.032582759857177734,0.0,0.0,0.0,1.435451445711803,-0.08847805706493361,12.758456128993549,-0.008985672685027254,0.0004497490120279637,-0.02589993132913837,0.4,-0.014498173735312942,0.07518925242380224,0.8836906573068058,-0.05179986265827674,0.15519700245931745,1.3934478163719177,1.9632922485470772,-1.99318430948924,0.9965274482965469,25.75702965259552,32.54462480545044,0.0,0.0,0.0,0.0,0.0,0.0,0.0,0.0,True,0,2.548664093017578,0.034925048828125
STABILIZE,2.5386316776275635,29.666673739752866,0.03238418896993001,0.03280496597290039,0.0,0.0,0.0,1.4375357206257147,-0.09020609492494684,12.78941908404851,0.0042855196381416955,-0.0044969630061181,-0.013169978656508076,0.4,-0.02539420763328644,0.0551182064799637,0.8825923824858779,-0.026339957313016152,-0.679114181548357,-1.0234120301902294,1.601848378777504,1.4958225272901937,-39.682549238204956,-76.41867399215698,18.0489644408226,0.0,0.0,0.0,0.0,0.0,0.0,0.0,0.0,True,0,2.5774261951446533,0.02993603515625
STABILIZE,2.5721397399902344,29.844413294530344,0.032416613896687825,0.03260993957519531,0.0,0.0,0.0,1.4384298350767517,-0.09399268776777844,12.810732689353534,0.004957991167599035,-0.0050282640513404754,-0.0001486698911599138,0.4,-0.03617436595418251,0.035001013661300304,0.8773107143660979,-0.0002973397823198276,-0.679114181548357,-1.0234120301902294,1.601848378777504,1.4958225272901937,-39.682549238204956,-76.41867399215698,18.0489644408226,0.0,0.0,0.0,0.0,0.0,0.0,0.0,0.0,True,0,2.6060421466827393,0.02993603515625
STABILIZE,2.60563063621521,29.858010322121373,0.03242376645406087,0.0325469970703125,0.0,0.0,0.0,1.4470824040946886,-0.09221758563551559,12.77507397924419,0.0010562407749797247,-0.005105806806838179,0.002604250475541946,0.4,-0.045615669582680846,0.028604851821682254,0.8764928419124358,0.005208500951083892,-0.6147577427327633,-0.25457763113081455,1.8353329971432686,0.3332568824359696,24.74387288093567,41.200995445251465,21.60915732383728,0.0,0.0,0.0,0.0,0.0,0.0,0.0,0.0,True,0,2.635021686553955,0.0349248046875
STABILIZE,2.6389763355255127,29.98780269827765,0.03237298329671224,0.032512664794921875,0.0,0.0,0.0,1.4517019598511443,-0.08824038782615833,12.803620754880258,-0.009904522649996856,0.009866739420510348,-0.009508415809638517,0.4,-0.01081518862855678,0.05611411291640505,0.8714856560300368,-0.019016831619277034,1.9723493605852127,1.7177985981106758,1.3259771279990673,-1.3914912809965432,41.49739444255829,31.580397486686707,22.318676114082336,0.0,0.0,0.0,0.0,0.0,0.0,0.0,0.0,True,0,2.6637492179870605,0.034925048828125
STABILIZE,2.672536849975586,29.798191208962965,0.03238108952840169,0.03250432014465332,0.0,0.0,0.0,1.4486258134036998,-0.09444774912123054,12.805174622916436,-0.010835106371096963,0.011727790582682739,-0.021706236722973477,0.4,0.02432335738154926,0.0839650431840221,0.8663552768172454,-0.04341247344594695,1.9723493605852127,1.7177985981106758,1.3259771279990673,-1.3914912809965432,41.49739444255829,31.580397486686707,22.318676114082336,0.0,0.0,0.0,0.0,0.0,0.0,0.0,0.0,True,0,2.6993041038513184,0.034925048828125
STABILIZE,2.7057747840881348,30.084379348434204,0.03236106236775716,0.03246450424194336,0.0,0.0,0.0,1.4421640275620446,-0.09264287163305467,12.79912649040639,-0.007987238993374363,0.004719839550947142,-0.032835954209102805,0.4,0.03432266710177805,0.10057839508573611,0.8799620933133897,-0.06567190841820561,1.0861396789550781,0.23626280017197132,1.1971095576882362,-0.020406257362470908,26.94670259952545,-9.636560827493668,12.598298490047455,0.0,0.0,0.0,0.0,0.0,0.0,0.0,0.0,True,0,2.7573132514953613,0.034925048828125
STABILIZE,2.739356756210327,29.7806305026981,0.03257635434468587,0.032709360122680664,0.0,0.0,0.0,1.4358830282899833,-0.10154570305104894,12.820096024931976,-0.0015040278023510036,-0.005492438163823791,-0.023076960090972303,0.4,0.013650987044729043,0.09596203035442098,0.8640680896164672,-0.046153920181944606,-1.1413130909204483,-0.10774433612823486,0.9240243583917618,1.012261142309158,-32.122814655303955,14.078623056411743,26.258686184883118,0.0,0.0,0.0,0.0,0.0,0.0,0.0,0.0,True,0,2.7861168384552,0.02993603515625
STABILIZE,2.7727973461151123,29.90335229784261,0.03241732915242513,0.032546281814575195,0.0,0.0,0.0,1.4220362071299575,-0.09395853682192838,12.82564128476438,-0.0011293898786259324,-0.006595093160890506,-0.01315506320314723,0.4,-0.007204649415144641,0.09063492926443976,0.844990230929868,-0.02631012640629446,-1.1413130909204483,-0.10774433612823486,0.9240243583917618,1.012261142309158,-32.122814655303955,14.078623056411743,26.258686184883118,0.0,0.0,0.0,0.0,0.0,0.0,0.0,0.0,True,0,2.8151795864105225,0.02993603515625
STABILIZE,2.806370735168457,29.81640849926424,0.03241136868794759,0.03254199028015137,0.0,0.0,0.0,1.421643364530976,-0.089755302439726,12.803490981286028,-0.00427629473991833,0.00224581191857294,-0.016279692703144406,0.4,0.00025566607720721186,0.09537214920059167,0.8421001158979488,-0.03255938540628881,0.40223272517323494,0.4428262822329998,1.766829565167427,-0.4082210900629157,40.900662541389465,-29.1488915681839,17.237646877765656,0.0,0.0,0.0,0.0,0.0,0.0,0.0,0.0,True,0,2.8442800045013428,0.034925048828125
STABILIZE,2.839857578277588,29.8321016806902,0.032325061162312825,0.032530784606933594,0.0,0.0,0.0,1.4186087328270804,-0.09108612211082066,12.816212208615177,0.0002529467144941879,0.0003833714977169261,-0.016941298874806974,0.4,0.0013202947951027996,0.08588530719280146,0.837487389304959,-0.03388259774961395,0.047862649080343544,-0.3836825955659151,1.437041163444519,-0.12566710307433077,-25.45786201953888,8.1084243953228,32.81104862689972,0.0,0.0,0.0,0.0,0.0,0.0,0.0,0.0,True,0,2.8721606731414795,0.0349248046875
STABILIZE,2.8732211589813232,29.97344462389412,0.032347949345906575,0.03247976303100586,0.0,0.0,0.0,1.408322574658747,-0.08717733291486932,12.808021958026686,-0.0043403655492611475,-0.007522601526304348,-0.011489943550948557,0.4,-0.020429145359464315,0.09123739721740581,0.8279798495087537,-0.022979887101897113,-1.2229585088789463,0.4491060972213745,1.1519026942551136,0.5551196227288195,-22.15512990951538,13.395610451698303,5.202443152666092,0.0,0.0,0.0,0.0,0.0,0.0,0.0,0.0,True,0,2.9011263847351074,0.02993603515625
STABILIZE,2.9068214893341064,29.759711648301746,0.03243544896443685,0.0327305793762207,0.0,0.0,0.0,1.4106375819005583,0.010274632224109025,12.711565172794119,-0.0016065784003895264,-0.005186150352807281,-0.030938429341391245,0.4,-0.03242519081561715,0.08776630701775143,0.8268866382095807,-0.06187685868278249,-0.6992415525019169,-0.014226433995645493,1.8093617632985115,-2.261784273364342,12.652420997619629,35.65922677516937,37.482085824012756,0.0,0.0,0.0,0.0,0.0,0.0,0.0,0.0,True,1,2.9320249557495117,0.034925048828125
STABILIZE,2.9403388500213623,29.834223647990214,0.03246572812398275,0.03259015083312988,0.0,0.0,0.0,1.428686356782317,-0.03735099619792051,12.79615621189108,0.015337902623311478,-0.04767931040640559,-0.04604254800152517,0.4,-0.1643212613867946,0.032912713910475,0.9121476384763465,-0.09208509600305034,-6.125608831644058,-3.2924842089414597,6.997223943471909,-4.922788834847697,-151.83368921279907,-109.58189964294434,265.07179737091064,0.0,0.0,0.0,0.0,0.0,0.0,0.0,0.0,True,0,2.9893500804901123,0.034924072265625
STABILIZE,2.9737255573272705,29.952254111530852,0.03239444096883138,0.03252363204956055,0.0,0.0,0.0,1.4477953050893086,-0.08591278742306492,12.736400594389933,-0.012239873775740165,-0.0142485463801425,-0.16450869280843947,0.4,-0.1818026847639266,0.06685655046976977,0.8641683337339268,-0.32901738561687893,-0.981864333152771,2.093994803726673,-1.1224634945392609,-13.48008098273103,39.964550733566284,46.369969844818115,-206.88402652740479,0.0,0.0,0.0,0.0,0.0,0.0,0.0,0.0,True,0,3.0183379650115967,0.0399150390625
STABILIZE,3.007173776626587,29.895466111661523,0.032456191380818684,0.032591819763183594,0.0,0.0,0.0,1.4401083540652824,-0.05021288273528921,12.710258045341709,-0.006350183779850996,0.02300572926201297,-0.2833501432916756,0.4,-0.09000199646111334,0.08075534441232975,1.0360115186374699,-0.5667002865833513,5.253693088889122,0.914487149566412,11.015334725379944,-13.053743989833418,13.672643899917603,-30.362537503242493,230.4422378540039,0.0,0.0,0.0,0.0,0.0,0.0,0.0,0.0,True,0,3.0483169555664062,0.0249462890625
STABILIZE,3.0418708324432373,28.82267164189361,0.032445462544759114,0.03258490562438965,0.0,0.0,0.0,1.437519498926436,-0.07425888387343645,12.793556471138245,-0.006140752085154607,0.028497595872345176,-0.3881332738250326,0.4,0.004309621144044332,0.09322948689287759,1.1853203257864333,-0.7762665476500652,5.253693088889122,0.914487149566412,11.015334725379944,-13.053743989833418,13.672643899917603,-30.362537503242493,230.4422378540039,0.0,0.0,0.0,0.0,0.0,0.0,0.0,0.0,True,0,3.0759165287017822,0.0249462890625
STABILIZE,3.0740976333618164,31.030532600412823,0.03097990353902181,0.03113722801208496,0.0,0.0,0.0,1.4396733563925173,-0.06764939519097973,12.7567477279274,0.014057189703979601,-0.02018835144951824,-0.39075687398430087,0.4,-0.05367190518004629,0.041099083352176796,1.2863611836369502,-0.7815137479686017,-3.487217053771019,-2.8820544481277466,8.57786312699318,-1.5544445468325323,-193.13256740570068,-114.6967887878418,195.58225870132446,0.0,0.0,0.0,0.0,0.0,0.0,0.0,0.0,True,0,3.1045072078704834,0.029935791015625
STABILIZE,3.1081137657165527,29.396991827752,0.03246763547261556,0.03317594528198242,0.0,0.0,0.0,1.4434327352003746,-0.06218993961002391,12.709387196222531,-0.014480976557211325,0.003430333046469284,-0.41256614788888996,0.4,-0.03651159679743227,0.08212187864171885,1.2797584355158065,-0.8251322957777799,0.9197039529681206,2.605813182890415,1.6469135880470276,-3.211246735453699,103.32441329956055,126.00606679916382,79.53016757965088,0.0,0.0,0.0,0.0,0.0,0.0,0.0,0.0,True,1,3.1330809593200684,0.034925048828125
STABILIZE,3.1415927410125732,29.87013061003575,0.0324886163075765,0.03261709213256836,0.0,0.0,0.0,1.432726200232968,-0.07522759679681466,12.834509431627994,0.013801214770968632,0.00078017373867306,-0.39947141046431267,0.4,-0.02849160464549669,0.03270563440327417,1.3189863191410807,-0.7989428209286253,0.09397969115525484,-2.5814590975642204,1.546494197100401,4.5570330585671615,-72.38153219223022,-54.023534059524536,47.4568635225296,0.0,0.0,0.0,0.0,0.0,0.0,0.0,0.0,True,0,3.1905691623687744,0.029935791015625
STABILIZE,3.1750969886779785,29.84972315925815,0.03245571454366048,0.0325772762298584,0.0,0.0,0.0,1.436400842006435,-0.06680522649824847,12.790292494488625,-0.014273680310327956,-0.016137304602645983,-0.4254231849622279,0.4,-0.07124104623736437,0.0723658189762347,1.2925429356415055,-0.8508463699244558,-2.6649601757526398,2.5267180055379868,0.6582573056221008,-4.056182970692943,-67.97957420349121,112.00971603393555,14.007148146629333,0.0,0.0,0.0,0.0,0.0,0.0,0.0,0.0,True,0,3.2192773818969727,0.035230224609375
STABILIZE,3.208474636077881,29.95674656458018,0.032382996877034505,0.0325009822845459,0.0,0.0,0.0,1.4425966773572827,-0.07523143877822279,12.734972231079754,0.0021195254246348977,0.00274749247061257,-0.43955066819391125,0.4,-0.05307383512890507,0.05945665928381598,1.2924637621915915,-0.8791013363878225,1.0222073644399643,-0.6487881764769554,1.6729436814785004,-2.121627937822034,88.67265582084656,-92.2274649143219,61.4316463470459,0.0,0.0,0.0,0.0,0.0,0.0,0.0,0.0,True,0,3.247971534729004,0.034925048828125
STABILIZE,3.2418975830078125,29.918923738667086,0.03245118459065755,0.03258848190307617,0.0,0.0,0.0,1.4334301366043025,-0.07408684848371674,12.812509392311384,0.009987503158861136,0.0035190197687577857,-0.4094960647150607,0.4,-0.03497440400400907,0.023824388987064057,1.2755936159809829,-0.8189921294301215,0.9936004877090454,-1.991499774158001,0.7970529608428478,2.993557080661168,4.0113624185323715,-31.0617595911026,-5.656444281339645,0.0,0.0,0.0,0.0,0.0,0.0,0.0,0.0,True,0,3.2774903774261475,0.02993603515625
STABILIZE,3.275408983230591,29.842714536774174,0.03249553044637044,0.03262758255004883,0.0,0.0,0.0,1.4344950057845898,-0.0731131196401668,12.803196429378072,-0.0040121592153486785,-0.009434401593645636,-0.42699280436155,0.4,-0.057167500976777114,0.03341947483473591,1.2954669860637074,-0.8539856087231,-1.4355260878801346,0.7064794655889273,3.570723906159401,-3.29446383931043,-69.38047409057617,39.250344038009644,71.528559923172,0.0,0.0,0.0,0.0,0.0,0.0,0.0,0.0,True,0,3.3053743839263916,0.034923828125
STABILIZE,3.309415578842163,29.405854103130366,0.032425673802693684,0.03263354301452637,0.0,0.0,0.0,1.4399393068833246,-0.08023348512819932,12.769849738302778,-0.004298831567572647,-0.010658214322138421,-0.4480079876205602,0.4,-0.07975108001044219,0.042950675209843345,1.3236487033501523,-0.8960159752411204,-1.4355260878801346,0.7064794655889273,3.570723906159401,-3.29446383931043,-69.38047409057617,39.250344038009644,71.528559923172,0.0,0.0,0.0,0.0,0.0,0.0,0.0,0.0,True,1,3.3340649604797363,0.034923828125
STABILIZE,3.3423895835876465,30.324727249065525,0.0319397767384847,0.0321660041809082,0.0,0.0,0.0,1.4337734603318013,-0.07185721860653072,12.792385947469233,0.00857430067604672,0.005918363594232122,-0.43398104740873983,0.4,-0.05092916023896654,0.013173480832299782,1.3131650360082863,-0.8679620948174797,2.0250411704182625,-0.680441502481699,1.6955969855189323,0.08140075378518391,51.420754194259644,23.38603436946869,55.27239441871643,0.0,0.0,0.0,0.0,0.0,0.0,0.0,0.0,True,0,3.391468048095703,0.034926025390625
STABILIZE,3.3760547637939453,29.706806431050357,0.032483847935994466,0.03263568878173828,0.0,0.0,0.0,1.4340547787482412,-0.07449089686180531,12.793698197563522,-0.008769145802805687,-0.002659670578136069,-0.43847081372804964,0.4,-0.051639665303239525,0.03859222074667436,1.3135221772461032,-0.8769416274560993,-0.14876341447234154,1.6283482313156128,2.0867856219410896,-1.5901655824180527,-61.08212471008301,27.46073603630066,58.1586480140686,0.0,0.0,0.0,0.0,0.0,0.0,0.0,0.0,True,0,3.4201345443725586,0.02993505859375
STABILIZE,3.4095723628997803,29.833799230380755,0.03232577641805013,0.032697200775146484,0.0,0.0,0.0,1.4325092350051143,-0.0762169070094087,12.798507504512857,0.00133877967618825,-0.015809926299537824,-0.4238395979676728,0.4,-0.08962178518050731,0.030260543328544755,1.299822140253567,-0.8476791959353456,-2.3911701515316963,-0.397694343701005,1.7458252608776093,0.25008558887144505,-29.456359148025513,-47.38817811012268,39.400920271873474,0.0,0.0,0.0,0.0,0.0,0.0,0.0,0.0,True,0,3.4504973888397217,0.034925048828125
STABILIZE,3.4431633949279785,29.77154092402916,0.03250149091084798,0.03267478942871094,0.0,0.0,0.0,1.4318287774090517,-0.07481479723885201,12.790706574707057,0.0017927772087547936,0.0007785167537924217,-0.4186182215222029,0.4,-0.07445063344642863,0.022072425205193688,1.2909645901670541,-0.8372364430444058,0.8225301280617714,-0.38959619123488665,1.583457924425602,-0.533864500918563,68.62951517105103,22.86967784166336,29.159832000732422,0.0,0.0,0.0,0.0,0.0,0.0,0.0,0.0,True,0,3.4791324138641357,0.034925048828125
STABILIZE,3.477198839187622,29.3794890833059,0.03240779240926107,0.03308701515197754,0.0,0.0,0.0,1.432762805778051,-0.07724954623454999,12.798375169597689,-0.0063388122860577505,0.0028947196691696763,-0.4160305862894991,0.4,-0.055494550143021806,0.03970910070810292,1.2783830024119565,-0.8320611725789983,1.024988666176796,1.1451833881437778,1.41011793166399,-0.9088675529225034,0.16480046324431896,11.24405786395073,29.40782606601715,0.0,0.0,0.0,0.0,0.0,0.0,0.0,0.0,True,0,3.507833957672119,0.029935791015625
STABILIZE,3.5115489959716797,29.112352765611877,0.032383235295613606,0.03352642059326172,0.0,0.0,0.0,1.4298071481364338,-0.07598521418615717,12.81901343994853,0.0035464094885699106,-0.013835876495755326,-0.3947832981802514,0.4,-0.08784933769828457,0.02432444438615297,1.2580545520487025,-0.7895665963605027,-2.068576030433178,-0.8324021473526955,1.377799641340971,0.9815023458773577,-66.52914881706238,-34.07331705093384,21.479181945323944,0.0,0.0,0.0,0.0,0.0,0.0,0.0,0.0,True,1,3.5365047454833984,0.034925048828125
STABILIZE,3.5450775623321533,29.826373876436456,0.032499106725056966,0.03262901306152344,0.0,0.0,0.0,1.429868086230435,-0.07816457813992014,12.80609413713345,-0.002696979055361587,-0.012930775474392432,-0.3923593473428418,0.4,-0.11243180946192984,0.02976840216689048,1.2355435908033807,-0.7847186946856836,-0.8285483345389366,0.2474012551829219,1.5297635458409786,-1.1547010021900717,12.746474146842957,30.54303228855133,17.868448793888092,0.0,0.0,0.0,0.0,0.0,0.0,0.0,0.0,True,0,3.593867301940918,0.034925048828125
STABILIZE,3.5786032676696777,29.824889249169814,0.032415183385213216,0.03267097473144531,0.0,0.0,0.0,1.4334159426174335,-0.07727964175558036,12.789737541618562,-0.005323290681555749,0.0024794409092574253,-0.3827276628347473,0.4,-0.08934442274697163,0.04338324446115828,1.2166787326796162,-0.7654553256694946,1.266213320195675,0.8832346647977829,1.1189165525138378,-0.19282680571833233,45.972320437431335,-0.8479868993163109,9.571259468793869,0.0,0.0,0.0,0.0,0.0,0.0,0.0,0.0,True,0,3.629197835922241,0.02993603515625
STABILIZE,3.612156391143799,29.803696413725476,0.03246906598409017,0.03259110450744629,0.0,0.0,0.0,1.4296584848002802,-0.0771436783024148,12.825590058345604,0.004581107496101086,-0.0017122623649212377,-0.3612238438271138,0.4,-0.08126024433405146,0.025380794466329234,1.1943957497686937,-0.7224476876542276,0.3220138605684042,-0.995180569589138,1.2585552409291267,0.9866377943595611,-25.208380818367004,-28.26986312866211,13.604222238063812,0.0,0.0,0.0,0.0,0.0,0.0,0.0,0.0,True,0,3.657916784286499,0.034925048828125
STABILIZE,3.645416021347046,30.067988587322752,0.03235462506612142,0.03246474266052246,0.0,0.0,0.0,1.4339647056285616,-0.0770274583648188,12.790798782260852,-0.0038213049361723274,-0.011168636728467537,-0.3613527205403119,0.4,-0.10167049169200515,0.03421309377200521,1.1784358602491392,-0.7227054410806238,-1.3488837517797947,0.6033464334905148,1.2838962487876415,-1.3838591849292887,-0.8342401124536991,28.866466879844666,22.17877060174942,0.0,0.0,0.0,0.0,0.0,0.0,0.0,0.0,True,0,3.686607837677002,0.034925048828125
STABILIZE,3.6790051460266113,29.770061750301654,0.032515557607014973,0.0327610969543457,0.0,0.0,0.0,1.4345370541366675,-0.07681817709978138,12.788672032108039,-0.005809851366551737,-0.004588155917673159,-0.3512199656204224,0.4,-0.10045012568514776,0.04863120020900456,1.1650972098562034,-0.7024399312408448,-0.05143443704582751,0.9246045723557472,1.4531665481626987,-0.16386533621402377,29.97722327709198,-2.515259012579918,15.470422804355621,0.0,0.0,0.0,0.0,0.0,0.0,0.0,0.0,True,0,3.715238571166992,0.03022705078125
STABILIZE,3.7128679752349854,29.531528994282816,0.03251531918843587,0.03302884101867676,0.0,0.0,0.0,1.4320202361492236,-0.07687473960384554,12.819447156960825,0.003373073376614623,-0.0020197585143167116,-0.3290821076281348,0.4,-0.09164796500745118,0.033718225371576524,1.1511601478871683,-0.6581642152562696,0.3552930662408471,-0.8131423033773899,1.6930393874645233,1.1134240346015691,-14.989164471626282,3.4252889454364777,27.07514464855194,0.0,0.0,0.0,0.0,0.0,0.0,0.0,0.0,True,0,3.7443032264709473,0.034925048828125
STABILIZE,3.7494828701019287,27.311289671428757,0.032480748494466145,0.03576850891113281,0.0,0.0,0.0,1.432224288050678,-0.07670900079476696,12.810141024216682,0.0034548584222409123,-0.0019394035159374368,-0.3082170421086711,0.4,-0.08335361682717728,0.018916490869765257,1.142351020375684,-0.6164340842173422,0.3552930662408471,-0.8131423033773899,1.6930393874645233,1.1134240346015691,-14.989164471626282,3.4252889454364777,27.07514464855194,0.0,0.0,0.0,0.0,0.0,0.0,0.0,0.0,True,1,3.7725863456726074,0.034925048828125
STABILIZE,3.7829248905181885,29.903139102970847,0.03247717221577962,0.03259563446044922,0.0,0.0,0.0,1.4327077373778678,-0.07673365350880247,12.796372216623583,-0.00433481010143735,-0.011458155527971496,-0.29502236553271655,0.4,-0.10436237209590428,0.030004014046866773,1.1214740885756878,-0.5900447310654331,-0.38009840063750744,0.10131332091987133,1.8044475466012955,-0.09955789788905706,17.04341024160385,-25.943633913993835,23.205311596393585,0.0,0.0,0.0,0.0,0.0,0.0,0.0,0.0,True,0,3.8320393562316895,0.034925048828125
STABILIZE,3.8163363933563232,29.928103549155882,0.032467158635457356,0.03259611129760742,0.0,0.0,0.0,1.428032472890994,-0.07668904383578583,12.82833152552372,0.0021997908168798147,-0.0020216878362194603,-0.2750680012638806,0.4,-0.09514268621118815,0.020523020434986924,1.1047902050448122,-0.5501360025277612,0.3994452767074108,-0.49436837434768677,1.2236513197422028,1.0121954017383967,20.30746042728424,3.459792211651802,26.01882517337799,0.0,0.0,0.0,0.0,0.0,0.0,0.0,0.0,True,0,3.86076283454895,0.02993505859375
STABILIZE,3.8498342037200928,29.852909985124448,0.032515557607014973,0.032633066177368164,0.0,0.0,0.0,1.4287026852033016,-0.07610314167104566,12.821427058046481,-0.004049364329165022,-0.005170189770089438,-0.26791954479313496,0.4,-0.09643367176109868,0.03080869986385739,1.0923177970002527,-0.5358390895862699,-0.2640562830492854,0.6791860796511173,1.7226815223693848,-0.5481185721078506,-31.448838114738464,19.02582049369812,25.220346450805664,0.0,0.0,0.0,0.0,0.0,0.0,0.0,0.0,True,0,3.8894553184509277,0.034925048828125
STABILIZE,3.8832216262817383,29.951612442514783,0.03245595296223958,0.03258085250854492,0.0,0.0,0.0,1.4299424712593647,-0.07560923361668911,12.813090812164482,-0.001347856459824197,-0.009467664912797394,-0.2567650598953242,0.4,-0.10978079033100707,0.03183824839321279,1.0788277863603384,-0.5135301197906484,-0.9463229216635227,0.12115290155634284,1.3667425140738487,0.024849015273086528,-12.653502821922302,-16.500920057296753,13.971491158008575,0.0,0.0,0.0,0.0,0.0,0.0,0.0,0.0,True,0,3.9182024002075195,0.034925048828125
