Mode,Time,Freq,time2delay,actualDelay,North-Desired,East-Desired,Down-Desired,Roll-UAV,Pitch-UAV,Yaw-UAV,Roll-Control,Pitch-Control,Yaw-Control,Thrust-Control,North-Pos,East-Pos,Down-Pos,Yaw-Ang,North-Vel,East-Vel,Down-Vel,Yaw-Vel,North-Acc,East-Acc,Down-Acc,North-Raw,East-Raw,Down-Raw,Yaw-Raw,North-Dif,East-Dif,Down-Dif,Yaw-Dif,Landing-State,Q-Size,Kalman-Time,Kalman-Dt
STABILIZE,0.03441739082336426,29.089335376975733,0.03330066998799642,0.03344869613647461,0.0,0.0,0.0,4.724944721575462,-35.23304589007971,89.57284247378557,0.0,0.0,0,0.0,0.03060270710936019,0.030950323876804492,0.03563840985147149,0.02890770205791875,-0.047830387484282255,0.6446741987019777,2.755613625049591,-0.19201721485827425,-4.430001974105835,2.4321915581822395,30.95550239086151,0.0,0.0,0.0,0.0,0,0,0,0,False,0,0.05878090858459473,0.0349248046875
STABILIZE,0.06762218475341797,30.087400648474937,0.032290013631184895,0.032387733459472656,0.0,0.0,0.0,4.725051016394421,-35.23296051271508,89.58631160682883,0.0,0.0,0,0.0,0.056417490571183,0.05874882982353102,0.07255843559826036,0.052934506777461275,-0.047830387484282255,0.6446741987019777,2.755613625049591,-0.19201721485827425,-4.430001974105835,2.4321915581822395,30.95550239086151,0.0,0.0,0.0,0.0,0,0,0,0,False,0,0.08740544319152832,0.0349248046875
STABILIZE,0.10111451148986816,29.85928567869067,0.03253057797749837,0.032712459564208984,0.0,0.0,0.0,4.725801056542652,-35.23365036182125,89.61199311810809,0.0,0.0,0,0.0,0.10429026787068597,0.10926372994896723,0.1514548980346235,0.09059412909207155,1.2338273227214813,0.8316315710544586,2.836224064230919,-0.17568204372582183,11.211520433425903,2.3433005437254906,26.948413252830505,0.0,0.0,0.0,0.0,0,0,0,0,False,0,0.14645886421203613,0.02993505859375
STABILIZE,0.13460755348205566,29.856522543813444,0.03254535992940267,0.03267931938171387,0.0,0.0,0.0,4.726758563686923,-35.2338894184422,89.62326293023861,0.0,0.0,0,0.0,0.12409717594063173,0.12763654324615373,0.1865524627905694,0.10091619840658428,1.2338273227214813,0.8316315710544586,2.836224064230919,-0.17568204372582183,11.211520433425903,2.3433005437254906,26.948413252830505,0.0,0.0,0.0,0.0,0,0,0,0,False,0,0.17478656768798828,0.02993505859375
STABILIZE,0.1680908203125,29.865451438336656,0.03249409993489583,0.03262734413146973,0.0,0.0,0.0,4.726780334914903,-35.23353083351078,89.64955232835398,0.0,0.0,0,0.0,0.1416619468788831,0.14482736131135068,0.2239152625936887,0.11018454862663227,0.898413360118866,0.7933186367154121,3.033064864575863,-0.01057276264426281,1.6721369698643684,4.303104802966118,31.08619451522827,0.0,0.0,0.0,0.0,0,0,0,0,False,0,0.20348024368286133,0.03492578125
STABILIZE,0.20153403282165527,29.90207317420937,0.03247216542561849,0.032608747482299805,0.0,0.0,0.0,4.727228992966008,-35.233616210875404,89.66038500837762,0.0,0.0,0,0.0,0.15743426641769287,0.1623172690082712,0.27068868677204594,0.11979373799132535,0.1210496062412858,0.34181447699666023,3.164711967110634,-0.17587198168168638,-1.2203526683151722,2.9697375372052193,25.358828902244568,0.0,0.0,0.0,0.0,0,0,0,0,False,0,0.2321949005126953,0.034925048828125
STABILIZE,0.24317312240600586,24.01561990048612,0.03248146375020345,0.04083657264709473,0.0,0.0,0.0,4.727474452889306,-35.23292294667464,89.68720716124827,0.0,0.0,0,0.0,0.1692761243737598,0.17667582280988037,0.31570107096873656,0.13064326819518482,-0.08433546172454953,0.1937207649461925,2.755764126777649,0.2669990315666742,-5.084448680281639,-1.1377879418432713,25.071921944618225,0.0,0.0,0.0,0.0,0,0,0,0,False,1,0.26091480255126953,0.034925048828125
STABILIZE,0.2770969867706299,29.47860250346141,0.032514127095540364,0.03305315971374512,0.0,0.0,0.0,4.7280084883050355,-35.2337528146588,89.69841550167625,0.0,0.0,0,0.0,0.19851710330784675,0.2100978521629084,0.39889973148688174,0.1465903585025718,0.5887145176529884,0.7595550734549761,2.33337190002203,0.14555648053527567,2.306361123919487,1.382615603506565,20.870406925678253,0.0,0.0,0.0,0.0,0,0,0,0,False,0,0.31896066665649414,0.0349248046875
STABILIZE,0.31055307388305664,29.88864897991178,0.032456191380818684,0.032648563385009766,0.0,0.0,0.0,4.728599726555065,-35.233479607092,89.71213052152964,0.0,0.0,0,0.0,0.2116862626977732,0.22606518193735906,0.4431168273698144,0.15217143953750933,0.5992279388010502,0.8171732537448406,2.6681195944547653,0.08631223342759166,-0.037400564178824425,3.3036455512046814,21.76935225725174,0.0,0.0,0.0,0.0,0,0,0,0,False,0,0.3471715450286865,0.03492626953125
STABILIZE,0.3439936637878418,29.902499536594757,0.03251651128133138,0.03263211250305176,0.0,0.0,0.0,4.729333545004018,-35.23412847506315,89.73622742892144,0.0,0.0,0,0.0,0.21379265080056856,0.2360554516647696,0.4907682746379097,0.15726024930607987,-0.33923201262950897,0.33245536033064127,3.000761568546295,0.14480547989169162,-3.665946051478386,0.8307038806378841,25.07619559764862,0.0,0.0,0.0,0.0,0,0,0,0,False,0,0.37554001808166504,0.02993505859375
STABILIZE,0.3774688243865967,29.875236833482912,0.0325191338857015,0.03265237808227539,0.0,0.0,0.0,4.729472710108357,-35.234415343008294,89.7500858827474,0.0,0.0,0,0.0,0.21982321883281258,0.2491690383125035,0.5323047323540174,0.15602197742841084,0.4655611701309681,1.050705648958683,3.216468170285225,-0.14071004777254173,0.8662346750497818,3.288860246539116,20.291760563850403,0.0,0.0,0.0,0.0,0,0,0,0,False,0,0.40544843673706055,0.0349248046875
STABILIZE,0.41127443313598633,29.581307435696704,0.032491477330525716,0.03289031982421875,0.0,0.0,0.0,4.7288981204444305,-35.23387917315845,89.77533709210894,0.0,0.0,0,0.0,0.21980194275381618,0.2592756336717692,0.5840416860035704,0.15687418088940838,-0.26543380226939917,0.49207606352865696,3.308604285120964,-0.06992430842195016,1.2165818363428116,2.9431553557515144,27.593159675598145,0.0,0.0,0.0,0.0,0,0,0,0,False,0,0.4330422878265381,0.034925048828125
STABILIZE,0.444744348526001,29.876088040458722,0.032395156224568684,0.03261518478393555,0.0,0.0,0.0,4.727747233569283,-35.233831361834255,89.788075394911,0.0,0.0,0,0.0,0.22456961926346114,0.274953826108723,0.6345699039225293,0.15848014154109555,0.256896810606122,1.027272641658783,3.2127484679222107,0.07000818501258776,-3.2672394067049026,3.230038657784462,23.64398092031479,0.0,0.0,0.0,0.0,0,0,0,0,False,1,0.46199464797973633,0.02993603515625
STABILIZE,0.47815585136413574,29.930452777678667,0.03247836430867513,0.032587289810180664,0.0,0.0,0.0,4.728151922277606,-35.23384843730718,89.80144890530589,0.0,0.0,0,0.0,0.22493125547170464,0.2979179162020977,0.7189816100548697,0.1595891503873268,0.11342671932652593,1.0148173198103905,3.4809257835149765,0.30339081307303106,-4.122684150934219,1.1983253061771393,23.72892200946808,0.0,0.0,0.0,0.0,0,0,0,0,False,0,0.5196013450622559,0.034925048828125
STABILIZE,0.5116147994995117,29.88651926379319,0.03249648412068685,0.032617807388305664,0.0,0.0,0.0,4.730676957836395,-35.23364353163208,89.8258668315887,0.0,0.0,0,0.0,0.2258525512181607,0.3126356531223365,0.772333448985961,0.16297694445614153,0.11342671932652593,1.0148173198103905,3.4809257835149765,0.30339081307303106,-4.122684150934219,1.1983253061771393,23.72892200946808,0.0,0.0,0.0,0.0,0,0,0,0,False,0,0.5480954647064209,0.034925048828125
STABILIZE,0.5450801849365234,29.881196301098555,0.03248194058736165,0.0326082706451416,0.0,0.0,0.0,4.730557002639097,-35.233800625982994,89.83881004006587,0.0,0.0,0,0.0,0.22481316948391045,0.3263224177582838,0.8267586575205114,0.1641646201965165,0.029194762464612722,0.9760124608874321,3.6125890910625458,0.16771730944185972,3.6054085940122604,2.854866348206997,21.059370040893555,0.0,0.0,0.0,0.0,0,0,0,0,False,0,0.5768792629241943,0.029936279296875
STABILIZE,0.5786683559417725,29.774499712498848,0.03246119817097982,0.03261542320251465,0.0,0.0,0.0,4.730924552193808,-35.23386892787469,89.86320064559199,0.0,0.0,0,0.0,0.2183724892551998,0.33497124401534045,0.8712767379860817,0.16327030178088203,-0.1627772580832243,0.9145406074821949,3.709937632083893,0.15307078251977396,-4.168303683400154,0.7934906519949436,21.93651795387268,0.0,0.0,0.0,0.0,0,0,0,0,False,0,0.6055798530578613,0.034925048828125
STABILIZE,0.6119866371154785,30.01204974455114,0.032343180974324544,0.03248310089111328,0.0,0.0,0.0,4.731692094701788,-35.23670345638025,89.87632143898757,0.0,0.0,0,0.0,0.21537607078921744,0.343575612943126,0.9250176127366873,0.1638328059920524,-0.018904698663391173,0.6824827753007412,3.6538783460855484,0.16869657447389708,-0.302767101675272,-1.0476181283593178,26.24271512031555,0.0,0.0,0.0,0.0,0,0,0,0,False,0,0.6342740058898926,0.0349248046875
STABILIZE,0.6467075347900391,28.801098674723615,0.03249052365620931,0.03392791748046875,0.0,0.0,0.0,4.731213554573064,-35.23455194679169,89.9021463842394,0.0,0.0,0,0.0,0.19274253498281058,0.34441167153582464,1.0245042424383601,0.15738883250355024,-0.9998207911849022,-0.16565690748393536,3.463141992688179,-0.1339853930293336,0.3771163523197174,2.2502025589346886,29.854866862297058,0.0,0.0,0.0,0.0,0,0,0,0,False,0,0.6917107105255127,0.02993603515625
STABILIZE,0.6801707744598389,29.883112349223765,0.03253630002339681,0.032651424407958984,0.0,0.0,0.0,4.7297459176751575,-35.23297417309342,89.91133298867307,0.0,0.0,0,0.0,0.17187756099123944,0.3357423249077195,1.0545657070260888,0.14987905331876467,-1.0032614693045616,-0.09282781975343823,3.0843866989016533,-0.22311043709535403,-6.2089890241622925,-2.4035153910517693,19.724605977535248,0.0,0.0,0.0,0.0,0,0,0,0,False,0,0.7213127613067627,0.0349248046875
STABILIZE,0.7137212753295898,29.810474843460153,0.03250625928243001,0.032631635665893555,0.0,0.0,0.0,4.73007675496308,-35.23510860720905,89.92696729168323,0.0,0.0,0,0.0,0.1513365727104571,0.329327441266298,1.0944982654807622,0.14311730215483487,-1.0032614693045616,-0.09282781975343823,3.0843866989016533,-0.22311043709535403,-6.2089890241622925,-2.4035153910517693,19.724605977535248,0.0,0.0,0.0,0.0,0,0,0,0,False,0,0.7489380836486816,0.0349248046875
STABILIZE,0.7513058185577393,26.603138359274904,0.03238871892293294,0.036762237548828125,0.0,0.0,0.0,4.73275888487278,-35.23499590908774,89.9504768028064,0.0,0.0,0,0.0,0.15006946747417155,0.3331589651208893,1.14001626726387,0.1388600965642808,0.27628655079752207,0.6209735758602619,3.5611815750598907,-0.03891464261039063,4.252958670258522,2.8666622936725616,26.1369526386261,0.0,0.0,0.0,0.0,0,0,0,0,False,0,0.7781147956848145,0.034925048828125
STABILIZE,0.7863099575042725,28.568050239071503,0.032515796025594075,0.034197330474853516,0.0,0.0,0.0,4.731574273938605,-35.23406358826604,89.96278480369077,0.0,0.0,0,0.0,0.15159920130012525,0.34567696801159487,1.178994754449901,0.1329399470860518,0.4421612713485956,1.1932890862226486,3.2487306743860245,-0.13153778406808897,1.8384817987680435,5.175233632326126,27.343404293060303,0.0,0.0,0.0,0.0,0,0,0,0,False,0,0.8064615726470947,0.02993505859375
STABILIZE,0.8197591304779053,29.896957773786102,0.03242638905843099,0.03255033493041992,0.0,0.0,0.0,4.731881632451256,-35.23611264501704,89.99086371136869,0.0,0.0,0,0.0,0.14343648737717846,0.35534989242771425,1.2404328961439952,0.12475528149136242,-0.044509919825941324,0.8579549379646778,3.284839168190956,-0.20644761698593936,-5.00643365085125,2.84306313842535,25.220119953155518,0.0,0.0,0.0,0.0,0,0,0,0,False,0,0.8640565872192383,0.034925048828125
STABILIZE,0.8532989025115967,29.81640849926424,0.03250840504964193,0.03264594078063965,0.0,0.0,0.0,4.731985365949276,-35.23584968273399,90.00123876871794,0.0,0.0,0,0.0,0.13551492040896806,0.359830097225145,1.2786975728299197,0.12362300716439366,-0.16761473380029202,0.7235593628138304,3.485039621591568,0.1816627014373878,-1.85328871011734,-1.22231962159276,24.664849042892456,0.0,0.0,0.0,0.0,0,0,0,0,False,0,0.8926258087158203,0.029935302734375
STABILIZE,0.8866627216339111,29.971731145760387,0.032410415013631184,0.03254055976867676,0.0,0.0,0.0,4.731386870623253,-35.23756747531025,90.03073152555406,0.0,0.0,0,0.0,0.12696618523595324,0.3613051368086501,1.301489031183108,0.12294074528340293,-0.1898797694593668,0.7131594698876143,3.3055007457733154,0.2363248387671321,-5.669397488236427,2.701364643871784,25.456136465072632,0.0,0.0,0.0,0.0,0,0,0,0,False,0,0.9213821887969971,0.034925048828125
STABILIZE,0.9201440811157227,29.869067033178325,0.032518895467122395,0.03264570236206055,0.0,0.0,0.0,4.730219335162005,-35.23854760745615,90.04255458300734,0.0,0.0,0,0.0,0.11871769451278628,0.36516506931777004,1.3342982702572628,0.12282227044903875,-0.1898797694593668,0.7131594698876143,3.3055007457733154,0.2363248387671321,-5.669397488236427,2.701364643871784,25.456136465072632,0.0,0.0,0.0,0.0,0,0,0,0,False,0,0.9502072334289551,0.034925048828125
STABILIZE,0.9537191390991211,29.78401408850764,0.03247025807698568,0.03262639045715332,0.0,0.0,0.0,4.729555953038867,-35.23790898476875,90.0550469989993,0.0,0.0,0,0.0,0.11075257244957268,0.3688585289764411,1.3646880255346143,0.1207128469417054,-0.1726110465824604,0.723434193059802,3.2637573778629303,0.11276586290795516,0.19740760326385498,0.7379705552011728,25.006064772605896,0.0,0.0,0.0,0.0,0,0,0,0,False,0,0.9799795150756836,0.029935791015625
STABILIZE,0.9870824813842773,29.970232013090484,0.03237489064534505,0.03251814842224121,0.0,0.0,0.0,4.729967898823183,-35.23845198480777,90.08176669903239,0.0,0.0,0,0.0,0.08676971290601229,0.3616831338007962,1.3858184672843756,0.11538802590148996,-1.159672625362873,0.22287843748927116,3.4575898200273514,-0.05690946966987681,1.8874861299991608,-0.018756772624328732,20.160266757011414,0.0,0.0,0.0,0.0,0,0,0,0,False,0,1.0075609683990479,0.034925048828125
STABILIZE,1.0204994678497314,29.924473648537774,0.032488377888997395,0.032610177993774414,0.0,0.0,0.0,4.7303751488524455,-35.238107060254684,90.09465526599621,0.0,0.0,0,0.0,0.07834033090844993,0.37370388559443657,1.4386357786629862,0.11657970263381666,0.10815145215019584,0.9510696865618229,3.0452625826001167,0.2705928850088645,0.7084022741764784,0.6479450967162848,22.78868705034256,0.0,0.0,0.0,0.0,0,0,0,0,False,0,1.0648446083068848,0.0349248046875
STABILIZE,1.054351806640625,29.540056484044314,0.032491477330525716,0.033069610595703125,0.0,0.0,0.0,4.730223604030235,-35.23811730553844,90.1207329282473,0.0,0.0,0,0.0,0.06177477471464452,0.36655958713774733,1.4585994480124966,0.11110327155687692,-0.7134873885661364,0.12890177313238382,2.981487289071083,-0.09542728762763895,-0.5538794677704573,0.09018838754855096,23.736362159252167,0.0,0.0,0.0,0.0,0,0,0,0,False,0,1.0939233303070068,0.02993603515625
STABILIZE,1.0878520011901855,29.850997807953995,0.032531054814656575,0.03264617919921875,0.0,0.0,0.0,4.729424898784167,-35.23778262626911,90.13343708010353,0.0,0.0,0,0.0,0.04586509192602947,0.357027022653985,1.4666319823841227,0.10527350813617499,-0.7134873885661364,0.12890177313238382,2.981487289071083,-0.09542728762763895,-0.5538794677704573,0.09018838754855096,23.736362159252167,0.0,0.0,0.0,0.0,0,0,0,0,False,0,1.1223862171173096,0.02993603515625
STABILIZE,1.1212897300720215,29.906763829271423,0.03249815305074056,0.0326387882232666,0.0,0.0,0.0,4.728294075589707,-35.23693226771744,90.14661251501249,0.0,0.0,0,0.0,0.0463843876626794,0.3559938513905543,1.4750798780444103,0.10311597824034024,0.26422557421028614,0.6378069519996643,3.031613677740097,0.11979558164713956,0.9947605431079865,2.740633673965931,28.783759474754333,0.0,0.0,0.0,0.0,0,0,0,0,False,0,1.152806282043457,0.034925048828125
STABILIZE,1.1548168659210205,29.826798082803545,0.03252867062886556,0.03266644477844238,0.0,0.0,0.0,4.726252275914696,-35.23571990913977,90.17271066783111,0.0,0.0,0,0.0,0.04801338986495399,0.3608398970702658,1.4948990216430071,0.10193211594251175,0.3488725982606411,0.875016488134861,3.1341828405857086,0.15629755331471576,3.9774075150489807,0.744130602106452,25.659537315368652,0.0,0.0,0.0,0.0,0,0,0,0,False,0,1.181234359741211,0.0349248046875
STABILIZE,1.1881983280181885,29.9563186538489,0.03246119817097982,0.03257441520690918,0.0,0.0,0.0,4.726113537697181,-35.23571990913977,90.18592025368591,0.0,0.0,0,0.0,0.04973341677539599,0.36633337275772176,1.515586263666708,0.09170929754844301,0.3314943518489599,0.9197228588163853,3.2721318304538727,-0.3903115336463489,1.2838334776461124,4.93728443980217,29.760539531707764,0.0,0.0,0.0,0.0,0,0,0,0,False,0,1.2108652591705322,0.03492626953125
STABILIZE,1.2242670059204102,27.725619550631613,0.03245237668355306,0.035187721252441406,0.0,0.0,0.0,4.725801483429476,-35.23611606011163,90.21242821785474,0.0,0.0,0,0.0,0.03363843815357566,0.3543859570205371,1.5387104664660305,0.08524887787344053,-0.7311773952096701,-0.060302834026515484,3.37132029235363,-0.0013031287234976916,0.846666656434536,0.5397344008088112,31.728985905647278,0.0,0.0,0.0,0.0,0,0,0,0,False,0,1.2688570022583008,0.034925048828125
STABILIZE,1.2577362060546875,29.877790599934464,0.032492907842000325,0.03263378143310547,0.0,0.0,0.0,4.725270009334684,-35.2357574751802,90.22572659616876,0.0,0.0,0,0.0,0.018200418638380088,0.34316626926049465,1.5581571173779853,0.08161984310893469,-0.7311773952096701,-0.060302834026515484,3.37132029235363,-0.0013031287234976916,0.846666656434536,0.5397344008088112,31.728985905647278,0.0,0.0,0.0,0.0,0,0,0,0,False,0,1.2969157695770264,0.034925048828125
STABILIZE,1.291294813156128,29.802214043115576,0.03249314626057943,0.03261995315551758,0.0,0.0,0.0,4.7264149197943075,-35.2361228903008,90.23634754032811,0.0,0.0,0,0.0,0.014478524718531983,0.3427389980629052,1.571532792385268,0.07231098387819637,-0.03491169773042202,0.6004284601658583,3.0783357098698616,-0.34388687125990447,2.6790253818035126,2.4098677560687065,24.460245668888092,0.0,0.0,0.0,0.0,0,0,0,0,False,0,1.3260760307312012,0.029935791015625
STABILIZE,1.3262619972229004,28.59707231930401,0.03230908711751302,0.03398013114929199,0.0,0.0,0.0,4.72684137973061,-35.23751624889148,90.26246618371425,0.0,0.0,0,0.0,0.015861131777307018,0.3437626457152939,1.5717913224269373,0.06675384895886652,0.2192106330767274,0.7838836871087551,2.9392682015895844,-0.12564079617385565,4.161999374628067,0.33918714616447687,21.408316493034363,0.0,0.0,0.0,0.0,0,0,0,0,False,0,1.354335069656372,0.034925048828125
STABILIZE,1.360037088394165,29.6044834060334,0.03239467938741048,0.03291130065917969,0.0,0.0,0.0,4.727093669843077,-35.23755039983733,90.27395456189821,0.0,0.0,0,0.0,0.014742965924102996,0.34738694554965976,1.5845338869092034,0.05875190328057255,0.08972637006081641,0.8363405242562294,3.1222807243466377,-0.2746132517482104,-1.9789604470133781,4.86161932349205,28.552329540252686,0.0,0.0,0.0,0.0,0,0,0,0,False,0,1.383336067199707,0.034925048828125
STABILIZE,1.396871566772461,27.148125853576445,0.032470019658406575,0.03603339195251465,0.0,0.0,0.0,4.7275231179871415,-35.23723621113551,90.29816075231673,0.0,0.0,0,0.0,0.014821098958110172,0.3509937830830403,1.6000855715343458,0.05821382287179536,0.14599401038140059,0.8355636149644852,3.3537965267896652,0.1671782981265973,5.858139321208,0.8351617492735386,27.849218249320984,0.0,0.0,0.0,0.0,0,0,0,0,False,0,1.4116754531860352,0.029935791015625
STABILIZE,1.4305813312530518,29.671290826901718,0.03252127965291341,0.03268146514892578,0.0,0.0,0.0,4.727503481193278,-35.23807632440342,90.31207384765605,0.0,0.0,0,0.0,0.006779097453013246,0.3552178135875257,1.618945666090752,0.04770743778842673,-0.11423735413700342,0.7512652780860662,3.260927274823189,-0.23538638144734292,2.8554879128932953,0.35340895410627127,21.203267574310303,0.0,0.0,0.0,0.0,0,0,0,0,False,0,1.4744584560394287,0.034925048828125
STABILIZE,1.4640717506408691,29.85375992028186,0.03226188023885091,0.03262901306152344,0.0,0.0,0.0,4.726575429239802,-35.23967117357462,90.33852034012234,0.0,0.0,0,0.0,0.00013645619353671885,0.35673608401598317,1.6300663106989213,0.046484416309102126,-0.2852080622687936,0.7100023329257965,3.204776346683502,0.10346866810667199,-3.8356252014636993,2.524900808930397,24.918492138385773,0.0,0.0,0.0,0.0,0,0,0,0,False,0,1.506528377532959,0.029935791015625
STABILIZE,1.497480869293213,29.931307134038864,0.03241446812947591,0.032541513442993164,0.0,0.0,0.0,4.725294768770425,-35.23969507923671,90.35165479389627,0.0,0.0,0,0.0,-0.005832160737218647,0.35492338946774404,1.6320753545846491,0.04731608125380264,-0.28387163765728474,0.6215338129550219,3.2707422971725464,0.20751089868085315,-2.9740633442997932,-3.3382296562194824,25.764277577400208,0.0,0.0,0.0,0.0,0,0,0,0,False,0,1.5358033180236816,0.034925048828125
STABILIZE,1.5310094356536865,29.825949682135594,0.03253320058186849,0.032668113708496094,0.0,0.0,0.0,4.725773735785972,-35.24099281517901,90.36433845518499,0.0,0.0,0,0.0,-0.024391548910589627,0.3434272977947154,1.6430164449119358,0.044666831069017005,-1.0135035030543804,-0.06830221973359585,3.244863450527191,-0.0006978532341048965,3.7174366414546967,0.08586380863562226,24.13448691368103,0.0,0.0,0.0,0.0,0,0,0,0,False,0,1.5644633769989014,0.034925048828125
STABILIZE,1.5644419193267822,29.9110293383538,0.0324580987294515,0.03259587287902832,0.0,0.0,0.0,4.726016634388331,-35.23865347538828,90.39053906084115,0.0,0.0,0,0.0,-0.03031638551936134,0.3423062511441202,1.6494546669507335,0.04064193491582921,-0.25890173856168985,0.5654226057231426,3.0280394479632378,-0.08899565733797364,-2.836441621184349,2.341519296169281,25.03722608089447,0.0,0.0,0.0,0.0,0,0,0,0,True,0,1.5938119888305664,0.029935791015625
STABILIZE,1.5979068279266357,29.883751086538325,0.032483609517415364,0.032611846923828125,0.0,0.0,0.0,4.728209551998728,-35.238694456523305,90.40046332570519,0.0,0.0,0,0.0,-0.03521386308563279,0.3396209212549654,1.6459740946942563,0.03687972959781455,-0.25890173856168985,0.5654226057231426,3.0280394479632378,-0.08899565733797364,-2.836441621184349,2.341519296169281,25.03722608089447,0.0,0.0,0.0,0.0,0,0,0,0,True,0,1.6223435401916504,0.029935791015625
STABILIZE,1.6313440799713135,29.90484474706784,0.03246811230977376,0.032652854919433594,0.0,0.0,0.0,4.727050554273942,-35.23962677734501,90.42869932773402,0.0,0.0,0,0.0,-0.04840573318475259,0.3312917884533853,1.6443388429112202,0.03145147028418498,-0.7737243548035622,0.21393480710685253,3.125571832060814,-0.19818877102105678,-4.425216466188431,1.8479309976100922,21.410387754440308,0.0,0.0,0.0,0.0,0,0,0,0,True,0,1.6505134105682373,0.034925048828125
STABILIZE,1.6668834686279297,28.13836039178854,0.03254369099934896,0.03462028503417969,0.0,0.0,0.0,4.72841061569242,-35.23994096604683,90.43984619645948,0.0,0.0,0,0.0,-0.046280843136550204,0.3322128164691143,1.6532111006173014,0.030359810985507874,0.19804523326456547,0.6790414918214083,3.208482265472412,0.07052984071044749,2.7268558740615845,-3.491061180830002,24.077685177326202,0.0,0.0,0.0,0.0,0,0,0,0,True,1,1.6791973114013672,0.03513671875
STABILIZE,1.7009999752044678,29.31419266010162,0.032398494084676106,0.0332188606262207,0.0,0.0,0.0,4.728981790261763,-35.23923745656232,90.46538427376616,0.0,0.0,0,0.0,-0.04206036027860051,0.33862916925612135,1.6649161899545686,0.0267690133713702,0.13618151424452662,0.9427757002413273,2.9366541653871536,-0.037941967643685286,-3.217243403196335,2.318182587623596,22.227831184864044,0.0,0.0,0.0,0.0,0,0,0,0,True,0,1.7366950511932373,0.02993603515625
STABILIZE,1.7344896793365479,29.857160144932696,0.03242519696553548,0.0325772762298584,0.0,0.0,0.0,4.726593358486374,-35.24089377743605,90.48059510504777,0.0,0.0,0,0.0,-0.051625116228963,0.32972505734662194,1.6603005413479899,0.025412543579663476,-0.5975669715553522,0.17780099296942353,3.0570397153496742,0.021355787059234906,1.5688622370362282,-2.0272666588425636,21.35527729988098,0.0,0.0,0.0,0.0,0,0,0,0,True,0,1.7654242515563965,0.034925048828125
STABILIZE,1.7678847312927246,29.94434211465696,0.032410415013631184,0.032553672790527344,0.0,0.0,0.0,4.724952832425101,-35.24076741893641,90.49217227569095,0.0,0.0,0,0.0,-0.06712606359981788,0.3195458134926398,1.6689842540762576,0.029227098915941822,-0.9155928157269955,0.00766943339840509,3.3149611204862595,0.3359350636425551,-3.109871596097946,0.274268863722682,26.984089612960815,0.0,0.0,0.0,0.0,0,0,0,0,True,0,1.7941510677337646,0.034925048828125
STABILIZE,1.801326036453247,29.90228635388224,0.03248122533162435,0.032610416412353516,0.0,0.0,0.0,4.726303075446649,-35.23934673958904,90.51835239077961,0.0,0.0,0,0.0,-0.06584522027228151,0.32337325204451006,1.6738504634110358,0.025793180572570913,0.08491523331031203,0.8523117750883102,3.1212836503982544,-0.10718918687341165,1.6949145123362541,-2.102929912507534,16.327565908432007,0.0,0.0,0.0,0.0,0,0,0,0,True,0,1.8230185508728027,0.034925048828125
STABILIZE,1.8348009586334229,29.875449630679594,0.03249314626057943,0.03265810012817383,0.0,0.0,0.0,4.725379719248227,-35.23873202256374,90.53001152369282,0.0,0.0,0,0.0,-0.08094166156956106,0.3117358197792157,1.6733887894088946,0.02765030218425563,-0.5934835877269506,0.30230649281293154,3.0015097931027412,0.04834547966773863,-9.308181703090668,-0.19609457813203335,19.464027881622314,0.0,0.0,0.0,0.0,0,0,0,0,True,0,1.8802118301391602,0.034925048828125
STABILIZE,1.86822509765625,29.91721648822728,0.03250101407368978,0.0326085090637207,0.0,0.0,0.0,4.724592539946383,-35.2381719470518,90.5444778643549,0.0,0.0,0,0.0,-0.07224124546293911,0.3180858983373661,1.6762350998861422,0.02620014858065786,0.4969545640051365,0.992398988455534,3.0461961403489113,-0.0026122805532654237,0.8899172767996788,0.11536068050190806,17.9690420627594,0.0,0.0,0.0,0.0,0,0,0,0,True,0,1.9090008735656738,0.034925048828125
STABILIZE,1.901721715927124,29.85375992028186,0.03251317342122396,0.03264307975769043,0.0,0.0,0.0,4.72742322647053,-35.238421248956506,90.56791907358638,0.0,0.0,0,0.0,-0.06275511718344999,0.3277805320470563,1.6785644181934973,0.020675699532851453,0.5203962326049805,1.1828131042420864,3.0475905165076256,-0.24759745234242989,0.586828077211976,0.27702790684998035,20.25504559278488,0.0,0.0,0.0,0.0,0,0,0,0,True,0,1.9377412796020508,0.02993603515625
STABILIZE,1.9351487159729004,29.915509432616524,0.032442839940389,0.03259086608886719,0.0,0.0,0.0,4.7260234645775006,-35.23840758857816,90.58235809349179,0.0,0.0,0,0.0,-0.05578720534896784,0.3331040422412011,1.6756452345234938,0.0177759478888577,0.3263171296566725,1.0107293725013733,3.2640717923641205,-0.09965880993198004,-0.4731239750981331,2.3946180939674377,23.376433551311493,0.0,0.0,0.0,0.0,0,0,0,0,True,0,1.9664881229400635,0.039913818359375
STABILIZE,1.968766450881958,29.7483137460725,0.03251078923543294,0.03281354904174805,0.0,0.0,0.0,4.725671709835245,-35.2388549659688,90.60996571811698,0.0,0.0,0,0.0,-0.05509476247868378,0.33940723597177486,1.6870003781829124,0.015413962920714777,-0.0021677078620996326,0.8662865497171879,3.0894264578819275,-0.05502609836709868,-0.9517105296254158,2.407529018819332,24.685069918632507,0.0,0.0,0.0,0.0,0,0,0,0,True,0,1.9950976371765137,0.029936279296875
STABILIZE,2.002255439758301,29.857797773285117,0.03250888188680013,0.03265190124511719,0.0,0.0,0.0,4.726205745250976,-35.23840758857816,90.62051153019549,0.0,0.0,0,0.0,-0.05349677483701223,0.3421748524577237,1.680326008509113,0.013406780802803546,-0.0021677078620996326,0.8662865497171879,3.0894264578819275,-0.05502609836709868,-0.9517105296254158,2.407529018819332,24.685069918632507,0.0,0.0,0.0,0.0,0,0,0,0,True,0,2.023641586303711,0.029936279296875
GUIDED_NOGPS,2.0360770225524902,29.569003440302296,0.03249219258626302,0.03296971321105957,0.0,0.0,0.0,4.726745330195406,-35.2383085508352,90.63379624813116,0.0,0.0,0,0.0,-0.05701882279943437,0.3433833209544752,1.676240852712236,0.01207729015373293,-0.23544991854578257,0.7104863878339529,3.2471302896738052,0.29313789871604856,-4.355406016111374,1.8430398777127266,18.749912083148956,0.0,0.0,0.0,0.0,0,0,0,0,True,0,2.0810887813568115,0.034925048828125
GUIDED_NOGPS,2.0695340633392334,29.886732221747184,0.031046422322591145,0.031177282333374023,0.0,0.0,0.5,4.726399124981851,-35.23798070175504,90.661349231243,0.0,0.0,0,0.5,-0.057390883305408986,0.347051711925553,1.6876954103926083,0.012768098807511485,-0.09811047930270433,0.8031946606934071,3.5930830985307693,0.10270780237540976,2.065717801451683,0.7776359561830759,29.474356770515442,0.0,0.0,0.0,0.0,0,0,0,0,False,0,2.109745740890503,0.034925048828125
GUIDED_NOGPS,2.1030235290527344,29.859710821758846,0.03246930440266927,0.03259730339050293,0.8371456111331723,0.8371456111331723,0.5,4.7267013608526245,-35.23888228672548,90.67412851518009,0.8371456111331723,0.8371456111331723,0,0.5,-0.05770244169720791,0.35064178827773274,1.6987989212829662,0.01354965012676055,-0.09811047930270433,0.8031946606934071,3.5930830985307693,0.10270780237540976,2.065717801451683,0.7776359561830759,29.474356770515442,0.0,0.0,0.0,0.0,0,0,0,0,False,0,2.138288974761963,0.034925048828125
GUIDED_NOGPS,2.136464834213257,29.905271188495078,0.03242090543111165,0.03256034851074219,1.6372130163249383,1.6372130163249383,0.5,4.726295818370655,-35.23654977712392,90.69983734721602,1.6372130163249383,1.6372130163249383,0,0.5,-0.05810985627345856,0.35102078230482103,1.7014284775119233,0.010408641453462042,-0.10715145617723465,0.616346811875701,3.1081242486834526,-0.13637606596054386,-2.4172771722078323,0.2520257839933038,23.54854792356491,0.0,0.0,0.0,0.0,0,0,0,0,False,0,2.167557716369629,0.029935791015625
GUIDED_NOGPS,2.173614740371704,26.919350490982605,0.03243282636006673,0.03622889518737793,2.364766248854345,2.364766248854345,0.5,4.726020476369739,-35.23818560743014,90.71309474439501,2.364766248854345,2.364766248854345,0,0.5,-0.07183762225545573,0.33757058346190516,1.6931094160617144,0.011038795893106858,-0.9354192763566971,-0.10151091264560819,2.9854994267225266,0.08262800671092431,4.987755045294762,0.10544636752456427,26.37685239315033,0.0,0.0,0.0,0.0,0,0,0,0,False,0,2.196537494659424,0.034925048828125
GUIDED_NOGPS,2.2074012756347656,29.59508336684942,0.03239610989888509,0.03290224075317383,2.9875810836519383,2.9875810836519383,0.5,4.728050750100525,-35.23993072076308,90.73973931234723,2.9875810836519383,2.9875810836519383,0,0.5,-0.0705776083975545,0.33565316052563526,1.6943598581364896,0.008606215974332521,-0.0021913812815910205,0.4893228877335787,3.0286528170108795,-0.09934126616653394,4.502538964152336,0.06475386908277869,21.883869171142578,0.0,0.0,0.0,0.0,0,0,0,0,False,1,2.2246758937835693,0.034925048828125
GUIDED_NOGPS,2.2407538890838623,29.982014954179594,0.032448561986287434,0.03257274627685547,3.478072287753611,3.478072287753611,0.5,4.727145323148675,-35.239363815061964,90.7513164829904,3.478072287753611,3.478072287753611,0,0.5,-0.06411169393979294,0.339751551107614,1.6839023161853905,0.008391851612118865,0.21096947602927685,0.7779599633067846,3.0510354787111282,0.023592382195249836,-5.294585600495338,1.5970278531312943,15.97011685371399,0.0,0.0,0.0,0.0,0,0,0,0,False,0,2.2853589057922363,0.034925048828125
GUIDED_NOGPS,2.2743358612060547,29.781476327075463,0.03254392941792806,0.03267621994018555,3.8145154041040223,3.8145154041040223,0.5,4.726366681583294,-35.23843832442943,90.76374059709065,3.8145154041040223,3.8145154041040223,0,0.5,-0.062117813556273924,0.3443187781534113,1.6897300316288646,0.010702656871486001,0.022974773310124874,0.8760606870055199,3.3282283693552017,0.17764935165019707,1.932261511683464,0.521425437182188,26.232710480690002,0.0,0.0,0.0,0.0,0,0,0,0,False,0,2.3137261867523193,0.034925048828125
GUIDED_NOGPS,2.312774658203125,26.012316813753156,0.03236082394917806,0.03762316703796387,3.9820089544063157,3.9820089544063157,0.5,4.726739780666706,-35.2393330792107,90.7912662594458,3.9820089544063157,3.9820089544063157,0,0.5,-0.0784090140704372,0.33386103718328813,1.6896495232392552,0.010588242701159642,-1.0734734125435352,-0.020288577070459723,2.994224429130554,0.027946944621197005,-3.471679612994194,1.8190108239650726,22.318482398986816,0.0,0.0,0.0,0.0,0,0,0,0,False,0,2.3427538871765137,0.029935791015625
GUIDED_NOGPS,2.3463149070739746,29.817256357212425,0.03256085713704427,0.03270530700683594,3.9731344438737137,3.9731344438737137,0.5,4.72766484441242,-35.239397966007814,90.80298686406155,3.9731344438737137,3.9731344438737137,0,0.5,-0.08065933545344835,0.33198372415257327,1.681499949588539,0.00724681398388995,-0.2642709529027343,0.5936664994806051,3.017691522836685,-0.1690461947820371,-5.425085872411728,2.2773295640945435,25.764521956443787,0.0,0.0,0.0,0.0,0,0,0,0,False,0,2.3710219860076904,0.034925048828125
GUIDED_NOGPS,2.3798177242279053,29.84738658601672,0.03242948849995931,0.032573699951171875,3.788284935462983,3.788284935462983,0.5,4.725804898524061,-35.2401527019111,90.82959728106792,3.788284935462983,3.788284935462983,0,0.5,-0.08348863185780447,0.33174827887532155,1.681959842930615,0.0038677098181391523,-0.2642709529027343,0.5936664994806051,3.017691522836685,-0.1690461947820371,-5.425085872411728,2.2773295640945435,25.764521956443787,0.0,0.0,0.0,0.0,0,0,0,0,False,0,2.3997461795806885,0.034925048828125
GUIDED_NOGPS,2.4131920337677,29.961240365452063,0.03244069417317708,0.03257250785827637,3.4356476406339596,3.4356476406339596,0.5,4.725731473990483,-35.23957555092624,90.8427863763552,3.4356476406339596,3.4356476406339596,0,0.5,-0.08016711264737489,0.33431271547032715,1.680284666322574,0.0021040656355678514,0.09812073549255729,0.7631072774529457,2.9116520658135414,-0.07223043775186166,-4.02708612382412,0.06160218035802245,20.910200476646423,0.0,0.0,0.0,0.0,0,0,0,0,False,0,2.4284310340881348,0.034925048828125
GUIDED_NOGPS,2.4474875926971436,29.159105129239027,0.032534154256184895,0.03354787826538086,2.93084129771174,2.93084129771174,0.5,4.7262872806341925,-35.23947651318327,90.86818101968932,2.93084129771174,2.93084129771174,0,0.5,-0.08067588018774685,0.3359436943923141,1.6762823577989683,0.004438057087149714,-0.13933548470959067,0.7073431741446257,2.793996222317219,0.16949744083450752,-4.265479743480682,0.13895586598664522,21.666596829891205,0.0,0.0,0.0,0.0,0,0,0,0,False,1,2.46610164642334,0.0349248046875
GUIDED_NOGPS,2.4811160564422607,29.737346237016556,0.03257301648457845,0.03272891044616699,2.296224398808659,2.296224398808659,0.5,4.725822400883809,-35.239063286738485,90.88086468097804,2.296224398808659,2.296224398808659,0,0.5,-0.07938405452525915,0.33846157988086356,1.6769381536191166,0.004439419955415069,-0.0784006726462394,0.6872828118503094,3.076392412185669,0.025146808852856438,0.6790916435420513,2.1532000973820686,22.78026193380356,0.0,0.0,0.0,0.0,0,0,0,0,False,0,2.5243215560913086,0.034926025390625
GUIDED_NOGPS,2.514580726623535,29.88204784770807,0.03240946133931478,0.03255486488342285,1.559904904784209,1.559904904784209,0.5,4.725768186257271,-35.23854760745615,90.8951534367217,1.559904904784209,1.559904904784209,0,0.5,-0.09356136427535997,0.32566360716710224,1.6767301337341418,0.004858855888573868,-0.9564269334077835,-0.13605683343484998,3.0632926151156425,0.04670666448881201,1.5828199684619904,-1.8955176696181297,24.549393355846405,0.0,0.0,0.0,0.0,0,0,0,0,False,0,2.553079128265381,0.034925048828125
GUIDED_NOGPS,2.547929048538208,29.9867307252345,0.032418044408162434,0.032530784606933594,0.7544953091819575,0.7544953091819575,0.5,4.7257775777673805,-35.23920330561647,90.92044562721826,0.7544953091819575,0.7544953091819575,0,0.5,-0.10739150377199895,0.3130721782022076,1.67481888394679,0.0030041080074494674,-0.9300917387008667,-0.11280564358457923,2.974608540534973,-0.08847038644233057,-2.251233160495758,2.1997500211000443,26.643773913383484,0.0,0.0,0.0,0.0,0,0,0,0,False,0,2.5901200771331787,0.029934814453125
GUIDED_NOGPS,2.5813825130462646,29.892057157110788,0.03250268300374349,0.032624006271362305,-0.08433180911124254,-0.08433180911124254,0.5,4.725729339556367,-35.23877641879334,90.93504174147458,-0.08433180911124254,-0.08433180911124254,0,0.5,-0.10385592927837274,0.31294093007701906,1.664205041678505,-9.858511346814156e-05,0.03838628181256354,0.6936777848750353,2.927124500274658,-0.1670815549003064,-2.794235944747925,-0.30187966767698526,16.475582122802734,0.0,0.0,0.0,0.0,0,0,0,0,False,0,2.618877410888672,0.034926025390625
GUIDED_NOGPS,2.6148085594177246,29.916789706060673,0.03249338467915853,0.03260970115661621,-0.9194237681393729,-0.9194237681393729,0.5,4.725772882012326,-35.239497003750785,90.95928208283895,-0.9194237681393729,-0.9194237681393729,0,0.5,-0.09383617065531254,0.32047600172068297,1.6651178753058762,-0.0014362300439053296,0.465606153011322,1.061826292425394,3.112277388572693,-0.058952776788981656,4.537020996212959,0.336156552657485,23.232370615005493,0.0,0.0,0.0,0.0,0,0,0,0,False,0,2.647385358810425,0.034925048828125
GUIDED_NOGPS,2.648275852203369,29.879280498664293,0.0325043519337972,0.03261828422546387,-1.7137933207317204,-1.7137933207317204,0.5,4.725742573047884,-35.239739475466315,90.97217747999193,-1.7137933207317204,-1.7137933207317204,0,0.5,-0.10010840592174301,0.3153368927018025,1.663478790097639,-0.002477708857098968,-0.5082460585981607,0.307899690233171,2.9718223959207535,-0.04311064659702632,1.7359394580125809,0.13609243324026465,23.831498622894287,0.0,0.0,0.0,0.0,0,0,0,0,False,0,2.6759934425354004,0.030210205078125
GUIDED_NOGPS,2.6817855834960938,29.84313920808282,0.03247574170430501,0.032670021057128906,-2.432256865047825,-2.432256865047825,0.5,4.7264473631928645,-35.24037809815371,90.9828189147188,-2.432256865047825,-2.432256865047825,0,0.5,-0.0981905928450203,0.31786743377942717,1.6565124235875348,-0.0031590653191099945,-0.06410423666238785,0.8367737755179405,3.0946945771574974,-0.0302733327324138,-5.403649061918259,0.42587420903146267,26.1151522397995,0.0,0.0,0.0,0.0,0,0,0,0,False,0,2.7048115730285645,0.034925048828125
GUIDED_NOGPS,2.7152557373046875,29.878641952442692,0.03247645696004232,0.0325770378112793,-3.042992769458405,-3.042992769458405,0.5,4.7277707123445545,-35.23979411697968,91.00787204859442,-3.042992769458405,-3.042992769458405,0,0.5,-0.09685600272868937,0.32185583297245873,1.65742189626185,-0.00392008390611624,-0.06410423666238785,0.8367737755179405,3.0946945771574974,-0.0302733327324138,-5.403649061918259,0.42587420903146267,26.1151522397995,0.0,0.0,0.0,0.0,0,0,0,0,False,0,2.739109992980957,0.034925048828125
GUIDED_NOGPS,2.7487316131591797,29.87204523926529,0.03241899808247884,0.03261733055114746,-3.5189507916419482,-3.5189507916419482,0.5,4.726506273574456,-35.24014928681652,91.02152559674528,-3.5189507916419482,-3.5189507916419482,0,0.5,-0.09137889078363627,0.32599625033508894,1.659761851551565,-0.006664845487155964,0.17425030237063766,0.8429051376879215,3.188996762037277,-0.1493613761506488,-1.0313652455806732,2.4578390643000603,26.98032259941101,0.0,0.0,0.0,0.0,0,0,0,0,False,0,2.7680864334106445,0.029935791015625
GUIDED_NOGPS,2.7825241088867188,29.59132502240001,0.032468350728352864,0.032959938049316406,-3.8390501669963437,-3.8390501669963437,0.5,4.726478525930953,-35.24119430575953,91.04816333450832,-3.8390501669963437,-3.8390501669963437,0,0.5,-0.0767139240563601,0.33267989011113247,1.6513327913251392,-0.008876432075379385,0.34017241559922695,0.9303610771894455,3.3085357397794724,0.02202845397077538,2.594383619725704,-1.5993056818842888,25.025060772895813,0.0,0.0,0.0,0.0,0,0,0,0,False,0,2.825258493423462,0.034925048828125
GUIDED_NOGPS,2.816068410873413,29.81386521470256,0.03249052365620931,0.03261590003967285,-3.9891133015603226,-3.9891133015603226,0.5,4.727087693427554,-35.24178511712274,91.06019812782588,-3.9891133015603226,-3.9891133015603226,0,0.5,-0.08407684617066859,0.32758543261036815,1.6545683025636204,-0.01189218324069054,-0.6016967818140984,0.27323116082698107,3.1742729246616364,-0.17203944514451586,2.199765108525753,3.902815282344818,22.475476562976837,0.0,0.0,0.0,0.0,0,0,0,0,False,0,2.854623317718506,0.034925048828125
GUIDED_NOGPS,2.853478193283081,26.729102275696377,0.03238538106282552,0.0365748405456543,-3.9624937150399195,-3.9624937150399195,0.5,4.725131698003991,-35.241682664285186,91.08596160137517,-3.9624937150399195,-3.9624937150399195,0,0.5,-0.09455596309930843,0.32055048993335855,1.6568053153867726,-0.014000055347958373,-0.7798501756042242,0.16746848123148084,3.1283095479011536,-0.11855610241598058,-1.9142309203743935,-1.8940966576337814,24.668116867542267,0.0,0.0,0.0,0.0,0,0,0,0,False,0,2.8826687335968018,0.029935791015625
GUIDED_NOGPS,2.8870296478271484,29.806026151222284,0.03249672253926595,0.03264617919921875,-3.76037042157312,-3.76037042157312,0.5,4.72618866977805,-35.241368475583364,91.09855647020468,-3.76037042157312,-3.76037042157312,0,0.5,-0.08426432055881422,0.32402120372455884,1.6482076230375748,-0.01703830351273171,0.4386484157294035,0.89162178337574,2.9597118496894836,-0.19036508281149808,2.8377894312143326,0.09439520072191954,21.8986377120018,0.0,0.0,0.0,0.0,0,0,0,0,False,0,2.9112720489501953,0.034925048828125
GUIDED_NOGPS,2.9205195903778076,29.860135976933755,0.032408746083577473,0.0325465202331543,-3.391695709747537,-3.391695709747537,0.5,4.727526533081726,-35.24193538128448,91.10917058417488,-3.391695709747537,-3.391695709747537,0,0.5,-0.09049739945474,0.3208924340762981,1.6501179303969171,-0.015510815185089653,-0.5286488216370344,0.39643985219299793,3.088516555726528,0.09601475726743278,-2.53694336861372,-0.061905995244160295,21.577264368534088,0.0,0.0,0.0,0.0,0,0,0,0,False,0,2.9399986267089844,0.034925048828125
GUIDED_NOGPS,2.959836006164551,25.43343459884909,0.03237942059834798,0.03846573829650879,-2.8727986347581846,-2.8727986347581846,0.5,4.7254783301043695,-35.24211979639207,91.13586979364045,-2.8727986347581846,-2.8727986347581846,0,0.5,-0.09646390985804242,0.3134287742284576,1.6458721422530618,-0.01217591415474453,-0.50803292542696,0.1433028606697917,2.73521039634943,0.1981686006186641,-3.6467835307121277,-0.501386309042573,16.682225465774536,0.0,0.0,0.0,0.0,0,0,0,0,False,1,2.969329833984375,0.029936279296875
GUIDED_NOGPS,2.9932990074157715,29.883112349223765,0.032480510075887044,0.032622575759887695,-2.2266617845240306,-2.2266617845240306,0.5,4.724074299343108,-35.242266645459225,91.15046590789677,-2.2266617845240306,-2.2266617845240306,0,0.5,-0.07585784746857628,0.32553570560504186,1.6336090117813737,-0.01458371795479041,0.473898695781827,1.0640311054885387,2.9416605830192566,-0.10966083489888356,0.2421199344098568,0.10276075918227434,19.462822377681732,0.0,0.0,0.0,0.0,0,0,0,0,False,0,3.0340120792388916,0.034925048828125
GUIDED_NOGPS,3.026855230331421,29.802002287923035,0.03247884114583333,0.03267335891723633,-1.481903352679138,-1.481903352679138,0.5,4.72527897395797,-35.24302821155168,91.17530047571894,-1.481903352679138,-1.481903352679138,0,0.5,-0.06746047049172145,0.3323009134330988,1.6338247965053576,-0.014174610794915233,0.3386106574907899,0.9843750856816769,2.997569926083088,0.0162929360173894,-0.17095457296818495,0.22533319424837828,21.09542489051819,0.0,0.0,0.0,0.0,0,0,0,0,False,0,3.063504219055176,0.02993603515625
GUIDED_NOGPS,3.060293674468994,29.906337345274085,0.03240230878194173,0.03253984451293945,-0.6715096036741619,-0.6715096036741619,0.5,4.724928499876183,-35.243496079509825,91.18823002381778,-0.6715096036741619,-0.6715096036741619,0,0.5,-0.059024507357362956,0.3353627723202594,1.6269614313103573,-0.011270257891145014,0.3358365036547184,0.8652015589177608,3.036116436123848,0.15643770559483325,2.4663779884576797,2.298552542924881,22.735586762428284,0.0,0.0,0.0,0.0,0,0,0,0,False,0,3.091417074203491,0.0349248046875
GUIDED_NOGPS,3.0938007831573486,29.844838014188433,0.032457860310872395,0.032691240310668945,0.16862612933638546,0.16862612933638546,0.5,4.723509954962936,-35.243284343645556,91.2135768558277,0.16862612933638546,0.16862612933638546,0,0.5,-0.0506801140518441,0.3402382084345357,1.6282641710439012,-0.008440527081801647,0.3358365036547184,0.8652015589177608,3.036116436123848,0.15643770559483325,2.4663779884576797,2.298552542924881,22.735586762428284,0.0,0.0,0.0,0.0,0,0,0,0,False,0,3.121039390563965,0.0349248046875
GUIDED_NOGPS,3.127329111099243,29.824889249169814,0.032489808400472005,0.0326235294342041,1.0012932042455418,1.0012932042455418,0.5,4.72497588431355,-35.24320921156468,91.22557066801023,1.0012932042455418,1.0012932042455418,0,0.5,-0.04997447944292145,0.34374583660251623,1.6305781576195832,-0.008609666809757862,-0.12083725305274129,0.7866258732974529,3.108213283121586,-0.026094844445739496,-4.088281095027924,-1.9620519131422043,19.122742116451263,0.0,0.0,0.0,0.0,0,0,0,0,False,0,3.149810552597046,0.034925048828125
GUIDED_NOGPS,3.160731077194214,29.93664796653962,0.032425673802693684,0.03255295753479004,1.7896117749745357,1.7896117749745357,0.5,4.725584624923328,-35.24373172103619,91.2367380273032,1.7896117749745357,1.7896117749745357,0,0.5,-0.0470562424291531,0.34289533841275965,1.6266464582978446,-0.00866914990816758,0.018639338668435812,0.532431760802865,2.7464915066957474,-0.019421282719174246,2.9417023062705994,-2.163475938141346,16.867396235466003,0.0,0.0,0.0,0.0,0,0,0,0,False,0,3.1786093711853027,0.029936279296875
GUIDED_NOGPS,3.194147825241089,29.92426015239291,0.032482417424519856,0.03259587287902832,2.498666245091628,2.498666245091628,0.5,4.725488148501301,-35.24326726817263,91.26080078374916,2.498666245091628,2.498666245091628,0,0.5,-0.04744086845396418,0.3371943099106675,1.6222616034216848,-0.00998133937576311,-0.1538854674436152,0.46693659387528896,3.06550282984972,-0.0981647994325323,-1.9676495343446732,2.7248721569776535,30.085641145706177,0.0,0.0,0.0,0.0,0,0,0,0,False,0,3.2376058101654053,0.034925048828125
GUIDED_NOGPS,3.22770357131958,29.80263756252842,0.03250268300374349,0.03265047073364258,3.0970517224047738,3.0970517224047738,0.5,4.7248798347783465,-35.24239983414804,91.27474803003433,3.0970517224047738,3.0970517224047738,0,0.5,-0.04578901068126372,0.3352518301449386,1.6226429759593155,-0.011150560793403187,-0.03732024342752993,0.479672197252512,2.9881516471505165,-0.08459978360672914,-2.1532898768782616,0.31527536921203136,24.531425535678864,0.0,0.0,0.0,0.0,0,0,0,0,False,0,3.267012357711792,0.034925048828125
GUIDED_NOGPS,3.2611701488494873,29.882686539516527,0.03239038785298665,0.032572269439697266,3.5582649801573734,3.5582649801573734,0.5,4.72414815076351,-35.243246777605115,91.30031342809768,3.5582649801573734,3.5582649801573734,0,0.5,-0.044332622574265276,0.33548446385127034,1.622679287840574,-0.0046598032193902635,-0.04442178178578615,0.6150338798761368,2.978414110839367,0.3699104522866084,5.317670851945877,0.03819076810032129,19.731082022190094,0.0,0.0,0.0,0.0,0,0,0,0,False,0,3.296715259552002,0.029935791015625
GUIDED_NOGPS,3.294692277908325,29.828919295650444,0.032430203755696614,0.032594919204711914,3.8618783174495626,3.8618783174495626,0.5,4.724135771045638,-35.24270036247152,91.31336591960158,3.8618783174495626,3.8618783174495626,0,0.5,-0.054737621016311494,0.3201713248368353,1.6139933900312151,-0.003985173602401623,-0.7494681980460882,-0.21608409006148577,2.914254181087017,0.022918606378485227,3.9840102195739746,-1.7895763739943504,23.95494133234024,0.0,0.0,0.0,0.0,0,0,0,0,False,0,3.3250138759613037,0.034925048828125
GUIDED_NOGPS,3.3280858993530273,29.944769683296684,0.03239301045735677,0.03254842758178711,3.994444327167255,3.994444327167255,0.5,4.724395318234099,-35.242423739810135,91.32612471297116,3.994444327167255,3.994444327167255,0,0.5,-0.06537325144732806,0.3063867662294706,1.6134125592871764,-0.003292872060866576,-0.7494681980460882,-0.21608409006148577,2.914254181087017,0.022918606378485227,3.9840102195739746,-1.7895763739943504,23.95494133234024,0.0,0.0,0.0,0.0,0,0,0,0,False,0,3.354499340057373,0.034925048828125
GUIDED_NOGPS,3.361553430557251,29.88077054599339,0.032496007283528645,0.032633304595947266,3.9500914981375175,3.9500914981375175,0.5,4.721487792081789,-35.24040541891039,91.35200429973634,3.9500914981375175,3.9500914981375175,0,0.5,-0.06493448635703854,0.3026202713953462,1.6106339026244334,-0.003464090580016772,-0.08211815729737282,0.3891396801918745,2.79548317193985,-0.027541363786114482,-0.1653935294598341,0.2602016553282738,23.382297158241272,0.0,0.0,0.0,0.0,0,0,0,0,False,0,3.383295774459839,0.034925048828125
GUIDED_NOGPS,3.395195960998535,29.725122782648135,0.03248551686604818,0.03280758857727051,3.730784271560276,3.730784271560276,0.5,4.722216487888865,-35.24014928681652,91.36414154589146,3.730784271560276,3.730784271560276,0,0.5,-0.06445876892576624,0.2988809291928664,1.6076548897508802,-0.0036609035340836853,-0.08211815729737282,0.3891396801918745,2.79548317193985,-0.027541363786114482,-0.1653935294598341,0.2602016553282738,23.382297158241272,0.0,0.0,0.0,0.0,0,0,0,0,False,1,3.412557363510132,0.034925048828125
GUIDED_NOGPS,3.429365873336792,29.265921000300033,0.03247717221577962,0.03326082229614258,3.3462360334980343,3.3462360334980343,0.5,4.720027839146699,-35.24000585284395,91.38874388728183,3.3462360334980343,3.3462360334980343,0,0.5,-0.06437875376462429,0.31039083308972837,1.646863136238264,-0.0072114308669213026,-0.17409961437806487,0.7294562645256519,2.948877587914467,-0.1779106864272294,-4.84841950237751,-0.006674614269286394,19.17283982038498,0.0,0.0,0.0,0.0,0,0,0,0,False,0,3.47001051902771,0.034925048828125
GUIDED_NOGPS,3.4629697799682617,29.75738914508691,0.032408746083577473,0.032562255859375,2.8134788970929563,2.8134788970929563,0.5,4.720475216537335,-35.23897790937386,91.40243841656772,2.8134788970929563,2.8134788970929563,0,0.5,-0.06528415468525169,0.3120825300321478,1.6411482920176277,-0.010266096077076955,-0.17409961437806487,0.7294562645256519,2.948877587914467,-0.1779106864272294,-4.84841950237751,-0.006674614269286394,19.17283982038498,0.0,0.0,0.0,0.0,0,0,0,0,False,0,3.4985930919647217,0.034925048828125
GUIDED_NOGPS,3.4995486736297607,27.339595215591697,0.032291444142659505,0.03567814826965332,2.1561093293845426,2.1561093293845426,0.5,4.719892089136945,-35.23944236223742,91.41627637982616,2.1561093293845426,2.1561093293845426,0,0.5,-0.06603635097324671,0.311389630501577,1.6355466234057654,-0.008289819726944208,-0.1650054706260562,0.5918964743614197,2.9330573976039886,0.09686459555078368,-0.31657004728913307,0.32099708914756775,23.86399209499359,0.0,0.0,0.0,0.0,0,0,0,0,False,0,3.5272750854492188,0.0349248046875
GUIDED_NOGPS,3.5329837799072266,29.907616833758787,0.032408984502156575,0.032547712326049805,1.4032430348416076,1.4032430348416076,0.5,4.719553140999383,-35.24033711701869,91.44236087226643,1.4032430348416076,1.4032430348416076,0,0.5,-0.06108483569101278,0.31446307960088526,1.6303716673353397,-0.008263325795708616,0.14685859205201268,0.7924137637019157,2.937772311270237,-0.010876022376400713,2.739538997411728,0.13133183820173144,20.05806863307953,0.0,0.0,0.0,0.0,0,0,0,0,False,0,3.5560617446899414,0.034925048828125
GUIDED_NOGPS,3.567410945892334,29.04823707848827,0.03244760831197103,0.03353762626647949,0.5882253850986222,0.5882253850986222,0.5,4.720454299083002,-35.24059324911257,91.45469619390748,0.5882253850986222,0.5882253850986222,0,0.5,-0.05612651744258967,0.31762150209124507,1.6254921389659134,-0.008229725064000446,0.14685859205201268,0.7924137637019157,2.937772311270237,-0.010876022376400713,2.739538997411728,0.13133183820173144,20.05806863307953,0.0,0.0,0.0,0.0,0,0,0,0,False,1,3.584899425506592,0.034925048828125
GUIDED_NOGPS,3.600712537765503,30.02515516167596,0.03241470654805501,0.03254294395446777,-0.25284548845464727,-0.25284548845464727,0.5,4.72187583220401,-35.24067862647719,91.48023427121416,-0.25284548845464727,-0.25284548845464727,0,0.5,-0.04636226112844335,0.3192671686722591,1.606752806692951,-0.009022918475830671,0.21440931595861912,0.6313469726592302,3.013036586344242,-0.15762799945984018,0.30690133571624756,0.08362020598724484,20.761890709400177,0.0,0.0,0.0,0.0,0,0,0,0,False,0,3.6423046588897705,0.0349248046875
GUIDED_NOGPS,3.634300708770752,29.773442934821187,0.03259399731953939,0.0327298641204834,-1.0827175251895753,-1.0827175251895753,0.5,4.721955233153112,-35.2412011359487,91.4919548758299,-1.0827175251895753,-1.0827175251895753,0,0.5,-0.04236767262256583,0.3195183114260541,1.6026281590853082,-0.005107014301820874,0.10255095548927784,0.6183009129017591,2.8945287689566612,0.20595679052083724,1.6695775091648102,-0.27863746508955956,15.98600447177887,0.0,0.0,0.0,0.0,0,0,0,0,False,0,3.6707234382629395,0.034925048828125
GUIDED_NOGPS,3.6677405834198,29.90505796626121,0.03240373929341634,0.032523393630981445,-1.8646346746964457,-1.8646346746964457,0.5,4.722492683663427,-35.24134456992127,91.50434483898431,-1.8646346746964457,-1.8646346746964457,0,0.5,-0.03996738117922036,0.3211535710298074,1.6022226406329094,-0.004399247847129518,0.01671312202233821,0.6958949379622936,3.0942486599087715,0.025588451619333173,4.4867027550935745,2.2460943087935448,23.127266764640808,0.0,0.0,0.0,0.0,0,0,0,0,False,0,3.6994829177856445,0.035140625
GUIDED_NOGPS,3.701197624206543,29.88886196821777,0.03242233594258626,0.0325777530670166,-2.5639648673412996,-2.5639648673412996,0.5,4.725269155561038,-35.24035077739703,91.52766310481073,-2.5639648673412996,-2.5639648673412996,0,0.5,-0.05688719843844292,0.3086436574370277,1.5954436262345764,-0.006794086999669989,-1.061584334820509,-0.10016658343374729,2.7112066745758057,-0.1478144983861996,-2.325655147433281,0.03123236820101738,22.110676765441895,0.0,0.0,0.0,0.0,0,0,0,0,False,0,3.728098154067993,0.02993603515625
GUIDED_NOGPS,3.7347981929779053,29.765202642765395,0.03247097333272298,0.03262042999267578,-3.149733911108927,-3.149733911108927,0.5,4.725608530585423,-35.24058983401798,91.5382362376459,-3.149733911108927,-3.149733911108927,0,0.5,-0.0733940234364386,0.294837739153597,1.5812905931750805,-0.009136299404071865,-1.061584334820509,-0.10016658343374729,2.7112066745758057,-0.1478144983861996,-2.325655147433281,0.03123236820101738,22.110676765441895,0.0,0.0,0.0,0.0,0,0,0,0,False,0,3.7567098140716553,0.02993603515625
GUIDED_NOGPS,3.768415689468384,29.743883586026918,0.03231790860493978,0.032744646072387695,-3.5959973765594877,-3.5959973765594877,0.5,4.725016865448571,-35.24099281517901,91.56709378688922,-3.5959973765594877,-3.5959973765594877,0,0.5,-0.0729126881936007,0.2945176206629133,1.569423975406925,-0.010687470590159752,-0.10372577235102654,0.6504829507321119,2.784113399684429,-0.10541934745526516,-3.5874173045158386,4.298342019319534,24.055062234401703,0.0,0.0,0.0,0.0,0,0,0,0,False,0,3.7856221199035645,0.034925048828125
GUIDED_NOGPS,3.801865816116333,29.894400729843767,0.03244641621907552,0.03259587287902832,-3.8829897074312667,-3.8829897074312667,0.5,4.725240127257065,-35.24160411710973,91.57759178764353,-3.8829897074312667,-3.8829897074312667,0,0.5,-0.08172433556322323,0.28493902099571083,1.5594026402114012,-0.013578891777923003,-0.6101551465690136,0.035629922058433294,2.4281304329633713,-0.17838911983424763,3.064810112118721,-2.408384159207344,14.640513062477112,0.0,0.0,0.0,0.0,0,0,0,0,False,0,3.8216030597686768,0.02993603515625
GUIDED_NOGPS,3.835313081741333,29.896531569418507,0.03249195416768392,0.032630205154418945,-3.9979996613714937,-3.9979996613714937,0.5,4.726057188636528,-35.2408357208281,91.5900773734463,-3.9979996613714937,-3.9979996613714937,0,0.5,-0.07840127326148048,0.28608595682558435,1.5395693304820612,-0.01300970414695787,0.05473988130688667,0.7193936500698328,2.256684750318527,0.01407617944596325,0.2831299789249897,4.159294813871384,22.24273979663849,0.0,0.0,0.0,0.0,0,0,0,0,False,1,3.8508031368255615,0.0349248046875
GUIDED_NOGPS,3.868803024291992,29.859923397832926,0.0325045903523763,0.03264284133911133,-3.93593330645149,-3.93593330645149,0.5,4.7245788795680435,-35.24096549442233,91.61691318669529,-3.93593330645149,-3.93593330645149,0,0.5,-0.05914826436062764,0.28976058646036806,1.5237639159421486,-0.012488374433213507,0.24683254305273294,0.7125177886337042,2.6300622150301933,0.21735484212106793,-4.646812006831169,1.7073273658752441,15.600588917732239,0.0,0.0,0.0,0.0,0,0,0,0,False,0,3.910735607147217,0.02993603515625
GUIDED_NOGPS,3.9022867679595947,29.86757815281635,0.032471688588460286,0.03261089324951172,-3.6995396376598824,-3.6995396376598824,0.5,4.724570341831581,-35.240357607586205,91.6293236404172,-3.6995396376598824,-3.6995396376598824,0,0.5,-0.05512317173488014,0.29016893504978136,1.5157472153495044,-0.011624958797312932,0.10462282225489616,0.6647696252912283,2.876936085522175,0.0292928637461331,-1.4041438698768616,0.12952390825375915,20.65351754426956,0.0,0.0,0.0,0.0,0,0,0,0,False,0,3.9394118785858154,0.0349248046875
GUIDED_NOGPS,3.9356510639190674,29.969161295854352,0.032352717717488606,0.03247213363647461,-3.2992888205427002,-3.2992888205427002,0.5,4.723579537515106,-35.24142311709672,91.6538781704834,-3.2992888205427002,-3.2992888205427002,0,0.5,-0.053771971081253915,0.28750178718082897,1.5132240519624764,-0.005664999001495641,-0.038543978007510304,0.3989347256720066,2.756335400044918,0.33432271211160897,0.8431524969637394,0.4472806118428707,25.16210973262787,0.0,0.0,0.0,0.0,0,0,0,0,False,0,3.9683456420898438,0.034925048828125
GUIDED_NOGPS,3.9691455364227295,29.857160144932696,0.032530816396077473,0.032652854919433594,-2.752908454728883,-2.752908454728883,0.5,4.722681794526072,-35.24228713602673,91.66857673757727,-2.752908454728883,-2.752908454728883,0,0.5,-0.05145145939887867,0.28248689316020764,1.5026282763123693,-0.008669721172781442,0.01939740322995931,0.2613575663417578,2.2777989506721497,-0.196612384704959,-4.862087965011597,-0.19254095386713743,17.70360916852951,0.0,0.0,0.0,0.0,0,0,0,0,False,0,3.9970510005950928,0.029936279296875
GUIDED_NOGPS,4.002723217010498,29.782533675114145,0.03247526486714681,0.03262209892272949,-2.0845983967984125,-2.0845983967984125,0.5,4.723470254488386,-35.24250228698559,91.68013341765293,-2.0845983967984125,-2.0845983967984125,0,0.5,-0.048428674155413944,0.2790058326867744,1.490512280770254,-0.0057877861018354685,0.05470901378430426,0.4204788710922003,2.5725945830345154,0.151776008104807,0.9362698532640934,1.840490847826004,18.30172687768936,0.0,0.0,0.0,0.0,0,0,0,0,False,0,4.027065753936768,0.034925048828125
GUIDED_NOGPS,4.036003589630127,30.04472715290612,0.03236130078633626,0.032468318939208984,-1.3239589189513785,-1.3239589189513785,0.5,4.723415186088202,-35.239831683020114,91.70634085349826,-1.3239589189513785,-1.3239589189513785,0,0.5,-0.06288337164266379,0.26590434357343257,1.48391660060842,-0.004860753759061598,-0.9716338478028774,-0.22917264141142368,2.463161200284958,0.03638537820400996,0.40214909240603447,-0.5771017633378506,15.073920786380768,0.0,0.0,0.0,0.0,0,0,0,0,False,0,4.055755138397217,0.03492578125
GUIDED_NOGPS,4.069473505020142,29.87736494187372,0.032517226537068684,0.03265976905822754,-0.5046796766452314,-0.5046796766452314,0.5,4.723302061080074,-35.23922721127857,91.71975534502816,-0.5046796766452314,-0.5046796766452314,0,0.5,-0.07897021811753517,0.2521573101937554,1.4783858115565027,-0.0029102714690596504,-0.1841723104007542,0.5185582209378481,2.9090750962495804,0.04327130278486707,-2.274978533387184,2.3372353985905647,26.042044162750244,0.0,0.0,0.0,0.0,0,0,0,0,False,0,4.113123178482056,0.034925048828125
GUIDED_NOGPS,4.103074789047241,29.764357742500906,0.032514365514119466,0.03263235092163086,0.3369524475684852,0.3369524475684852,0.5,4.7251628607420795,-35.239493588656195,91.74504753552472,0.3369524475684852,0.3369524475684852,0,0.5,-0.07499046441159211,0.2559166226597687,1.4758538688908511,-0.0029200293204384243,0.12911687372252345,0.7631832733750343,2.690531872212887,-0.01723180688378848,0.4391823895275593,0.263464474119246,23.083245754241943,0.0,0.0,0.0,0.0,0,0,0,0,False,0,4.141847610473633,0.029935791015625
GUIDED_NOGPS,4.136359930038452,30.039993124391223,0.03231099446614583,0.032442569732666016,1.1636605345809563,1.1636605345809563,0.5,4.724400013989153,-35.23931600373778,91.75742383830078,1.1636605345809563,1.1636605345809563,0,0.5,-0.070834004449678,0.2598249807852788,1.4728675903024158,-0.0012895547781116548,0.10692155919969082,0.8211134932935238,3.044470213353634,0.0835013104293339,-6.580846011638641,2.5670405477285385,28.327760100364685,0.0,0.0,0.0,0.0,0,0,0,0,False,0,4.170629024505615,0.034925048828125
GUIDED_NOGPS,4.16986608505249,29.84738658601672,0.03251603444417318,0.03264808654785156,1.9388286691965382,1.9388286691965382,0.5,4.723770782811866,-35.239309173548605,91.76920591461906,1.9388286691965382,1.9388286691965382,0,0.5,-0.06691455560357928,0.26253332020505,1.4765558680534219,0.002795318519039836,0.11830104049295187,0.6791917607188225,3.004778176546097,0.22691457231857345,4.551561176776886,-1.8253143876791,21.691907942295074,0.0,0.0,0.0,0.0,0,0,0,0,False,0,4.199488878250122,0.0349892578125
