Mode,Time,Freq,time2delay,actualDelay,North-Desired,East-Desired,Down-Desired,Roll-UAV,Pitch-UAV,Yaw-UAV,Roll-Control,Pitch-Control,Yaw-Control,Thrust-Control,North-Pos,East-Pos,Down-Pos,Yaw-Ang,North-Vel,East-Vel,Down-Vel,Yaw-Vel,North-Acc,East-Acc,Down-Acc,North-Raw,East-Raw,Down-Raw,Yaw-Raw,North-Dif,East-Dif,Down-Dif,Yaw-Dif,Landing-State,Q-Size,Kalman-Time,Kalman-Dt
STABILIZE,0.034379005432128906,29.09720564974887,0.03331569035847982,0.03348517417907715,0.0,0.0,0.0,5.882316861339538,-36.007592757053736,71.99905943747707,0.0,0.0,0,0.0,0.09454211809591032,0.09186438370240332,0.13452975875879855,0.09095800350070417,0.08221472962759435,-0.1404944690875709,2.240418829023838,0.006424333193032511,2.7075940743088722,0.03585158847272396,21.914736926555634,0.0,0.0,0.0,0.0,0,0,0,0,False,0,0.14501214027404785,0.034927978515625
STABILIZE,0.06770443916320801,30.006467305766204,0.03227713902791341,0.03239583969116211,0.0,0.0,0.0,5.8786435002265405,-36.00859679486173,72.03577853445506,0.0,0.0,0,0.0,0.11097266544965675,0.1074862277903217,0.17087931377303844,0.10587793251142,0.020889376173727214,-0.020940690592397004,2.289494313299656,-0.14052891435740417,2.639351598918438,0.5066010635346174,23.415346443653107,0.0,0.0,0.0,0.0,0,0,0,0,False,0,0.1735997200012207,0.034928955078125
STABILIZE,0.10115766525268555,29.892909322861357,0.032462151845296223,0.032590389251708984,0.0,0.0,0.0,5.878143188869837,-36.007428832513654,72.05473913959102,0.0,0.0,0,0.0,0.13693002352055644,0.1323910580625804,0.24597934484525677,0.12975247721614178,0.08736515883356333,0.12069622753188014,2.382105775177479,0.14276968331263115,11.778368055820465,-1.8166964873671532,15.867309272289276,0.0,0.0,0.0,0.0,0,0,0,0,False,0,0.231154203414917,0.039918212890625
STABILIZE,0.1346120834350586,29.890139961802685,0.0324743111928304,0.03260064125061035,0.0,0.0,0.0,5.879282122913937,-36.007066832487645,72.07238834840634,0.0,0.0,0,0.0,0.1494972780856079,0.1455727129354612,0.29187276770927356,0.14156114947738066,-0.007631660264451057,0.12696166522800922,2.4511320516467094,-0.00827776905733894,-2.7362635359168053,0.9137568064033985,25.658676028251648,0.0,0.0,0.0,0.0,0,0,0,0,False,0,0.25934910774230957,0.024949951171875
STABILIZE,0.16805529594421387,29.901859997576086,0.03247645696004232,0.03258490562438965,0.0,0.0,0.0,5.882811196280717,-36.00809819105232,72.10682616220153,0.0,0.0,0,0.0,0.15080745687093067,0.14801030340234647,0.3175713601794557,0.14275468198626326,-0.007631660264451057,0.12696166522800922,2.4511320516467094,-0.00827776905733894,-2.7362635359168053,0.9137568064033985,25.658676028251648,0.0,0.0,0.0,0.0,0,0,0,0,False,0,0.28798365592956543,0.024949951171875
STABILIZE,0.20146989822387695,29.92660877755025,0.03245380719502767,0.03258490562438965,0.0,0.0,0.0,5.88445172234199,-36.00920126660328,72.12554771071653,0.0,0.0,0,0.0,0.15291139441168144,0.151313566674377,0.3415667628133517,0.1433039804662405,0.14137987745925784,0.2725979546085,2.2209199145436287,-0.024637546213080584,4.516075551509857,0.6932498887181282,20.92602699995041,0.0,0.0,0.0,0.0,0,0,0,0,False,0,0.31674814224243164,0.034927734375
STABILIZE,0.23491978645324707,29.895253029223092,0.032483847935994466,0.03260159492492676,0.0,0.0,0.0,5.884061547785652,-36.0073946815678,72.1622736378837,0.0,0.0,0,0.0,0.160439215688788,0.1560917706641037,0.3791706946941636,0.14995101481043235,0.1906413584947586,-0.10187362786382437,2.1255360916256905,0.14900435202417017,0.39063310250639915,-1.4713244512677193,24.625205993652344,0.0,0.0,0.0,0.0,0,0,0,0,False,0,0.34572410583496094,0.03492919921875
STABILIZE,0.26839232444763184,29.876726477522848,0.03247860272725423,0.032602787017822266,0.0,0.0,0.0,5.882177696235199,-36.00690290794756,72.18250465820527,0.0,0.0,0,0.0,0.16519676631157154,0.15952452405460443,0.41429568522771726,0.15869483864714404,0.028786234906874597,-0.08410420268774033,1.9373148679733276,0.4529441015311014,-2.5080397725105286,0.41268900968134403,23.37717115879059,0.0,0.0,0.0,0.0,0,0,0,0,False,0,0.37480974197387695,0.02993896484375
STABILIZE,0.3020331859588623,29.7284937662577,0.03244212468465169,0.032570600509643555,0.0,0.0,0.0,5.881069071155541,-36.00665360604286,72.20029730099316,0.0,0.0,0,0.0,0.1712271067728664,0.1618416130842385,0.48010671899724144,0.16638858038208618,0.20248598884791136,-0.0473357766168192,2.0471585914492607,0.1687536972669166,-5.231806635856628,1.134052313864231,32.79193043708801,0.0,0.0,0.0,0.0,0,0,0,0,False,0,0.43207693099975586,0.03492919921875
STABILIZE,0.33530163764953613,30.055276489935725,0.03223565419514974,0.03240370750427246,0.0,0.0,0.0,5.885839958290795,-36.01022921007336,72.23653145454007,0.0,0.0,0,0.0,0.17419367916856304,0.16374053232818228,0.5152882097510226,0.16580398064976581,0.11975843226537108,0.05641274619847536,2.1191833540797234,-0.18511811014675314,3.4763652831315994,0.2645421074703336,21.94772958755493,0.0,0.0,0.0,0.0,0,0,0,0,False,0,0.4606931209564209,0.029938720703125
STABILIZE,0.3688185214996338,29.834435861323318,0.03247192700703939,0.03259992599487305,0.0,0.0,0.0,5.887458286237265,-36.01068341765317,72.25344300292502,0.0,0.0,0,0.0,0.1736683469460797,0.16359502167789094,0.5428592737978385,0.16370851604891096,0.06236955523490906,0.1010977546684444,2.184581197798252,-0.06772485410707382,1.9354010000824928,0.4755123984068632,24.39740300178528,0.0,0.0,0.0,0.0,0,0,0,0,False,0,0.4891531467437744,0.03492822265625
STABILIZE,0.40221309661865234,29.946266269696775,0.032401116689046223,0.03253960609436035,0.0,0.0,0.0,5.886753922979107,-36.00999698364158,72.28947908098601,0.0,0.0,0,0.0,0.17574010119834294,0.16289931574989852,0.5735354411687148,0.16644580418263027,0.15213704900816083,-0.048983999295160174,1.8737712875008583,0.21259773542607305,1.4304347336292267,0.3804528387263417,25.43427050113678,0.0,0.0,0.0,0.0,0,0,0,0,False,0,0.5179338455200195,0.034928955078125
STABILIZE,0.43563270568847656,29.92041774264884,0.03245690663655599,0.032575368881225586,0.0,0.0,0.0,5.885247439380296,-36.00958034210221,72.31037262965708,0.0,0.0,0,0.0,0.17466783868845537,0.16398574425695325,0.6051603434993625,0.16580500704828594,-0.03758197999559343,0.14113914221525192,2.041139267385006,-0.0036849537582879927,-6.025198847055435,-1.5244445763528347,24.150946736335754,0.0,0.0,0.0,0.0,0,0,0,0,False,0,0.5465154647827148,0.02993896484375
STABILIZE,0.4690887928009033,29.891205039944698,0.03246954282124837,0.032605886459350586,0.0,0.0,0.0,5.883530927464507,-36.00913637980616,72.33248195200042,0.0,0.0,0,0.0,0.17129698576260285,0.1631127401112706,0.6281341074394591,0.16301907134396734,-0.03758197999559343,0.14113914221525192,2.041139267385006,-0.0036849537582879927,-6.025198847055435,-1.5244445763528347,24.150946736335754,0.0,0.0,0.0,0.0,0,0,0,0,False,0,0.5760855674743652,0.02993896484375
STABILIZE,0.5025372505187988,29.896957773786102,0.03248194058736165,0.032645225524902344,0.0,0.0,0.0,5.885413925241315,-36.00968962512893,72.3702255773539,0.0,0.0,0,0.0,0.16569177082103526,0.15550410678046403,0.6784828981318213,0.1589293733714331,-0.009596428571967408,-0.1158864120952785,2.009679190814495,0.15259608437245809,-0.43776086531579494,0.24707610718905926,25.92833638191223,0.0,0.0,0.0,0.0,0,0,0,0,False,0,0.633530855178833,0.0349287109375
STABILIZE,0.536085844039917,29.809839234694604,0.03252437909444173,0.032649993896484375,0.0,0.0,0.0,5.887852729661833,-36.01002430439826,72.38598282376913,0.0,0.0,0,0.0,0.16304442682819598,0.15180404722594243,0.706544934046369,0.1562342739922696,-0.010159624071093276,-0.08629799704067409,2.0515037700533867,-0.024783688248935058,-2.2349856793880463,-1.3368583284318447,29.46578562259674,0.0,0.0,0.0,0.0,0,0,0,0,False,0,0.6620030403137207,0.029895751953125
STABILIZE,0.570345401763916,29.187309937857943,0.03241089185078939,0.03260231018066406,0.0,0.0,0.0,5.889329331183025,-36.009191021319516,72.4234327509883,0.0,0.0,0,0.0,0.15888035894060273,0.14669802698009526,0.7258980832514156,0.15205889853646332,-0.010159624071093276,-0.08629799704067409,2.0515037700533867,-0.024783688248935058,-2.2349856793880463,-1.3368583284318447,29.46578562259674,0.0,0.0,0.0,0.0,0,0,0,0,False,0,0.6907920837402344,0.029895751953125
STABILIZE,0.6031162738800049,30.515125500181885,0.031615289052327473,0.03174591064453125,0.0,0.0,0.0,5.887646970213086,-36.00889390809062,72.44287146936615,0.0,0.0,0,0.0,0.15584069618111318,0.14416506347379643,0.7440234795923255,0.1474832228369021,0.07189620519056916,0.09447745978832245,2.011691592633724,-0.046430905606232656,1.1538168415427208,0.11023962870240211,21.615229547023773,0.0,0.0,0.0,0.0,0,0,0,0,False,0,0.7196638584136963,0.0349287109375
STABILIZE,0.6364219188690186,30.024725294391352,0.03235033353169759,0.03247690200805664,0.0,0.0,0.0,5.886496083337939,-36.008176738227775,72.46284977268844,0.0,0.0,0,0.0,0.15076608321797816,0.14051312401420804,0.7712351855298809,0.14584889067698506,-0.1244490034878254,-0.035495098563842475,2.167394943535328,0.09713397447638929,-2.4103371426463127,0.6335013546049595,28.598639369010925,0.0,0.0,0.0,0.0,0,0,0,0,False,0,0.7484958171844482,0.02993896484375
STABILIZE,0.6698482036590576,29.915722803914296,0.03249219258626302,0.03261280059814453,0.0,0.0,0.0,5.888793161333179,-36.00889390809062,72.49837358656168,0.0,0.0,0,0.0,0.14456016205553568,0.13587904404124834,0.7899062872427887,0.14319309320040013,-0.1244490034878254,-0.035495098563842475,2.167394943535328,0.09713397447638929,-2.4103371426463127,0.6335013546049595,28.598639369010925,0.0,0.0,0.0,0.0,0,0,0,0,False,0,0.7778325080871582,0.02993896484375
STABILIZE,0.7035741806030273,29.650525244242107,0.032512696584065755,0.03293013572692871,0.0,0.0,0.0,5.891231538866874,-36.009498379832166,72.51630966332213,0.0,0.0,0,0.0,0.13669611752030114,0.12846138864322967,0.8260526675165996,0.13863767103412813,0.11002524988725781,0.03320624819025397,1.9747480750083923,0.14639011045956102,1.7378754913806915,0.3591390559449792,24.525175988674164,0.0,0.0,0.0,0.0,0,0,0,0,False,0,0.8344388008117676,0.034928955078125
STABILIZE,0.7370054721832275,29.91209590574878,0.03252914746602376,0.03264188766479492,0.0,0.0,0.0,5.89037477701286,-36.00989453080403,72.55420355283736,0.0,0.0,0,0.0,0.13242776816143484,0.1294370918430197,0.8495969630013779,0.1329646789888825,-0.026705785421654582,0.2965702908113599,2.1736569702625275,-0.13541223555520515,-10.160911828279495,0.018704961985349655,18.81706267595291,0.0,0.0,0.0,0.0,0,0,0,0,False,0,0.8636722564697266,0.034928955078125
STABILIZE,0.7705602645874023,29.802002287923035,0.032527955373128255,0.03266787528991699,0.0,0.0,0.0,5.888641616510969,-36.00993892703364,72.57236502584043,0.0,0.0,0,0.0,0.12802100941968236,0.13045280295177963,0.8719917291727507,0.12705451648896365,-0.026705785421654582,0.2965702908113599,2.1736569702625275,-0.13541223555520515,-10.160911828279495,0.018704961985349655,18.81706267595291,0.0,0.0,0.0,0.0,0,0,0,0,False,0,0.8928327560424805,0.034928955078125
STABILIZE,0.8039877414703369,29.915936178255816,0.03243401845296224,0.03256082534790039,0.0,0.0,0.0,5.888430307533522,-36.01073805916653,72.59314246129561,0.0,0.0,0,0.0,0.12497152660822376,0.12593919035153894,0.8894085955889472,0.12531292585367323,0.0647463253699243,-0.051002774853259325,1.9335804507136345,0.13689805516373416,2.0276036113500595,0.49276393838226795,27.19927728176117,0.0,0.0,0.0,0.0,0,0,0,0,False,0,0.921555757522583,0.02993896484375
STABILIZE,0.837531328201294,29.81174614230985,0.03245523770650228,0.03260445594787598,0.0,0.0,0.0,5.890758121380027,-36.01111713466546,72.627266086389,0.0,0.0,0,0.0,0.11646422227099978,0.12046296996058277,0.888078820607897,0.12354582557970348,-0.25027613155543804,-0.07322215242311358,1.2735167518258095,0.16558070087147544,-1.0855497792363167,-0.15534544363617897,20.119813084602356,0.0,0.0,0.0,0.0,0,0,0,0,False,0,0.950329065322876,0.034928955078125
STABILIZE,0.8710067272186279,29.875236833482912,0.03237775166829427,0.03252553939819336,0.0,0.0,0.0,5.8907376308125174,-36.012052870581755,72.6465340500376,0.0,0.0,0,0.0,0.11264206505856438,0.11554789295028023,0.9035274514242879,0.11902142808630388,0.020099114044569433,-0.06736079230904579,1.932620257139206,-0.03912796596003453,-1.513529010117054,-0.08115736418403685,21.027056872844696,0.0,0.0,0.0,0.0,0,0,0,0,False,0,0.9794814586639404,0.029938232421875
STABILIZE,0.9042713642120361,30.05979990253132,0.03234675725301107,0.03246021270751953,0.0,0.0,0.0,5.89164220399072,-36.01132887052973,72.68135435442633,0.0,0.0,0,0.0,0.10923520600852206,0.11163043448583225,0.908730431107852,0.11489114756307335,0.0611006747931242,0.02036100486293435,1.777549646794796,0.012550209130687282,0.42420336976647377,-0.055829802295193076,20.30104696750641,0.0,0.0,0.0,0.0,0,0,0,0,False,1,1.0080323219299316,0.034928955078125
STABILIZE,0.9378681182861328,29.766892587204143,0.03253224690755208,0.03267025947570801,0.0,0.0,0.0,5.891159394993766,-36.01065609689649,72.70049937466987,0.0,0.0,0,0.0,0.10552670007645958,0.10581067032541855,0.935781217743333,0.11245184068717662,0.0421319913584739,-0.018473394447937608,1.9448846578598022,0.12688599835648715,-0.10619312524795532,-1.8332362174987793,22.751085460186005,0.0,0.0,0.0,0.0,0,0,0,0,False,0,1.0652406215667725,0.029939208984375
STABILIZE,0.9712526798248291,29.95268190614935,0.03239014943440755,0.03251981735229492,0.0,0.0,0.0,5.889880015184858,-36.0097647572098,72.72019081004701,0.0,0.0,0,0.0,0.09977791596442874,0.100645634623303,0.9424318385933083,0.10826986257786352,-0.09647277183830738,-0.06549920653924346,2.0044729113578796,0.0015568562439397815,-5.906118452548981,-1.5417225658893585,27.29824185371399,0.0,0.0,0.0,0.0,0,0,0,0,False,0,1.1007537841796875,0.034928955078125
STABILIZE,1.0047571659088135,29.845687489771088,0.03246429761250814,0.03259134292602539,0.0,0.0,0.0,5.890387156730731,-36.00987404023652,72.7560219824329,0.0,0.0,0,0.0,0.09957543272871454,0.09460742584669868,0.951750635750226,0.09910757882963565,0.22563559468835592,-0.13686048332601786,1.7949879169464111,-0.32514629960084396,5.746636167168617,-0.15635843155905604,20.856526494026184,0.0,0.0,0.0,0.0,0,0,0,0,False,0,1.1226565837860107,0.034927978515625
STABILIZE,1.0382890701293945,29.824889249169814,0.03240707715352376,0.032514333724975586,0.0,0.0,0.0,5.890865269972632,-36.0110624931521,72.77546753099993,0.0,0.0,0,0.0,0.0994842393869444,0.08854312931282318,0.9601015796353843,0.08982905208583042,0.22563559468835592,-0.13686048332601786,1.7949879169464111,-0.32514629960084396,5.746636167168617,-0.15635843155905604,20.856526494026184,0.0,0.0,0.0,0.0,0,0,0,0,False,0,1.1546375751495361,0.034927978515625
STABILIZE,1.0719828605651855,29.676539261607257,0.03229382832845052,0.032907962799072266,0.0,0.0,0.0,5.890616821841572,-36.01095321012538,72.81279451481404,0.0,0.0,0,0.0,0.08919410992818595,0.08128944342250424,0.9679471689489187,0.08275595403636957,-0.3929778467863798,-0.20848663989454508,1.8189694732427597,-0.1888736336329891,-5.547071993350983,-2.2281810641288757,19.9819877743721,0.0,0.0,0.0,0.0,0,0,0,0,False,0,1.1802504062652588,0.034891357421875
STABILIZE,1.1058247089385986,29.549005241503693,0.03254655202229818,0.03299570083618164,0.0,0.0,0.0,5.889686635453981,-36.010980530882065,72.83314847854069,0.0,0.0,0,0.0,0.08294549564589822,0.07669515139739475,0.9745331470350489,0.08072153125752368,-0.14603318413719535,-0.05020099924877286,1.7964186146855354,0.11044173763040627,-2.5505002588033676,-0.1904699602164328,19.21902298927307,0.0,0.0,0.0,0.0,0,0,0,0,False,1,1.2089102268218994,0.02993896484375
STABILIZE,1.1392488479614258,29.918710321706257,0.03247550328572591,0.03258538246154785,0.0,0.0,0.0,5.890187800584331,-36.01059121009937,72.85084549868019,0.0,0.0,0,0.0,0.07645059028004025,0.06842248047073088,0.9864068262823544,0.07768377613366288,0.17716578440740705,0.02018656668951735,2.048150822520256,0.02906570993043059,-0.1670032273977995,-1.3933097012341022,26.77590847015381,0.0,0.0,0.0,0.0,0,0,0,0,False,0,1.2660012245178223,0.034927978515625
STABILIZE,1.1726953983306885,29.899088977915913,0.03248313268025716,0.03260612487792969,0.0,0.0,0.0,5.892435359708088,-36.010724398788184,72.88918335049148,0.0,0.0,0,0.0,0.07372739657136215,0.06439461329314698,0.9911877033495646,0.07250865624343855,0.04764145705848932,-0.03528691886458546,1.7795996740460396,-0.09947959750754654,1.3670215383172035,0.24815697688609362,23.553718626499176,0.0,0.0,0.0,0.0,0,0,0,0,False,0,1.2948529720306396,0.02993896484375
STABILIZE,1.2061681747436523,29.874385675009616,0.03247550328572591,0.03260016441345215,0.0,0.0,0.0,5.891951270050664,-36.010690247842334,72.90649788003745,0.0,0.0,0,0.0,0.07013828308951646,0.059621773790302264,0.9880749801570257,0.06739114716694478,-0.010649314208421856,-0.09302670951001346,1.6925828531384468,-0.10285124301808664,-9.093888103961945,-0.14580307761207223,20.327405631542206,0.0,0.0,0.0,0.0,0,0,0,0,False,0,1.3234384059906006,0.034928955078125
STABILIZE,1.239506483078003,29.994665141059105,0.03244736989339193,0.032546043395996094,0.0,0.0,0.0,5.889888126034497,-36.01061853085605,72.94409807141838,0.0,0.0,0,0.0,0.06776546358704913,0.05483800695716871,0.9935942362393883,0.06280560922226781,0.055879377759993076,-0.09389451006427407,1.8685560673475266,-0.07487542183784249,-1.6476282849907875,0.14487076550722122,23.568153381347656,0.0,0.0,0.0,0.0,0,0,0,0,False,0,1.3520784378051758,0.034928955078125
STABILIZE,1.2730343341827393,29.827434414979482,0.0325353463490804,0.03267621994018555,0.0,0.0,0.0,5.8882416235577,-36.011161530895066,72.96586588430321,0.0,0.0,0,0.0,0.06252382452596619,0.05172186734782289,0.9976089754026078,0.057640923317465724,-0.12084412155672908,-0.0006145267434476409,1.8148262053728104,-0.11437872136700376,-4.629243165254593,0.2521852729842067,23.634374141693115,0.0,0.0,0.0,0.0,0,0,0,0,False,0,1.3808555603027344,0.02993896484375
STABILIZE,1.3064651489257812,29.91465597786162,0.03246310551961263,0.03258371353149414,0.0,0.0,0.0,5.888537456126127,-36.0112673988272,72.98612422538146,0.0,0.0,0,0.0,0.055732776337466906,0.05058632538305939,1.000554826619303,0.05310294883555414,-0.22363506723195314,0.10046600364148617,2.116122655570507,-0.09182789132685464,-4.87612709403038,0.5225053057074547,25.852376222610474,0.0,0.0,0.0,0.0,0,0,0,0,False,1,1.4093999862670898,0.03492919921875
STABILIZE,1.3400416374206543,29.78126486647685,0.032467158635457356,0.03259110450744629,0.0,0.0,0.0,5.8898219585769125,-36.01178649320413,73.00248252844365,0.0,0.0,0,0.0,0.048955240058644885,0.046537741766966616,1.0139985164549692,0.045549123002263166,0.17782707000151277,-0.012370786862447858,1.9219530746340752,-0.004316772936940617,1.5625238418579102,0.5202926695346832,25.74792206287384,0.0,0.0,0.0,0.0,0,0,0,0,False,0,1.46675705909729,0.034927734375
STABILIZE,1.3734333515167236,29.9460524624809,0.032334359486897786,0.03250527381896973,0.0,0.0,0.0,5.890709456282191,-36.012947625363026,73.03691351204968,0.0,0.0,0,0.0,0.04633914209453236,0.04256204838726895,1.0135557558734594,0.04270881886570622,0.011167075717821717,-0.08180568693205714,1.638634316623211,-0.003408554545473956,-9.378716349601746,-0.11539742117747664,19.583943486213684,0.0,0.0,0.0,0.0,0,0,0,0,False,0,1.495866060256958,0.02993896484375
STABILIZE,1.407047986984253,29.75232312341283,0.03244212468465169,0.03257107734680176,0.0,0.0,0.0,5.890218963322419,-36.01278711591753,73.05798464563917,0.0,0.0,0,0.0,0.04399397436935884,0.038842132008490286,1.0072461698816622,0.0401884391210391,0.011167075717821717,-0.08180568693205714,1.638634316623211,-0.003408554545473956,-9.378716349601746,-0.11539742117747664,19.583943486213684,0.0,0.0,0.0,0.0,0,0,0,0,False,0,1.5242056846618652,0.02993896484375
STABILIZE,1.4404728412628174,29.917003095621904,0.032263787587483723,0.032431602478027344,0.0,0.0,0.0,5.890317574178561,-36.012879323471324,73.09447151618538,0.0,0.0,0,0.0,0.042371898012371345,0.036674919602035935,1.0000225609156248,0.039295476779301446,0.0475988257676363,0.0037163707020226866,1.5690701082348824,0.08719545559453232,-3.5828955471515656,-1.7939504235982895,21.723251044750214,0.0,0.0,0.0,0.0,0,0,0,0,False,0,1.552929401397705,0.03492919921875
STABILIZE,1.4738872051239014,29.924473648537774,0.03231361707051595,0.032448768615722656,0.0,0.0,0.0,5.89036794682369,-36.01215873851389,73.11375997040149,0.0,0.0,0,0.0,0.0371879883862369,0.03511897305346628,1.0010298924506904,0.04275062605502578,-0.1647969475015998,0.04373765259515494,1.741407997906208,0.3508444061053409,1.080561988055706,0.23957581724971533,22.367721796035767,0.0,0.0,0.0,0.0,0,0,0,0,False,0,1.5815186500549316,0.034927978515625
STABILIZE,1.5072576999664307,29.96723419760937,0.032373698552449544,0.03250694274902344,0.0,0.0,0.0,5.89200676533767,-36.01259928571535,73.14964578430074,0.0,0.0,0,0.0,0.034735803855643385,0.03149724447500702,1.0014032902497145,0.04250193103635981,-0.005475424404721707,-0.08680241880938411,1.7283307388424873,0.11795775383230367,1.13429743796587,-1.9296575337648392,20.69893777370453,0.0,0.0,0.0,0.0,0,0,0,0,False,1,1.6103558540344238,0.029939208984375
STABILIZE,1.5407187938690186,29.884815709410113,0.03245380719502767,0.0325927734375,0.0,0.0,0.0,5.8914646190723,-36.013521361253304,73.16916646494863,0.0,0.0,0,0.0,0.03284611980931172,0.025205792046065625,0.9936421656876203,0.03868016978291918,0.13543192762881517,-0.06983306375332177,1.850600354373455,-0.10346446593950684,5.214322358369827,-0.04599734675139189,19.871653616428375,0.0,0.0,0.0,0.0,0,0,0,0,True,0,1.6676208972930908,0.0349287109375
STABILIZE,1.574146032333374,29.916149555641148,0.032456191380818684,0.03260064125061035,0.0,0.0,0.0,5.889878734524388,-36.01252415363449,73.18797680592286,0.0,0.0,0,0.0,0.032616852639192506,0.02109616048216551,0.9926141332847743,0.03717672997424251,0.10755002731457353,-0.13366503408178687,1.6399327665567398,0.02814448816612512,-0.8558258414268494,0.24420786648988724,23.58141392469406,0.0,0.0,0.0,0.0,0,0,0,0,True,0,1.6964881420135498,0.0648681640625
STABILIZE,1.607590675354004,29.90228635388224,0.03248647054036458,0.0326075553894043,0.0,0.0,0.0,5.890574560046083,-36.0132959650107,73.22389677076795,0.0,0.0,0,0.0,0.022138980300660645,0.02058807298811034,1.0261309747441834,0.03814086516183736,-0.44174413196742535,0.1501777209341526,1.9841140136122704,0.17896760484043597,-8.355177193880081,2.554639056324959,26.217594742774963,0.0,0.0,0.0,0.0,0,0,0,0,True,0,1.7251486778259277,0.034928955078125
STABILIZE,1.641050100326538,29.88524157979864,0.03246763547261556,0.032590627670288086,0.0,0.0,0.0,5.890953635545019,-36.01369553107714,73.24385458352272,0.0,0.0,0,0.0,0.0193683880384115,0.018203168891038,1.023347625672302,0.039134187370204396,-0.048960710410028696,-0.04467878025025129,1.7709419131278992,0.15966395612145934,-2.017361856997013,-2.094479277729988,18.47059428691864,0.0,0.0,0.0,0.0,0,0,0,0,True,0,1.7536273002624512,0.034927734375
STABILIZE,1.6764400005340576,28.264265883177444,0.03245595296223958,0.032581329345703125,0.0,0.0,0.0,5.891643911538013,-36.01422487073782,73.2804165861498,0.0,0.0,0,0.0,0.016723281465462002,0.015913841510270473,1.0205823976391122,0.04021297171729349,-0.048960710410028696,-0.04467878025025129,1.7709419131278992,0.15966395612145934,-2.017361856997013,-2.094479277729988,18.47059428691864,0.0,0.0,0.0,0.0,0,0,0,0,True,0,1.7823169231414795,0.034927734375
STABILIZE,1.708641529083252,31.046610953611108,0.03048423131306966,0.03084254264831543,0.0,0.0,0.0,5.891210194525717,-36.01317985179481,73.3004153800396,0.0,0.0,0,0.0,0.019417899823927377,0.01350598516173553,1.0204204986401237,0.03708187833973581,0.24097573477774858,-0.05651491228491068,1.9151628017425537,-0.07797864224802241,8.396874368190765,0.4026929847896099,23.57051372528076,0.0,0.0,0.0,0.0,0,0,0,0,True,0,1.8112270832061768,0.03492919921875
STABILIZE,1.743079662322998,29.038784807322173,0.03200414975484212,0.032128334045410156,0.0,0.0,0.0,5.8907086025085444,-36.01291005932259,73.33707983550423,0.0,0.0,0,0.0,0.015404597661070874,0.00981132845235982,1.0134678709424703,0.03586069227721005,-0.017040489183273166,-0.016321749717462808,2.003570832312107,0.040309348562608725,-0.6514614447951317,-1.6967270523309708,22.319301962852478,0.0,0.0,0.0,0.0,0,0,0,0,True,0,1.8684322834014893,0.03492919921875
STABILIZE,1.7754015922546387,30.936464618153387,0.031002314885457356,0.031207561492919922,0.0,0.0,0.0,5.892351689890756,-36.01384921033347,73.35589017647844,0.0,0.0,0,0.0,0.012891594210325711,0.00581768406419074,1.008344024791298,0.03581822025113211,-0.06691386224702,-0.16132412711158395,1.6057947650551796,0.0866799764153947,-6.639064848423004,-0.2738203154876828,17.22266525030136,0.0,0.0,0.0,0.0,0,0,0,0,True,0,1.8972022533416748,0.02993896484375
STABILIZE,1.809647798538208,29.199501542017362,0.032202752431233723,0.033425092697143555,0.0,0.0,0.0,5.893789871597867,-36.01437513489956,73.37319787583526,0.0,0.0,0,0.0,0.012386637716982457,0.004813087726152109,0.9991823780877696,0.03461795059288802,0.0318136386340484,-0.009939781011780724,1.645883172750473,0.022218338565787026,-0.5968480370938778,-1.8946308642625809,19.878332316875458,0.0,0.0,0.0,0.0,0,0,0,0,True,0,1.9258110523223877,0.034927734375
STABILIZE,1.843235731124878,29.773020244754253,0.0325041135152181,0.03272199630737305,0.0,0.0,0.0,5.892649230006475,-36.01535868214004,73.41148791632234,0.0,0.0,0,0.0,0.010762154670843488,0.004221047989222418,0.9982195935331974,0.03201274320322928,-0.026390657876618207,0.02224831550847739,1.8176184967160225,-0.06432858923303127,-1.6336319968104362,0.48525952734053135,23.670712113380432,0.0,0.0,0.0,0.0,0,0,0,0,True,0,1.954470157623291,0.03492919921875
STABILIZE,1.8771071434020996,29.52383767993524,0.032414944966634114,0.0329434871673584,0.0,0.0,0.0,5.891439432749736,-36.01464834246636,73.43163697437389,0.0,0.0,0,0.0,0.009122057502692071,0.003677062487621857,0.994061256337752,0.02914935477865939,-0.03181732026860118,0.019629842427093536,1.6377434134483337,-0.0804250372498638,-0.5483235698193312,-1.971776969730854,17.94489622116089,0.0,0.0,0.0,0.0,0,0,0,0,True,0,1.9832007884979248,0.034928955078125
STABILIZE,1.9111974239349365,29.335720680393912,0.032390864690144856,0.033266544342041016,0.0,0.0,0.0,5.889849279333593,-36.014050700913984,73.46965380729418,0.0,0.0,0,0.0,0.009283978160023406,0.005062819351878206,0.9983625376853982,0.02245426569430568,0.05608088104054332,0.07931662257760763,2.1360842511057854,-0.11287043683940777,-0.8126489818096161,0.8546658791601658,27.6498943567276,0.0,0.0,0.0,0.0,0,0,0,0,True,0,2.0406479835510254,0.02993896484375
STABILIZE,1.9448986053466797,29.671710633360924,0.032486947377522786,0.032627105712890625,0.0,0.0,0.0,5.892152333744356,-36.015744587828145,73.48786309162143,0.0,0.0,0,0.0,0.009592465805721135,0.002931072261133225,0.9828588048874374,0.02304051124630115,0.06154111470095813,-0.09314210619777441,1.2190629728138447,0.1082001482520661,1.3977479189634323,-1.7713282257318497,20.333872735500336,0.0,0.0,0.0,0.0,0,0,0,0,True,0,2.069950580596924,0.03492919921875
STABILIZE,1.9780921936035156,30.123919991381477,0.03225091298421224,0.03238415718078613,0.0,0.0,0.0,5.892808885678323,-36.01647200297475,73.50480879095224,0.0,0.0,0,0.0,0.00883063702336638,0.0019399526089575443,0.9809858618759132,0.02261050391106828,0.002344026870559901,-0.021217942412476987,1.7197318375110626,0.04862966623002141,0.29119779355823994,0.7133299950510263,25.78992247581482,0.0,0.0,0.0,0.0,0,0,0,0,True,0,2.0986900329589844,0.0349287109375
STABILIZE,2.0118532180786133,29.619117563979437,0.032518895467122395,0.032967567443847656,0.0,0.0,0.0,5.894008010764484,-36.01626026711048,73.52377622627736,0.0,0.0,0,0.0,0.008121128628614686,0.0010042054869617795,0.979032803967987,0.022238607323886914,0.002344026870559901,-0.021217942412476987,1.7197318375110626,0.04862966623002141,0.29119779355823994,0.7133299950510263,25.78992247581482,0.0,0.0,0.0,0.0,0,0,0,0,True,0,2.1274032592773438,0.0349287109375
STABILIZE,2.045377016067505,29.830404324170548,0.03252914746602376,0.03267836570739746,0.0,0.0,0.0,5.8927499752967325,-36.01484641795229,73.56048849306617,0.0,0.0,0,0.0,0.004834787442275093,0.0002276668089273248,0.9816028931481979,0.020130228434539287,-0.15069155488163233,-0.015036726836115122,1.9869286566972733,-0.0556664419420006,-0.6851499434560537,0.17486248398199677,18.051518499851227,0.0,0.0,0.0,0.0,0,0,0,0,True,0,2.155963182449341,0.044865234375
STABILIZE,2.0794456005096436,29.35276045712526,0.03246954282124837,0.033345699310302734,0.0,0.0,0.0,5.888809809919281,-36.014976191546516,73.5986350995807,0.0,0.0,0,0.0,-0.0028862303508306137,0.0001112513991896112,0.9916655548255401,0.01973808022438642,-0.3855104558169842,0.034239713568240404,1.8967688083648682,0.04642162081782967,-6.213885918259621,-1.1123266071081161,26.344826817512512,0.0,0.0,0.0,0.0,0,0,0,0,True,0,2.1911585330963135,0.024948974609375
STABILIZE,2.1130359172821045,29.77090697443323,0.032609017690022786,0.032744407653808594,0.0,0.0,0.0,5.890243722758161,-36.016328569002184,73.61767083679753,0.0,0.0,0,0.0,-0.0007502329177744398,0.00024307811378689536,0.9823795148804205,0.015986210160555785,0.13533597812056541,0.017379211203660816,1.888856664299965,-0.1602847963046297,5.410345271229744,0.9607893414795399,26.956427097320557,0.0,0.0,0.0,0.0,0,0,0,0,True,0,2.219675064086914,0.02993896484375
STABILIZE,2.1466422080993652,29.75844478342616,0.03246310551961263,0.03270268440246582,0.0,0.0,0.0,5.891691722862204,-36.01733260681017,73.63613283812407,0.0,0.0,0,0.0,0.0008651377843105017,0.0001044045015685386,0.9719653965940425,0.017532936719254568,0.03214549215044826,-0.017735996516421437,1.4995851553976536,0.17128180107474691,-1.4866982586681843,2.316734753549099,20.47191858291626,0.0,0.0,0.0,0.0,0,0,0,0,True,0,2.2775449752807617,0.034928955078125
STABILIZE,2.1800100803375244,29.966163694558755,0.03240850766499837,0.03253054618835449,0.0,0.0,0.0,5.89330834326138,-36.01607243690831,73.67270850112949,0.0,0.0,0,0.0,0.0009592954163474553,-0.0004940080440197546,0.9665566224068587,0.01954141791398366,0.03214549215044826,-0.017735996516421437,1.4995851553976536,0.17128180107474691,-1.4866982586681843,2.316734753549099,20.47191858291626,0.0,0.0,0.0,0.0,0,0,0,0,True,0,2.3060429096221924,0.034928955078125
STABILIZE,2.213552951812744,29.813653293906913,0.032492669423421223,0.03262662887573242,0.0,0.0,0.0,5.891065053005855,-36.01613390861084,73.69155982323872,0.0,0.0,0,0.0,-0.0014620659462582601,0.0007219251673702388,0.9684150942764387,0.019677291494615397,-0.11813750024884939,0.08667857619002461,1.9296595826745033,0.05805305944839115,-5.88567741215229,-1.8199237063527107,17.243263125419617,0.0,0.0,0.0,0.0,0,0,0,0,True,0,2.3347907066345215,0.029938232421875
STABILIZE,2.246971845626831,29.924046659294405,0.03239944775899251,0.03252816200256348,0.0,0.0,0.0,5.8884354301754,-36.014699568885135,73.71278122098995,0.0,0.0,0,0.0,-0.0022274637778404863,0.001315818734306932,0.9627657714490069,0.0175629678044148,-0.03042776952497661,0.04522831877693534,1.7496734857559204,-0.07443646879185678,-3.4605298191308975,0.5217692349106073,21.06916606426239,0.0,0.0,0.0,0.0,0,0,0,0,True,0,2.363795042037964,0.0349287109375
STABILIZE,2.2803235054016113,29.981157700610446,0.032430203755696614,0.03255462646484375,0.0,0.0,0.0,5.88666683806719,-36.01506498400573,73.75224605401428,0.0,0.0,0,0.0,-0.007845432987917577,0.0037687245345784325,0.9643681069631516,0.01338958341274558,-0.3111280268058181,0.15653636073693633,1.8885796889662743,-0.19832118597750512,-7.966150343418121,1.1797422543168068,27.33548879623413,0.0,0.0,0.0,0.0,0,0,0,0,True,0,2.392252206802368,0.034928955078125
STABILIZE,2.3138222694396973,29.85206009836089,0.03253057797749837,0.032668113708496094,0.0,0.0,0.0,5.889433491567868,-36.015403078369644,73.77053047042241,0.0,0.0,0,0.0,-0.012509530687132259,0.003435635689511427,0.9598525443670674,0.013380823611625342,-0.25445837527513504,-0.010066603863378987,1.5300340950489044,0.0475286784224337,-7.714000344276428,0.8577887900173664,24.38674569129944,0.0,0.0,0.0,0.0,0,0,0,0,True,0,2.420849084854126,0.029939208984375
STABILIZE,2.34773588180542,29.491246080072,0.032490046819051106,0.033019304275512695,0.0,0.0,0.0,5.892514333770367,-36.015710436882294,73.80300801992583,0.0,0.0,0,0.0,-0.017320408406561752,0.002922459058130504,0.9525803139162407,0.013462414684846423,0.010871053382288665,-0.03339364193379879,1.7953909933567047,0.02454746642329443,-2.1365996450185776,-1.0104868561029434,23.923657834529877,0.0,0.0,0.0,0.0,0,0,0,0,True,0,2.478512763977051,0.034928955078125
STABILIZE,2.3811213970184326,29.9492598913222,0.032412322362264,0.03253602981567383,0.0,0.0,0.0,5.891450531807137,-36.014515153777545,73.82405183275863,0.0,0.0,0,0.0,-0.01732561750672387,0.0022044259464410933,0.9528768707796349,0.013182007598986797,0.010871053382288665,-0.03339364193379879,1.7953909933567047,0.02454746642329443,-2.1365996450185776,-1.0104868561029434,23.923657834529877,0.0,0.0,0.0,0.0,0,0,0,0,True,0,2.5072896480560303,0.034928955078125
STABILIZE,2.4147045612335205,29.777036285026657,0.032479079564412434,0.032633304595947266,0.0,0.0,0.0,5.888884515113328,-36.01366479522588,73.84342907943396,0.0,0.0,0,0.0,-0.019111132896249865,0.001520464741439912,0.9543576705177774,0.008995821160234308,-0.09937011636793613,-0.03134924336336553,1.8669715151190758,-0.20728668971721956,-0.6232293788343668,-0.5539119243621826,28.532645106315613,0.0,0.0,0.0,0.0,0,0,0,0,True,0,2.540656328201294,0.029939208984375
STABILIZE,2.448258638381958,29.802849326748856,0.03237727483113607,0.03249979019165039,0.0,0.0,0.0,5.8872239253713685,-36.012978361214294,73.88151421424594,0.0,0.0,0,0.0,-0.01845386776278367,0.000726754376841445,0.9500246672784455,0.001732551312673995,0.025770373758859932,-0.039745052345097065,1.7849486321210861,-0.3967219596670968,2.57413387298584,-0.6123042199760675,27.115681767463684,0.0,0.0,0.0,0.0,0,0,0,0,True,0,2.568974494934082,0.034927734375
STABILIZE,2.4816341400146484,29.964879191849914,0.032254727681477864,0.03244662284851074,0.0,0.0,0.0,5.888648019813316,-36.01301251216014,73.89949810233058,0.0,0.0,0,0.0,-0.021595472254994613,0.000729004712018626,0.9528294190478155,-0.001402179954773168,-0.18730679294094443,0.00869382347445935,1.9223321229219437,-0.14496305449027794,-3.067372739315033,-1.3880793005228043,19.116322696208954,0.0,0.0,0.0,0.0,0,0,0,0,True,0,2.5978026390075684,0.034928955078125
STABILIZE,2.522705554962158,24.345855583933133,0.03237584431966146,0.04014921188354492,0.0,0.0,0.0,5.890661218071178,-36.01302958763306,73.93326655758713,0.0,0.0,0,0.0,-0.023689203395827616,0.0023387171698601387,0.9537575688633888,-0.0014226169182509026,-0.12731098104268312,0.10287367040291429,1.813412643969059,0.0367530044649473,-2.5610577315092087,0.9225159883499146,22.06319272518158,0.0,0.0,0.0,0.0,0,0,0,0,True,0,2.626526355743408,0.029939208984375
STABILIZE,2.5560715198516846,29.971088641966485,0.03242042859395345,0.03254270553588867,0.0,0.0,0.0,5.888443114138216,-36.01237730456733,73.95502071009362,0.0,0.0,0,0.0,-0.024648223644167053,0.007191539414357222,0.9462783580143969,-0.00020896870923310662,-0.10803277837112546,0.11793435551226139,1.6142811626195908,-0.12373748125230961,0.6057143211364746,0.6964047439396381,18.640519678592682,0.0,0.0,0.0,0.0,0,0,0,0,True,0,2.6854162216186523,0.03492919921875
STABILIZE,2.5897727012634277,29.67255028191832,0.03249982198079427,0.032814979553222656,0.0,0.0,0.0,5.885106139841842,-36.01135277619183,73.9935429770125,0.0,0.0,0,0.0,-0.026249804997684367,0.009110969432812938,0.9440553450566289,-0.00274250181063828,-0.10803277837112546,0.11793435551226139,1.6142811626195908,-0.12373748125230961,0.6057143211364746,0.6964047439396381,18.640519678592682,0.0,0.0,0.0,0.0,0,0,0,0,True,0,2.7138915061950684,0.03492919921875
STABILIZE,2.6317169666290283,23.840754845677257,0.03242972691853841,0.041060447692871094,0.0,0.0,0.0,5.885511682323811,-36.011260568638036,74.01229184628419,0.0,0.0,0,0.0,-0.025211597921790056,0.0076258272465125725,0.9394779206678062,-0.0021878684904236504,0.045014123315922916,-0.08349010022357106,1.481044851243496,0.057263025340917525,1.2065265327692032,0.7474701385945082,19.56077069044113,0.0,0.0,0.0,0.0,0,0,0,0,True,0,2.7426035404205322,0.029938720703125
STABILIZE,2.665055513381958,29.995523167251896,0.0324437936147054,0.032540082931518555,0.0,0.0,0.0,5.888735531612057,-36.01381505938762,74.04728290540216,0.0,0.0,0,0.0,-0.02387586043023296,0.006048866607510699,0.93057684812146,-0.0014535192335843141,0.045014123315922916,-0.08349010022357106,1.481044851243496,0.057263025340917525,1.2065265327692032,0.7474701385945082,19.56077069044113,0.0,0.0,0.0,0.0,0,0,0,0,True,0,2.7721688747406006,0.029938720703125
STABILIZE,2.702345848083496,26.81625737649368,0.032521994908650716,0.036455392837524414,0.0,0.0,0.0,5.886958401767385,-36.01333011595655,74.06551268029692,0.0,0.0,0,0.0,-0.02383421225085172,0.009485564328657114,0.9308303962384071,0.0021641343917247163,0.08411121089011431,0.17338200705125928,1.9507063552737236,0.2968194774003912,-1.7116256058216095,0.821091141551733,19.429004192352295,0.0,0.0,0.0,0.0,0,0,0,0,True,0,2.828585386276245,0.03492919921875
STABILIZE,2.7358107566833496,29.88162206833661,0.03245571454366048,0.03258323669433594,0.0,0.0,0.0,5.883094222244449,-36.01286566309299,74.1052848718339,0.0,0.0,0,0.0,-0.02469663804176321,0.009413740488980152,0.930910713249498,-0.0022774003295049396,-0.07878391770645976,0.00234531398746185,1.7168767750263214,-0.2536890205867292,2.6712950319051743,1.3212526217103004,25.050896406173706,0.0,0.0,0.0,0.0,0,0,0,0,True,0,2.857365131378174,0.029938720703125
STABILIZE,2.769202947616577,29.94669389328783,0.03246358235677083,0.032581329345703125,0.0,0.0,0.0,5.881766177337705,-36.01204945548717,74.1235078165395,0.0,0.0,0,0.0,-0.022937160470071973,0.011394109752922973,0.9268503986493568,-0.003920768014627249,0.06601815111935139,0.13267560862004757,1.7303835600614548,-0.09115791913838514,1.2606626376509666,0.9262824431061745,19.95553970336914,0.0,0.0,0.0,0.0,0,0,0,0,True,0,2.8862011432647705,0.03492919921875
STABILIZE,2.802858829498291,29.71522493800921,0.032512696584065755,0.032654523849487305,0.0,0.0,0.0,5.883457076044107,-36.01215873851389,74.15865597000838,0.0,0.0,0,0.0,-0.022546189489424023,0.01261608245624137,0.9271486327174421,-0.0028023031563916222,-0.007200762047432363,0.08082924177870154,1.7120495438575745,0.08004722907118424,-1.644819974899292,0.7445457391440868,18.655574321746826,0.0,0.0,0.0,0.0,0,0,0,0,True,0,2.920069932937622,0.034928955078125
STABILIZE,2.8361599445343018,30.027304682745932,0.03230765660603841,0.03243589401245117,0.0,0.0,0.0,5.885495033737709,-36.012449021553614,74.17768487703604,0.0,0.0,0,0.0,-0.022123699253248946,0.013826065623745951,0.9273505995616022,-0.0016257162956070416,-0.007200762047432363,0.08082924177870154,1.7120495438575745,0.08004722907118424,-1.644819974899292,0.7445457391440868,18.655574321746826,0.0,0.0,0.0,0.0,0,0,0,0,True,0,2.9488930702209473,0.034928955078125
STABILIZE,2.871284246444702,28.47611547130869,0.032468589146931966,0.03259634971618652,0.0,0.0,0.0,5.882717281179629,-36.01186162528499,74.21646669114337,0.0,0.0,0,0.0,-0.02312083411416097,0.014379405995850681,0.9259676486351339,-0.0010085898177925635,-0.09329887107014656,0.0426585553213954,1.622891053557396,0.04391907685853402,0.21422244608402252,0.7852719165384769,18.999268114566803,0.0,0.0,0.0,0.0,0,0,0,0,True,0,2.9878385066986084,0.02993896484375
STABILIZE,2.9031074047088623,31.41683083030598,0.030769141515096028,0.030895709991455078,0.0,0.0,0.0,5.880994365961494,-36.010792700679886,74.23749001340867,0.0,0.0,0,0.0,-0.02098934959469716,0.016361544803313612,0.9247338512886948,-0.0015128430319931465,0.0851946824695915,0.13859374448657036,1.892283372581005,-0.02698927906189382,0.7796633988618851,1.000315509736538,20.98229080438614,0.0,0.0,0.0,0.0,0,0,0,0,True,0,3.0184216499328613,0.03492822265625
STABILIZE,2.936581611633301,29.873747337981925,0.03240993817647298,0.032538652420043945,0.0,0.0,0.0,5.881638965064414,-36.011093229003365,74.25413518441599,0.0,0.0,0,0.0,-0.019306148743805464,0.01659761666100038,0.9308775604612132,-0.0030268768824910776,0.06507982616312802,0.02529732882976532,2.0541146397590637,-0.08532477750463557,2.341875433921814,-0.22172017488628626,28.650864958763123,0.0,0.0,0.0,0.0,0,0,0,0,True,0,3.048340082168579,0.0349287109375
STABILIZE,2.971013307571411,29.044616332777043,0.03237584431966146,0.03348231315612793,0.0,0.0,0.0,5.882442366065536,-36.01192309698752,74.27337582730792,0.0,0.0,0,0.0,-0.01808525595671441,0.018197043597254,0.9265167532307541,-0.004551520071785654,0.035681421286426485,0.10877804597839713,1.4297452755272388,-0.0857316806883538,-2.3744024336338043,0.35696220584213734,13.493846356868744,0.0,0.0,0.0,0.0,0,0,0,0,True,0,3.0759987831115723,0.03492919921875
STABILIZE,3.0044140815734863,29.938357435509428,0.032361777623494466,0.03248167037963867,0.0,0.0,0.0,5.8831488637578095,-36.01195383283879,74.31071647150037,0.0,0.0,0,0.0,-0.013931350364454052,0.02131183297971976,0.9260326239174367,-0.0017414337983599204,0.13469153782352805,0.10695357341319323,1.9474586471915245,0.25978992698028447,-0.9242171421647072,1.2050325982272625,22.022245824337006,0.0,0.0,0.0,0.0,0,0,0,0,True,0,3.1335678100585938,0.034928955078125
STABILIZE,3.0383429527282715,29.473838067263504,0.03240946133931478,0.03256559371948242,0.0,0.0,0.0,5.8804133729952195,-36.01158158752902,74.33530515251242,0.0,0.0,0,0.0,-0.013973300549533033,0.02199805925316139,0.9220367867425052,-0.0011592817380767948,-0.040980224730446935,0.05866340361535549,1.4735301956534386,0.03398842203237183,-5.122117698192596,0.8886662311851978,19.21938806772232,0.0,0.0,0.0,0.0,0,0,0,0,True,0,3.1627402305603027,0.034927978515625
STABILIZE,3.0734012126922607,28.52433641859864,0.03192928632100423,0.03417468070983887,0.0,0.0,0.0,5.876816851510385,-36.00998332326324,74.36825398506856,0.0,0.0,0,0.0,-0.014041471743872767,0.022646050906362975,0.9179192272010613,-0.0005642400628599102,-0.040980224730446935,0.05866340361535549,1.4735301956534386,0.03398842203237183,-5.122117698192596,0.8886662311851978,19.21938806772232,0.0,0.0,0.0,0.0,0,0,0,0,True,0,3.1909966468811035,0.034927978515625
STABILIZE,3.1070783138275146,29.695659253909927,0.03246739705403646,0.032599687576293945,0.0,0.0,0.0,5.877218125124124,-36.010669757274826,74.38843719406596,0.0,0.0,0,0.0,-0.0161131807743629,0.023862168731754133,0.9152326698884219,0.0005888476120895314,-0.15690915752202272,0.09406922617927194,1.5627417713403702,0.0661251557683694,-4.663730412721634,0.9969159960746765,20.21249234676361,0.0,0.0,0.0,0.0,0,0,0,0,True,0,3.2197608947753906,0.02993896484375
STABILIZE,3.140367269515991,30.0384871554311,0.03223303159077962,0.0323634147644043,0.0,0.0,0.0,5.881159571162043,-36.012209964932666,74.42255398897017,0.0,0.0,0,0.0,-0.018949055021184914,0.024455692022334982,0.9114177533804944,1.2634902784271033e-05,-0.20489729940891266,0.07169698947109282,1.7411451786756516,-0.035000810813841106,-4.810293763875961,1.2567400000989437,22.948679327964783,0.0,0.0,0.0,0.0,0,0,0,0,True,0,3.2490766048431396,0.069858154296875
STABILIZE,3.1746792793273926,29.142694357399442,0.03239944775899251,0.033443450927734375,0.0,0.0,0.0,5.87987677625855,-36.01273930459334,74.44055153743315,0.0,0.0,0,0.0,-0.02286247498832959,0.02670747832945006,0.9407909253443036,-0.0005653792254707871,-0.20489729940891266,0.07169698947109282,1.7411451786756516,-0.035000810813841106,-4.810293763875961,1.2567400000989437,22.948679327964783,0.0,0.0,0.0,0.0,0,0,0,0,True,1,3.2779741287231445,0.069858154296875
STABILIZE,3.208488941192627,29.57963849728838,0.03246119817097982,0.03291440010070801,0.0,0.0,0.0,5.876065530701683,-36.01070390822068,74.48265282347711,0.0,0.0,0,0.0,-0.031657332923498004,0.022970548073151416,0.9569240488856738,-0.0008581219459452556,-0.2676625270396471,-0.07411274709738791,1.8468957394361496,-0.1522944888319197,2.922525070607662,0.8729046210646629,17.856040596961975,0.0,0.0,0.0,0.0,0,0,0,0,True,0,3.3350117206573486,0.034928955078125
STABILIZE,3.2431604862213135,28.84011194158135,0.03242305119832357,0.033596038818359375,0.0,0.0,0.0,5.87413941735574,-36.00961107795347,74.50225546639504,0.0,0.0,0,0.0,-0.0321742448143572,0.023339720335815634,0.9530938481490537,0.002575543219746584,-0.07001886842772365,0.06565840449184179,1.7830029129981995,0.1736891492724855,1.5309608541429043,1.144278421998024,20.404724776744843,0.0,0.0,0.0,0.0,0,0,0,0,True,0,3.36500883102417,0.034928955078125
STABILIZE,3.276578664779663,29.92426015239291,0.03223303159077962,0.03250479698181152,0.0,0.0,0.0,5.873587879580262,-36.00929005906249,74.52361346792968,0.0,0.0,0,0.0,-0.026598980550294842,0.024701264074655283,0.9470030258063106,0.0030837698067715936,0.23946287110447884,0.11612072121351957,1.644478552043438,0.02564586622951694,0.03569638356566429,-0.9687407873570919,19.219233095645905,0.0,0.0,0.0,0.0,0,0,0,0,True,0,3.3936386108398438,0.02993896484375
STABILIZE,3.310073137283325,29.854609903837257,0.03241875966389974,0.032546043395996094,0.0,0.0,0.0,5.8775536581671,-36.0103111723434,74.55719750807863,0.0,0.0,0,0.0,-0.02550639857497891,0.025686870150750416,0.9374179917877266,0.00413575231938569,0.0018679420463740826,0.10506773833185434,1.6602370887994766,0.05790371576136324,1.7431605607271194,1.0378656908869743,19.56348419189453,0.0,0.0,0.0,0.0,0,0,0,0,True,0,3.4233415126800537,0.03492822265625
STABILIZE,3.343651533126831,29.78126486647685,0.03237465222676595,0.032697200775146484,0.0,0.0,0.0,5.879086181862122,-36.00938568171087,74.5742183394903,0.0,0.0,0,0.0,-0.022806740866334874,0.02714848597030918,0.9311333451150575,0.00953407015331641,0.09625087841413915,0.12255177134647965,1.566576398909092,0.2845050198528285,1.0418929159641266,3.0131446197628975,20.402389764785767,0.0,0.0,0.0,0.0,0,0,0,0,True,0,3.452070713043213,0.02993896484375
STABILIZE,3.376985788345337,29.99874120272358,0.03243616422017415,0.032546281814575195,0.0,0.0,0.0,5.872281605901496,-36.0065067569757,74.61459158767424,0.0,0.0,0,0.0,-0.020055281123518908,0.028399538975358074,0.9210065857566414,0.014658467127429756,0.09625087841413915,0.12255177134647965,1.566576398909092,0.2845050198528285,1.0418929159641266,3.0131446197628975,20.402389764785767,0.0,0.0,0.0,0.0,0,0,0,0,True,0,3.485459566116333,0.02993896484375
STABILIZE,3.4105825424194336,29.765625110885594,0.03253296216328939,0.03265857696533203,0.0,0.0,0.0,5.874262787647623,-36.00904758734695,74.63159875870758,0.0,0.0,0,0.0,-0.012036543350108843,0.029879828547993956,0.9006364780589513,0.017289372126597022,-0.0024421708076260984,0.09507788927294314,1.1851624585688114,0.14836587607911944,-0.13576026540249586,0.8096404373645782,17.433859407901764,0.0,0.0,0.0,0.0,0,0,0,0,True,0,3.5411674976348877,0.034928955078125
STABILIZE,3.4440348148345947,29.894826873458683,0.03237918217976888,0.03251767158508301,0.0,0.0,0.0,5.875366716972227,-36.007743021215475,74.6483805334983,0.0,0.0,0,0.0,-0.01131548447961317,0.03076740500624397,0.8894258081248512,0.019871119751252872,-0.0024421708076260984,0.09507788927294314,1.1851624585688114,0.14836587607911944,-0.13576026540249586,0.8096404373645782,17.433859407901764,0.0,0.0,0.0,0.0,0,0,0,0,True,0,3.5693256855010986,0.034928955078125
STABILIZE,3.4776041507720947,29.788033095415646,0.032369407018025716,0.03250432014465332,0.0,0.0,0.0,5.877474684104822,-36.007712285364214,74.68975781949024,0.0,0.0,0,0.0,-0.01367147265529223,0.02885013462859706,0.8886129358749512,0.02283750998916719,-0.1704118214547634,-0.05879419622942805,1.7485059797763824,0.17288444093046693,5.250821262598038,-1.9881349056959152,30.239900946617126,0.0,0.0,0.0,0.0,0,0,0,0,True,0,3.5981099605560303,0.064867919921875
STABILIZE,3.5110201835632324,29.924473648537774,0.032270224889119466,0.0323941707611084,0.0,0.0,0.0,5.872362287511067,-36.009187606224934,74.70986589640675,0.0,0.0,0,0.0,-0.018388184053103815,0.029349355789303734,0.9119147204424866,0.02585209578307668,-0.2787643577903509,0.020880582451354712,1.7816085368394852,0.08258813948370831,-12.081003189086914,0.6769071333110332,16.572675108909607,0.0,0.0,0.0,0.0,0,0,0,0,True,0,3.6267106533050537,0.03492919921875
STABILIZE,3.546307325363159,28.343530588386347,0.03230145772298177,0.0328524112701416,0.0,0.0,0.0,5.878131236038789,-36.00487434176407,74.74132574772383,0.0,0.0,0,0.0,-0.012667884509702165,0.03228167294422962,0.9149861919490845,0.02268303715413454,0.2600876847282052,0.20804547239094973,2.0678382366895676,-0.13729855504510546,5.2803292870521545,1.2472094967961311,21.34145498275757,0.0,0.0,0.0,0.0,0,0,0,0,True,0,3.6556150913238525,0.034927734375
STABILIZE,3.5782439708709717,31.305448574414093,0.030874284108479817,0.031035184860229492,0.0,0.0,0.0,5.879194611115196,-36.00202273778559,74.76268374925846,0.0,0.0,0,0.0,-0.014558413407965817,0.031127852759402073,0.9119446388777628,0.02275725177756431,-0.13452480779960752,-0.004108776556677185,1.7285102978348732,0.032900994551524974,-0.4111584275960922,-0.8080196566879749,20.981138944625854,0.0,0.0,0.0,0.0,0,0,0,0,True,0,3.6841626167297363,0.0299296875
STABILIZE,3.6119792461395264,29.64360984090861,0.03243139584859212,0.03286576271057129,0.0,0.0,0.0,5.8738760281858715,-36.00476505873735,74.78243665633813,0.0,0.0,0,0.0,-0.016388864164993844,0.029807705410326922,0.9051197605061283,0.022605474287768008,-0.13452480779960752,-0.004108776556677185,1.7285102978348732,0.032900994551524974,-0.4111584275960922,-0.8080196566879749,20.981138944625854,0.0,0.0,0.0,0.0,0,0,0,0,True,1,3.7149736881256104,0.0299296875
GUIDED_NOGPS,3.6455037593841553,29.829767865270824,0.03244784673055013,0.032585859298706055,0.0,0.0,0.0,5.874402379638785,-36.005188530465894,74.81792631926552,0.0,0.0,0,0.0,-0.013199703325946765,0.03302951798497386,0.8854861192282024,0.01630276616686888,0.05154647515155375,0.14748648973181844,1.390238106250763,-0.13640662838903703,-3.4380897879600525,0.9778747335076332,18.089790642261505,0.0,0.0,0.0,0.0,0,0,0,0,True,0,3.772160768508911,0.034928955078125
GUIDED_NOGPS,3.6790823936462402,29.78084195428823,0.030918153127034505,0.03106069564819336,0.0,0.0,0.5,5.880693837638013,-36.00511339838502,74.83481737708297,0.0,0.0,0,0.5,-0.012047842527112131,0.030570364104767548,0.8805791108791192,0.017127217660129788,0.030613472335971892,-0.08010572055354714,1.5117316506803036,0.07660905591730263,5.716153606772423,-0.6309133488684893,22.111892700195312,0.0,0.0,0.0,0.0,0,0,0,0,False,0,3.8011138439178467,0.03492919921875
GUIDED_NOGPS,3.7123093605041504,30.09452468591027,0.0322599728902181,0.032380104064941406,0.8371456111331723,0.8371456111331723,0.5,5.878449266722018,-36.002784303878045,74.85529428421466,0.8371456111331723,0.8371456111331723,0,0.5,-0.017033937610331312,0.028227108481286588,0.8800625450126425,0.02082300737630446,-0.30692340806126595,-0.07332912646234035,1.7412148416042328,0.23508619996940613,-12.252221256494522,1.2280412949621677,22.867129743099213,0.0,0.0,0.0,0.0,0,0,0,0,False,0,3.8298356533050537,0.02993896484375
GUIDED_NOGPS,3.7457897663116455,29.868216226224302,0.032479079564412434,0.0325922966003418,1.6372130163249383,1.6372130163249383,0.5,5.867123105530844,-36.00153437925994,74.8953738342643,1.6372130163249383,1.6372130163249383,0,0.5,-0.018871993325386575,0.02831798804921094,0.8792169413864456,0.017474047103980397,-0.13917729957029223,0.06869393982924521,1.9378742203116417,-0.14853625728239953,-1.4427931979298592,1.0308440774679184,19.445638358592987,0.0,0.0,0.0,0.0,0,0,0,0,False,0,3.8586466312408447,0.0349287109375
GUIDED_NOGPS,3.779384136199951,29.769850451767677,0.03242925008138021,0.03257894515991211,2.364766248854345,2.364766248854345,0.5,5.871179811011009,-36.00373370017268,74.91378802426665,2.364766248854345,2.364766248854345,0,0.5,-0.012949666204373544,0.030031634362434834,0.8768754973437318,0.014186050062227226,0.3034619614481926,0.15162189956754446,1.5920640900731087,-0.15362997757764232,4.376155138015747,0.39569614455103874,11.896894127130508,0.0,0.0,0.0,0.0,0,0,0,0,False,0,3.8871779441833496,0.039919189453125
GUIDED_NOGPS,3.812683343887329,30.02923951487034,0.032295974095662434,0.03241443634033203,2.9875810836519383,2.9875810836519383,0.5,5.877054200584043,-36.00610377581467,74.94986508346265,2.9875810836519383,2.9875810836519383,0,0.5,-0.006964960627498711,0.03193248660967179,0.8787221030351554,0.010894632721335652,0.3034619614481926,0.15162189956754446,1.5920640900731087,-0.15362997757764232,4.376155138015747,0.39569614455103874,11.896894127130508,0.0,0.0,0.0,0.0,0,0,0,0,False,0,3.9160070419311523,0.039919189453125
GUIDED_NOGPS,3.8461685180664062,29.863750284802915,0.032440932591756184,0.0325617790222168,3.478072287753611,3.478072287753611,0.5,5.874285839536072,-36.00502460592581,74.96474123547495,3.478072287753611,3.478072287753611,0,0.5,-0.008892105932873703,0.031450995437745224,0.8713951605261068,0.01289518531716793,-0.39388728328049183,-0.057788577396422625,1.5134774148464203,0.18822304477433216,-8.400662243366241,1.2833605520427227,23.84016662836075,0.0,0.0,0.0,0.0,0,0,0,0,False,0,3.974707841873169,0.034927978515625
GUIDED_NOGPS,3.8798065185546875,29.728283057382626,0.032390626271565755,0.03270268440246582,3.8145154041040223,3.8145154041040223,0.5,5.8736869173232265,-36.00381566244272,75.00703376681567,3.8145154041040223,3.8145154041040223,0,0.5,-0.012993945252023608,0.02828232059567445,0.8672440603426959,0.01374412224821086,-0.2606481546536088,-0.12467564083635807,1.4575549401342869,0.07756788374268284,-3.3650554716587067,-0.9507696144282818,20.475447177886963,0.0,0.0,0.0,0.0,0,0,0,0,False,0,4.003283262252808,0.02993896484375
GUIDED_NOGPS,3.913221836090088,29.92703583991552,0.0323970635732015,0.03251147270202637,3.9820089544063157,3.9820089544063157,0.5,5.870828056268753,-36.004140096428294,75.029826108076,3.9820089544063157,3.9820089544063157,0,0.5,-0.010591055931170221,0.03011164338800501,0.8616921178810661,0.017798344400431883,0.11033108457922935,0.16977264313027263,1.6024239361286163,0.2660816517837769,-3.4504860639572144,1.0619675740599632,20.01603990793228,0.0,0.0,0.0,0.0,0,0,0,0,False,0,4.031906366348267,0.034928955078125
GUIDED_NOGPS,3.9468274116516113,29.759500496665247,0.032415183385213216,0.032544851303100586,3.9731344438737137,3.9731344438737137,0.5,5.870042584514201,-36.003218020890344,75.04639614700245,3.9731344438737137,3.9731344438737137,0,0.5,-0.004711109337397095,0.029512245795776645,0.8572507532120296,0.017194872483442442,0.31468498054891825,0.02053567150142044,1.4019312337040901,-0.00819830807727804,2.1387923508882523,-1.2032799422740936,17.329078912734985,0.0,0.0,0.0,0.0,0,0,0,0,False,0,4.060499429702759,0.034928955078125
GUIDED_NOGPS,3.9801814556121826,29.979871912168345,0.03223875363667806,0.032386064529418945,3.788284935462983,3.788284935462983,0.5,5.876527422244306,-36.00419815303624,75.07780818699534,3.788284935462983,3.788284935462983,0,0.5,-0.004533512097111759,0.02799175535484275,0.8530596235265611,0.02003442985753686,-0.016039771435316652,-0.03234110772609711,1.4135362580418587,0.19177128802751411,-0.38901399821043015,-1.0728878900408745,19.8468416929245,0.0,0.0,0.0,0.0,0,0,0,0,False,0,4.089274644851685,0.029939208984375
GUIDED_NOGPS,4.016128063201904,27.817745294406347,0.03235057195027669,0.03456854820251465,3.4356476406339596,3.4356476406339596,0.5,5.877494747785509,-36.00475139835901,75.09583988640418,3.4356476406339596,3.4356476406339596,0,0.5,-0.0006197998158449284,0.02921366659093778,0.8480072457303796,0.023847482254514732,0.20798107143491507,0.13467477401718497,1.5872146934270859,0.25930621084883004,2.003583312034607,0.4722020588815212,14.46855366230011,0.0,0.0,0.0,0.0,0,0,0,0,False,0,4.117883205413818,0.0399189453125
GUIDED_NOGPS,4.049506187438965,29.96316669286051,0.03196862538655599,0.032161712646484375,2.93084129771174,2.93084129771174,0.5,5.868184773059959,-36.003771266213114,75.13758600261129,2.93084129771174,2.93084129771174,0,0.5,0.006727674201731439,0.030111313811665288,0.8584409190703398,0.031230213967608625,0.15273966128006577,0.00951729089138098,1.8261287361383438,0.19336009408212224,4.6885281801223755,1.050536148250103,20.64649611711502,0.0,0.0,0.0,0.0,0,0,0,0,False,0,4.175612926483154,0.02993896484375
GUIDED_NOGPS,4.082704782485962,30.117863323352218,0.032093318303426106,0.032236337661743164,2.296224398808659,2.296224398808659,0.5,5.8690795278412295,-36.002873096337254,75.15571332466851,2.296224398808659,2.296224398808659,0,0.5,0.00266815420339042,0.02802436469649276,0.8583234421696374,0.029084234421105346,-0.2421689685434103,-0.05539751728065312,1.8868189305067062,-0.07529266368680829,-0.9453240782022476,-0.4481113515794277,26.211383938789368,0.0,0.0,0.0,0.0,0,0,0,0,False,0,4.205408573150635,0.02992919921875
GUIDED_NOGPS,4.117626667022705,28.63514343842593,0.03236535390218099,0.03398752212524414,1.559904904784209,1.559904904784209,0.5,5.872587683753678,-36.002627209527134,75.17377917502318,1.559904904784209,1.559904904784209,0,0.5,0.0032940506321783216,0.02475232389622386,0.8493215495929292,0.02336967021057753,0.02800234651658684,-0.12826259480789304,1.3438551686704159,-0.28644730153719794,-5.30884824693203,-0.8304457180202007,22.513538599014282,0.0,0.0,0.0,0.0,0,0,0,0,False,0,4.234010696411133,0.0349287109375
GUIDED_NOGPS,4.151036977767944,29.92981204241533,0.032384665807088216,0.03250861167907715,0.7544953091819575,0.7544953091819575,0.5,5.873820532898865,-36.0026818510405,75.20872925300614,0.7544953091819575,0.7544953091819575,0,0.5,0.0004090120098271875,0.023947654330329783,0.8481288535165915,0.022710966339240732,-0.1822076505050063,0.009291832247981802,1.5362238511443138,-0.0015864448368676882,-4.239791631698608,-0.6168164778500795,24.96061474084854,0.0,0.0,0.0,0.0,0,0,0,0,False,0,4.262694358825684,0.034928955078125
GUIDED_NOGPS,4.184515476226807,29.87161974489178,0.03242615063985189,0.032543182373046875,-0.08433180911124254,-0.08433180911124254,0.5,5.874568865499804,-36.003556115254256,75.22807917892479,-0.08433180911124254,-0.08433180911124254,0,0.5,-0.0025398841456768942,0.02315661668571459,0.8469460506241665,0.022032552019320147,-0.1822076505050063,0.009291832247981802,1.5362238511443138,-0.0015864448368676882,-4.239791631698608,-0.6168164778500795,24.96061474084854,0.0,0.0,0.0,0.0,0,0,0,0,False,0,4.291234731674194,0.034928955078125
GUIDED_NOGPS,4.221575498580933,26.98394848073496,0.03234079678853353,0.036078691482543945,-0.9194237681393729,-0.9194237681393729,0.5,5.874503978702689,-36.002818454823895,75.2466641236564,-0.9194237681393729,-0.9194237681393729,0,0.5,-0.0028099461662189212,0.020412429328761153,0.8438708887095777,0.01808526570577232,-0.09681710507720709,-0.04283927846699953,1.5631554648280144,-0.060419519892602226,3.684523329138756,0.9058646857738495,19.318799674510956,0.0,0.0,0.0,0.0,0,0,0,0,False,0,4.348964214324951,0.034928955078125
GUIDED_NOGPS,4.254975080490112,29.938143741211572,0.03237465222676595,0.03249812126159668,-1.7137933207317204,-1.7137933207317204,0.5,5.868774730649518,-36.00027762445265,75.28487903206262,-1.7137933207317204,-1.7137933207317204,0,0.5,-0.00434077022449617,0.019508475386709564,0.8458847015673563,0.016772384297569783,-0.0968348584137857,-0.0005298940777720418,1.695840246975422,-0.03739801377942385,-8.42592716217041,1.204618252813816,22.80651032924652,0.0,0.0,0.0,0.0,0,0,0,0,False,0,4.377375841140747,0.034928955078125
GUIDED_NOGPS,4.289566993713379,28.909885444093685,0.03242352803548177,0.033724308013916016,-2.432256865047825,-2.432256865047825,0.5,5.8725270658247934,-36.002504266122074,75.32196012906661,-2.432256865047825,-2.432256865047825,0,0.5,-0.0008772360995316299,0.021666389160186438,0.8435856619748704,0.01836316645684469,0.19742141012102365,0.178012833930552,1.4426201581954956,0.13310124371757398,5.366823822259903,1.032273005694151,20.521792769432068,0.0,0.0,0.0,0.0,0,0,0,0,False,0,4.4060378074646,0.034928955078125
GUIDED_NOGPS,4.323155641555786,29.77175224656095,0.03244736989339193,0.03258228302001953,-3.042992769458405,-3.042992769458405,0.5,5.875526372644075,-36.00287651143184,75.33866677177646,-3.042992769458405,-3.042992769458405,0,0.5,-0.006235050682581526,0.02221580449195405,0.8484906531949603,0.01572705314068698,-0.3215266391634941,0.08084241417236626,1.867484673857689,-0.11638202118665379,-3.9070431143045425,1.0896834544837475,22.103863954544067,0.0,0.0,0.0,0.0,0,0,0,0,False,0,4.434908151626587,0.02993896484375
