Mode,Time,Freq,time2delay,actualDelay,North-Desired,East-Desired,Down-Desired,Roll-UAV,Pitch-UAV,Yaw-UAV,Roll-Control,Pitch-Control,Yaw-Control,Thrust-Control,North-Pos,East-Pos,Down-Pos,Yaw-Ang,North-Vel,East-Vel,Down-Vel,Yaw-Vel,North-Acc,East-Acc,Down-Acc,North-Raw,East-Raw,Down-Raw,Yaw-Raw,North-Dif,East-Dif,Down-Dif,Yaw-Dif,Landing-State,Q-Size,Kalman-Time,Kalman-Dt
STABILIZE,0.0344851016998291,29.00805720964652,0.033307584126790364,0.03345060348510742,0.0,0.0,0.0,5.707252709609764,-35.936678317996076,-117.62164950803574,0.0,0.0,0,0.0,0.08889549611908028,0.08683621858017548,0.119814584677018,0.08801814134839248,0.29468636494129896,-0.1353927655145526,1.4307676814496517,-0.11553094226347319,3.4552883356809616,-0.41945050470530987,23.440709710121155,0.0,0.0,0.0,0.0,0,0,0,0,False,0,0.14447331428527832,0.034849853515625
STABILIZE,0.06883430480957031,29.111140416021765,0.03217819531758626,0.03246593475341797,0.0,0.0,0.0,5.711340150941194,-35.937911167141266,-117.58389222230392,0.0,0.0,0,0.0,0.10548118634912063,0.10307024120294887,0.15121717954004932,0.10501558641728023,0.02798312925733626,0.054759642807766795,1.6925100237131119,0.16864689551985582,1.6852140426635742,1.845044270157814,23.467880487442017,0.0,0.0,0.0,0.0,0,0,0,0,False,0,0.17362046241760254,0.03493017578125
STABILIZE,0.1012113094329834,30.88475387504142,0.031477959950764973,0.03158307075500488,0.0,0.0,0.0,5.71404234453158,-35.938764940787514,-117.56714459845904,0.0,0.0,0,0.0,0.11961261703076728,0.11697517928191416,0.1824342652825953,0.11987648404976341,0.02798312925733626,0.054759642807766795,1.6925100237131119,0.16864689551985582,1.6852140426635742,1.845044270157814,23.467880487442017,0.0,0.0,0.0,0.0,0,0,0,0,False,0,0.20204496383666992,0.03493017578125
STABILIZE,0.13481736183166504,29.758233649766577,0.03255418141682943,0.03273630142211914,0.0,0.0,0.0,5.715841245604232,-35.9396801861363,-117.54883969148341,0.0,0.0,0,0.0,0.13018393164452224,0.1291143615822241,0.21387290162891745,0.13101502995394237,-0.16353875398635864,0.10672356002032757,1.7619358375668526,-0.0870931561694342,-3.641076758503914,1.7488213256001472,23.000304400920868,0.0,0.0,0.0,0.0,0,0,0,0,False,0,0.23138213157653809,0.02993994140625
STABILIZE,0.16852569580078125,29.664995155210093,0.032380135854085286,0.03268694877624512,0.0,0.0,0.0,5.710844962226368,-35.93798629922214,-117.50643787711597,0.0,0.0,0,0.0,0.14774737416436703,0.1450665479205985,0.2701521832914055,0.14478218717229166,0.2563317306339741,0.05442193942144513,1.7769049853086472,-0.06922069888583968,3.2057102769613266,-0.0841358385514468,24.252714216709137,0.0,0.0,0.0,0.0,0,0,0,0,False,0,0.2892630100250244,0.03493017578125
STABILIZE,0.20194363594055176,29.924900649966823,0.03237155278523763,0.0325169563293457,0.0,0.0,0.0,5.708887259255513,-35.937323770872645,-117.48525063031059,0.0,0.0,0,0.0,0.1547895594297969,0.15293450465109265,0.3016608060064103,0.15273360049393422,0.03191716969013214,0.13886899687349796,1.8185276538133621,0.16407002844571258,-0.35074292682111263,2.064845897257328,25.877392292022705,0.0,0.0,0.0,0.0,0,0,0,0,False,0,0.3178551197052002,0.034929931640625
STABILIZE,0.2426738739013672,24.551783885035267,0.032410415013631184,0.03985929489135742,0.0,0.0,0.0,5.7132137572078925,-35.93758331806111,-117.44835394841418,0.0,0.0,0,0.0,0.15981699329823199,0.15855068922820392,0.331509746717202,0.15931167312165653,-0.02404804981779307,0.039163377368822694,1.6796283423900604,0.1465801284567049,-6.251004338264465,-0.7649190258234739,18.96793842315674,0.0,0.0,0.0,0.0,0,0,0,0,False,0,0.3466308116912842,0.02993896484375
STABILIZE,0.2761690616607666,29.857160144932696,0.03245261510213216,0.03263115882873535,0.0,0.0,0.0,5.7158506371143405,-35.93791799733044,-117.4316063245693,0.0,0.0,0,0.0,0.161040740832507,0.1604623966436794,0.3546979089152148,0.16232633942799538,-0.02404804981779307,0.039163377368822694,1.6796283423900604,0.1465801284567049,-6.251004338264465,-0.7649190258234739,18.96793842315674,0.0,0.0,0.0,0.0,0,0,0,0,False,0,0.37525057792663574,0.02993896484375
STABILIZE,0.31137681007385254,28.400338558418255,0.03243974049886068,0.03441905975341797,0.0,0.0,0.0,5.719390809538523,-35.93826975207269,-117.39449107661946,0.0,0.0,0,0.0,0.16208885620432115,0.1629839124739495,0.38221257155171007,0.1645602021585206,0.0286309135844931,0.15905217733234167,2.110549621284008,0.12936851865573556,-4.559217393398285,0.07492016884498298,27.34212875366211,0.0,0.0,0.0,0.0,0,0,0,0,False,1,0.403947114944458,0.034929931640625
STABILIZE,0.3448977470397949,29.83316262660749,0.0325501283009847,0.032662391662597656,0.0,0.0,0.0,5.717182950889316,-35.93830390301854,-117.37486111294484,0.0,0.0,0,0.0,0.16633699316094952,0.16679451828523162,0.43884376692514004,0.16934705913189355,-0.0016752543160691857,0.04697169933933765,1.6883302479982376,0.025480342531376564,2.0942319184541702,0.18565490609034896,28.39648127555847,0.0,0.0,0.0,0.0,0,0,0,0,False,0,0.4648890495300293,0.02993994140625
STABILIZE,0.3783454895019531,29.896957773786102,0.032462151845296223,0.03257560729980469,0.0,0.0,0.0,5.714003497830675,-35.937112035008376,-117.33237733630736,0.0,0.0,0,0.0,0.1662733667940313,0.16555933591991065,0.45864923942948416,0.1659373212061235,0.10940786451101303,0.009965969366021454,1.5894601121544838,-0.16688534704422722,1.8296873196959496,1.366289146244526,20.674675703048706,0.0,0.0,0.0,0.0,0,0,0,0,False,0,0.49570131301879883,0.034928955078125
STABILIZE,0.4118075370788574,29.885028643087182,0.032440932591756184,0.03257322311401367,0.0,0.0,0.0,5.7160205380699445,-35.93791799733044,-117.31407242933173,0.0,0.0,0,0.0,0.16353834333066677,0.16521599840223464,0.4857238333046218,0.1628357478826938,-0.20775168668478727,-0.02304349181940779,1.7111508175730705,-0.23206600237621758,-2.004939317703247,1.3899226672947407,20.918069779872894,0.0,0.0,0.0,0.0,0,0,0,0,False,0,0.522942304611206,0.03493017578125
STABILIZE,0.44524288177490234,29.90889643172937,0.032430442174275716,0.0325465202331543,0.0,0.0,0.0,5.718130639636655,-35.938713714368745,-117.29421023922534,0.0,0.0,0,0.0,0.15987565437534434,0.16413577639438318,0.5119063277449947,0.15878997393484173,-0.20775168668478727,-0.02304349181940779,1.7111508175730705,-0.23206600237621758,-2.004939317703247,1.3899226672947407,20.918069779872894,0.0,0.0,0.0,0.0,0,0,0,0,False,0,0.5513193607330322,0.03493017578125
STABILIZE,0.4791138172149658,29.521967425426187,0.032416375478108723,0.03301262855529785,0.0,0.0,0.0,5.722198017287398,-35.93909962005685,-117.25844736873114,0.0,0.0,0,0.0,0.1597592415587547,0.1629794440380848,0.538164347983105,0.15450934893413484,0.10720986174419522,0.018338912923354656,1.783851534128189,-0.19011345970969187,3.5740144550800323,-0.3818376921117306,22.457365691661835,0.0,0.0,0.0,0.0,0,0,0,0,False,0,0.579913854598999,0.02993994140625
STABILIZE,0.5125102996826172,29.942845720567973,0.032482179005940755,0.03260231018066406,0.0,0.0,0.0,5.720285564319795,-35.938956186084276,-117.23970532964863,0.0,0.0,0,0.0,0.15562566999870187,0.16077309342527205,0.5554551737857416,0.15281576966560628,-0.0591967545915395,0.07573895854875445,1.6576135531067848,0.1217503097504458,1.3838360086083412,1.6874903813004494,23.015913367271423,0.0,0.0,0.0,0.0,0,0,0,0,False,0,0.6089463233947754,0.06985888671875
STABILIZE,0.5481200218200684,28.088424577264355,0.03253773053487142,0.032656192779541016,0.0,0.0,0.0,5.715990655992326,-35.93706422368418,-117.19555498685367,0.0,0.0,0,0.0,0.1629334874010187,0.1643764684935022,0.6271310374335507,0.15511510035354986,0.20976259838789701,0.07181160617619753,1.43600357696414,0.06486606642377309,2.902545966207981,-0.5674055777490139,18.99927854537964,0.0,0.0,0.0,0.0,0,0,0,0,False,0,0.6660621166229248,0.02991650390625
STABILIZE,0.579463005065918,31.897545876966834,0.0303378423055013,0.030465126037597656,0.0,0.0,0.0,5.715469427181289,-35.93703348783292,-117.17578841939564,0.0,0.0,0,0.0,0.1537305428429658,0.15795001051941052,0.6410113545507558,0.15099361988896698,-0.2650528447702527,-0.08582901209592819,1.77703108638525,0.05091606538457657,-1.3781670480966568,-0.383590254932642,22.807900607585907,0.0,0.0,0.0,0.0,0,0,0,0,False,0,0.6950788497924805,0.034929931640625
STABILIZE,0.6130404472351074,29.783802591869343,0.032471688588460286,0.03261280059814453,0.0,0.0,0.0,5.718001719816072,-35.93793165770877,-117.1562130972344,0.0,0.0,0,0.0,0.14746363454317984,0.15101021991190974,0.6626318813457266,0.14744983573016268,-0.13222264824435115,-0.17177575500681996,1.8994802609086037,0.03216486824568421,-4.4974371790885925,1.8178563565015793,26.75883173942566,0.0,0.0,0.0,0.0,0,0,0,0,False,0,0.723487138748169,0.034929931640625
STABILIZE,0.6464877128601074,29.895466111661523,0.032350810368855794,0.03247261047363281,0.0,0.0,0.0,5.723264380571567,-35.93982703520346,-117.12023166068677,0.0,0.0,0,0.0,0.14738945045880936,0.1494520693963731,0.6763888553701035,0.14302290507632748,0.25853521656244993,0.1721533015370369,1.4690417796373367,-0.01147466444476853,7.16376006603241,-0.401889905333519,19.462352991104126,0.0,0.0,0.0,0.0,0,0,0,0,False,0,0.7519652843475342,0.02993896484375
STABILIZE,0.6799523830413818,29.883538171066224,0.03234985669453939,0.03260016441345215,0.0,0.0,0.0,5.723347623502076,-35.940984752267774,-117.0999323384735,0.0,0.0,0,0.0,0.14323264726712928,0.1483077292310113,0.6897139933943531,0.14014368938038874,0.057003548135980964,0.2458049450069666,1.8604878336191177,0.13053493353907392,-2.0203283056616783,0.23253115359693766,26.016107201576233,0.0,0.0,0.0,0.0,0,0,0,0,False,0,0.7807121276855469,0.03493017578125
STABILIZE,0.7152359485626221,28.34295599524273,0.032454760869344075,0.03442263603210449,0.0,0.0,0.0,5.7201762812930745,-35.939140601191866,-117.0578583731862,0.0,0.0,0,0.0,0.13346193486307076,0.14596441588098882,0.7250744370221424,0.13374450591381576,-0.11490386677905917,0.14319252222776413,1.7568012699484825,0.005976178734976454,-1.5360893681645393,0.20371107384562492,25.739610195159912,0.0,0.0,0.0,0.0,0,0,0,0,False,0,0.8381924629211426,0.034929931640625
STABILIZE,0.7487075328826904,29.875449630679594,0.03246262868245443,0.032592058181762695,0.0,0.0,0.0,5.718768408550406,-35.938396110572334,-117.03867920199681,0.0,0.0,0,0.0,0.12972369989480198,0.14160536836733065,0.7383718322202699,0.13244893979153052,0.046820222632959485,0.009415936074219644,1.625288650393486,0.18536252953341908,-0.07547549903392792,-0.5766562651842833,17.4587219953537,0.0,0.0,0.0,0.0,0,0,0,0,False,0,0.8670895099639893,0.034929931640625
STABILIZE,0.7821972370147705,29.859923397832926,0.032444270451863606,0.03256988525390625,0.0,0.0,0.0,5.719587177477161,-35.938563450207,-117.01844818167524,0.0,0.0,0,0.0,0.12191651203541484,0.13689000305926038,0.7508848110237647,0.129496091813644,-0.1911367871798575,-0.006748038867954165,1.632000133395195,0.08715669560501382,-5.424992740154266,-0.04967184504494071,23.920908570289612,0.0,0.0,0.0,0.0,0,0,0,0,False,0,0.8955440521240234,0.029939208984375
STABILIZE,0.8156518936157227,29.8905659839512,0.0323970635732015,0.03253602981567383,0.0,0.0,0.0,5.723666507958951,-35.941326261726275,-116.98254870739765,0.0,0.0,0,0.0,0.11611230066741261,0.13363894726531608,0.7551858984022841,0.12617960665761052,-0.052660866640508175,0.11281472397968173,1.535816304385662,0.09469769135617069,-3.246111422777176,1.0780680924654007,13.459378480911255,0.0,0.0,0.0,0.0,0,0,0,0,False,0,0.924170970916748,0.034929931640625
STABILIZE,0.8490748405456543,29.919777436958306,0.032395394643147786,0.03253746032714844,0.0,0.0,0.0,5.724362760367469,-35.943163582613,-116.9617439511858,0.0,0.0,0,0.0,0.11125350297153078,0.1311445798845884,0.7630711760423772,0.12012536168803489,-0.022012769477441907,0.12080555316060781,1.4277917332947254,-0.10029113603873512,-1.2726937420666218,1.412349846214056,17.146036028862,0.0,0.0,0.0,0.0,0,0,0,0,False,0,0.9530091285705566,0.02993994140625
STABILIZE,0.8829514980316162,29.52238301706177,0.032446893056233723,0.03294801712036133,0.0,0.0,0.0,5.721233679953957,-35.941616544766,-116.91997051422199,0.0,0.0,0,0.0,0.10601944764945619,0.12787206183406025,0.7664579017352573,0.11770208873959548,-0.03413981175981462,0.10223842691630125,1.5361247584223747,0.13705573648402625,-3.875012695789337,-0.27786262799054384,19.918836653232574,0.0,0.0,0.0,0.0,0,0,0,0,False,0,0.981757640838623,0.034929931640625
STABILIZE,0.9166905879974365,29.635231857331608,0.032370599110921223,0.03290987014770508,0.0,0.0,0.0,5.720337217625393,-35.940650072998444,-116.89863300325487,0.0,0.0,0,0.0,0.09247718976413202,0.12197562016160747,0.7903012048724444,0.11147656201061787,-0.14555586967617273,0.08787746191956103,1.7505645751953125,0.066865884447772,-4.3336037546396255,-0.03975258732680231,22.469550371170044,0.0,0.0,0.0,0.0,0,0,0,0,False,0,1.0394978523254395,0.03492919921875
STABILIZE,0.9503529071807861,29.70722724310848,0.0325198491414388,0.03272747993469238,0.0,0.0,0.0,5.722323522013397,-35.94127162021291,-116.8802461340092,0.0,0.0,0,0.0,0.08802537796374735,0.11808704247867835,0.8009298971768155,0.10176826875226073,-0.01375521533191204,0.031233642948791385,1.735612191259861,-0.32245082947792186,2.271661162376404,0.35831264685839415,26.491478085517883,0.0,0.0,0.0,0.0,0,0,0,0,False,0,1.06791090965271,0.02993994140625
STABILIZE,0.9837846755981445,29.911882586184763,0.032381327946980794,0.03251814842224121,0.0,0.0,0.0,5.728638458787897,-35.94361779019281,-116.84675088631946,0.0,0.0,0,0.0,0.08190950447945526,0.11448009511786528,0.8059200738857877,0.09708954737961653,-0.11856774799525738,0.0657940108794719,1.758597046136856,-0.018076749308886655,-7.493928074836731,0.07241207640618086,24.492794275283813,0.0,0.0,0.0,0.0,0,0,0,0,False,0,1.0966196060180664,0.034929931640625
STABILIZE,1.0171747207641602,29.9492598913222,0.032401116689046223,0.0325312614440918,0.0,0.0,0.0,5.728435260660089,-35.943996865691744,-116.82661548864625,0.0,0.0,0,0.0,0.07376627852490678,0.11167490353261539,0.8132237346605711,0.0914862973629022,-0.24573439732193947,0.0871882017236203,1.586291752755642,-0.08903855279359117,-10.527370125055313,1.5283659100532532,18.44782680273056,0.0,0.0,0.0,0.0,0,0,0,0,False,0,1.1251516342163086,0.03492919921875
STABILIZE,1.0506870746612549,29.83889303880767,0.032465251286824544,0.03270554542541504,0.0,0.0,0.0,5.725386861856148,-35.942562525966046,-116.78467812714239,0.0,0.0,0,0.0,0.07201211084018407,0.10897961714296826,0.8196557276080861,0.09110295673994706,0.12547342339530587,0.0909781374502927,1.5745239332318306,0.2143309759692431,0.21608853712677956,-0.28821853920817375,18.986663222312927,0.0,0.0,0.0,0.0,0,0,0,0,False,0,1.1541392803192139,0.034929931640625
STABILIZE,1.084202766418457,29.836770407255912,0.03252604802449544,0.03265953063964844,0.0,0.0,0.0,5.723715173056787,-35.94232346934509,-116.76257563498822,0.0,0.0,0,0.0,0.06682964598135628,0.1066721764551995,0.8297326036863754,0.08599722501196161,-0.0852407596539706,0.11062739649787545,1.8248122185468674,-0.06998775447603722,-5.8466847985982895,0.8638648316264153,31.79653286933899,0.0,0.0,0.0,0.0,0,0,0,0,False,0,1.1830952167510986,0.02993994140625
STABILIZE,1.117750644683838,29.80666159739051,0.03246286710103353,0.03278803825378418,0.0,0.0,0.0,5.7243922155582645,-35.941763393833156,-116.74421608649922,0.0,0.0,0,0.0,0.05341286281279829,0.0999938005172215,0.8378862656510242,0.07777366714390259,-0.28164710383862257,0.09286503191106021,1.9657783210277557,-0.0670107458231571,-4.442978277802467,2.4274086579680443,28.693807125091553,0.0,0.0,0.0,0.0,0,0,0,0,False,0,1.240731954574585,0.034928955078125
STABILIZE,1.1512880325317383,29.820012228589306,0.03254392941792806,0.03265118598937988,0.0,0.0,0.0,5.727841887975944,-35.94286646938411,-116.70471027233987,0.0,0.0,0,0.0,0.050643498445350765,0.09541282009810427,0.841664244980994,0.070263485627902,0.03453390672802925,-0.036147417267784476,1.5209153294563293,-0.22853692900943662,0.024987012147903442,-0.3385520074516535,19.433343410491943,0.0,0.0,0.0,0.0,0,0,0,0,False,0,1.2691307067871094,0.029940185546875
STABILIZE,1.184767723083496,29.868854326895686,0.032451899846394856,0.032582998275756836,0.0,0.0,0.0,5.727748826648503,-35.943750978881624,-116.68607751628407,0.0,0.0,0,0.0,0.04826712644762826,0.09073582712696603,0.8399337903674821,0.06294017100724363,0.03453390672802925,-0.036147417267784476,1.5209153294563293,-0.22853692900943662,0.024987012147903442,-0.3385520074516535,19.433343410491943,0.0,0.0,0.0,0.0,0,0,0,0,False,0,1.298060655593872,0.029940185546875
STABILIZE,1.2182300090789795,29.883964005044422,0.03242305119832357,0.0325467586517334,0.0,0.0,0.0,5.7248775858761585,-35.9438944128542,-116.64568377753262,0.0,0.0,0,0.0,0.04231207469255197,0.0891666138908747,0.8381421003239082,0.06640207743903495,-0.18891431391239166,0.14086113078519702,1.5113730914890766,0.4058248142421519,-1.2625675648450851,0.17666688654571772,23.092518746852875,0.0,0.0,0.0,0.0,0,0,0,0,False,0,1.3264222145080566,0.034929931640625
STABILIZE,1.2516593933105469,29.91465597786162,0.032407315572102864,0.03254365921020508,0.0,0.0,0.0,5.722129715395698,-35.94349826188234,-116.62341736083837,0.0,0.0,0,0.0,0.037930771049434146,0.08676323539355459,0.8454934478627917,0.06063069744451684,-0.08806326659396291,0.07544466643594205,1.7642352730035782,-0.15182473990370943,2.395191043615341,0.9140722453594208,31.652361154556274,0.0,0.0,0.0,0.0,0,0,0,0,False,0,1.3551323413848877,0.03493017578125
STABILIZE,1.2851269245147705,29.879919072179636,0.032434733708699544,0.032584428787231445,0.0,0.0,0.0,5.721217458254678,-35.94394905436756,-116.60244868008644,0.0,0.0,0,0.0,0.031217281230683753,0.08303029258308717,0.8506632266603829,0.0561304015416642,-0.23510402534157038,-0.008149885979946703,1.6600461676716805,-0.08007018757814048,-3.771563619375229,0.21274257451295853,24.136316776275635,0.0,0.0,0.0,0.0,0,0,0,0,False,0,1.383732795715332,0.029938720703125
STABILIZE,1.3185992240905762,29.873534565034685,0.03243878682454427,0.0326690673828125,0.0,0.0,0.0,5.7255699963032685,-35.94601860168607,-116.56575690386514,0.0,0.0,0,0.0,0.022753635149213712,0.07844621364210874,0.8657814458511588,0.048044784062679896,0.07086661644279957,0.1600145478732884,1.9169613718986511,0.003235445268589834,1.200745813548565,2.4924756959080696,26.26117169857025,0.0,0.0,0.0,0.0,0,0,0,0,False,0,1.4410583972930908,0.02993994140625
STABILIZE,1.352238416671753,29.73017954479405,0.0325196107228597,0.03264951705932617,0.0,0.0,0.0,5.7266747794015185,-35.94679724325145,-116.54846286488666,0.0,0.0,0,0.0,0.02198124875586785,0.07855113891167438,0.8603168093251227,0.051720952193198964,0.07081545190885663,0.21208792459219694,1.386372186243534,0.3778842445753487,-3.7224970757961273,1.809365302324295,18.318425118923187,0.0,0.0,0.0,0.0,0,0,0,0,False,0,1.4699060916900635,0.02993994140625
STABILIZE,1.3856325149536133,29.9439145582272,0.03231194814046224,0.03243565559387207,0.0,0.0,0.0,5.725432965633045,-35.9463771866175,-116.52775373132317,0.0,0.0,0,0.0,0.02131785542574288,0.07873193840021006,0.8550654382176993,0.05542937859348045,0.07081545190885663,0.21208792459219694,1.386372186243534,0.3778842445753487,-3.7224970757961273,1.809365302324295,18.318425118923187,0.0,0.0,0.0,0.0,0,0,0,0,False,0,1.5014381408691406,0.02993994140625
STABILIZE,1.419015884399414,29.953323620990087,0.03238418896993001,0.03252220153808594,0.0,0.0,0.0,5.721793755465898,-35.945482431836226,-116.4862261811695,0.0,0.0,0,0.0,0.020034496089269355,0.07768476486295402,0.8527166264964655,0.05500597866295615,0.026994122890755534,0.13326116604730487,1.5505671501159668,0.1253572632820208,3.757046163082123,0.31259916722774506,23.54864478111267,0.0,0.0,0.0,0.0,0,0,0,0,False,0,1.530043363571167,0.03492919921875
STABILIZE,1.4524242877960205,29.93365686554382,0.03245571454366048,0.03256535530090332,0.0,0.0,0.0,5.721244779011358,-35.94493601670263,-116.46596784009124,0.0,0.0,0,0.0,0.01864191148359368,0.07704294075928218,0.8600652125002864,0.0516351298270793,0.0295801495667547,0.14216628624126315,1.8514465540647507,-0.061097569580178056,2.6152020320296288,0.3826179075986147,24.302467703819275,0.0,0.0,0.0,0.0,0,0,0,0,False,0,1.563735008239746,0.034929931640625
STABILIZE,1.4859373569488525,29.839105318573747,0.03248575528462728,0.032610177993774414,0.0,0.0,0.0,5.724836604741139,-35.947138752709954,-116.42909847895152,0.0,0.0,0,0.0,0.014771339112380068,0.07515946114574042,0.8604234414298353,0.04778325451437521,-0.1277450006455183,0.06367337191477418,1.4487736858427525,-0.091877396858124,-6.312733888626099,-0.10266402969136834,19.96326893568039,0.0,0.0,0.0,0.0,0,0,0,0,False,0,1.5925328731536865,0.02993994140625
STABILIZE,1.5194294452667236,29.8582228739838,0.03241160710652669,0.032538652420043945,0.0,0.0,0.0,5.726315767583269,-35.947230960263745,-116.40915432657508,0.0,0.0,0,0.0,0.012167850170880885,0.07226308185543598,0.8560974045128943,0.0405863811727082,-0.07409831159748137,0.009658292401582003,1.460740715265274,-0.29961990832094937,0.9647521190345287,-0.6778597366064787,13.201043009757996,0.0,0.0,0.0,0.0,0,0,0,0,False,0,1.6213412284851074,0.03493017578125
STABILIZE,1.5566973686218262,26.833756645575694,0.032367976506551106,0.032761573791503906,0.0,0.0,0.0,5.7258205788684435,-35.946865545143154,-116.36850104063517,0.0,0.0,0,0.0,0.008476206608356358,0.07133639075162458,0.8644404942404225,0.04034268114948664,-0.12903909664601088,0.11490443721413612,1.9453179091215134,0.12110270909955075,-5.0935156643390656,0.2970361150801182,24.05010759830475,0.0,0.0,0.0,0.0,0,0,0,0,True,0,1.6498546600341797,0.0399189453125
STABILIZE,1.5867443084716797,33.28416458358132,0.02881339391072591,0.0289461612701416,0.0,0.0,0.0,5.724378982066748,-35.94700214892655,-116.3494721336075,0.0,0.0,0,0.0,0.0014936401089254943,0.06880930843289698,0.8646195240028928,0.038144692898970656,-0.13614953495562077,0.09498736471869051,1.6209926456212997,0.05830422898294779,-3.289199247956276,0.46049226075410843,24.65447038412094,0.0,0.0,0.0,0.0,0,0,0,0,True,0,1.7084641456604004,0.024949951171875
STABILIZE,1.6200895309448242,29.986301957476016,0.03220728238423665,0.03234696388244629,0.0,0.0,0.0,5.723789451364011,-35.94694409231861,-116.3274925848584,0.0,0.0,0,0.0,-0.0005464534085631083,0.06641976320332918,0.8581571907704725,0.03447936883994061,-0.08813836611807346,0.03244989784434438,1.6142064705491066,-0.11336833361751789,-1.2007452547550201,-1.390456035733223,25.833937525749207,0.0,0.0,0.0,0.0,0,0,0,0,True,0,1.7371535301208496,0.034929931640625
STABILIZE,1.6533753871917725,30.04149924436136,0.032331021626790364,0.032457590103149414,0.0,0.0,0.0,5.724934788710458,-35.946899696089005,-116.28953039345147,0.0,0.0,0,0.0,-0.0035582976648168467,0.06379433063389275,0.8612947850257042,0.03483539627819641,-0.11076284572482109,-0.005885451901121996,1.6160797327756882,0.13827563228217432,-3.7009023129940033,-1.6930926591157913,22.934579849243164,0.0,0.0,0.0,0.0,0,0,0,0,True,0,1.7670364379882812,0.03493017578125
STABILIZE,1.6868836879730225,29.84462565284834,0.032501967748006184,0.03262734413146973,0.0,0.0,0.0,5.727867501185332,-35.94759637538434,-116.26946329766997,0.0,0.0,0,0.0,-0.006467170018545096,0.06118602219996843,0.8641095356859699,0.03530798230472183,-0.11076284572482109,-0.005885451901121996,1.6160797327756882,0.13827563228217432,-3.7009023129940033,-1.6930926591157913,22.934579849243164,0.0,0.0,0.0,0.0,0,0,0,0,True,0,1.7978763580322266,0.03493017578125
STABILIZE,1.7206809520721436,29.587150203511545,0.032434733708699544,0.032557010650634766,0.0,0.0,0.0,5.729041013062105,-35.948340866003875,-116.2513496359911,0.0,0.0,0,0.0,-0.007070735919239491,0.06034957972111507,0.8684748084509163,0.03182852886262593,0.023027232964523137,0.10024512885138392,1.7286652699112892,-0.10813738254885338,0.8965810760855675,0.2173823770135641,21.230678260326385,0.0,0.0,0.0,0.0,0,0,0,0,True,0,1.8298869132995605,0.064868896484375
STABILIZE,1.7537236213684082,30.26433555332674,0.032084019978841145,0.032212257385253906,0.0,0.0,0.0,5.7261667840819985,-35.9463771866175,-116.20845604800343,0.0,0.0,0,0.0,-0.01420558184593634,0.06004900172685966,0.899910066350921,0.028159388251625048,-0.2471948741003871,0.09180021588690579,1.7844900488853455,-0.09154321117668261,-6.251297891139984,0.5871054716408253,26.099807024002075,0.0,0.0,0.0,0.0,0,0,0,0,True,0,1.859140157699585,0.03493017578125
STABILIZE,1.787210464477539,29.862687162253565,0.032454522450764973,0.03257250785827637,0.0,0.0,0.0,5.7254193052547055,-35.94605275263192,-116.18870314092375,0.0,0.0,0,0.0,-0.021478805334436843,0.050642680067787896,0.8986714818927536,0.025396988667936667,-0.3760390914976597,-0.38009718991816044,1.5958154574036598,-0.060999365600539285,-1.3248182833194733,0.518986489623785,26.550811529159546,0.0,0.0,0.0,0.0,0,0,0,0,True,0,1.8879358768463135,0.02993994140625
STABILIZE,1.8206112384796143,29.937288994525456,0.03244212468465169,0.03256845474243164,0.0,0.0,0.0,5.727322793599023,-35.94627131868536,-116.15089121367856,0.0,0.0,0,0.0,-0.023648265859677168,0.046856369314422434,0.8904618790160727,0.02238222947297759,-0.12145034270361066,-0.06986592197790742,1.4506330713629723,-0.0862887346419999,-2.791908010840416,2.2859640419483185,22.512368857860565,0.0,0.0,0.0,0.0,0,0,0,0,True,0,1.916562557220459,0.034929931640625
STABILIZE,1.8540995121002197,29.861836718711064,0.03249672253926595,0.032622337341308594,0.0,0.0,0.0,5.728821593235018,-35.947056790439916,-116.13146615567904,0.0,0.0,0,0.0,-0.024924222869250445,0.05280376713271096,0.8914765479668214,0.015223919072437997,0.08163448073901236,0.3825646825134754,1.8474575132131577,0.00926104282344971,-1.7070472240447998,1.0672738775610924,28.38650643825531,0.0,0.0,0.0,0.0,0,0,0,0,True,0,1.9766712188720703,0.03493017578125
STABILIZE,1.8876457214355469,29.811958035993516,0.03245261510213216,0.032607078552246094,0.0,0.0,0.0,5.730114633422266,-35.94792422446451,-116.11094826741233,0.0,0.0,0,0.0,-0.023241332461803054,0.05484491276669607,0.8894049290149764,0.015348033517878957,0.100976403336972,0.2413780428469181,1.530576404184103,0.08376671397139915,-4.982023686170578,0.037513766437768936,16.843582689762115,0.0,0.0,0.0,0.0,0,0,0,0,True,0,2.00514554977417,0.02993994140625
STABILIZE,1.9210090637207031,29.97130280683702,0.03225830396016439,0.032379150390625,0.0,0.0,0.0,5.726874562434741,-35.947418790465925,-116.07021301920237,0.0,0.0,0,0.0,-0.02113840491060889,0.056764453807879804,0.8829950887741037,0.01570783532931681,0.100976403336972,0.2413780428469181,1.530576404184103,0.08376671397139915,-4.982023686170578,0.037513766437768936,16.843582689762115,0.0,0.0,0.0,0.0,0,0,0,0,True,0,2.0338501930236816,0.02993994140625
STABILIZE,1.9544501304626465,29.902712722346987,0.03245356877644857,0.032586097717285156,0.0,0.0,0.0,5.724352515083714,-35.94543803560662,-116.05047377250104,0.0,0.0,0,0.0,-0.02449698293303042,0.054925046358482464,0.8777111605258155,0.014739565257731577,-0.21358514204621315,0.024476723046973348,1.5694478526711464,0.005025164939491432,0.7287715561687946,0.025465001817792654,17.225919663906097,0.0,0.0,0.0,0.0,0,0,0,0,True,0,2.0628819465637207,0.034929931640625
STABILIZE,1.9879958629608154,29.81386521470256,0.03247693379720052,0.03258872032165527,0.0,0.0,0.0,5.727587890316184,-35.945728318646346,-116.01079037342326,0.0,0.0,0,0.0,-0.023377539051863926,0.053600156938193845,0.8774789857812985,0.014511608601382536,0.05975438398309052,0.04061456129420549,1.5946974977850914,0.05102863010374955,1.3832435011863708,0.6664906162768602,24.410316348075867,0.0,0.0,0.0,0.0,0,0,0,0,True,0,2.0915377140045166,0.03493017578125
STABILIZE,2.0242156982421875,27.605728727885424,0.032337458928426106,0.03538012504577637,0.0,0.0,0.0,5.732016841106114,-35.94663673380596,-115.99464380622534,0.0,0.0,0,0.0,-0.020358929749645177,0.05469648612536013,0.8824693692904559,0.012016835518136496,0.16356637934222817,0.1790291629731655,1.901479810476303,-0.0837708027467519,-1.135050691664219,2.558543160557747,23.24560582637787,0.0,0.0,0.0,0.0,0,0,0,0,True,1,2.1199123859405518,0.04490869140625
STABILIZE,2.0575835704803467,29.968733030380978,0.03251007397969564,0.03261375427246094,0.0,0.0,0.0,5.7345709049688764,-35.94896241321835,-115.95707776579027,0.0,0.0,0,0.0,-0.022067783062334825,0.05798790442199363,0.9041167790423358,0.008270976039543571,-0.25232613552361727,0.18416112288832664,1.6479255631566048,0.009166880928417416,-4.913899675011635,2.139930799603462,19.34271901845932,0.0,0.0,0.0,0.0,0,0,0,0,True,0,2.177410364151001,0.019960205078125
STABILIZE,2.091116189956665,29.821496370345617,0.03257325490315755,0.032689809799194336,0.0,0.0,0.0,5.729925522559621,-35.94786616785656,-115.93407368866568,0.0,0.0,0,0.0,-0.017660226032110548,0.05604624837075226,0.8840194390396273,0.008161413781195495,0.1933050574734807,0.04814378044102341,1.3241274282336235,0.019403271763796973,-1.6016481444239616,-2.244430035352707,12.756311893463135,0.0,0.0,0.0,0.0,0,0,0,0,True,0,2.206343650817871,0.06482177734375
STABILIZE,2.124534845352173,29.92426015239291,0.03247526486714681,0.03258681297302246,0.0,0.0,0.0,5.723182845188349,-35.94603226206441,-115.90172591275649,0.0,0.0,0,0.0,-0.014324731109180016,0.05624822980343966,0.9027426128434051,0.0070428499887744455,0.1933050574734807,0.04814378044102341,1.3241274282336235,0.019403271763796973,-1.6016481444239616,-2.244430035352707,12.756311893463135,0.0,0.0,0.0,0.0,0,0,0,0,True,0,2.23488712310791,0.06482177734375
STABILIZE,2.158029317855835,29.85673507449406,0.03249219258626302,0.03262448310852051,0.0,0.0,0.0,5.724288055173422,-35.946127884712794,-115.87003383500763,0.0,0.0,0,0.0,-0.013928314211764553,0.055747354000682134,0.9213765032859891,0.008755847118323303,0.004893547156825662,0.030289540882222354,1.525340974330902,0.14674984264932384,-1.2023355811834335,0.5932400468736887,21.515753865242004,0.0,0.0,0.0,0.0,0,0,0,0,True,0,2.2635068893432617,0.0349287109375
STABILIZE,2.191471576690674,29.901220485913083,0.032445700963338216,0.032563209533691406,0.0,0.0,0.0,5.727778281839298,-35.94728901687169,-115.85421511688989,0.0,0.0,0,0.0,-0.017000959676934903,0.05552975115056769,0.9168917401723419,0.011656813254966923,-0.18331321189180017,0.11311183916404843,1.7097106203436852,0.17257372068408425,-1.3276724144816399,2.17799860984087,18.262088298797607,0.0,0.0,0.0,0.0,0,0,0,0,True,0,2.2921364307403564,0.034929931640625
STABILIZE,2.2249228954315186,29.895253029223092,0.032444032033284505,0.03256583213806152,0.0,0.0,0.0,5.733244567609424,-35.94925952644724,-115.83738553077497,0.0,0.0,0,0.0,-0.016729900116762956,0.05724995679777207,0.9134952480621883,0.009421752440756536,-0.018308132712263614,0.20755822770297527,1.7389923334121704,-0.08272815836169359,0.31966310925781727,0.4758773371577263,21.75481468439102,0.0,0.0,0.0,0.0,0,0,0,0,True,1,2.3207623958587646,0.029940185546875
STABILIZE,2.2583727836608887,29.895039949822166,0.03243568738301595,0.03255653381347656,0.0,0.0,0.0,5.733733779908727,-35.949570300054475,-115.7965409995383,0.0,0.0,0,0.0,-0.019022081215767893,0.05912614352714375,0.8981509107992163,0.004097120558936282,-0.17449796432629228,0.1549993408843875,1.6377706080675125,-0.1418521167667487,-3.0952729284763336,0.4472545813769102,21.173089742660522,0.0,0.0,0.0,0.0,0,0,0,0,True,0,2.3784029483795166,0.03493017578125
STABILIZE,2.291797637939453,29.916362936070357,0.03243211110432943,0.03255915641784668,0.0,0.0,0.0,5.728459166322184,-35.947111431953275,-115.77218454495802,0.0,0.0,0,0.0,-0.01744897761609671,0.05615613884656131,0.8930383956927601,0.00205464705398835,0.05200936575420201,-0.04056721809320152,1.541725266724825,-0.0826612972130215,1.479852106422186,-1.092279702425003,25.027263164520264,0.0,0.0,0.0,0.0,0,0,0,0,True,0,2.4070303440093994,0.0349296875
STABILIZE,2.3252198696136475,29.92020430437357,0.032454760869344075,0.032593488693237305,0.0,0.0,0.0,5.721469321480322,-35.945079450675195,-115.72935925886205,0.0,0.0,0,0.0,-0.023023049135845387,0.05723093172362776,0.8913145694708201,0.004158009511966794,-0.3270553657785058,0.17225773772224784,1.7075954005122185,0.13456853376993666,-5.539314076304436,0.5340393632650375,20.800982415676117,0.0,0.0,0.0,0.0,0,0,0,0,True,0,2.4355580806732178,0.064868896484375
STABILIZE,2.358628511428833,29.931734330509745,0.032501967748006184,0.03259539604187012,0.0,0.0,0.0,5.7249680858826615,-35.94651720549548,-115.71097238961637,0.0,0.0,0,0.0,-0.03008911507185323,0.059994807261479044,0.9143528614699564,0.0061355658978525214,-0.3270553657785058,0.17225773772224784,1.7075954005122185,0.13456853376993666,-5.539314076304436,0.5340393632650375,20.800982415676117,0.0,0.0,0.0,0.0,0,0,0,0,True,0,2.464592933654785,0.064868896484375
STABILIZE,2.3921635150909424,29.822980659840727,0.03250268300374349,0.03264641761779785,0.0,0.0,0.0,5.729300133363742,-35.94833062072012,-115.69515367149863,0.0,0.0,0,0.0,-0.04149889070438046,0.06175099515450937,0.9337409627025779,0.0031750440553163853,-0.4949704743921757,0.12483269674703479,1.6694970428943634,-0.11766582994635173,-8.037249743938446,0.5265850573778152,21.910451352596283,0.0,0.0,0.0,0.0,0,0,0,0,True,0,2.492936134338379,0.03493017578125
STABILIZE,2.425579071044922,29.924046659294405,0.032350810368855794,0.03248906135559082,0.0,0.0,0.0,5.733144249205989,-35.94893167736708,-115.65865314057407,0.0,0.0,0,0.0,-0.038870094475533454,0.060965513818079464,0.9216631073410849,0.0011649681433395435,0.0634316704235971,0.09526037611067295,1.4670096337795258,-0.0796603095268736,-5.003499612212181,2.517927438020706,22.148773074150085,0.0,0.0,0.0,0.0,0,0,0,0,True,0,2.521674156188965,0.02993994140625
STABILIZE,2.4590253829956055,29.899941544647056,0.03247693379720052,0.03259158134460449,0.0,0.0,0.0,5.727117887923923,-35.948224752787986,-115.63392785577864,0.0,0.0,0,0.0,-0.037457751968726596,0.05952717644132619,0.8963412900807751,-0.0008249441608259281,-0.03338681999593973,0.10057372273877263,1.4594094827771187,-0.03782972308962965,-7.75468647480011,-1.6080467030405998,18.79502534866333,0.0,0.0,0.0,0.0,0,0,0,0,True,0,2.579169273376465,0.034929931640625
STABILIZE,2.4925124645233154,29.862474546826718,0.03246000607808431,0.03259611129760742,0.0,0.0,0.0,5.71960894870514,-35.944560356298275,-115.58796068266444,0.0,0.0,0,0.0,-0.03793094790228033,0.058087990310066645,0.8871045822152767,-0.0017331662820811908,-0.08307543466798961,0.05348341655917466,1.4624983072280884,-0.0347087268453305,-2.508743666112423,-1.5618653036653996,18.59750598669052,0.0,0.0,0.0,0.0,0,0,0,0,True,0,2.6076626777648926,0.03492919921875
STABILIZE,2.5260214805603027,29.844200939234383,0.03243139584859212,0.03253793716430664,0.0,0.0,0.0,5.7223521234305466,-35.94536290352575,-115.56972407758052,0.0,0.0,0,0.0,-0.03682791046368007,0.057140540247101905,0.879894770451525,-5.959706460732881e-05,-0.004672826617024839,0.07562629180029035,1.5335744246840477,0.0940580147919299,-1.3906663283705711,0.68076616153121,21.666306257247925,0.0,0.0,0.0,0.0,0,0,0,0,True,0,2.6363887786865234,0.034929931640625
STABILIZE,2.559385299682617,29.972587860338148,0.032337458928426106,0.03247570991516113,0.0,0.0,0.0,5.7273817039806145,-35.947664677276045,-115.55445177459636,0.0,0.0,0,0.0,-0.02847665179864617,0.057472136643503875,0.8741742926057734,-0.000681406766736455,0.3672927850857377,0.13898410834372044,1.5818016603589058,-0.02315076610919955,7.115674763917923,0.8181946352124214,24.409951269626617,0.0,0.0,0.0,0.0,0,0,0,0,True,0,2.665400981903076,0.034929931640625
STABILIZE,2.5928304195404053,29.897597103122838,0.032439502080281575,0.032558441162109375,0.0,0.0,0.0,5.732550022748199,-35.950249903876895,-115.51661252659449,0.0,0.0,0,0.0,-0.020260094658883846,0.05782321558724917,0.8689420954245985,-0.0012764089371703159,0.3672927850857377,0.13898410834372044,1.5818016603589058,-0.02315076610919955,7.115674763917923,0.8181946352124214,24.409951269626617,0.0,0.0,0.0,0.0,0,0,0,0,True,0,2.693779230117798,0.034929931640625
STABILIZE,2.6274209022521973,28.90928765895854,0.0324430783589681,0.03372621536254883,0.0,0.0,0.0,5.7278184092006725,-35.94896582831293,-115.49496082692555,0.0,0.0,0,0.0,-0.021861301888533045,0.05738989919921421,0.8606546825640033,-0.004771932580648286,-0.1400603330694139,0.09699288057163358,1.3980111107230186,-0.17660788120390236,-1.843738742172718,-0.10878429748117924,14.23962265253067,0.0,0.0,0.0,0.0,0,0,0,0,True,1,2.7223827838897705,0.03492919921875
STABILIZE,2.660926342010498,29.849935593147965,0.03245690663655599,0.03259539604187012,0.0,0.0,0.0,5.7178471867861,-35.945209224269426,-115.45023674824031,0.0,0.0,0,0.0,-0.025252427311620817,0.05581476284022044,0.8423968924877475,-0.006348176619723425,-0.29164794832468033,0.043809929047711194,1.372359786182642,-0.026368852425333367,-4.909151792526245,0.6229011807590723,22.579164803028107,0.0,0.0,0.0,0.0,0,0,0,0,True,0,2.781851053237915,0.034929931640625
STABILIZE,2.694796562194824,29.521136277256154,0.032395394643147786,0.03289389610290527,0.0,0.0,0.0,5.719258474623354,-35.945106771431874,-115.42974618073028,0.0,0.0,0,0.0,-0.023242518778075184,0.055340198034917895,0.8390626587925846,-0.004449121048706085,0.05730072152800858,0.08906730217859149,1.5703417360782623,0.10633081085359823,2.0372096449136734,0.10663287248462439,17.241738736629486,0.0,0.0,0.0,0.0,0,0,0,0,True,0,2.808633327484131,0.03493017578125
STABILIZE,2.7283132076263428,29.8371949094065,0.03235796292622884,0.032492637634277344,0.0,0.0,0.0,5.725932850102926,-35.94687920552149,-115.4127936512103,0.0,0.0,0,0.0,-0.02368509428408733,0.054936650660792605,0.8323634473890138,-0.00669600522403022,-0.0760266266297549,0.09178217151202261,1.367579773068428,-0.12202653220543465,2.5398312136530876,1.8856067210435867,15.737156569957733,0.0,0.0,0.0,0.0,0,0,0,0,True,0,2.8373332023620605,0.02993994140625
STABILIZE,2.7615342140197754,30.097979979189837,0.032290013631184895,0.03241539001464844,0.0,0.0,0.0,5.733244994496247,-35.94931758305519,-115.37694881844607,0.0,0.0,0,0.0,-0.024036659739069658,0.054308174751035214,0.8223251975056745,-0.00877664728575611,-0.0760266266297549,0.09178217151202261,1.367579773068428,-0.12202653220543465,2.5398312136530876,1.8856067210435867,15.737156569957733,0.0,0.0,0.0,0.0,0,0,0,0,True,0,2.8658859729766846,0.02993994140625
STABILIZE,2.7950150966644287,29.868003532059134,0.0325346310933431,0.03265047073364258,0.0,0.0,0.0,5.729832888119003,-35.94825890373384,-115.35681342077288,0.0,0.0,0,0.0,-0.01942311572842202,0.05649460356437531,0.8173225078224109,-0.009640542987386503,0.20725871436297894,0.24931631051003933,1.608811877667904,-0.056743424035894094,5.3598567843437195,2.6613187044858932,22.989657521247864,0.0,0.0,0.0,0.0,0,0,0,0,True,0,2.894652843475342,0.034929931640625
STABILIZE,2.8285484313964844,29.823404769692402,0.03248718579610189,0.032677412033081055,0.0,0.0,0.0,5.720189941671414,-35.945048714823926,-115.30892013431274,0.0,0.0,0,0.0,-0.015819810909446966,0.05799562662218846,0.8180810049434084,-0.006872438472210021,0.15675053000450134,0.19368715584278107,1.6900347545742989,0.15733759635819564,1.2465309351682663,0.6775178015232086,22.625133395195007,0.0,0.0,0.0,0.0,0,0,0,0,True,1,2.923361301422119,0.034928955078125
STABILIZE,2.8620858192443848,29.818104263381272,0.03245690663655599,0.032611846923828125,0.0,0.0,0.0,5.721996526706882,-35.94497358274306,-115.29143485003752,0.0,0.0,0,0.0,-0.020428604219307506,0.053188660097885095,0.8109337201430583,-0.00640619279936003,-0.2498002490028739,-0.035222325823269784,1.5085279941558838,-0.09429232229697308,1.457996852695942,0.33798767253756523,20.71838080883026,0.0,0.0,0.0,0.0,0,0,0,0,True,0,2.981139659881592,0.034929931640625
STABILIZE,2.8954713344573975,29.951184678444424,0.032401355107625325,0.032523393630981445,0.0,0.0,0.0,5.725466689692072,-35.94576588468678,-115.27291137700844,0.0,0.0,0,0.0,-0.023970991557101372,0.05075100987137862,0.8095005867723728,-0.00794996936489185,-0.2498002490028739,-0.035222325823269784,1.5085279941558838,-0.09429232229697308,1.457996852695942,0.33798767253756523,20.71838080883026,0.0,0.0,0.0,0.0,0,0,0,0,True,0,3.009828805923462,0.034929931640625
STABILIZE,2.928921699523926,29.895253029223092,0.03246262868245443,0.03260159492492676,0.0,0.0,0.0,5.734241348341423,-35.94968982836495,-115.23981228029055,0.0,0.0,0,0.0,-0.021080706985676302,0.051221548437616476,0.8103696665596988,-0.0067608221369512105,0.12621802743524313,0.13394043780863285,1.6349220648407936,0.06433698689725494,2.102315053343773,2.501930110156536,22.683323919773102,0.0,0.0,0.0,0.0,0,0,0,0,True,0,3.0384559631347656,0.034929931640625
STABILIZE,2.9650156497955322,27.70803633360859,0.03246906598409017,0.03260922431945801,0.0,0.0,0.0,5.732256324613888,-35.948832639624115,-115.21777809002809,0.0,0.0,0,0.0,-0.02166068623240782,0.05237085083254511,0.810148713334903,-0.009967261752579039,-0.0769726641010493,0.17199369613081217,1.5636246651411057,-0.19302877654652373,3.2370563596487045,2.106328308582306,17.984232306480408,0.0,0.0,0.0,0.0,0,0,0,0,True,0,3.0673842430114746,0.03492919921875
STABILIZE,2.99580979347229,32.47018749903231,0.02983096440633138,0.02996659278869629,0.0,0.0,0.0,5.724176637712586,-35.9456019601467,-115.17209778485905,0.0,0.0,0,0.0,-0.022251212554861205,0.05354454207902617,0.8100391750225899,-0.013178722440863166,-0.0769726641010493,0.17199369613081217,1.5636246651411057,-0.19302877654652373,3.2370563596487045,2.106328308582306,17.984232306480408,0.0,0.0,0.0,0.0,0,0,0,0,True,0,3.0956978797912598,0.03492919921875
STABILIZE,3.0293989181518555,29.774076992425694,0.03249505360921224,0.03263235092163086,0.0,0.0,0.0,5.723151682450261,-35.94569758279508,-115.15357431182997,0.0,0.0,0,0.0,-0.02064939536309233,0.05273100025483533,0.8095836106718863,-0.014563594089683603,0.050967501010745764,0.05537664983421564,1.537611335515976,-0.08717900044152214,-1.1720259673893452,0.8041400462388992,24.606290459632874,0.0,0.0,0.0,0.0,0,0,0,0,True,0,3.12449312210083,0.064869873046875
STABILIZE,3.062889337539673,29.857160144932696,0.03235343297322591,0.0324704647064209,0.0,0.0,0.0,5.724784097661894,-35.94584101676765,-115.13384872550698,0.0,0.0,0,0.0,-0.025077701791636077,0.04941404578672474,0.8214310267815534,-0.017004049456663364,-0.14984748559072614,-0.0217010107007809,1.3327103108167648,-0.05303009564408146,0.9746751748025417,0.0248349504545331,16.279956698417664,0.0,0.0,0.0,0.0,0,0,0,0,True,0,3.1842470169067383,0.034929931640625
STABILIZE,3.0962531566619873,29.97365882243645,0.032315762837727864,0.03245258331298828,0.0,0.0,0.0,5.730122317385082,-35.94788665842407,-115.0972389115557,0.0,0.0,0,0.0,-0.023476105688355155,0.0485829361204421,0.8202626170614207,-0.017660078683927972,0.04253326915204525,0.06468282081186771,1.6114993020892143,-0.05447323991051111,3.819110244512558,0.180082768201828,18.66459548473358,0.0,0.0,0.0,0.0,0,0,0,0,True,0,3.212883234024048,0.02993994140625
STABILIZE,3.1296470165252686,29.94434211465696,0.032401116689046223,0.03251218795776367,0.0,0.0,0.0,5.729341541385585,-35.94779786596486,-115.0765570987489,0.0,0.0,0,0.0,-0.023344904637095782,0.04809579167531127,0.8122338289479782,-0.017655591635669272,-0.04428786342032254,0.09047071216627955,1.4238778501749039,-0.02905714551354163,-1.8988827243447304,-0.1459999126382172,15.383800864219666,0.0,0.0,0.0,0.0,0,0,0,0,True,0,3.241441011428833,0.03493017578125
STABILIZE,3.16386079788208,29.22635895506268,0.032447131474812825,0.03337574005126953,0.0,0.0,0.0,5.723888489106976,-35.94407882796179,-115.0340596617331,0.0,0.0,0,0.0,-0.021769476950959987,0.04812329410986189,0.8093335885491648,-0.0206600465435651,0.04324589972384274,0.10655673686414957,1.462417095899582,-0.18682925929682645,0.9338430128991604,0.4403769038617611,21.23449444770813,0.0,0.0,0.0,0.0,0,0,0,0,True,0,3.270021915435791,0.02993994140625
STABILIZE,3.19775390625,29.505976039563564,0.032491477330525716,0.03301048278808594,0.0,0.0,0.0,5.722215519647146,-35.94432471477191,-115.01187520730889,0.0,0.0,0,0.0,-0.02250700502723627,0.047740614291080334,0.8039418695562452,-0.01346030598441028,-0.09107327787205577,0.09218817576766014,1.5192984603345394,0.3724617947458726,2.132854424417019,0.632886216044426,22.689493000507355,0.0,0.0,0.0,0.0,0,0,0,0,True,0,3.2990801334381104,0.034928955078125
STABILIZE,3.2321383953094482,29.08288089641448,0.03233841260274251,0.033446311950683594,0.0,0.0,0.0,5.725028703811545,-35.945048714823926,-114.99400743244014,0.0,0.0,0,0.0,-0.02336015549477089,0.047586539816168213,0.8028776426067092,-0.006428000158805032,-0.09107327787205577,0.09218817576766014,1.5192984603345394,0.3724617947458726,2.132854424417019,0.632886216044426,22.689493000507355,0.0,0.0,0.0,0.0,0,0,0,0,True,0,3.3275442123413086,0.034928955078125
STABILIZE,3.2655889987945557,29.8978102189781,0.03248146375020345,0.032605648040771484,0.0,0.0,0.0,5.730186350408551,-35.947487092357626,-114.95801233551417,0.0,0.0,0,0.0,-0.021502440303459856,0.04843310729180663,0.8227655877791427,-0.008689725100641608,0.006747103179804981,0.09272003662772477,1.5639374032616615,-0.005953763841709044,0.1830965280532837,1.3590575195848942,12.008604407310486,0.0,0.0,0.0,0.0,0,0,0,0,True,0,3.385098695755005,0.034929931640625
STABILIZE,3.2990529537200928,29.879919072179636,0.032460959752400716,0.03259444236755371,0.0,0.0,0.0,5.731160933025747,-35.94795154522119,-114.9378496170843,0.0,0.0,0,0.0,-0.022758718550581748,0.04848073324514729,0.8170903724647214,-0.006982464283069837,-0.11258560698479414,0.10637615341693163,1.3919425196945667,0.06726238226517653,-2.8649216517806053,-0.025809009093791246,17.981472611427307,0.0,0.0,0.0,0.0,0,0,0,0,True,0,3.4134364128112793,0.034929931640625
STABILIZE,3.3325202465057373,29.882686539516527,0.03246477444966634,0.03258204460144043,0.0,0.0,0.0,5.728255968194376,-35.94636011114457,-114.8958712744454,0.0,0.0,0,0.0,-0.02695919332022757,0.04711383840675081,0.8131788127911546,-0.005770054831600051,-0.26805594097822905,0.029999451362527907,1.4657131396234035,0.04233294885173037,-1.8931865692138672,-0.9323338977992535,28.80059778690338,0.0,0.0,0.0,0.0,0,0,0,0,True,0,3.442319393157959,0.029939208984375
STABILIZE,3.366443157196045,29.476116518500298,0.032421143849690755,0.0329892635345459,0.0,0.0,0.0,5.7253142910962165,-35.944864299716336,-114.87383708418294,0.0,0.0,0,0.0,-0.03090294798600048,0.045609221123996735,0.8058858618918707,-0.004624398678825361,-0.26805594097822905,0.029999451362527907,1.4657131396234035,0.04233294885173037,-1.8931865692138672,-0.9323338977992535,28.80059778690338,0.0,0.0,0.0,0.0,0,0,0,0,True,0,3.4710536003112793,0.029939208984375
STABILIZE,3.4030511379241943,27.318938846226494,0.032405885060628255,0.03567624092102051,0.0,0.0,0.0,5.725684401971867,-35.94476526197337,-114.83672183623308,0.0,0.0,0,0.0,-0.032777912111381605,0.04507577219067882,0.8001290518376782,-0.002137353426244189,-0.16099660424515605,0.07896633469499648,1.5108629129827023,0.11875727283137862,0.3362865187227726,0.09794431971386075,19.01683360338211,0.0,0.0,0.0,0.0,0,0,0,0,True,0,3.499795436859131,0.034929931640625
STABILIZE,3.4364113807678223,29.97344462389412,0.032381327946980794,0.03249692916870117,0.0,0.0,0.0,5.727452567193254,-35.94618252622615,-114.81700991028843,0.0,0.0,0,0.0,-0.028141727472801102,0.04431518243666925,0.8039578143817985,-0.0013844279231102913,0.08741815108805895,0.07007679087109864,1.5850026160478592,0.00038431153262561004,1.3149622827768326,0.4019117448478937,21.49909883737564,0.0,0.0,0.0,0.0,0,0,0,0,True,0,3.5569839477539062,0.039919921875
STABILIZE,3.4697906970977783,29.955890755342246,0.032464059193929036,0.032585859298706055,0.0,0.0,0.0,5.72923695411392,-35.94647963945505,-114.79903285239295,0.0,0.0,0,0.0,-0.03126917518998823,0.04736891061818903,0.8092743008554169,-0.001306802859733911,-0.20952618215233088,0.25060130283236504,1.6753124073147774,-0.014591084995932297,-2.234114706516266,0.5618919152766466,23.33284765481949,0.0,0.0,0.0,0.0,0,0,0,0,True,0,3.5856802463531494,0.059880126953125
STABILIZE,3.503638505935669,29.547131797144125,0.03251460393269857,0.03263592720031738,0.0,0.0,0.0,5.730260201828952,-35.9464898847388,-114.77892477547644,0.0,0.0,0,0.0,-0.030162662099488792,0.048019363437761274,0.8274965533932546,-0.0025594718545316805,0.05823317915201187,0.07149584125727415,1.565207913517952,-0.09079824030947521,0.9551060386002064,-1.3589514419436455,23.041823506355286,0.0,0.0,0.0,0.0,0,0,0,0,True,0,3.614285945892334,0.034929931640625
STABILIZE,3.536803960800171,30.150338214257474,0.032123835881551106,0.032280921936035156,0.0,0.0,0.0,5.728628213504142,-35.94627131868536,-114.73887254618349,0.0,0.0,0,0.0,-0.029771051615630068,0.0487743258852925,0.8231707806097198,-0.0037224571677600404,-0.03786683373618871,0.1391437486745417,1.4877735637128353,-0.07036009983740209,-2.7184665203094482,2.3267680779099464,20.070378482341766,0.0,0.0,0.0,0.0,0,0,0,0,True,0,3.643111228942871,0.034929931640625
STABILIZE,3.5702619552612305,29.890992018244013,0.0324435551961263,0.03255748748779297,0.0,0.0,0.0,5.726209899651135,-35.944167620421,-114.6976865054883,0.0,0.0,0,0.0,-0.030406887079248174,0.0473770815100394,0.8164092596974033,-0.0008448567308496813,-0.09074900299310684,0.02696291485335678,1.3423566706478596,0.13902411162545927,-3.7325169891119003,-1.795470342040062,18.11840981245041,0.0,0.0,0.0,0.0,0,0,0,0,True,0,3.6726911067962646,0.02993896484375
STABILIZE,3.6037251949310303,29.881196301098555,0.03241542180379232,0.03254389762878418,0.0,0.0,0.0,5.726763571860729,-35.944925771418866,-114.67718227759993,0.0,0.0,0,0.0,-0.030859868395118867,0.0458159341110043,0.806288344846443,0.001911126745661372,-0.09074900299310684,0.02696291485335678,1.3423566706478596,0.13902411162545927,-3.7325169891119003,-1.795470342040062,18.11840981245041,0.0,0.0,0.0,0.0,0,0,0,0,True,0,3.7016501426696777,0.02993896484375
STABILIZE,3.6371500492095947,29.917643282570705,0.03238871892293294,0.03252124786376953,0.0,0.0,0.0,5.7283878762227225,-35.94568392241674,-114.66021608770161,0.0,0.0,0,0.0,-0.03051674618909458,0.047222512365228474,0.8011520026714206,0.005039289911616279,-0.12641948414966464,0.17057412769645452,1.489220466464758,0.10505404572648186,-1.6565386205911636,0.40466561913490295,20.233364403247833,0.0,0.0,0.0,0.0,0,0,0,0,True,0,3.758903980255127,0.02993994140625
STABILIZE,3.670687437057495,29.818104263381272,0.03243425687154134,0.03261828422546387,0.0,0.0,0.0,5.730316124002782,-35.94853552639522,-114.61882514133134,0.0,0.0,0,0.0,-0.026983177095178026,0.04892091757770842,0.7981832676268293,0.0007175724939539087,0.13094816822558641,0.20024275872856379,1.643620803952217,-0.2402580138728545,0.7790091913193464,0.5678611341863871,21.893039345741272,0.0,0.0,0.0,0.0,0,0,0,0,True,0,3.7892158031463623,0.034929931640625
STABILIZE,3.704226493835449,29.81640849926424,0.03240326245625814,0.0326685905456543,0.0,0.0,0.0,5.730620921194493,-35.94896241321835,-114.59994649846543,0.0,0.0,0,0.0,-0.027955119325583647,0.05145908042186888,0.8020310947900968,0.002625935794019824,-0.10920545319095254,0.23271823301911354,1.7799228429794312,0.10103790783472759,-4.995149374008179,0.17360202036798,17.621546983718872,0.0,0.0,0.0,0.0,0,0,0,0,True,0,3.8178904056549072,0.039920166015625
STABILIZE,3.737544536590576,30.01204974455114,0.032451661427815755,0.03255629539489746,0.0,0.0,0.0,5.728538994158109,-35.947814941437784,-114.55904732571538,0.0,0.0,0,0.0,-0.028881446482521392,0.05395425337739969,0.8044407781960254,0.0005666890270002393,-0.09816329693421721,0.21259018685668707,1.476539671421051,-0.12173919735283131,2.2889751940965652,0.0012930540833622217,15.134775638580322,0.0,0.0,0.0,0.0,0,0,0,0,True,0,3.8476057052612305,0.02993994140625
STABILIZE,3.771145820617676,29.76203451407811,0.03256729443868001,0.03269338607788086,0.0,0.0,0.0,5.725639151968616,-35.947603205573515,-114.53637109767094,0.0,0.0,0,0.0,-0.029500582516755053,0.055749207475515476,0.7987472063540973,-0.00157055688604973,-0.09816329693421721,0.21259018685668707,1.476539671421051,-0.12173919735283131,2.2889751940965652,0.0012930540833622217,15.134775638580322,0.0,0.0,0.0,0.0,0,0,0,0,True,0,3.876145362854004,0.02993994140625
STABILIZE,3.808903217315674,26.4935760577081,0.032404216130574544,0.03642678260803223,0.0,0.0,0.0,5.725869670853103,-35.94810522447751,-114.51600347356596,0.0,0.0,0,0.0,-0.029586342241479748,0.05517547230148047,0.795743653723904,-0.00047843739654375287,-0.06799456314183772,0.07933647138997912,1.5980193391442299,0.05922994639910931,-0.21678279154002666,0.6765743251889944,23.384591937065125,0.0,0.0,0.0,0.0,0,0,0,0,True,1,3.905047655105591,0.02993896484375
STABILIZE,3.8420217037200928,30.18679333549246,0.031985076268514,0.03211092948913574,0.0,0.0,0.0,5.72883013097148,-35.94890777170499,-114.47786369724061,0.0,0.0,0,0.0,-0.027259513278568123,0.05742566923664884,0.7914071966077803,0.003102417792437172,0.04941989900544286,0.22251999471336603,1.634250394999981,0.1605008277175578,-1.7674650996923447,2.4096593260765076,20.918937027454376,0.0,0.0,0.0,0.0,0,0,0,0,True,0,3.962209701538086,0.03493017578125
STABILIZE,3.87530255317688,30.043220709266595,0.03229788144429525,0.0324864387512207,0.0,0.0,0.0,5.72904997768539,-35.949727394405386,-114.46011886577692,0.0,0.0,0,0.0,-0.024289026863964107,0.060190456698798606,0.7889834869046053,0.004753139335758162,0.11890827445313334,0.2516408683732152,1.3520088978111744,0.09247109637749282,7.030203938484192,2.1607913076877594,17.822225391864777,0.0,0.0,0.0,0.0,0,0,0,0,True,0,3.991196393966675,0.029940185546875
STABILIZE,3.90879487991333,29.8582228739838,0.03255489667256673,0.032674551010131836,0.0,0.0,0.0,5.728964173433942,-35.94968299817578,-114.41835225900229,0.0,0.0,0,0.0,-0.028926542831850494,0.060544854018802066,0.7860842246883418,0.0043391046729639345,-0.3312168177217245,0.1363424933515489,1.547947060316801,-0.022455340793901178,-1.7884783446788788,0.7136049680411816,24.749185144901276,0.0,0.0,0.0,0.0,0,0,0,0,True,0,4.020772933959961,0.034929931640625
STABILIZE,3.9425320625305176,29.640886476707372,0.03246191342671712,0.032601118087768555,0.0,0.0,0.0,5.728016057799779,-35.94864480942194,-114.39833980473415,0.0,0.0,0,0.0,-0.02926489762807455,0.06006183905401437,0.7864610850245556,0.004512351358896326,-0.0707149738445878,0.06363483844324946,1.4899351634085178,0.008380535389899864,-8.337549865245819,0.1644509262405336,19.037948548793793,0.0,0.0,0.0,0.0,0,0,0,0,True,0,4.048205137252808,0.0349296875
STABILIZE,3.9760043621063232,29.875662430907745,0.03222158749898275,0.03238034248352051,0.0,0.0,0.0,5.725725383106886,-35.94850820563854,-114.37720719944214,0.0,0.0,0,0.0,-0.029598723005420987,0.05953099072788363,0.7868213989421078,0.004666785583577367,-0.0707149738445878,0.06363483844324946,1.4899351634085178,0.008380535389899864,-8.337549865245819,0.1644509262405336,19.037948548793793,0.0,0.0,0.0,0.0,0,0,0,0,True,0,4.077143430709839,0.0349296875
STABILIZE,4.0092244148254395,30.104244721014023,0.032231839497884114,0.032372474670410156,0.0,0.0,0.0,5.7268655978114555,-35.94866871508403,-114.34048810246415,0.0,0.0,0,0.0,-0.029499674668015216,0.06029097908229859,0.7880150611997777,0.004702767128609911,-0.04568598233163357,0.14157696859911084,1.5395923517644405,0.0024672190746819886,1.2447459623217583,0.26283087208867073,19.286413490772247,0.0,0.0,0.0,0.0,0,0,0,0,True,0,4.105687141418457,0.0299404296875
STABILIZE,4.042689561843872,29.880983422029395,0.0324588139851888,0.0325775146484375,0.0,0.0,0.0,5.728562899820203,-35.94956346986531,-114.32014096892668,0.0,0.0,0,0.0,-0.02714613237714198,0.06551820523700827,0.7891310709196925,0.0046602813507860864,-0.10583418188616633,0.309644965454936,1.652553305029869,-0.007250806092923888,-5.636633560061455,2.2109413519501686,19.338342547416687,0.0,0.0,0.0,0.0,0,0,0,0,True,0,4.163003206253052,0.034929931640625
STABILIZE,4.076184988021851,29.855247423267468,0.03243115743001302,0.03255653381347656,0.0,0.0,0.0,5.729864477743915,-35.94880873396202,-114.28129085292764,0.0,0.0,0,0.0,-0.02813927965473089,0.06826367370862264,0.792182514724941,0.0051394128929183585,-0.11049993336200714,0.2597752492874861,1.6287602484226227,0.0309376620106901,-4.066378623247147,0.8374844677746296,25.748363137245178,0.0,0.0,0.0,0.0,0,0,0,0,True,0,4.19177770614624,0.029972412109375
STABILIZE,4.109646320343018,29.88247363921345,0.03237894376118978,0.03264975547790527,0.0,0.0,0.0,5.728710175774182,-35.948559432057316,-114.26261711573683,0.0,0.0,0,0.0,-0.028158353410114637,0.06803108659714546,0.7855537809937803,0.00571752362183494,-0.060810468858107924,0.11257290607318282,1.2879549525678158,0.04085040093049423,-4.643696546554565,-0.00990433618426323,16.867445409297943,0.0,0.0,0.0,0.0,0,0,0,0,True,0,4.220462322235107,0.03493017578125
STABILIZE,4.143068313598633,29.91913715867264,0.03253224690755208,0.0326383113861084,0.0,0.0,0.0,5.728657668694938,-35.94854577167897,-114.24220851049684,0.0,0.0,0,0.0,-0.022572951267368545,0.06905145571740837,0.7854989496232033,0.0098627514610057,0.28153201565146446,0.16063464572653174,1.4292827807366848,0.24978332632024552,3.820398822426796,0.5189806688576937,21.83852344751358,0.0,0.0,0.0,0.0,0,0,0,0,True,0,4.249034404754639,0.034929931640625
STABILIZE,4.177536249160767,29.014679229098356,0.03254679044087728,0.033570051193237305,0.0,0.0,0.0,5.728284142724703,-35.949239035879735,-114.20192405477209,0.0,0.0,0,0.0,-0.020099647999183942,0.07002022563316015,0.7868659112093119,0.007612602703159549,0.09309357847087085,0.1602899981662631,1.518639363348484,-0.13116417805657454,0.12864060699939728,0.07231131894513965,16.95121079683304,0.0,0.0,0.0,0.0,0,0,0,0,True,0,4.277794361114502,0.0349287109375
STABILIZE,4.211530923843384,29.415340594295493,0.03240540822347005,0.03276395797729492,0.0,0.0,0.0,5.7294717418666385,-35.949447356649415,-114.18170669482886,0.0,0.0,0,0.0,-0.01984099696014418,0.07125967526820001,0.7895879269924134,0.009152017755929323,-0.03802568535320461,0.17893899930641055,1.6023196280002594,0.09625874976727562,-0.8790730498731136,2.3624949157238007,20.53188979625702,0.0,0.0,0.0,0.0,0,0,0,0,True,0,4.306438446044922,0.03493017578125
STABILIZE,4.2445971965789795,30.242513825898232,0.03210285504659017,0.03224682807922363,0.0,0.0,0.0,5.7313662655876705,-35.95059824352457,-114.16468586341719,0.0,0.0,0,0.0,-0.020197111075249703,0.07200303578854622,0.7892893452457294,0.011842559802048062,-0.08427361608482897,0.08403841056860983,1.272869948297739,0.07419024847640575,1.052892953157425,0.4513026215136051,21.35665863752365,0.0,0.0,0.0,0.0,0,0,0,0,True,0,4.363868713378906,0.02993994140625
STABILIZE,4.278105020523071,29.844413294530344,0.032497676213582356,0.032625675201416016,0.0,0.0,0.0,5.731743206652491,-35.95094999826682,-114.12352031328952,0.0,0.0,0,0.0,-0.019998477500711008,0.07218600407887761,0.7890710429664636,0.011670019242216457,-0.03912838874384761,0.15065668849274516,1.6679385676980019,0.0045256940162210265,-1.4049566350877285,0.4401965532451868,21.042141318321228,0.0,0.0,0.0,0.0,0,0,0,0,True,0,4.3925275802612305,0.034929931640625
STABILIZE,4.311509847640991,29.935365992919948,0.032436641057332356,0.032566070556640625,0.0,0.0,0.0,5.729946013127131,-35.9505675076733,-114.10352151939972,0.0,0.0,0,0.0,-0.021721607306405346,0.07244672731587223,0.7916661365455298,0.010855128002976012,-0.14880591770634055,0.12893348466604948,1.58579982817173,-0.039841280501264516,-6.359317898750305,0.26165395975112915,18.892885744571686,0.0,0.0,0.0,0.0,0,0,0,0,True,0,4.421234846115112,0.03493017578125
STABILIZE,4.345402956008911,29.503900507171448,0.032485278447469075,0.03304457664489746,0.0,0.0,0.0,5.728819458800903,-35.95101830015852,-114.06363321464686,0.0,0.0,0,0.0,-0.023483050742974007,0.07266446034975221,0.7941864697645317,0.010003102271554218,-0.14880591770634055,0.12893348466604948,1.58579982817173,-0.039841280501264516,-6.359317898750305,0.26165395975112915,18.892885744571686,0.0,0.0,0.0,0.0,0,0,0,0,True,0,4.449878215789795,0.03493017578125
STABILIZE,4.378928184509277,29.83019216818628,0.03247550328572591,0.03259444236755371,0.0,0.0,0.0,5.730170555596096,-35.951363224711606,-114.04396226983721,0.0,0.0,0,0.0,-0.02492183311124178,0.0727051065726307,0.7956746401956175,0.010678482900445216,-0.12819352559745312,0.12082325993105769,1.5295983292162418,0.05187169155878333,-0.2860095351934433,0.26266048662364483,18.892616033554077,0.0,0.0,0.0,0.0,0,0,0,0,True,0,4.478857040405273,0.02993994140625
