Mode,Time,Freq,time2delay,actualDelay,North-Desired,East-Desired,Down-Desired,Roll-UAV,Pitch-UAV,Yaw-UAV,Roll-Control,Pitch-Control,Yaw-Control,Thrust-Control,North-Pos,East-Pos,Down-Pos,Yaw-Ang,North-Vel,East-Vel,Down-Vel,Yaw-Vel,North-Acc,East-Acc,Down-Acc,North-Raw,East-Raw,Down-Raw,Yaw-Raw,North-Dif,East-Dif,Down-Dif,Yaw-Dif,Landing-State,Q-Size,Kalman-Time,Kalman-Dt
STABILIZE,0.03433346748352051,29.1366209804589,0.03331044514973958,0.03343343734741211,0.0,0.0,0.0,4.818207539597402,-35.22748270100073,162.60554858930652,-0.037081686029816235,0.054680625287283645,0.014559131615644438,0.4,0.029266091982091742,0.0298152785602461,0.03377103346404699,0.029118263231288875,-0.13562255771830678,0.10440896730870008,1.884920708835125,-0.1306616789049026,-4.146739095449448,-0.7165420800447464,19.49828267097473,0.0,0.0,0.0,0.0,0,0,0,0,False,0,0.05855131149291992,0.03492578125
STABILIZE,0.0677032470703125,29.96573551475316,0.032334359486897786,0.03247213363647461,0.0,0.0,0.0,4.817704240032936,-35.22757832364911,162.63553311976287,-0.033329797361282595,0.048793417151131405,0.026583621050574067,0.4,0.05407918901596846,0.05533503611189446,0.06667393822488113,0.053167242101148135,0.01473341544624418,0.10478798067197204,1.7493607476353645,-0.2639400406334341,-2.131160721182823,-0.385799421928823,23.419347405433655,0.0,0.0,0.0,0.0,0,0,0,0,False,0,0.087127685546875,0.029937255859375
STABILIZE,0.10111403465270996,29.92938490081347,0.03245976765950521,0.0325927734375,0.0,0.0,0.0,4.817486954639965,-35.2270797198397,162.65005410193834,-0.04459363756360478,0.06411501077970627,0.04192055304134916,0.4,0.08599900151349363,0.08879603643272996,0.12129504907293982,0.08384110608269832,-0.0005185720510780811,0.09454727987758815,1.8604585900902748,0.12551056901237584,1.961061917245388,1.6885904595255852,26.51880979537964,0.0,0.0,0.0,0.0,0,0,0,0,False,0,0.1453838348388672,0.0349267578125
STABILIZE,0.1345045566558838,29.947549177108993,0.032505067189534505,0.032628774642944336,0.0,0.0,0.0,4.818304442906251,-35.226314738652654,162.68143199098537,-0.026059008051087303,0.03829417452202152,0.049189968472289146,0.4,0.10277637323329189,0.10606408271733225,0.1547033011464117,0.09837993694457829,0.15135572757571936,0.1340619521215558,1.9528033211827278,-0.20661607719851538,-0.3135981038212776,1.7644796520471573,26.903751492500305,0.0,0.0,0.0,0.0,0,0,0,0,False,0,0.17401409149169922,0.06489111328125
STABILIZE,0.16796588897705078,29.88609335698966,0.03256657918294271,0.032685041427612305,0.0,0.0,0.0,4.81771448531669,-35.22627717261222,162.69592565240413,-0.05070129041381655,0.07002524012715321,0.06572929986743048,0.4,0.13579251575867454,0.14231315231663036,0.2217985949013207,0.13145859973486096,-0.12958708684891462,0.15947003848850727,1.8648631870746613,0.12044531673215024,1.815590262413025,-0.11242893524467945,26.14181637763977,0.0,0.0,0.0,0.0,0,0,0,0,False,0,0.20674753189086914,0.03492626953125
STABILIZE,0.20153379440307617,29.793322915186817,0.032541783650716145,0.03267693519592285,0.0,0.0,0.0,4.817317480571184,-35.226198625436766,162.7123317667905,-0.019587943973179627,0.03040547867009738,0.06940115189591498,0.4,0.14623357509750798,0.1522093405101837,0.25256893801687064,0.13880230379182995,0.21299708168953657,0.07194128702394664,1.7724158242344856,-0.13772921714857328,0.07281552534550428,-0.2413161564618349,26.96552276611328,0.0,0.0,0.0,0.0,0,0,0,0,False,0,0.23547029495239258,0.029936767578125
STABILIZE,0.2350008487701416,29.87693929594119,0.0311923344930013,0.03134918212890625,0.0,0.0,0.0,4.81600181538231,-35.22603470089669,162.74295833502885,-0.015252522188599541,0.01846492817593542,0.07086230644645203,0.4,0.149842087420348,0.1582321650922772,0.2799652766453396,0.14172461289290406,-0.04965079133398831,0.1972742611542344,2.0736368373036385,-0.08978396388783492,-4.5391276478767395,2.1462298929691315,30.949300527572632,0.0,0.0,0.0,0.0,0,0,0,0,False,0,0.26415061950683594,0.034926025390625
STABILIZE,0.2683258056640625,30.006681976548695,0.03242448170979818,0.03256964683532715,0.0,0.0,0.0,4.815013572386774,-35.22505456875079,162.75899561920002,-0.018131889960170917,0.021634477944322706,0.07300927651775084,0.4,0.15498395473937934,0.1662938522637617,0.3139551464889689,0.14601855303550168,-0.04965079133398831,0.1972742611542344,2.0736368373036385,-0.08978396388783492,-4.5391276478767395,2.1462298929691315,30.949300527572632,0.0,0.0,0.0,0.0,0,0,0,0,False,0,0.29297542572021484,0.034926025390625
STABILIZE,0.3018317222595215,29.846749402254353,0.03257730801900228,0.03276467323303223,0.0,0.0,0.0,4.81434378696129,-35.225276549898815,162.7908652818673,-0.016369010097361518,0.022406069632540826,0.07445185007833513,0.4,0.16031785168301627,0.1726050328212116,0.34758866224113666,0.14890370015667026,0.11755850864574313,0.15262498054653406,2.0305708050727844,-0.07826575031700095,-0.054096151143312454,-0.11427460703998804,27.22523808479309,0.0,0.0,0.0,0.0,0,0,0,0,False,0,0.32145023345947266,0.03492724609375
STABILIZE,0.33541107177734375,29.782533675114145,0.03257301648457845,0.032700300216674805,0.0,0.0,0.0,4.814232369500454,-35.22466866306269,162.80482618853082,-0.01831969950267832,0.02018217051624149,0.07741970184914865,0.4,0.16423011655048064,0.18020796647701098,0.4074761274368576,0.1548394036982973,-0.02893552591558546,0.0888651586137712,1.8507890403270721,0.014315579577404182,-4.684923589229584,-0.3494400763884187,26.385965943336487,0.0,0.0,0.0,0.0,0,0,0,0,False,0,0.3794896602630615,0.029937255859375
STABILIZE,0.3688926696777344,29.865451438336656,0.0324275811513265,0.032594919204711914,0.0,0.0,0.0,4.813159602913939,-35.224532059279284,162.8210956991338,-0.010379147454237613,0.015622362227951972,0.07950806318079301,0.4,0.16552486401189323,0.18111918181803907,0.4332243557176866,0.15901612636158602,0.20882920362055302,0.1662891241721809,2.0281869918107986,0.44152901447858534,3.8888245820999146,1.6102379187941551,24.93624985218048,0.0,0.0,0.0,0.0,0,0,0,0,False,0,0.4081540107727051,0.039916015625
STABILIZE,0.4022030830383301,30.01935299169768,0.0324435551961263,0.03254890441894531,0.0,0.0,0.0,4.812590135891889,-35.22449107814426,162.8508889842934,-0.015489828145520943,0.01830106181114375,0.08075114295694165,0.4,0.16819013737886152,0.18606108420296044,0.4693688672431449,0.1615022859138833,0.03543249913491309,0.17010460142046213,1.8169842660427094,0.0187853947754887,0.12476630508899689,1.8361160531640053,29.453441500663757,0.0,0.0,0.0,0.0,0,0,0,0,False,0,0.4371323585510254,0.029935791015625
STABILIZE,0.43575429916381836,29.806026151222284,0.03256276448567708,0.03270149230957031,0.0,0.0,0.0,4.812254175962089,-35.224012964902364,162.86680332505952,-0.009236282339713842,0.009753141862994504,0.0797080050500687,0.4,0.16616663403607998,0.18579160180940008,0.49094056125862,0.1594160101001374,0.03543249913491309,0.17010460142046213,1.8169842660427094,0.0187853947754887,0.12476630508899689,1.8361160531640053,29.453441500663757,0.0,0.0,0.0,0.0,0,0,0,0,False,0,0.46567630767822266,0.029935791015625
STABILIZE,0.469576358795166,29.567752759879877,0.03246811230977376,0.032978057861328125,0.0,0.0,0.0,4.812946159502376,-35.224327153604186,162.89599555357213,-0.00920175844201629,0.003203557173846296,0.07882169069087329,0.4,0.16067265050966376,0.18549691528452808,0.5158755726107881,0.15764338138174658,-0.20275351125746965,0.1867593382485211,2.100059948861599,0.061270758898341514,-4.106656461954117,-0.043940008617937565,30.17539083957672,0.0,0.0,0.0,0.0,0,0,0,0,False,0,0.49495434761047363,0.034927001953125
STABILIZE,0.50296950340271,29.944769683296684,0.0324743111928304,0.03260040283203125,0.0,0.0,0.0,4.812279789171476,-35.22381488941643,162.91192355471662,-0.011250158273650114,0.00468119631565005,0.07857604264304348,0.4,0.1562566439874769,0.18683780500533514,0.5472797071919294,0.15715208528608696,-0.20275351125746965,0.1867593382485211,2.100059948861599,0.061270758898341514,-4.106656461954117,-0.043940008617937565,30.17539083957672,0.0,0.0,0.0,0.0,0,0,0,0,False,0,0.5239288806915283,0.034927001953125
STABILIZE,0.5364782810211182,29.843563891478052,0.03253916104634603,0.0326685905456543,0.0,0.0,0.0,4.813509223222079,-35.22399930452402,162.92593910289347,-0.017657613853021926,0.02374727482638724,0.0797643527743787,0.4,0.16221055309687502,0.1932075950891961,0.6393007952604757,0.1595287055487574,-0.0467214995296672,0.06733590853400528,1.930760033428669,-0.08695928712974459,-0.9062551893293858,-0.25540345814079046,29.146209359169006,0.0,0.0,0.0,0.0,0,0,0,0,False,0,0.5812473297119141,0.02993701171875
STABILIZE,0.5698888301849365,29.932161539175176,0.03247860272725423,0.03258657455444336,0.0,0.0,0.0,4.81250433164044,-35.22374658752473,162.95524061443282,-0.0041432191039467315,0.0020516144693512824,0.07656321589852806,0.4,0.15630650946204327,0.1885024753214624,0.6556924095714373,0.15312643179705612,-0.0467214995296672,0.06733590853400528,1.930760033428669,-0.08695928712974459,-0.9062551893293858,-0.25540345814079046,29.146209359169006,0.0,0.0,0.0,0.0,0,0,0,0,False,0,0.6098003387451172,0.02993701171875
STABILIZE,0.6033260822296143,29.90505796626121,0.03249243100484212,0.032631635665893555,0.0,0.0,0.0,4.812641789197487,-35.22298502143228,162.97133254011737,-0.005370141495795433,-0.0003325485726030567,0.07362360389669428,0.4,0.14937363794891442,0.1849528256638508,0.6699362236061687,0.14724720779338857,-0.1146993599832058,0.13658691896125674,1.8186425790190697,-0.05791928379019411,-1.4561326242983341,1.2135804630815983,21.211957931518555,0.0,0.0,0.0,0.0,0,0,0,0,False,0,0.6384809017181396,0.034926025390625
STABILIZE,0.6368298530578613,29.847598986649967,0.032514365514119466,0.032648563385009766,0.0,0.0,0.0,4.814433860080969,-35.22393100263232,163.00066137241342,-0.006663784633718347,0.005905861910568403,0.07318736022715731,0.4,0.14606343997370438,0.18255197380391652,0.689493025130886,0.14637472045431463,0.05420586676336825,0.12848685728386045,1.757296361029148,0.19437200261591547,-1.7585992813110352,1.671178825199604,27.71303355693817,0.0,0.0,0.0,0.0,0,0,0,0,False,0,0.6674532890319824,0.06494775390625
STABILIZE,0.670264482498169,29.909536271776258,0.032470019658406575,0.03258919715881348,0.0,0.0,0.0,4.8137606595608995,-35.22373292714639,163.01664401507125,-0.015245591150827256,0.013220041523973094,0.07453968580749451,0.4,0.1468050822231322,0.18710020079473963,0.7480248060532151,0.14907937161498902,0.03545956569723785,0.14746058732271194,1.7873603850603104,0.11702389888607632,-0.15956545248627663,-0.539642944931984,24.045386910438538,0.0,0.0,0.0,0.0,0,0,0,0,False,0,0.6961050033569336,0.034926025390625
STABILIZE,0.7036643028259277,29.938784833257195,0.032471688588460286,0.032605886459350586,0.0,0.0,0.0,4.813633447287608,-35.223275304472004,163.0298672613044,-0.005450738097850296,0.003154039687318626,0.07300622414671043,0.4,0.14212436885906027,0.18360564524377185,0.7624379576742366,0.14601244829342086,0.03545956569723785,0.14746058732271194,1.7873603850603104,0.11702389888607632,-0.15956545248627663,-0.539642944931984,24.045386910438538,0.0,0.0,0.0,0.0,0,0,0,0,False,0,0.724618673324585,0.034926025390625
STABILIZE,0.7371420860290527,29.87289626437805,0.032537015279134114,0.03264331817626953,0.0,0.0,0.0,4.8123386995530675,-35.22248983271745,163.06224235797026,-0.00044059567786094875,-0.0008928807930843863,0.06574034401086129,0.4,0.1354794874388191,0.17622743189684137,0.7923863046575791,0.13148068802172258,0.11914202477782965,0.15302459942176938,1.8028553575277328,-0.29728038176723487,2.4608971551060677,1.4620019122958183,23.541609942913055,0.0,0.0,0.0,0.0,0,0,0,0,False,0,0.7831153869628906,0.029937255859375
STABILIZE,0.7705557346343994,29.92596820685522,0.03246596654256185,0.03258800506591797,0.0,0.0,0.0,4.812459081637189,-35.22167704020622,163.0765994156056,-0.0035384035789276036,0.0013360570426548678,0.06404289324325727,0.4,0.13029869152271079,0.17160036817698412,0.7920424291570055,0.12808578648651453,0.027980044251307845,0.13309736968949437,1.4429631642997265,0.1233765217629303,4.919056594371796,0.9475058875977993,16.329701244831085,0.0,0.0,0.0,0.0,0,0,0,0,False,0,0.813194751739502,0.03492578125
STABILIZE,0.8041603565216064,29.75717802640634,0.032511266072591145,0.03284502029418945,0.0,0.0,0.0,4.811310756082981,-35.22270156858172,163.10714402157393,-0.003446975523831858,0.0037167312553722876,0.06258821780006191,0.4,0.12658388937991819,0.16703742631349122,0.8029176431553147,0.12517643560012381,0.0721465446986258,0.08123080478981137,1.7233476042747498,0.11511744901442296,-1.1971328407526016,-0.6644975859671831,21.781598031520844,0.0,0.0,0.0,0.0,0,0,0,0,False,0,0.8418018817901611,0.034927001953125
STABILIZE,0.8377807140350342,29.74514921139226,0.03257253964742025,0.03271818161010742,0.0,0.0,0.0,4.810909055582419,-35.221823889273374,163.12274417363824,-0.004630812323389023,-0.0007093073646459593,0.06125400704590081,0.4,0.12068005638183278,0.16362218319662994,0.8115010955825187,0.12250801409180162,-0.05315376911312342,0.14411184238269925,1.6359629109501839,0.12432992012152888,-0.9954905137419701,1.1778769083321095,18.853315711021423,0.0,0.0,0.0,0.0,0,0,0,0,False,0,0.8705172538757324,0.02993701171875
STABILIZE,0.8711116313934326,30.001745325531825,0.03240683873494466,0.032529592514038086,0.0,0.0,0.0,4.811460593357898,-35.22162239869286,163.1382623634325,-0.0053638577154617876,0.007750443661847361,0.05889743184213833,0.4,0.11954372202581118,0.16090404411031325,0.8157423262614855,0.11779486368427666,0.22968624252825975,0.21901119034737349,1.764955185353756,0.027151082508071724,4.055440053343773,1.7073346301913261,25.35325586795807,0.0,0.0,0.0,0.0,0,0,0,0,False,0,0.8991243839263916,0.034926025390625
STABILIZE,0.9046299457550049,29.8371949094065,0.03252914746602376,0.032656192779541016,0.0,0.0,0.0,4.811317586272151,-35.22015049292672,163.168533761834,-0.00629210281523144,0.008644808146575672,0.05680936157230413,0.4,0.1189295203031919,0.159021513235531,0.8258861781668501,0.11361872314460826,0.22968624252825975,0.21901119034737349,1.764955185353756,0.027151082508071724,4.055440053343773,1.7073346301913261,25.35325586795807,0.0,0.0,0.0,0.0,0,0,0,0,False,0,0.92777419090271,0.034926025390625
STABILIZE,0.938032865524292,29.935365992919948,0.03244665463765462,0.03257131576538086,0.0,0.0,0.0,4.810430088566872,-35.21933770041549,163.18275421568595,-0.0034623922316872943,0.0010314061811820634,0.05436300747761973,0.4,0.11427259727555444,0.15493996951981454,0.8353818977426829,0.10872601495523947,-0.003100280446233228,0.0925269618164748,1.7655227333307266,-0.017274735689939067,-2.2453809157013893,-0.17480121459811926,28.311294317245483,0.0,0.0,0.0,0.0,0,0,0,0,False,1,0.9566488265991211,0.034926025390625
STABILIZE,0.9715099334716797,29.873534565034685,0.03249791463216146,0.03262758255004883,0.0,0.0,0.0,4.8110153504013775,-35.218501002242164,163.19772599034664,0.004208108802983975,-0.0070067506175808345,0.04945362571566643,0.4,0.10551109811951051,0.14485870449563598,0.8433144821534873,0.09890725143133286,0.040031803655438125,0.04436848976183683,1.5964236110448837,0.05617682515968716,6.861387193202972,-0.7384173106402159,20.417430996894836,0.0,0.0,0.0,0.0,0,0,0,0,False,0,1.0139296054840088,0.034927001953125
STABILIZE,1.0050315856933594,29.830616483172598,0.03246048291524251,0.03259754180908203,0.0,0.0,0.0,4.809869586168108,-35.21851124752592,163.22973225679732,-0.002018433397173762,-0.003061287967507921,0.04716205947690927,0.4,0.09922807512188225,0.14015704047142266,0.8535419723319664,0.09432411895381854,-0.11273554991930723,0.043495214777067304,1.878616027534008,-0.018683795711584763,-7.696904242038727,-0.3970011603087187,26.086902618408203,0.0,0.0,0.0,0.0,0,0,0,0,False,0,1.043485164642334,0.03492578125
STABILIZE,1.0383710861206055,29.992305822118617,0.03229883511861165,0.03242087364196777,0.0,0.0,0.0,4.811331246650491,-35.218685417349754,163.24463572956628,-0.002715451581802424,-0.004462651901369247,0.04469778765915634,0.4,0.09247215138334719,0.13619677904268962,0.8567635367962896,0.08939557531831269,-0.1435844460502267,0.08261227631010115,1.5093608759343624,-0.043854616948242026,-1.747630164027214,1.1651553213596344,19.935448467731476,0.0,0.0,0.0,0.0,0,0,0,0,False,0,1.072110891342163,0.03492626953125
STABILIZE,1.0718064308166504,29.907830092483653,0.03251031239827474,0.032654523849487305,0.0,0.0,0.0,4.813051173660865,-35.21848734186382,163.2728034297034,-0.002631636825392709,-0.004831252003376208,0.04228323567727092,0.4,0.08579707433731522,0.13230962780029376,0.8594210197849496,0.08456647135454184,-0.1435844460502267,0.08261227631010115,1.5093608759343624,-0.043854616948242026,-1.747630164027214,1.1651553213596344,19.935448467731476,0.0,0.0,0.0,0.0,0,0,0,0,False,0,1.1005823612213135,0.03492626953125
STABILIZE,1.1053142547607422,29.844200939234383,0.032543452580769856,0.032683610916137695,0.0,0.0,0.0,4.813329930756366,-35.21770870029844,163.2874063741489,-0.00508208826008231,-0.002434559673925842,0.03920580680369689,0.4,0.08068642219067867,0.1305294249839932,0.8650099323669418,0.07841161360739378,-0.059719569981098175,0.19855217542499304,1.7065074294805527,-0.12582878645858966,-1.2860162183642387,1.0538195259869099,18.504370748996735,0.0,0.0,0.0,0.0,0,0,0,0,False,0,1.1293179988861084,0.02993701171875
STABILIZE,1.1387243270874023,29.92981204241533,0.03249338467915853,0.03259921073913574,0.0,0.0,0.0,4.813009765639022,-35.2186512664039,163.30084818643547,-0.003884012430301942,-0.004207189313235557,0.0386429484419851,0.4,0.07484915070006233,0.12784929267352468,0.868562479633994,0.0772858968839702,-0.11055154027417302,0.1625338103622198,1.9210023805499077,0.15684300795296474,-4.830726981163025,1.3866022229194641,22.707757353782654,0.0,0.0,0.0,0.0,0,0,0,0,False,0,1.1579787731170654,0.03507470703125
STABILIZE,1.172231912612915,29.84632462819327,0.0325191338857015,0.032665252685546875,0.0,0.0,0.0,4.814603761036573,-35.21946064382055,163.3298628300297,-0.0006848451372368185,-0.007026109420844792,0.037076756848256016,0.4,0.06774181268611083,0.12269211493405245,0.8804380189036037,0.07415351369651203,0.13106469996273518,0.10906377574428916,1.5762180089950562,0.0793597011621137,-2.2438447922468185,-0.41151405312120914,24.628768861293793,0.0,0.0,0.0,0.0,0,0,0,0,False,0,1.2157020568847656,0.02993701171875
STABILIZE,1.2072224617004395,28.577977338229985,0.03246882756551107,0.03425788879394531,0.0,0.0,0.0,4.813534409544643,-35.21863760602556,163.34378275555818,-0.0029988307910660357,0.0035668030750647638,0.03602055444502381,0.4,0.06654260866010422,0.11943293764980474,0.8773831837495177,0.07204110889004763,0.13106469996273518,0.10906377574428916,1.5762180089950562,0.0793597011621137,-2.2438447922468185,-0.41151405312120914,24.628768861293793,0.0,0.0,0.0,0.0,0,0,0,0,False,0,1.2441143989562988,0.02993701171875
STABILIZE,1.2407777309417725,29.802214043115576,0.03259399731953939,0.032716989517211914,0.0,0.0,0.0,4.813730777483281,-35.218261945621215,163.37378094639288,-0.004708042828441783,-0.002109355154449126,0.03581590404145501,0.4,0.06241717364380072,0.1178156672793408,0.8773361242645727,0.07163180808291002,-0.04947384004481137,0.19714871887117624,1.740923710167408,0.17302631409809013,-0.8483772166073322,3.1783662736415863,20.53733468055725,0.0,0.0,0.0,0.0,0,0,0,0,False,0,1.2727093696594238,0.034926025390625
STABILIZE,1.2742130756378174,29.908469886906545,0.03247645696004232,0.03259420394897461,0.0,0.0,0.0,4.813799933148627,-35.21750037952876,163.3889439663503,-0.0015445783037016398,0.004502454062502133,0.033560280975547384,0.4,0.06199299147569885,0.11370682710068403,0.8830626320874944,0.06712056195109477,0.16485094092786312,0.02293293218826875,1.7714094370603561,-0.0807987633232972,4.369790479540825,-2.1863069385290146,27.496859431266785,0.0,0.0,0.0,0.0,0,0,0,0,False,0,1.301917552947998,0.034926025390625
STABILIZE,1.3076918125152588,29.870343334496535,0.032482417424519856,0.03260517120361328,0.0,0.0,0.0,4.813322673680372,-35.21758575689338,163.40293219377048,-0.002765565269815931,0.006104548428032991,0.029965940530047794,0.4,0.06244004947132263,0.1107300483136612,0.8860935803869756,0.05993188106009559,0.20774116273969412,0.08681769832037389,1.6354095190763474,-0.24231510143221838,-1.0715847834944725,1.1817708611488342,20.199701189994812,0.0,0.0,0.0,0.0,0,0,0,0,False,0,1.3301894664764404,0.02993701171875
STABILIZE,1.3413200378417969,29.736713742839317,0.032444032033284505,0.03272509574890137,0.0,0.0,0.0,4.814133331757488,-35.216533907761196,163.43480185643776,-0.0034299489253147956,0.0034511169793283313,0.026574328922141316,0.4,0.06144561747999185,0.10838562573772784,0.888664592873646,0.05314865784428263,0.11635050177574158,0.13540079817175865,1.9288310781121254,-0.22744922138411208,5.136322230100632,1.6048112884163857,25.036227703094482,0.0,0.0,0.0,0.0,0,0,0,0,False,1,1.3587830066680908,0.03492578125
STABILIZE,1.374661922454834,29.99209135698299,0.03242472012837728,0.03253793716430664,0.0,0.0,0.0,4.814130343549727,-35.21596700206009,163.44929551785654,-0.001823350634739016,0.0014891042862481994,0.02229724712874658,0.4,0.05944934832707659,0.10484910844486796,0.8999104800123063,0.04459449425749316,0.09408059995621443,0.15298957005143166,1.6933014616370201,0.062190793383670166,-0.43786996975541115,1.6557687893509865,25.90896487236023,0.0,0.0,0.0,0.0,0,0,0,0,False,0,1.4161641597747803,0.029937255859375
STABILIZE,1.4082388877868652,29.782322199500115,0.032509597142537434,0.032746076583862305,0.0,0.0,0.0,4.81346568076612,-35.216660266260845,163.4785697086392,-0.005601472832855962,-0.00017661806222585267,0.022077778929183903,0.4,0.05663813231283433,0.10447302756660004,0.9018893387095983,0.044155557858367805,-0.007702477159909904,0.23625886533409357,1.924877054989338,0.12539995196433337,-2.895595133304596,3.735284134745598,27.30744481086731,0.0,0.0,0.0,0.0,0,0,0,0,False,0,1.4451484680175781,0.03492578125
STABILIZE,1.4418022632598877,29.79565103112191,0.032498868306477864,0.03268146514892578,0.0,0.0,0.0,4.813232600560693,-35.21694713420599,163.49587740799603,-0.0026360469291604525,0.0006017658976854097,0.019941736777210752,0.4,0.05436274315793518,0.10171483575069662,0.9062924582768251,0.039883473554421504,0.01643187424633652,0.07049637497402728,1.7588809132575989,-0.10274333403332837,-1.1712457053363323,-0.07324176840484142,29.348784685134888,0.0,0.0,0.0,0.0,0,0,0,0,False,0,1.4737205505371094,0.034927001953125
STABILIZE,1.4774904251098633,28.020496101865895,0.032434733708699544,0.03477597236633301,0.0,0.0,0.0,4.813347433116114,-35.21662953040958,163.5130348431911,-0.002639142774766918,-0.0009163182594024828,0.019514808838442223,0.4,0.051192636696086445,0.09890123331739742,0.9112729852626512,0.03902961767688445,-0.040777024696581066,0.06441896548494697,1.8143773078918457,0.09514496202510074,-2.067197486758232,1.8411606550216675,28.770118951797485,0.0,0.0,0.0,0.0,0,0,0,0,False,0,1.5029544830322266,0.02993701171875
STABILIZE,1.5112571716308594,29.61409850881157,0.032408746083577473,0.0329282283782959,0.0,0.0,0.0,4.811870404708099,-35.21555719070989,163.54334722272762,-0.0021285089149376676,-0.0013069472939159982,0.019214307051488896,0.4,0.04809863980320565,0.09591230433357807,0.9109432996305433,0.03842861410297779,-0.040777024696581066,0.06441896548494697,1.8143773078918457,0.09514496202510074,-2.067197486758232,1.8411606550216675,28.770118951797485,0.0,0.0,0.0,0.0,0,0,0,0,False,0,1.5315301418304443,0.02993701171875
STABILIZE,1.5446975231170654,29.90335229784261,0.03248408635457357,0.03261065483093262,0.0,0.0,0.0,4.811382473069266,-35.21614800207309,163.55744473317452,-0.0022910696243743207,-0.0035902916396908864,0.01922613291248583,0.4,0.04395234274056211,0.09319912995041896,0.9092870978008304,0.03845226582497166,0.03340709372423589,0.17942648846656084,1.6836615279316902,0.11529201904465496,-1.5768973156809807,1.340417005121708,22.100737690925598,0.0,0.0,0.0,0.0,0,0,0,0,True,0,1.589383840560913,0.039916015625
STABILIZE,1.5783309936523438,29.73249780247824,0.03249100049336751,0.03273653984069824,0.0,0.0,0.0,4.810945340962385,-35.215734775628306,163.59059847140577,-0.004490098047926244,-0.0013937912311591057,0.017460467123669554,0.4,0.04114279518494379,0.09234462013398385,0.9145643557947488,0.03492093424733911,-0.03539767931215465,0.14759378973394632,1.5659857541322708,-0.08889120346844005,-2.773827314376831,1.0864348150789738,19.29449588060379,0.0,0.0,0.0,0.0,0,0,0,0,True,0,1.6179225444793701,0.024947021484375
STABILIZE,1.6116878986358643,29.97922905930368,0.03241446812947591,0.03253054618835449,0.0,0.0,0.0,4.811409793825946,-35.21494930387376,163.60539266114802,-0.002456246316749793,0.000999158413685711,0.016239243817254632,0.4,0.0397393602560452,0.08988612028046035,0.9045051036224409,0.032478487634509265,0.03693410544656217,0.09202704532071948,1.5532366931438446,-0.0411657569009718,-1.5995636582374573,-0.9601332247257233,18.344329297542572,0.0,0.0,0.0,0.0,0,0,0,0,True,0,1.647376298904419,0.034927001953125
STABILIZE,1.6451587677001953,29.876088040458722,0.032499106725056966,0.032619476318359375,0.0,0.0,0.0,4.810591024899191,-35.21455656799648,163.63540451236105,-0.0030922911335261576,0.0008879336804281052,0.014975788715126052,0.4,0.038334489696360254,0.0880259917751499,0.9046674015191952,0.029951577430252105,0.03693410544656217,0.09202704532071948,1.5532366931438446,-0.0411657569009718,-1.5995636582374573,-0.9601332247257233,18.344329297542572,0.0,0.0,0.0,0.0,0,0,0,0,True,0,1.6758501529693604,0.034927001953125
STABILIZE,1.6785633563995361,29.93707531547993,0.03247049649556478,0.03259778022766113,0.0,0.0,0.0,4.80968815926828,-35.21396917172786,163.65152375880228,-0.0017866485212559553,-0.002222453946095609,0.01534572959262121,0.4,0.03532722441578606,0.08518381088994798,0.908870085123335,0.03069145918524242,-0.06409595953300595,0.030132848769426346,1.814853586256504,0.15110958441305472,-1.027306355535984,-0.47804275527596474,24.811401963233948,0.0,0.0,0.0,0.0,0,0,0,0,True,0,1.7045717239379883,0.03492578125
STABILIZE,1.7121083736419678,29.81005110127149,0.0325045903523763,0.0326380729675293,0.0,0.0,0.0,4.810232866854588,-35.21363107736394,163.66739711843337,-0.00325633444980564,-0.006563639818644922,0.015642169952379346,0.4,0.030129429346451714,0.08362815661899832,0.9138982004030827,0.03128433990475869,-0.1981277484446764,0.1050324528478086,1.8772212788462639,0.13526602681828456,-4.573197662830353,-0.4274290520697832,24.072696268558502,0.0,0.0,0.0,0.0,0,0,0,0,True,0,1.7333109378814697,0.06486328125
STABILIZE,1.745591640472412,29.869067033178325,0.03242543538411458,0.03255438804626465,0.0,0.0,0.0,4.810488145174817,-35.21242213388085,163.69870670558873,-0.0031526109304919276,0.0002817666324196646,0.013530037878199903,0.4,0.028808166979153876,0.08204118197531245,0.9412080664163647,0.027060075756399807,0.08329050033353269,0.1167384791187942,1.6799286007881165,-0.022842980709725846,-0.8118298836052418,-0.377456471323967,24.129681289196014,0.0,0.0,0.0,0.0,0,0,0,0,True,0,1.7906875610351562,0.03492578125
STABILIZE,1.7789607048034668,29.96530734718372,0.03237012227376302,0.0325014591217041,0.0,0.0,0.0,4.810316963558744,-35.21305051128449,163.71489425392164,-0.0033199535424097656,-0.0008676043021749776,0.013694816111753225,0.4,0.026928448377939125,0.08064330971553452,0.9402504768350937,0.02738963222350645,-0.012452018563635647,0.11363141238689423,1.7251292243599892,0.10222617398732468,6.792604923248291,0.6680967286229134,11.060312390327454,0.0,0.0,0.0,0.0,0,0,0,0,True,0,1.8197970390319824,0.03492724609375
STABILIZE,1.8126718997955322,29.66079952478272,0.03246143658955892,0.03288626670837402,0.0,0.0,0.0,4.808980380915537,-35.212627039555954,163.7294152360971,-0.003916250946436627,-0.0022665271580493596,0.01374187052602673,0.4,0.02436018644044214,0.07976467813637778,0.9397495268449703,0.02748374105205346,-0.0545557530131191,0.13797830324620008,1.747993379831314,0.08503070584435479,0.711328536272049,-0.4288758151233196,23.24366420507431,0.0,0.0,0.0,0.0,0,0,0,0,True,0,1.8485338687896729,0.029936767578125
GUIDED_NOGPS,1.8461859226226807,29.838680762061948,0.032511027654012044,0.03264904022216797,0.0,0.0,0.0,4.810575656973558,-35.21331347356754,163.75956369109355,-0.0036995293883619043,-0.0021718013122738185,0.013814773877693389,0.4,0.021971151515614917,0.07874553510930177,0.9347002753897774,0.027629547755386778,-0.0545557530131191,0.13797830324620008,1.747993379831314,0.08503070584435479,0.711328536272049,-0.4288758151233196,23.24366420507431,0.0,0.0,0.0,0.0,0,0,0,0,True,0,1.877110242843628,0.029936767578125
GUIDED_NOGPS,1.8797132968902588,29.829343574425717,0.03239301045735677,0.03252816200256348,0.021971151515614917,0.07874553510930177,0.9347002753897774,4.811367105143633,-35.21297537920362,163.77632497531675,0.09962379062679423,-0.042997459601081554,0.013172045747504586,0.5000107558731767,0.020556335508165522,0.07620663443868746,0.9293293606929831,0.026344091495009173,-0.004974363400833681,0.0468401558464393,1.7007457092404366,0.002137342282111529,-4.682591930031776,-0.5229915026575327,21.923962235450745,0.0,0.0,0.0,0.0,0,0,0,0,False,0,1.905855655670166,0.069853271484375
GUIDED_NOGPS,1.9140551090240479,29.11983115332278,0.032343180974324544,0.03338766098022461,0.021971151515614917,0.07874553510930177,0.9347002753897774,4.811799114608637,-35.212811454663544,163.8065417322049,0.0013291746275202355,-0.004153926286463206,0.01256152095474215,0.4,0.018344180071115657,0.07521889187730789,0.9603183800030317,0.0251230419094843,-0.004974363400833681,0.0468401558464393,1.7007457092404366,0.002137342282111529,-4.682591930031776,-0.5229915026575327,21.923962235450745,0.0,0.0,0.0,0.0,0,0,0,0,False,0,1.934499740600586,0.069853271484375
GUIDED_NOGPS,1.947716474533081,29.70722724310848,0.03239610989888509,0.03274965286254883,0.021971151515614917,0.07874553510930177,0.9347002753897774,4.81258074438178,-35.21202939800357,163.8216364502706,0.002513944126229041,-0.011431972195328079,0.010061047217161518,0.4,0.01236099027644413,0.07333533759301829,0.9717686247873747,0.020122094434323036,-0.03346590092405677,0.07954742177389562,1.7073750495910645,-0.08320170925067231,0.5657501518726349,-0.6729880347847939,19.647708535194397,0.0,0.0,0.0,0.0,0,0,0,0,False,0,1.9922895431518555,0.03492626953125
GUIDED_NOGPS,1.9813039302825928,29.77111828796536,0.0324125607808431,0.032758474349975586,0.021971151515614917,0.07874553510930177,0.9347002753897774,4.812782234962295,-35.21363107736394,163.853027999696,0.002626397246142088,-0.004041291058788239,0.008594620213979186,0.4,0.010604792138231286,0.07143623807591665,0.9652559043483989,0.01718924042795837,-0.03346590092405677,0.07954742177389562,1.7073750495910645,-0.08320170925067231,0.5657501518726349,-0.6729880347847939,19.647708535194397,0.0,0.0,0.0,0.0,0,0,0,0,False,0,2.0260119438171387,0.03492626953125
GUIDED_NOGPS,2.0150628089904785,29.621418532878522,0.032500537236531575,0.032947540283203125,0.021971151515614917,0.07874553510930177,0.9347002753897774,4.812578609947664,-35.21284902070398,163.86666105727934,0.0019351568412497605,-0.002728160813727156,0.006888360210667922,0.4,0.009625887858631917,0.07016764100021014,0.9567991111515501,0.013776720421335844,0.0007903887308202684,0.10574799962341785,1.5834692865610123,-0.11196987906538422,-3.453824669122696,-0.24293449241667986,26.01962983608246,0.0,0.0,0.0,0.0,0,0,0,0,False,0,2.0543501377105713,0.06486279296875
GUIDED_NOGPS,2.048610210418701,29.810474843460153,0.032509835561116536,0.03263998031616211,0.021971151515614917,0.07874553510930177,0.9347002753897774,4.813824265697545,-35.212900247122754,163.88172845458837,0.0016876058902982997,-0.006168877622266061,0.004919063681750616,0.4,0.006862648479900293,0.06916220796866611,0.9718833353559024,0.009838127363501231,-0.04758307768497616,0.06430789944715798,1.4714627526700497,-0.09984902803232225,0.2920594997704029,1.4987348578870296,23.500235378742218,0.0,0.0,0.0,0.0,0,0,0,0,False,0,2.0831427574157715,0.034927001953125
GUIDED_NOGPS,2.0825562477111816,29.45665746651778,0.03239897092183431,0.033077239990234375,0.021971151515614917,0.07874553510930177,0.9347002753897774,4.814534178484403,-35.21351154905347,163.91157638126134,0.003115480884310239,-0.0044853218707284126,0.0033936089278721483,0.4,0.005088654043549953,0.06701832751015488,0.9584899453229269,0.0067872178557442965,-0.04758307768497616,0.06430789944715798,1.4714627526700497,-0.09984902803232225,0.2920594997704029,1.4987348578870296,23.500235378742218,0.0,0.0,0.0,0.0,0,0,0,0,False,0,2.1118640899658203,0.034927001953125
GUIDED_NOGPS,2.1219582557678223,25.380952957265784,0.03246358235677083,0.03852033615112305,0.021971151515614917,0.07874553510930177,0.9347002753897774,4.815076751636597,-35.21338519055382,163.9275726842975,0.0017613814631129345,-0.006304707575332389,0.0025216196017129157,0.4,0.0020046653737089085,0.06592490131629011,0.9571789503951721,0.0050432392034258314,-0.11499827960506082,0.10891854763031006,2.010415866971016,-0.043189190437428165,0.6506345234811306,-0.07475662278011441,28.481918573379517,0.0,0.0,0.0,0.0,0,0,0,0,False,1,2.1405234336853027,0.034926025390625
GUIDED_NOGPS,2.1553428173065186,29.952468007312614,0.03242495854695638,0.032555580139160156,0.021971151515614917,0.07874553510930177,0.9347002753897774,4.817037442815213,-35.21448826610478,163.95557645989456,0.0009929503273839746,-0.006629060745417265,0.005371594855726983,0.4,-0.0006769083917162402,0.0656516914979013,0.9548979713830499,0.010743189711453965,-0.01229944609804079,0.12308475561439991,1.3885480351746082,0.18530444624504755,-1.761835440993309,1.2855184264481068,20.7449272274971,0.0,0.0,0.0,0.0,0,0,0,0,False,0,2.1987698078155518,0.064864013671875
GUIDED_NOGPS,2.1887848377227783,29.901433653428008,0.03251198132832845,0.03264188766479492,0.021971151515614917,0.07874553510930177,0.9347002753897774,4.816891874408528,-35.214621454793594,163.97185963087588,0.0013359826869419973,-0.010836385821651286,0.005976067146122644,0.4,-0.005488383054385889,0.06511639002272879,0.9717467613892361,0.011952134292245288,-0.15193253057077527,0.08160941069945693,1.8009969964623451,0.09072180088770924,-2.7934586629271507,-0.5746884737163782,22.55103886127472,0.0,0.0,0.0,0.0,0,0,0,0,False,0,2.227745771408081,0.034926025390625
GUIDED_NOGPS,2.2222678661346436,29.866514757717095,0.03252247174580892,0.032649993896484375,0.021971151515614917,0.07874553510930177,0.9347002753897774,4.817288452267212,-35.21474098310407,163.98618936775455,0.0028288163101151767,-0.008857495995795217,0.006640133169503681,0.4,-0.00903806591583352,0.06340540708225124,0.9623024872527665,0.013280266339007363,-0.15193253057077527,0.08160941069945693,1.8009969964623451,0.09072180088770924,-2.7934586629271507,-0.5746884737163782,22.55103886127472,0.0,0.0,0.0,0.0,0,0,0,0,False,0,2.2569830417633057,0.034926025390625
GUIDED_NOGPS,2.255753755569458,29.864600837344423,0.032477410634358723,0.0326685905456543,0.021971151515614917,0.07874553510930177,0.9347002753897774,4.819586384036097,-35.21565281335827,164.0152449924838,0.0014379209435280032,-0.0013790807150855357,0.006266787309598863,0.4,-0.008442096056449033,0.0628794944193357,0.953463347558469,0.012533574619197727,0.02918654354289174,0.1297326642088592,1.7794832587242126,-0.0018110139862583029,-2.092968299984932,1.9800081849098206,28.821027278900146,0.0,0.0,0.0,0.0,0,0,0,0,False,0,2.2856762409210205,0.064863037109375
GUIDED_NOGPS,2.2892613410949707,29.84335154826958,0.03250602086385091,0.03262758255004883,0.021971151515614917,0.07874553510930177,0.9347002753897774,4.820448695418811,-35.215441077494,164.03035337092786,0.0002444701891052258,-0.0016372894605857329,0.007397905134018607,0.4,-0.008009205598878915,0.06333492997772823,0.9650540580636153,0.014795810268037213,0.0717268674634397,0.11788191040977836,1.5620620921254158,0.12047690635706156,-2.38359235227108,-2.3673169314861298,23.05704355239868,0.0,0.0,0.0,0.0,0,0,0,0,False,0,2.3142616748809814,0.03492578125
GUIDED_NOGPS,2.322751760482788,29.86098632360584,0.032428773244222005,0.03255748748779297,0.021971151515614917,0.07874553510930177,0.9347002753897774,4.821394249732035,-35.214720492536564,164.0605428070593,0.001782976084674294,0.0008500395452374868,0.008375622887188726,0.4,-0.006266547413837567,0.06253865204094705,0.9498769347881643,0.016751245774377452,0.0717268674634397,0.11788191040977836,1.5620620921254158,0.12047690635706156,-2.38359235227108,-2.3673169314861298,23.05704355239868,0.0,0.0,0.0,0.0,0,0,0,0,False,0,2.3429269790649414,0.03492578125
GUIDED_NOGPS,2.356213331222534,29.884602778767366,0.03238395055135091,0.03252911567687988,0.021971151515614917,0.07874553510930177,0.9347002753897774,4.821699046923747,-35.214416549118496,164.07666205350054,0.007138766832922002,-0.013510751381211819,0.009585992919842624,0.5000295927367482,-0.012268749436893793,0.057475777023844675,0.9194581601391159,0.019171985839685247,-0.22631788160651922,0.0502350740134716,1.6486603766679764,-0.029369746729988717,-1.9883796572685242,1.5984676778316498,24.01832342147827,0.0,0.0,0.0,0.0,0,0,0,0,False,0,2.4007456302642822,0.0349267578125
GUIDED_NOGPS,2.3901121616363525,29.49767566161009,0.032396825154622395,0.033129215240478516,0.021971151515614917,0.07874553510930177,0.9347002753897774,4.821581226160564,-35.21449168119936,164.10689247076704,0.002111089272897038,-0.004048845207754046,0.01015734259264433,0.5000555104899702,-0.012967333335196502,0.056643926807949004,0.9065376042769716,0.02031468518528866,-0.04291603108868003,0.10009168181568384,1.459279377013445,0.09131221204451867,-0.7358424365520477,1.2591684237122536,19.07246708869934,0.0,0.0,0.0,0.0,0,0,0,0,False,0,2.4296164512634277,0.034926025390625
GUIDED_NOGPS,2.4236292839050293,29.83570920472329,0.032566340764363606,0.03269362449645996,0.021971151515614917,0.07874553510930177,0.9347002753897774,4.821915051656249,-35.21490832273874,164.12236967942627,0.0011020182316604918,0.002643056148857345,0.00804799222288475,0.5000775252678846,-0.01005066835727723,0.05666938407336447,0.8955825818518415,0.0160959844457695,0.13344672042876482,0.13844143832102418,1.5049654990434647,-0.17152544672904596,-0.5788594949990511,1.6793925315141678,24.242623150348663,0.0,0.0,0.0,0.0,0,0,0,0,False,0,2.4581873416900635,0.029937255859375
GUIDED_NOGPS,2.4571149349212646,29.863962918396265,0.03249362309773763,0.032624244689941406,0.021971151515614917,0.07874553510930177,0.9347002753897774,4.822186124788933,-35.21557085108823,164.1371228880335,0.001294744605610552,0.002920932982077241,0.005985996038079132,0.5001054157135416,-0.007110784027063636,0.05654160596405117,0.8817082580626361,0.011971992076158264,0.13344672042876482,0.13844143832102418,1.5049654990434647,-0.17152544672904596,-0.5788594949990511,1.6793925315141678,24.242623150348663,0.0,0.0,0.0,0.0,0,0,0,0,False,0,2.487227439880371,0.029937255859375
GUIDED_NOGPS,2.4905147552490234,29.939639665362762,0.03244498570760091,0.032572269439697266,0.021971151515614917,0.07874553510930177,0.9347002753897774,4.823464650824195,-35.214843435941624,164.16795436194693,-0.0003454848093958101,-0.010637850714244319,0.0078413909477927,0.500123126456258,-0.011531701553709762,0.057740775910875654,0.8729355388375053,0.0156827818955854,-0.2436148701235652,0.2053655218333006,1.700575277209282,0.22682097738260312,-7.837238907814026,1.7126033082604408,24.821138381958008,0.0,0.0,0.0,0.0,0,0,0,0,False,0,2.516141176223755,0.0349267578125
GUIDED_NOGPS,2.5239787101745605,29.882260741943988,0.03250912030537923,0.03264880180358887,0.021971151515614917,0.07874553510930177,0.9347002753897774,4.821577811065979,-35.215181530305536,164.18378674044303,0.002242623218254011,-0.0007021363225591519,0.009332723021567495,0.5001339753258719,-0.010459849183217282,0.0568143589348639,0.867600889747562,0.01866544604313499,0.04715004179161042,0.0793060811702162,1.619812287390232,0.1897609312350693,-1.8739841878414154,-0.4453742876648903,22.47781902551651,0.0,0.0,0.0,0.0,0,0,0,0,False,0,2.5446181297302246,0.034926025390625
GUIDED_NOGPS,2.5574584007263184,29.869705170203673,0.03250697453816732,0.03263735771179199,0.021971151515614917,0.07874553510930177,0.9347002753897774,4.822145570540736,-35.21482294537411,164.2144269690597,0.0004840844282421244,-0.010417678292172692,0.0077880804123385515,0.5000997975933162,-0.014616617219003503,0.057341039810359457,0.884756568098633,0.015576160824677103,-0.07847566157579422,0.0638255849480629,1.7555145546793938,0.04292445724107736,0.5270155146718025,-0.5061164032667875,22.934868931770325,0.0,0.0,0.0,0.0,0,0,0,0,False,0,2.6018922328948975,0.03492724609375
GUIDED_NOGPS,2.590829849243164,29.965521429438954,0.03247955640157064,0.03259420394897461,0.021971151515614917,0.07874553510930177,0.9347002753897774,4.822467016318551,-35.214901492549565,164.2303276494475,0.002240495739380861,-0.0020027271607229277,0.008588413184532524,0.5001064389594007,-0.014104854276109522,0.056437836616621065,0.8815070244145438,0.01717682636906505,0.006935453711776063,0.08439383236691356,1.7927087843418121,0.11521712708762283,2.8290871530771255,1.6867199912667274,25.378701090812683,0.0,0.0,0.0,0.0,0,0,0,0,False,0,2.630567789077759,0.03492578125
GUIDED_NOGPS,2.6243128776550293,29.865451438336656,0.03254559834798177,0.032684326171875,0.021971151515614917,0.07874553510930177,0.9347002753897774,4.822655700294372,-35.214559983091064,164.24472568821787,0.00220784806793257,-0.0019567684624909707,0.009378602954115144,0.5001117009688273,-0.013588781639780601,0.055598941850969516,0.8789506369250506,0.01875720590823029,0.006935453711776063,0.08439383236691356,1.7927087843418121,0.11521712708762283,2.8290871530771255,1.6867199912667274,25.378701090812683,0.0,0.0,0.0,0.0,0,0,0,0,False,0,2.6593539714813232,0.03492578125
GUIDED_NOGPS,2.6578590869903564,29.810474843460153,0.03252104123433431,0.032654762268066406,0.021971151515614917,0.07874553510930177,0.9347002753897774,4.823950448028913,-35.213890624552405,164.26058538747066,0.0024193005935754467,-0.009567659804648894,0.011005122403672789,0.5001291979912647,-0.01715838601925706,0.054628495238133006,0.8702883810180835,0.022010244807345578,-0.2058317419141531,0.07449202239513397,1.4432255178689957,0.20346391821612805,-7.191591709852219,-0.7368639577180147,19.981649518013,0.0,0.0,0.0,0.0,0,0,0,0,False,0,2.6879947185516357,0.02993701171875
GUIDED_NOGPS,2.691240072250366,29.957174487536605,0.03243544896443685,0.03256034851074219,0.021971151515614917,0.07874553510930177,0.9347002753897774,4.8256994033432585,-35.21470000196905,164.28949074803813,0.0006912736975499378,-0.007877829248697179,0.009378028954158488,0.5001452867897733,-0.019667523309599148,0.05508623053441065,0.8623407391533,0.018756057908316977,-0.16437178710475564,0.15898937126621604,1.659603789448738,-0.12921805439079692,-6.736969947814941,1.4544738456606865,23.43175560235977,0.0,0.0,0.0,0.0,0,0,0,0,False,0,2.724186897277832,0.035177978515625
GUIDED_NOGPS,2.7252280712127686,29.42421393795687,0.032494576772054036,0.03305768966674805,0.021971151515614917,0.07874553510930177,0.9347002753897774,4.8269903090963915,-35.21488783217123,164.31924305206272,0.0011259486223839385,-0.00039513070424891406,0.009237451988435294,0.5001552630005748,-0.0180567769190801,0.055178667610323806,0.8574572994229369,0.01847490397687059,0.06524072960019112,0.12369947507977486,1.5429851599037647,0.018531410455942077,-0.13866638764739037,0.9980387985706329,16.957466304302216,0.0,0.0,0.0,0.0,0,0,0,0,False,0,2.753101110458374,0.03492724609375
GUIDED_NOGPS,2.758622169494629,29.941990705377602,0.03237655957539876,0.03258252143859863,0.021971151515614917,0.07874553510930177,0.9347002753897774,4.827684853957617,-35.21546839825068,164.33421482672338,0.0021186611572001765,0.002516009283807719,0.008709632179563583,0.5001635742060367,-0.014972705375784405,0.05446981237408877,0.8534107067465349,0.017419264359127166,0.14383777743205428,0.07932529551908374,1.575649157166481,-0.023126460240707823,-1.1837221682071686,-0.3928972873836756,25.043296813964844,0.0,0.0,0.0,0.0,0,0,0,0,False,0,2.7822725772857666,0.029936767578125
GUIDED_NOGPS,2.7920217514038086,29.94049454628519,0.032506497701009114,0.03261089324951172,0.021971151515614917,0.07874553510930177,0.9347002753897774,4.827325842139368,-35.2150756623734,164.35101709208163,0.0016085629359747899,-0.011062014958546213,0.011228587882930453,0.5001767859400033,-0.01926824020324631,0.05420734109427466,0.8469221793123718,0.022457175765860905,-0.2675246214494109,0.11509469477459788,1.6400568187236786,0.3178276985443224,-5.089151859283447,1.142139732837677,19.95425373315811,0.0,0.0,0.0,0.0,0,0,0,0,False,1,2.810356378555298,0.03492626953125
GUIDED_NOGPS,2.8302440643310547,26.163707816106292,0.03256109555562337,0.037312984466552734,0.021971151515614917,0.07874553510930177,0.9347002753897774,4.827938851617377,-35.21495613406292,164.38120652821308,0.0025702802142852635,-0.002177795753256342,0.01013251401708654,0.5001845429180078,-0.01855827108254799,0.05304774848546348,0.8431831484624845,0.02026502803417308,0.026591270579956472,0.1087721437215805,1.8051549792289734,-0.1229913898071915,2.059607580304146,1.7763586714863777,28.551581501960754,0.0,0.0,0.0,0.0,0,0,0,0,False,0,2.867584466934204,0.02993701171875
GUIDED_NOGPS,2.867056131362915,27.16570917828714,0.032401116689046223,0.0359041690826416,0.021971151515614917,0.07874553510930177,0.9347002753897774,4.827251563832144,-35.21446436044268,164.39604169909035,0.003794410657010764,-0.0013819440297164524,0.009477142090759338,0.5002042485572232,-0.017437668811777555,0.05090337272570954,0.8334793372857073,0.018954284181518677,0.02921677369158715,0.002155273796233814,1.3795418664813042,-0.03209475208498579,-1.7549250274896622,-2.7883747592568398,19.897450506687164,0.0,0.0,0.0,0.0,0,0,0,0,False,0,2.896343946456909,0.034926025390625
GUIDED_NOGPS,2.9004971981048584,29.901007321437483,0.03240993817647298,0.0326390266418457,0.021971151515614917,0.07874553510930177,0.9347002753897774,4.827237049680158,-35.21546839825068,164.427323965489,0.003776636427090024,-0.0013930538667534396,0.008889604075751067,0.5002144369489766,-0.01646440447873721,0.04904476535363484,0.8285276201517232,0.017779208151502135,0.02921677369158715,0.002155273796233814,1.3795418664813042,-0.03209475208498579,-1.7549250274896622,-2.7883747592568398,19.897450506687164,0.0,0.0,0.0,0.0,0,0,0,0,False,0,2.9250800609588623,0.034926025390625
GUIDED_NOGPS,2.933976173400879,29.870768792507924,0.032529624303181966,0.03265857696533203,0.021971151515614917,0.07874553510930177,0.9347002753897774,4.828054111059621,-35.21580649261459,164.44174932501608,0.002386713072662789,-0.0062101158692253995,0.009276921793950588,0.500221637644567,-0.018104641993353713,0.048386211716765354,0.8250739518872972,0.018553843587901176,-0.12086117640137672,0.06931456737220287,1.4534186571836472,0.07940674542404348,-4.674546420574188,2.6855403557419777,15.077276527881622,0.0,0.0,0.0,0.0,0,0,0,0,False,0,2.953813314437866,0.0349267578125
GUIDED_NOGPS,2.969357490539551,28.26540872026417,0.03249815305074056,0.034488677978515625,0.021971151515614917,0.07874553510930177,0.9347002753897774,4.830087372998169,-35.21494247368459,164.47282668573962,0.0033000067053878517,-0.012081498916910254,0.009315514493100288,0.5002332000798616,-0.023055008612489207,0.046954161739499026,0.8194554523123259,0.018631028986200577,-0.21776857320219278,0.057710084365680814,1.4935222454369068,-0.005640719063172303,-6.434487551450729,-2.8662284836173058,19.570192694664,0.0,0.0,0.0,0.0,0,0,0,0,False,0,3.0121824741363525,0.02993603515625
GUIDED_NOGPS,3.0028393268585205,29.865451438336656,0.03241852124532064,0.032572269439697266,0.021971151515614917,0.07874553510930177,0.9347002753897774,4.830969321174747,-35.214314096280944,164.4857903847843,0.0022051102519666213,-0.0004472926529288228,0.00931940783648559,0.5002442280192858,-0.021332795190385476,0.04653031136764266,0.8141030562098753,0.01863881567297118,0.06101374747231603,0.08796898764558136,1.5341316349804401,0.041063083949903434,-4.512576758861542,1.1962488293647766,20.90337723493576,0.0,0.0,0.0,0.0,0,0,0,0,False,0,3.0398292541503906,0.034927001953125
GUIDED_NOGPS,3.0378026962280273,28.599607244163213,0.03241446812947591,0.03419232368469238,0.021971151515614917,0.07874553510930177,0.9347002753897774,4.833451668051223,-35.214628284982766,164.51623936810424,0.0023914540092966354,-0.005314339968348184,0.008086608303502104,0.5002423546131965,-0.022326252842410764,0.045953543576360306,0.8152074154714933,0.016173216607004208,-0.08665778441354632,0.06615344318561256,1.6503885388374329,-0.10922841855737697,-6.672824174165726,1.4171017333865166,23.309442400932312,0.0,0.0,0.0,0.0,0,0,0,0,False,0,3.0685601234436035,0.064863037109375
GUIDED_NOGPS,3.071363925933838,29.797344434893187,0.032564671834309895,0.03270435333251953,0.021971151515614917,0.07874553510930177,0.9347002753897774,4.8346469511559755,-35.21439605855098,164.53078767103636,0.0011776693145062337,-0.007469837315471868,0.006928978781782759,0.5001935282399469,-0.024383567634952204,0.046404017985142015,0.8397477685624505,0.013857957563565518,-0.08665778441354632,0.06615344318561256,1.6503885388374329,-0.10922841855737697,-6.672824174165726,1.4171017333865166,23.309442400932312,0.0,0.0,0.0,0.0,0,0,0,0,False,0,3.0972588062286377,0.064863037109375
GUIDED_NOGPS,3.1049857139587402,29.744094516108444,0.0324580987294515,0.032765865325927734,0.021971151515614917,0.07874553510930177,0.9347002753897774,4.834244823768591,-35.21437898307806,164.54506276640168,0.0012170577588753646,-0.002692914542836752,0.006910114323516656,0.50015970363953,-0.023797237639063704,0.04680890095393171,0.8567648840889092,0.013820228647033313,0.04409519606269896,0.0712009146809578,1.3886644504964352,0.02915059370716651,-1.3619220815598965,-0.4317662678658962,24.105145037174225,0.0,0.0,0.0,0.0,0,0,0,0,False,0,3.12613582611084,0.034927001953125
GUIDED_NOGPS,3.1384403705596924,29.8905659839512,0.0323365052541097,0.03247714042663574,0.021971151515614917,0.07874553510930177,0.9347002753897774,4.835554939428764,-35.21461120950984,164.57568933464003,0.0015403630630867174,-0.0023890683787396367,0.007187015472142556,0.5001907486865472,-0.023075048625707962,0.04693941245201868,0.8413672495426161,0.014374030944285111,-0.09843464940786362,0.14538168907165527,1.4556271955370903,0.06887360654810534,-4.218953475356102,1.352329459041357,21.67370319366455,0.0,0.0,0.0,0.0,0,0,0,0,False,0,3.1831984519958496,0.064863037109375
GUIDED_NOGPS,3.171851396560669,29.92959847009041,0.032471450169881184,0.032601356506347656,0.021971151515614917,0.07874553510930177,0.9347002753897774,4.837135701334799,-35.21494930387376,164.58970488281687,-0.0008873331023898436,-0.00725896573207267,0.00769492740172438,0.5001586971071,-0.024980429276806607,0.04901724374369618,0.857496317936686,0.01538985480344876,-0.09843464940786362,0.14538168907165527,1.4556271955370903,0.06887360654810534,-4.218953475356102,1.352329459041357,21.67370319366455,0.0,0.0,0.0,0.0,0,0,0,0,False,0,3.2119622230529785,0.064863037109375
GUIDED_NOGPS,3.205366373062134,29.83804394994629,0.032514365514119466,0.03264164924621582,0.021971151515614917,0.07874553510930177,0.9347002753897774,4.838332691986844,-35.21365156793146,164.61863756414107,-5.911299069978058e-05,-0.002383787327157673,0.006708838065983589,0.5001328567519991,-0.024201319449812547,0.05034937314765683,0.8705024035851181,0.013417676131967178,0.023737424635328352,0.10853006970137358,1.4431553892791271,-0.0693187627932396,0.9920166805386543,1.1443594470620155,18.99823397397995,0.0,0.0,0.0,0.0,0,0,0,0,False,0,3.24054217338562,0.02993701171875
GUIDED_NOGPS,3.2387938499450684,29.91486933698505,0.03242925008138021,0.032570600509643555,0.021971151515614917,0.07874553510930177,0.9347002753897774,4.839288064697,-35.21359009622893,164.6339781690169,0.003139433239522549,-0.006613372796626267,0.006719744981193514,0.5001680090627407,-0.025712324429713145,0.04906379378259924,0.8530355712980303,0.013439489962387028,-0.128068495541811,0.06389134214259684,1.3327126391232014,0.036184801428100336,-3.3611398190259933,1.154425274580717,18.447624146938324,0.0,0.0,0.0,0.0,0,0,0,0,False,0,3.2697856426239014,0.034926025390625
GUIDED_NOGPS,3.2722771167755127,29.866514757717095,0.03247550328572591,0.03262209892272949,0.021971151515614917,0.07874553510930177,0.9347002753897774,4.840076524659312,-35.21372328491774,164.65012473621482,0.0028059115211052387,-0.006908247558088945,0.0067513100544558235,0.5001925968809475,-0.02731426973320558,0.04810113490309946,0.8408672613549975,0.013502620108911647,-0.128068495541811,0.06389134214259684,1.3327126391232014,0.036184801428100336,-3.3611398190259933,1.154425274580717,18.447624146938324,0.0,0.0,0.0,0.0,0,0,0,0,False,0,3.2982187271118164,0.034926025390625
GUIDED_NOGPS,3.3058834075927734,29.75527809307605,0.03245714505513509,0.03262162208557129,0.021971151515614917,0.07874553510930177,0.9347002753897774,4.840610986961866,-35.21263386974512,164.68051907802138,0.0028480381962636483,-0.0047515351750098325,0.009107603814702426,0.5002127936639574,-0.027696846117941435,0.04714112722554588,0.8309086324652096,0.018215207629404852,-0.07171609904617071,0.061021395958960056,1.392768882215023,0.25805201736248645,0.6346306763589382,-0.9145298041403294,16.01312756538391,0.0,0.0,0.0,0.0,0,0,0,0,False,0,3.3267977237701416,0.034927001953125
GUIDED_NOGPS,3.3393075466156006,29.920631183969295,0.032349379857381184,0.03248453140258789,0.021971151515614917,0.07874553510930177,0.9347002753897774,4.8406421496999545,-35.21318369997331,164.69426141863144,0.0017976264767114974,0.012231244842378957,0.011253953275930697,0.5002304796299414,-0.019040160835169795,0.04706736122598645,0.822215348175316,0.022507906551861395,0.29189831111580133,0.0977535150013864,1.625579223036766,0.07440123728873567,7.707531005144119,-0.6279526744037867,19.944587349891663,0.0,0.0,0.0,0.0,0,0,0,0,False,0,3.3842105865478516,0.034926025390625
GUIDED_NOGPS,3.3726601600646973,29.98008620258322,0.03237012227376302,0.03251218795776367,0.021971151515614917,0.07874553510930177,0.9347002753897774,4.841101053034815,-35.21337836036465,164.70979326880405,0.0018217657931795324,0.009309487411587034,0.011622377362686382,0.5002371425491124,-0.012265863883279986,0.046981026072980284,0.8190386609613235,0.023244754725372765,0.29189831111580133,0.0977535150013864,1.625579223036766,0.07440123728873567,7.707531005144119,-0.6279526744037867,19.944587349891663,0.0,0.0,0.0,0.0,0,0,0,0,False,0,3.413564920425415,0.034926025390625
GUIDED_NOGPS,3.4061131477355957,29.892909322861357,0.0324893315633138,0.03262805938720703,0.021971151515614917,0.07874553510930177,0.9347002753897774,4.8413298643720095,-35.21379841699861,164.7410755352027,0.0018243417839186047,2.8347538882172153e-05,0.012976092744804218,0.5002522000122339,-0.010732892943537442,0.04690249840382549,0.8116746298521711,0.025952185489608436,0.03394320956431329,0.09681917144916952,1.3869339600205421,0.17601747004709292,-0.6569632794708014,1.2847552075982094,20.066477358341217,0.0,0.0,0.0,0.0,0,0,0,0,False,0,3.442101240158081,0.02993701171875
GUIDED_NOGPS,3.4395740032196045,29.886306308874037,0.03249862988789876,0.03261899948120117,0.021971151515614917,0.07874553510930177,0.9347002753897774,4.842569116819544,-35.21467609630695,164.7557467815399,0.003051402699075549,-0.007955393031144972,0.009845621138870518,0.5002688258684453,-0.013524507056671985,0.045848498594855604,0.8035371036685804,0.019691242277741036,-0.1843865728005767,0.056066858815029263,1.5085725113749504,-0.27657885212529315,-6.46916925907135,-0.7066183257848024,19.14912760257721,0.0,0.0,0.0,0.0,0,0,0,0,False,0,3.4708101749420166,0.034927001953125
GUIDED_NOGPS,3.4730443954467773,29.87630084978168,0.0324735959370931,0.03261303901672363,0.021971151515614917,0.07874553510930177,0.9347002753897774,4.844378690062775,-35.214437039686004,164.78425599113552,0.001461567566861818,-0.0006744170753079911,0.009629274465166116,0.5002801916276225,-0.012310610012720196,0.04611397811252764,0.7980371426034228,0.01925854893033223,0.023019008222036064,0.11112362844869494,1.4060447923839092,0.01435341575715701,1.025055255740881,2.89103165268898,14.25224244594574,0.0,0.0,0.0,0.0,0,0,0,0,False,0,3.4994118213653564,0.03492578125
GUIDED_NOGPS,3.512237071990967,25.516988799863725,0.03243401845296224,0.038257598876953125,0.021971151515614917,0.07874553510930177,0.9347002753897774,4.844947730198001,-35.215085907657155,164.80033425644174,0.0003103897977919036,0.00991519506853105,0.007926234415279383,0.5002978335114422,-0.004394231129514786,0.047485715212233603,0.7894436158239468,0.015852468830558766,0.31066888477653265,0.125833076890558,1.4224090613424778,-0.0993610563728498,4.645077139139175,-0.7453885860741138,18.132081627845764,0.0,0.0,0.0,0.0,0,0,0,0,False,0,3.557562828063965,0.034927001953125
GUIDED_NOGPS,3.5456788539886475,29.901859997576086,0.032405885060628255,0.032544612884521484,0.021971151515614917,0.07874553510930177,0.9347002753897774,4.8469173859999035,-35.21488100198206,164.8309335039234,0.0013958780179544393,0.00011314217232648699,0.0072927723520199855,0.5003052053070022,-0.003147349796191759,0.04774535247295721,0.7859568736476825,0.014585544704039971,0.03312506014481187,0.1076721353456378,1.4303185045719147,-0.03389070497051569,-2.5892458856105804,0.9651090018451214,14.943140745162964,0.0,0.0,0.0,0.0,0,0,0,0,False,0,3.586953639984131,0.03492578125
GUIDED_NOGPS,3.57914137840271,29.88609335698966,0.032425673802693684,0.03254985809326172,0.021971151515614917,0.07874553510930177,0.9347002753897774,4.847811287007529,-35.213986247200786,164.84408844826484,0.0012855400352030672,-0.00010789586149786184,0.006163923078633675,0.50029776841851,-0.0020721103064384287,0.04808613344997043,0.7898690048009528,0.01232784615726735,0.026929244631901383,0.11184262111783028,1.8240375444293022,-0.08983551714183398,1.498681679368019,1.7260581254959106,25.375288724899292,0.0,0.0,0.0,0.0,0,0,0,0,False,0,3.6146950721740723,0.03492724609375
GUIDED_NOGPS,3.612832546234131,29.678639155415922,0.03238848050435384,0.03252077102661133,0.021971151515614917,0.07874553510930177,0.9347002753897774,4.847830496914569,-35.214068209470824,164.86093169475808,0.0012675529933116327,-0.00013010118004791707,0.0050490852164798644,0.5002898745314442,-0.001053237610549953,0.04843110368445664,0.7940042044149428,0.010098170432959729,0.026929244631901383,0.11184262111783028,1.8240375444293022,-0.08983551714183398,1.498681679368019,1.7260581254959106,25.375288724899292,0.0,0.0,0.0,0.0,0,0,0,0,False,0,3.643451690673828,0.03492724609375
GUIDED_NOGPS,3.6461856365203857,29.98265792652851,0.03217008908589681,0.03229236602783203,0.021971151515614917,0.07874553510930177,0.9347002753897774,4.848911801237548,-35.21443020949683,164.8922686026701,0.0016162666934705693,-0.0031233687858818497,0.0033459297153536852,0.5002899488393906,-0.001674325596736483,0.04848581765700904,0.7941550363470593,0.0066918594307073705,-0.061733106849715114,0.09546386427246034,1.5907613560557365,-0.15737037326208378,2.0551899448037148,1.600097119808197,23.11743199825287,0.0,0.0,0.0,0.0,0,0,0,0,False,0,3.6758010387420654,0.034926025390625
GUIDED_NOGPS,3.679487943649292,30.028809530628024,0.03224066098531087,0.03236031532287598,0.021971151515614917,0.07874553510930177,0.9347002753897774,4.848839657364439,-35.214655605739445,164.90855177365142,0.0011175054783024933,-0.0008712837647137948,0.006844068723359284,0.5002948973304144,-0.00106665687287247,0.04894157243890091,0.7918718061507299,0.013688137446718568,0.009796716767596081,0.11783511145040393,1.4444341883063316,0.4243798235352849,-0.23714089766144753,1.3744550757110119,19.73729282617569,0.0,0.0,0.0,0.0,0,0,0,0,False,0,3.7044601440429688,0.0300361328125
GUIDED_NOGPS,3.712829828262329,29.98994687430733,0.03240254720052083,0.03252387046813965,0.021971151515614917,0.07874553510930177,0.9347002753897774,4.850571537205861,-35.2141877377813,164.9368014360586,0.0016346498753181675,-0.0013220241040481718,0.005761758321020674,0.5003004370098671,-0.0007245259368752403,0.048967372047342236,0.7892964675354693,0.011523516642041348,0.0026851881557377055,0.10825564386323094,1.6341784968972206,-0.09131254554984923,-0.6732992827892303,-0.01788970548659563,26.829859614372253,0.0,0.0,0.0,0.0,0,0,0,0,False,0,3.733368396759033,0.034927001953125
