Mode,Time,Freq,Sync-Freq,Kalman-Freq,Control-Freq,North-Vision,East-Vision,Down-Vision,Yaw-Vision,North-Desired,East-Desired,Down-Desired,Roll-UAV,Pitch-UAV,Yaw-UAV,Roll-Control,Pitch-Control,Yaw-Control,Thrust-Control,northVraw,eastVraw,downVraw,N-Velocity,E-Velocity,D-Velocity,N-Acceleration,E-Acceleration,D-Acceleration,yawVraw,yawRate,Landing-State,Q-Size,N-diff,E-diff,D-diff,Y-diff
GUIDED_NOGPS,0.029328107833862300,34.11584230090370,34.11584230090370,34.11584230090370,34.11584230090370,-18.915896163387400,55.66531907033270,52.64612544177790,-7.757751844388200,-18.762540045086500,55.48083992877460,52.277377089531000,-0.025580125658755600,0.18649196534570400,7.657640120976760,-0.4817870706368150,-0.32720215516104500,-10.0,0.4992616597968730,-20.098969195447900,55.55263135799540,52.934691982143200,-2.3016951978206600,7.710718363523480,15.265661478042600,-38.54771554470060,13.112187385559100,43.521857261657700,-8.298242267889620,0.9022432299229430,FALSE,1,0,0,0,0
GUIDED_NOGPS,0.04096102714538570,85.99114318517300,85.99114318517300,85.99114318517300,85.99114318517300,-19.429200627100500,56.15158363601220,53.52172979393310,-7.984195520230820,-18.83925848546200,55.71397482414530,52.77420722043840,-0.11467524762651800,0.13262066253622700,7.643649332235640,-1.7887670608887600,-2.4304682777503700,-10.0,0.4985034090406320,-20.098969195447900,55.55263135799540,52.934691982143200,-7.306595146656040,7.382702827453610,13.423897325992600,-125.4416823387150,7.35158771276474,-28.86107861995700,-8.298242267889620,-2.9365595789242300,FALSE,1,0,0,0,0
GUIDED_NOGPS,0.05588126182556150,67.06058038212490,67.06058038212490,67.06058038212490,67.06058038212490,-19.516138843203200,56.187839903347800,53.62016737201850,-8.020710830658420,-18.914922805237500,55.94481888120340,53.26932191980370,-0.11467524762651800,0.13262066253622700,7.643649332235640,0.8091952328381750,-0.22228028899543100,-5.794622721682130,0.4992963458926850,-20.101114102874100,55.74754812846340,53.42022393040850,-7.306595146656040,7.382702827453610,13.423897325992600,-125.4416823387150,7.35158771276474,-28.86107861995700,-8.348319848931250,-2.9365595789242300,FALSE,0,0,0,0,0
GUIDED_NOGPS,0.07654118537902830,48.418534850968500,48.418534850968500,48.418534850968500,48.418534850968500,-19.583892179731400,56.263525166755,53.781741023065000,-8.074203782093930,-18.98854259842770,56.17121764991750,53.761066330985400,-0.12571886310163500,0.13591804307975600,7.677072009165450,0.4593288615107010,-0.09917393913378850,-5.883420702695810,0.49995665334763300,-20.282771850044300,55.77079964724790,54.28035711167730,-3.947131335735320,8.057615906000140,12.033622711896900,-60.205090045929000,15.644721686840100,-49.23715889453890,-8.572415578562570,-2.7429860414305500,FALSE,0,0,0,0,0
GUIDED_NOGPS,0.11300253868103000,27.42701698860890,27.42701698860890,27.42701698860890,27.42701698860890,-19.692321501230300,56.40162558448470,54.024129069806600,-8.140190825733820,-19.05919553767210,56.39116243475730,54.24785088303540,-0.13914034490326900,0.13866260518733800,7.744405721550730,0.12483906604672700,-0.14848722494954800,-5.605559422778290,0.500446101165978,-20.71217848435400,56.36146288373420,54.62085476039320,-3.41314896941185,8.478417992591860,12.92055994272230,-31.109124422073400,27.20862627029420,-33.11229348182680,-8.45693766054407,-3.12023190344234,FALSE,0,0,0,0,0
GUIDED_NOGPS,0.14409518241882300,32.16515464075650,32.16515464075650,32.16515464075650,32.16515464075650,-19.87563588567060,56.6290332649996,54.43481443380120,-8.246037995723520,-19.126025803183600,56.60278695870660,54.728150415080400,-0.38919303680890600,0.07055820200375890,7.90628547374826,-0.08197806499306050,-0.3215772453943700,-6.310472818083040,0.5005860585339280,-20.616486175964700,56.31427580806550,54.89163856003440,-3.41314896941185,8.478417992591860,12.92055994272230,-31.109124422073400,27.20862627029420,-33.11229348182680,-8.513947263423210,-3.12023190344234,FALSE,0,0,0,0,0
GUIDED_NOGPS,0.18328595161438000,25.519783395698300,25.519783395698300,25.519783395698300,25.519783395698300,-20.005827271749300,56.84326000436200,54.82807229362520,-8.36793932457772,-19.18824251169790,56.80436402727710,55.200503300703500,-0.4763677016811310,-0.03795728220846490,8.176130879929830,-0.052048227901189400,-0.18952734301537100,-6.264728222088450,0.5007454164601410,-20.61952493590450,56.580296873888600,55.890884620687800,-2.403651922941210,9.669610112905500,13.91662210226060,18.15224289894100,5.18886037170887,11.95705533027650,-8.66394166660934,-5.029595064220130,FALSE,0,0,0,0,0
GUIDED_NOGPS,0.22070026397705100,26.729613296285900,26.729613296285900,26.729613296285900,26.729613296285900,-20.14824207407140,57.05636448850620,55.298632911587500,-8.515182930406130,-19.245118145422400,56.99430219252140,55.663510572326200,-0.4494602781675720,-0.04835720571516140,8.379194111501600,-0.08019719658303450,-0.23218911789749500,-6.683696584261080,0.5007314016277830,-20.209866203198000,56.024155639233000,56.02539035261210,-2.3919321596622500,8.379574120044710,14.142286777496300,31.04643225669860,9.801748394966130,-32.84900784492490,-8.896524811742160,-4.871289635392630,FALSE,0,0,0,0,0
GUIDED_NOGPS,0.24906563758850100,35.26136411403210,35.26136411403210,35.26136411403210,35.26136411403210,-20.213719717935400,57.24761400777090,55.742016897656700,-8.646117449034220,-19.295986980985200,57.17114241704650,56.11583504558980,-0.44435620586686800,-0.08901422691477960,8.543000830818730,-0.05619952702154480,-0.11163881605215400,-7.034085340885660,0.5007501308743570,-20.80488901397990,56.60812272248600,56.61357485219940,1.922265812754630,8.216457813978200,15.89754968881610,12.74825632572170,-0.897509977221489,-27.076274156570400,-8.799589040875670,-5.3608319182090600,FALSE,0,0,0,0,0
GUIDED_NOGPS,0.290496826171875,24.138767711414700,24.138767711414700,24.138767711414700,24.138767711414700,-20.248286024429500,57.43134148077460,56.21096567117190,-8.746471900850850,-19.340243518384500,57.3335547380275,56.55620044373720,-0.2867990562794540,-0.21171057122612500,8.685632256161520,-0.050315931741471700,-0.05857983019455920,-6.217375159448790,0.5006941076782470,-21.481259476044000,57.20967298428220,57.63178482030920,4.1882578283548400,8.258040249347690,18.86575222015380,67.2223448753357,6.9108642637729600,47.08293974399570,-9.117875967060970,-3.4829738587516100,FALSE,0,0,0,0,0
GUIDED_NOGPS,0.31783556938171400,36.582592692733700,36.582592692733700,36.582592692733700,36.582592692733700,-20.33958682378060,57.716266455542100,56.85609577145070,-8.890991139899650,-19.377340909937300,57.480334931220300,56.98339052199440,-0.39868742664204700,-0.3029932747189950,8.713414050610540,-0.3764983234811010,-0.16931055446159400,-7.446697343135940,0.5002585063561180,-21.763205198523700,57.73007722818510,58.422541257742400,4.1882578283548400,8.258040249347690,18.86575222015380,67.2223448753357,6.9108642637729600,47.08293974399570,-9.309325059721820,-3.4829738587516100,FALSE,0,0,0,0,0
GUIDED_NOGPS,0.35054516792297400,30.57585455287690,30.57585455287690,30.57585455287690,30.57585455287690,-20.49286052077460,57.88308574228340,57.28243926529840,-9.034305720274850,-19.406789389228800,57.61040117497560,57.396248191952500,-0.2755304714485490,-0.30245027467997900,8.818718492139220,-0.14940352760161100,-0.3438913847121880,-7.173663671096310,0.5002318324330530,-21.872069578325400,57.61819193259270,58.8762311582518,-3.8932643830776200,7.7629804611206100,16.039732098579400,-42.72262454032900,-5.066943541169170,1.8320515751838700,-9.43399602754395,-6.327647329658480,FALSE,0,0,0,0,0
GUIDED_NOGPS,0.394237756729126,22.889549827822400,22.889549827822400,22.889549827822400,22.889549827822400,-20.700294585605400,58.082649865826600,57.750720531465300,-9.150281917606110,-19.428154700061300,57.72279071425190,57.79367464594900,-0.1960233876107510,-0.20160562651420900,8.909591597725300,-0.2203105310709780,-0.3825942136216550,-6.551348762844150,0.5000902730311190,-22.00024750540420,57.70529262404270,59.001271562648100,-6.192120909690860,7.7943019568920100,15.152929723262800,-11.490612477064100,5.733136832714080,-22.64041006565090,-9.450248425684390,-3.6374932283448100,FALSE,0,0,0,0,0
GUIDED_NOGPS,0.4177393913269040,42.557571330005300,42.557571330005300,42.557571330005300,42.557571330005300,-20.86699478050160,58.30391523787520,58.26861610371150,-9.240335925948780,-19.44105652540320,57.81665652462910,58.17462848144960,-0.16643207327934700,-0.2253864242134890,8.899598177195920,-0.4826183162880770,-0.5209079678574570,-7.093193281492190,0.4998162147040230,-22.05555173173380,57.8708877812837,59.4901984347086,-2.582782506942750,7.285060733556750,14.367327094078100,-33.08461904525760,-5.242988094687460,-97.48904705047610,-9.548572453557550,-0.9988840033762770,FALSE,0,0,0,0,0
GUIDED_NOGPS,0.451526403427124,29.60197614510550,29.60197614510550,29.60197614510550,29.60197614510550,-20.942445221980600,58.42632820539100,58.618351178865700,-9.263141584926760,-19.445166916338200,57.89126397632170,58.53812482543000,-0.06429337107012340,-0.24419164254582600,8.888199445244820,-0.17616059368658100,-0.2581695184034020,-5.82822916782744,0.49984352067452900,-21.9210064367313,57.8094453743362,60.06202977905870,-0.9802435524761680,7.638401538133620,14.705106616020200,34.71029996871950,-7.267257571220400,69.34500932693480,-9.7851981101606,0.9035221828450280,FALSE,0,0,0,0,0
GUIDED_NOGPS,0.4977378845214840,21.641095494603000,21.641095494603000,21.641095494603000,21.641095494603000,-21.04157694541670,58.59959694256180,59.06334774403770,-9.313093520571330,-19.44020872101440,57.945987498192300,58.883234458757400,-0.01646950707960480,-0.34271349278526400,8.81943480822842,-0.2608077063618920,-0.26258393730211600,-6.017625402719300,0.4996430769066890,-21.021447375623700,57.4829479958773,60.658698435710500,-2.7113236486911800,7.649413496255880,11.419844627380400,-17.11445450782780,9.782284498214720,-68.53612661361690,-9.909650287938600,1.3455690377204900,FALSE,0,0,0,0,0
GUIDED_NOGPS,0.5225107669830320,40.375268330718200,40.375268330718200,40.375268330718200,40.375268330718200,-21.20724746755230,58.7737475623411,59.46350660975760,-9.338066042833200,-19.425954013593300,57.98030724176510,59.209082940572200,-0.05647093684060760,-0.4812561961361560,8.724898159926270,-0.5298733893697410,-0.5915668804317820,-6.006420487492040,0.49949395236072000,-21.729445050842100,57.59754832639080,60.814689039230900,-5.371744930744170,7.678867876529690,8.885940909385680,-31.497257947921800,8.801859617233280,-163.31169605255100,-9.872997845810650,2.625012879651970,FALSE,0,0,0,0,0
GUIDED_NOGPS,0.555349588394165,30.457954512446600,30.457954512446600,30.457954512446600,30.457954512446600,-21.356939318351900,58.913327752259500,59.75576387624770,-9.33536923887544,-19.402222523198900,57.99380574523880,59.51484973266990,-0.09665742203943550,-0.600623570279061,8.628611275649310,-0.403948072987115,-0.4881877305783580,-5.568278573891790,0.4995203403108760,-22.429940878563400,58.56653100027850,61.761284502314000,-5.371744930744170,7.678867876529690,8.885940909385680,-31.497257947921800,8.801859617233280,-163.31169605255100,-9.894619324333550,2.625012879651970,FALSE,0,0,0,0,0
GUIDED_NOGPS,0.5889241695404050,29.786552282475900,29.786552282475900,29.786552282475900,29.786552282475900,-21.50386009437060,59.11432664958450,60.14756830167960,-9.301491526532900,-19.368880062866800,57.98616459750060,59.799767323882300,0.012136712546583800,-0.5717822427350360,8.547533515106680,-0.5728408360380930,-0.4812511923766200,-5.178500759856120,0.4993056296346750,-22.778461609604900,58.66776518283800,62.11117547943460,-2.2563140839338300,7.968699932098390,8.098800480365750,-48.01686108112340,-1.8020560964942000,-97.34303951263430,-9.893840015659700,5.971881985699560,FALSE,0,0,0,0,0
GUIDED_NOGPS,0.6230242252349850,29.329771686304700,29.329771686304700,29.329771686304700,29.329771686304700,-21.609107245092300,59.33514302001230,60.57425742927440,-9.232787054223290,-19.325836958493200,57.95716110213890,60.06312035445960,-0.021954789313359700,-0.7247456098579410,8.298001945290370,-0.6549208492756530,-0.41130638061281000,-4.732661358147030,0.498977564947761,-23.046283308713400,59.18361554061060,62.473719402100000,1.063043437898160,8.030489087104800,10.030151903629300,74.95071291923520,22.998523712158200,33.1335723400116,-9.752361064434950,7.714863445843130,FALSE,0,0,0,0,0
GUIDED_NOGPS,0.6558849811553960,30.43430686064650,30.43430686064650,30.43430686064650,30.43430686064650,-21.712158781751500,59.54402134442770,60.98982473602170,-9.158272910884920,-19.273046477784100,57.90666494145750,60.30424474045190,-0.10501720005756100,-0.8109371543765070,8.1152662104622,-0.7151300837941160,-0.44365771233243100,-4.589281860429250,0.49862687413143700,-23.177020544518300,59.11002155151030,62.67189649007220,1.063043437898160,8.030489087104800,10.030151903629300,74.95071291923520,22.998523712158200,33.1335723400116,-9.721535935314700,7.714863445843130,FALSE,0,0,0,0,0
GUIDED_NOGPS,0.6906728744506840,28.749573311581900,28.749573311581900,28.749573311581900,28.749573311581900,-21.722568085507900,59.73953124032880,61.386476440144500,-9.072350989042900,-19.210503259204200,57.83463484048810,60.5225267980908,-0.23445723559638300,-0.9495816702347150,7.91504092249057,-0.6942221565271800,-0.2677295023412190,-4.455079276790250,0.49826773136223,-22.12434283683510,58.92890997797250,63.34933797330220,3.707173466682430,8.489307761192320,8.63005816936493,42.00634956359860,21.035070717334700,33.761006593704200,-9.822618508895430,8.48805964290879,FALSE,0,0,0,0,0
GUIDED_NOGPS,0.7227218151092530,31.205761561811800,31.205761561811800,31.205761561811800,31.205761561811800,-21.799285152578700,59.93899502084050,61.751603403241200,-9.012520576561330,-19.13824174092620,57.74111523100430,60.71740236817120,-0.25554763245376600,-0.945781950622072,7.744573914959040,-0.8380701895999750,-0.4396704014526220,-4.661589960879000,0.49792457407269400,-22.251129687620100,59.07199398602790,63.742405770246600,-0.5455574952065950,8.424412459135060,5.870142579078670,78.49469780921940,30.22456169128420,-24.102772772312200,-9.666193131442620,6.136352514026650,FALSE,0,0,0,0,0
GUIDED_NOGPS,0.7573285102844240,28.899328211665,28.899328211665,28.899328211665,28.899328211665,-21.94649948578140,60.09323862968360,62.041242609122600,-8.95037045287859,-19.05633458977970,57.62623291553480,60.88835594043290,-0.4122175511401670,-0.9672524368345960,7.419663523688820,-0.7961909969285660,-0.608872111749459,-4.650826893263960,0.497684015593473,-22.323475296775400,58.60617260753110,63.64178386288830,-5.655661225318910,7.855400443077090,3.4520715475082400,-13.371926546096800,-4.652513563632970,-60.32038331031800,-9.526990762008500,5.749476939058780,FALSE,0,0,0,0,0
GUIDED_NOGPS,0.7909855842590330,29.750423809962900,29.750423809962900,29.750423809962900,29.750423809962900,-21.974140713212300,60.29518460773800,62.395873260253100,-8.866535122264920,-18.96489113020020,57.49019373137670,61.034919777942300,-0.46693531715904900,-0.9897875787839950,7.147913348502470,-0.9418308793994850,-0.38211542990088300,-4.311436427927360,0.4972642616121270,-22.942834595337800,59.62519872061830,64.0540838011997,4.04699333012104,8.02278146147728,6.7418403923511500,-3.6212410777807200,-2.3082954809069600,-121.51367664337200,-9.282192940653430,6.4119608923204100,FALSE,0,0,0,0,0
GUIDED_NOGPS,0.824887752532959,29.49746821199510,29.49746821199510,29.49746821199510,29.49746821199510,-22.009071758613800,60.480065189878800,62.73333243594500,-8.753056340520710,-18.864055773178400,57.33327921460880,61.15667304147400,-0.3784171860935950,-0.8428994514844050,6.933152564203400,-0.9582493913178840,-0.4199521967935680,-3.931067624594730,0.4968285149127310,-22.942834595337800,59.62519872061830,64.0540838011997,2.9978569597005800,7.8221045434474900,7.411413639783860,-11.339293420314800,2.9782969504594800,10.551717877388,-9.282192940653430,8.338738901047620,FALSE,0,0,0,0,0
GUIDED_NOGPS,0.857149600982666,30.999571329322600,30.999571329322600,30.999571329322600,30.999571329322600,-22.040283581254300,60.694486013886600,63.07656513512570,-8.648442471880420,-18.75400644520940,57.15584326410520,61.25324091389260,-0.5670545778906230,-0.8196695512303680,6.572338429787370,-1.1356682958850400,-0.43831499548827700,-3.8901914825408400,0.4963304859273120,-22.959947412245800,60.3385490281827,64.76331864783270,3.010205551981930,8.148469030857090,6.641874462366100,128.5905122756960,2.6261329650878900,-47.92969226837160,-9.051388552851550,7.044783468450800,FALSE,0,0,0,0,0
GUIDED_NOGPS,0.8925232887268070,28.27341116833390,28.27341116833390,28.27341116833390,28.27341116833390,-22.065300661329800,60.935603959426600,63.401642035686700,-8.544812331787330,-18.634953017241200,56.9583088055487,61.32429372453420,-0.6250331722688060,-0.7286256909150370,6.336857839754250,-1.1836168441267000,-0.42492618686935500,-3.9521088615092400,0.4958165738093190,-23.79392090357940,61.3918495800582,65.02034574939960,5.300095304846760,7.942227274179460,6.465669721364980,55.85516691207890,6.6765084862709000,51.55808925628660,-8.299909799599080,4.958120122763700,FALSE,0,0,0,0,0
GUIDED_NOGPS,0.9250380992889400,30.75950072603000,30.75950072603000,30.75950072603000,30.75950072603000,-22.06855281667400,61.16491891694690,63.71753632800550,-8.372692899534270,-18.507135733624200,56.74116445544390,61.36954607358830,-0.6262741322636320,-0.5861288416432360,6.097791827293690,-1.2979419530278400,-0.4190806972441330,-2.911731516436800,0.49526916633332300,-22.760085667261000,61.40583358256790,65.63521256083100,3.7241268903017000,6.931702047586440,3.9683550596237200,87.14556694030760,0.48321541398763700,11.377937346696900,-8.220939223549580,9.214997530046890,FALSE,0,0,0,0,0
GUIDED_NOGPS,0.9592413902282720,29.24123314602830,29.24123314602830,29.24123314602830,29.24123314602830,-22.074207353056500,61.36433422590350,63.9873296627072,-8.214569663798830,-18.370823641060400,56.50496118513060,61.38875595647910,-0.7376985300103410,-0.48912841604141900,5.691667071697440,-1.2743924732392900,-0.44938072433219300,-3.071680567116940,0.49476091908360100,-22.760085667261000,61.40583358256790,65.63521256083100,3.048209473490720,6.610877066850660,3.5939816385507600,-5.37913590669632,-9.222600609064100,-15.826646983623500,-8.220939223549580,8.628635181311410,FALSE,0,0,0,0,0
GUIDED_NOGPS,1.0022132396698000,23.272985540056200,23.272985540056200,23.272985540056200,23.272985540056200,-22.101621329391700,61.5818088274655,64.25629678373640,-8.01566472550513,-18.22631301755220,56.250308984797600,61.381723888247600,-0.7872535801511930,-0.40912395569382700,5.409264789613630,-1.1902736434494700,-0.46850780469513900,-2.963663453348510,0.49419900783457800,-22.81372584697540,61.792123562595800,65.71923143629510,1.7190391197800600,6.545902788639070,3.1956762075424200,-28.316110372543300,3.8365747779607800,-47.587651014328,-7.607393987686180,9.52200684927615,FALSE,0,0,0,0,0
GUIDED_NOGPS,1.0297572612762500,36.31369153780890,36.31369153780890,36.31369153780890,36.31369153780890,-22.0886316691061,61.88179802108280,64.60245850387400,-7.74146650520305,-18.07392580135130,55.97787352749570,61.348292027933000,-0.8784701695473320,-0.3188090046289830,5.0211832593704300,-1.8789589355906400,-0.4696658181016620,-0.6533459738512870,0.4934326672400550,-22.12691611362800,62.410366190599000,66.40950958011460,2.971757762134080,6.795267015695570,1.7101891338825200,18.983158469200100,7.43434801697731,-82.14478492736820,-7.080534715466710,11.489905585014600,FALSE,0,0,0,0,0
GUIDED_NOGPS,1.0644731521606400,28.808220118960900,28.808220118960900,28.808220118960900,28.808220118960900,-22.054587791157300,62.06524775127920,64.78425131282250,-7.513897414874480,-17.914008019908500,55.68837283315090,61.28834330295440,-0.9699059653271460,-0.2185632786760580,4.7554594454661400,-1.4368162267627500,-0.4447625499449440,-1.8844263461626800,0.4929394818885930,-22.12691611362800,62.410366190599000,66.40950958011460,2.971757762134080,6.795267015695570,1.7101891338825200,18.983158469200100,7.43434801697731,-82.14478492736820,-7.080534715466710,11.489905585014600,FALSE,0,0,0,0,0
GUIDED_NOGPS,1.10799241065979,22.98059885488860,22.98059885488860,22.98059885488860,22.98059885488860,-22.048917110113500,62.313619375091600,64.9873628428583,-7.294994773330770,-17.74692821882180,55.382573932578300,61.20180053349250,-1.210694999727540,-0.2148082754581370,4.37030635882959,-1.4190280774920300,-0.47214473093992300,-2.370222934765770,0.49234695933137900,-23.482719726302300,63.54167804451280,66.03334232119680,5.253547430038450,5.622784793376920,1.1840231716632800,43.95385384559630,-5.016716569662090,-43.119511008262600,-6.764809946017740,9.051078112608470,FALSE,0,0,0,0,0
GUIDED_NOGPS,1.1399061679840100,31.33889731539110,31.33889731539110,31.33889731539110,31.33889731539110,-22.095260696241300,62.61096255567730,65.29276716050790,-6.996084515342920,-17.57307589078640,55.06128953149510,61.08862555687140,-1.2724965790502300,-0.16746311167890200,4.064097879280520,-1.9273808092965500,-0.6640263088401440,-0.44079084159583200,0.49149909681587100,-23.28987654404030,63.44936323902410,66.25033921435100,1.5146578662097500,5.492248758673670,2.8415676206350300,-9.507887065410610,-1.4491695910692200,-35.227179527282700,-6.534926984878740,11.406595206387000,FALSE,0,0,0,0,0
GUIDED_NOGPS,1.1777234077453600,26.450136844627700,26.450136844627700,26.450136844627700,26.450136844627700,-21.954041104643200,62.85024259013920,65.5193352869255,-6.7773588069012600,-17.392859904543100,54.72537467453410,60.94881835193990,-1.5459346647352300,-0.152752378310575,3.6859410407881800,-1.6481209479934300,-0.29302809643681100,-1.7499626405913800,0.490752536215882,-22.719262870228800,64.16949197154470,66.68649468918560,11.256889253854800,5.814836919307710,4.2144641280174300,76.30677819252010,-6.419871747493740,1.6371240839362100,-5.855907962572180,7.718987172554520,FALSE,0,0,0,0,0
GUIDED_NOGPS,1.205894947052000,35.49862044450460,35.49862044450460,35.49862044450460,35.49862044450460,-21.833648812563000,63.09143666597820,65.73199442315440,-6.551636338111010,-17.206706933827700,54.37572340925710,60.78241616345350,-1.6368599572354300,-0.13953532193636600,3.479234543624440,-2.06751924017149,-0.3483480925648070,-0.7393266277362590,0.4899832120453550,-23.213597852729700,64.24997616155880,66.39207293399010,11.256889253854800,5.814836919307710,4.2144641280174300,76.30677819252010,-6.419871747493740,1.6371240839362100,-5.664352474535320,7.718987172554520,FALSE,0,0,0,0,0
GUIDED_NOGPS,1.241166591644290,28.355219037317500,28.355219037317500,28.355219037317500,28.355219037317500,-21.847400995260600,63.279665789697100,65.87962209535770,-6.379962427318250,-17.015059886320100,54.013265450168200,60.58949262645620,-1.8364769314841100,-0.2171106895386660,3.1940824700694600,-1.7970283103770800,-0.6500908621860090,-1.8800994854616500,0.4892871899701280,-23.614438433054600,64.26775236153790,66.15959059371380,3.7735965102911000,4.856367409229280,3.5367149859666800,27.108144760131800,-16.42404943704610,-51.3217568397522,-5.545120197460870,5.615904052102720,FALSE,0,0,0,0,0
GUIDED_NOGPS,1.2814559936523400,24.823507827064800,24.823507827064800,24.823507827064800,24.823507827064800,-21.777569600245300,63.458844557319600,66.12491075554570,-6.15884297500637,-16.818376332593000,53.638962842727200,60.370156890661700,-1.9786199983012500,-0.15793659861232000,2.9839922545022100,-1.6965870678574300,-0.49097316966866300,-1.497640542127110,0.4883394125979520,-22.57443205107160,63.93300963102620,66.60635195776890,6.002692878246310,3.4546498209238100,6.508398801088330,-5.456444248557090,-9.346674382686620,25.373870134353600,-5.5342362920249700,7.632608331442310,FALSE,0,0,0,0,0
GUIDED_NOGPS,1.3068883419036900,39.32811371883470,39.32811371883470,39.32811371883470,39.32811371883470,-21.655491905246300,63.6025375388463,66.36882641785030,-5.965237507916310,-16.617126935061700,53.25380662736290,60.12455274483520,-2.113433418365310,-0.23705067976857800,2.7715699562202300,-2.1897227579043100,-0.4494576031277860,-0.5355136252980850,0.4873476626223770,-21.138832172139500,64.02877277157530,67.48932790859020,5.46274371445179,2.2452665492892300,5.550536885857580,29.107308387756300,-20.483586192131000,-17.00136661529540,-5.205592517592500,5.915857785919350,FALSE,0,0,0,0,0
GUIDED_NOGPS,1.3425416946411100,28.04897850001670,28.04897850001670,28.04897850001670,28.04897850001670,-21.58160573096970,63.64776065565100,66.52865371325250,-5.756813904616410,-16.411793876932300,52.85881350348680,59.85285774117560,-2.1837305790767300,-0.12181482302159100,2.556932115326230,-1.6797271696384800,-0.5608542398211920,-1.1189868308559900,0.48646555050611000,-21.783604371424200,63.155984006054900,66.79905181416380,4.805490747094150,1.4706150628626300,6.05582483112812,-21.637417376041400,-23.099903762340500,137.2248649597170,-4.697553820505290,8.174541153400510,FALSE,0,0,0,0,0
GUIDED_NOGPS,1.3885438442230200,21.741720446828900,21.741720446828900,21.741720446828900,21.741720446828900,-21.439703349887800,63.730494608634500,66.72239591803530,-5.551734674883490,-16.202869291151500,52.45502249350600,59.555282319696300,-2.2277575515798100,-0.2011283670459540,2.2895075843186000,-1.5879104732552600,-0.4256170362913010,-1.5444931488874500,0.48545658825570400,-21.783604371424200,63.155984006054900,66.79905181416380,8.62562209367752,0.4251633305102590,4.021350666880610,81.73308372497560,-35.09611785411840,-64.45963978767400,-4.697553820505290,5.221950693607430,FALSE,0,0,0,0,0
GUIDED_NOGPS,1.409390926361080,47.97986684664490,47.97986684664490,47.97986684664490,47.97986684664490,-21.364965323787500,63.831702467329500,66.9184521561509,-5.36183967658292,-15.990853689355200,52.04349160683680,59.23206893260770,-2.2474899680919700,-0.12903625396499800,2.098143186134590,-2.567690530074730,-0.712224051811688,0.43093975632778800,0.48440524559915800,-22.25757120751030,64.69248966485380,67.02415806486840,5.7632926851511,-1.2893449515104300,5.3463466465473200,-7.997122406959530,-14.048226177692400,45.97064256668090,-4.199655776131460,4.082489444281250,FALSE,0,0,0,0,0
GUIDED_NOGPS,1.445967435836790,27.342090338394100,27.342090338394100,27.342090338394100,27.342090338394100,-21.34894161151500,63.8699247635241,66.99765104289740,-5.204880154968920,-15.77625439081780,51.62529450391850,58.883491168698300,-2.1914811362374000,-0.16716493123294800,1.9419969508584600,-1.8057171727484900,-0.7236852298574920,-1.4115310153157900,0.4835258784036890,-22.53972879459100,65.39671370103820,67.11607866698970,4.180248454213140,-2.681710012257100,3.7555430084466900,116.34987592697100,-17.399920523166700,-18.544018268585200,-3.6208298821445700,5.035746076454550,FALSE,0,0,0,0,0
GUIDED_NOGPS,1.4785804748535200,30.66796329470260,30.66796329470260,30.66796329470260,30.66796329470260,-21.280566448396100,63.994067952101200,67.17990514247340,-5.00036697151349,-15.559583951401400,51.201517160225700,58.509852877716400,-2.093518507736260,-0.13277909090845900,1.8416294554392400,-2.124512088197170,-0.6552884567559700,-0.48767131926521000,0.4823915107862820,-21.873944472920400,66.00415992699350,67.6192380492624,4.301413521170620,-2.7098091319203400,3.5382304340601000,10.037891566753400,-16.403335332870500,-26.32581889629360,-3.30176484277154,3.3883198165731000,FALSE,0,0,0,0,0
GUIDED_NOGPS,1.5110788345336900,30.775976813295700,30.775976813295700,30.775976813295700,30.775976813295700,-21.173198880426100,64.10180845084080,67.37886966827380,-4.783299099825050,-15.341358592504400,50.773254530283,58.111487294752300,-2.1800612733885500,-0.14677254769222900,1.7076203968716500,-2.1436045027495500,-0.5933065874707000,-0.17698181882097200,0.48117294678584800,-22.204628852224500,66.1135023614886,67.53849997872120,8.27910378575325,-2.8813766315579400,6.487663835287090,76.7814040184021,-1.8455900251865400,45.475298166275000,-3.1032623872852600,4.953888820572880,FALSE,0,0,0,0,0
GUIDED_NOGPS,1.5445079803466800,29.919350581723000,29.919350581723000,29.919350581723000,29.919350581723000,-21.065863437646400,64.17858521829520,67.54281257285130,-4.605057235760230,-15.122096630011200,50.341607211677300,57.688756164619200,-2.1812700034282300,-0.1934748199158370,1.6329439109634900,-2.0836719787246500,-0.6074176110263740,-0.6412185856108370,0.4799731096246700,-22.204628852224500,66.1135023614886,67.53849997872120,8.331535011529920,-4.490420967340470,4.595165699720380,28.089681267738300,-23.197942972183200,9.859877824783330,-3.1032623872852600,2.807097825518290,FALSE,0,0,0,0,0
GUIDED_NOGPS,1.5912420749664300,21.399073488296200,21.399073488296200,21.399073488296200,21.399073488296200,-21.00779788638260,64.20812886401720,67.71217342815960,-4.4366834218882100,-14.90231690324070,49.907678109071700,57.24204886623570,-2.2168104658875700,-0.19160014643208000,1.5975084626626400,-1.7799224224586000,-0.6604707020584520,-1.223625286049800,0.4787017538851660,-22.434074244717100,65.57797197377240,67.260299369605,5.415629968047140,-6.075676530599590,5.630598962306980,16.383187472820300,-22.16818630695340,45.38043439388280,-3.2264797676570100,2.507318048082080,FALSE,0,0,0,0,0
GUIDED_NOGPS,1.6111886501312300,50.14590755840370,50.14590755840370,50.14590755840370,50.14590755840370,-20.839037207208500,64.22279972851020,67.97460195810080,-4.172984741834730,-14.682537203895800,49.47256909821870,56.77178153700660,-2.200749062610870,-0.18215837039989000,1.5624938180476900,-2.6329706114786400,-0.5487991384386330,2.8067792252071400,0.4772185611764610,-19.693602982844600,64.90961121403270,68.63207250185000,2.9666412621736500,-7.4677832424640700,2.9382888227701200,-20.675602555275000,-19.197259843349500,-5.559955537319180,-2.831433126307470,4.046253156300210,FALSE,0,0,0,0,0
GUIDED_NOGPS,1.6499905586242700,25.774145379240800,25.774145379240800,25.774145379240800,25.774145379240800,-20.809470261056700,64.15360886381320,68.025799637773,-4.043581337208690,-14.463272705012200,49.03737768997400,56.278396197205200,-2.1568375629934500,-0.2759295039064660,1.4246863205279200,-1.8142339501272700,-0.7919306188210350,-1.09521724198263,0.476092845603734,-21.24124915656740,65.0817212135805,67.99012793040260,2.9666412621736500,-7.4677832424640700,2.9382888227701200,-20.675602555275000,-19.197259843349500,-5.559955537319180,-2.619233905444480,4.046253156300210,FALSE,0,0,0,0,0
GUIDED_NOGPS,1.6805660724639900,32.713562587257100,32.713562587257100,32.713562587257100,32.713562587257100,-20.75833571739900,64.06236001994140,68.16980621645900,-3.8902301718170000,-14.245034389907700,48.60319369430900,55.762359874354900,-2.2308996520414300,-0.2576027189811470,1.368034597117720,-1.9607433985455600,-0.8440016077656390,-0.32363108131278800,0.4747424757565200,-20.271548886905700,64.03311276269220,67.34722174259880,-0.6913698278367520,-8.561132103204730,5.330653488636020,-51.62562131881710,-25.262227654457100,49.900588393211400,-2.839424726185650,1.940247995544110,FALSE,0,0,0,0,0
GUIDED_NOGPS,1.7129647731781000,30.868161144556100,30.868161144556100,30.868161144556100,30.868161144556100,-20.697719815777400,63.93450061222210,68.31708594509790,-3.7620077818545400,-14.028327481131100,48.1710958843251,55.22416372761050,-2.2305967758404200,-0.25243696153450100,1.2811419977138800,-1.8601278935055400,-0.8229619193755210,-0.6739972591489890,0.47333759175874100,-19.70609042289100,63.43086997520530,68.19718100444770,-0.6913698278367520,-8.561132103204730,5.330653488636020,-51.62562131881710,-25.262227654457100,49.900588393211400,-2.779466403914840,1.940247995544110,FALSE,0,0,0,0,0
GUIDED_NOGPS,1.756173849105840,23.145712504069800,23.145712504069800,23.145712504069800,23.145712504069800,-20.463414988983300,63.79439374869070,68.44302368540550,-3.6905958197399600,-13.813649869411200,47.74214866026650,54.66432217214020,-2.246874610736440,-0.24016663341227900,1.2628423201018300,-1.6919929469285700,-0.4639871579708960,-1.5379306913063600,0.47191948437356900,-19.70609042289100,63.43086997520530,68.19718100444770,11.257689446210900,-9.557095915079120,3.5442203283309900,98.45438003540040,-24.797523021698000,42.0842707157135,-2.779466403914840,-2.1267431091801400,FALSE,0,0,0,0,0
GUIDED_NOGPS,1.781325340271000,39.771515266451700,39.771515266451700,39.771515266451700,39.771515266451700,-20.23094537923060,63.652788403515800,68.62593346714900,-3.5081205394550100,-13.60149054260630,47.31739871353370,54.083372003507200,-2.35526821876066,-0.3265991555425000,1.2317883314318300,-1.9717363110976100,-0.4284193748758700,0.6956062727165300,0.470361442135969,-19.763028222849400,63.601652675584400,68.25396199588070,9.254596382379530,-10.395339131355300,3.4490935504436500,-0.8284695446491240,-11.822350323200200,38.85442614555360,-2.7098644415084700,2.5194644723038900,FALSE,0,0,0,0,0
GUIDED_NOGPS,1.8129677772522000,31.606462503014200,31.606462503014200,31.606462503014200,31.606462503014200,-20.111408808628800,63.48408045281400,68.66494245121210,-3.464517049027320,-13.39232801465280,46.897871690697100,53.48187152205130,-2.222303005197320,-0.37181778261233400,1.2229533750187200,-1.8140932780953000,-0.7003273012581050,-1.5294361595136600,0.469041853904878,-19.486554890948400,63.700940205574700,67.64658750082770,4.999352246522900,-11.859995126724200,3.4172944724559800,98.08443784713750,-40.043070912361100,104.40741777420000,-2.573113254889790,-1.2022866099724300,FALSE,0,0,0,0,0
GUIDED_NOGPS,1.8515946865081800,25.893962217557700,25.893962217557700,25.893962217557700,25.893962217557700,-19.95127580132860,63.28663034529220,68.76773469313830,-3.374914359138190,-13.186628754514300,46.48456885751000,52.86039965727070,-2.1334228207450000,-0.35087354113101900,1.2207803076455900,-1.6758258188565700,-0.6009761066307760,-1.090808488312830,0.4675444990979640,-19.444265524716900,63.33958301743830,67.7547538907425,6.286312639713290,-12.9681795835495,4.704689979553220,21.444222331047100,-22.78951406478880,55.32073378562930,-2.5406907840729400,-0.07597219413805180,FALSE,0,0,0,0,0
GUIDED_NOGPS,1.8841524124145500,30.71670035445410,30.71670035445410,30.71670035445410,30.71670035445410,-19.77866114468050,63.051971537750700,68.9073365123461,-3.258342889849760,-12.984845615131300,46.07846376292250,52.21955509220360,-2.00860709007854,-0.385463966965491,1.2205071000787900,-1.6613027276392900,-0.5871166293031570,-0.5325011009367570,0.46593984533705200,-19.51978348456140,62.85078792147530,68.33470283835760,6.139850243926050,-13.555115461349500,3.6069203168153800,29.32915687561040,-7.954699546098710,61.458903551101700,-2.1943337775479700,-0.4588632074988580,FALSE,0,0,0,0,0
GUIDED_NOGPS,1.9165451526641800,30.87656892985180,30.87656892985180,30.87656892985180,30.87656892985180,-19.662418691799500,62.7640288968933,68.97996881064620,-3.202191206117980,-12.787416262369400,45.680498903094100,51.55995538780960,-1.884757831179640,-0.3311146576358190,1.27016502994402,-1.5750541500663900,-0.7280159399336780,-1.1741746437820200,0.46443348661935900,-19.82997789761430,61.82922616128230,68.10044574129930,5.343692377209660,-15.004809200763700,3.0650638043880500,-30.673280358314500,-18.506145477294900,13.20112943649290,-2.4619553753599500,-1.314673957670410,FALSE,0,0,0,0,0
GUIDED_NOGPS,1.9526464939117400,27.704924963009900,27.704924963009900,27.704924963009900,27.704924963009900,-19.53504638053430,62.50497935188690,69.0402637436267,-3.140139620106770,-12.594761603968800,45.29158238540790,50.882236107351900,-1.8635868060735400,-0.4214769931380300,1.239273685153640,-1.5626720663222400,-0.6661291196086990,-1.2389856727744100,0.4629015666912110,-19.11884316950540,62.34095158957840,67.98139123440230,4.62440550327301,-15.027906000614200,3.2112736254930500,14.715039730072000,-12.001512944698300,45.913827419281000,-2.337115050882520,-0.7139814451694120,FALSE,0,0,0,0,0
GUIDED_NOGPS,1.9853460788726800,30.653842780717400,30.653842780717400,30.653842780717400,30.653842780717400,-19.323487014140500,62.206876713724100,69.17506524010720,-3.05122589727037,-12.407284218493700,44.91258459248350,50.187049940778600,-1.6446673970652900,-0.2990361405903250,1.2701340806493400,-1.5015117159751800,-0.4989436732161740,-0.7366625671050080,0.46119221125466700,-18.502033211096500,62.270851192205900,69.0537106550141,6.73254132270813,-15.897279977798500,2.599792927503590,-18.98035705089570,-15.650805830955500,24.616998434066800,-2.2633521520170500,-0.7041135293660360,FALSE,0,0,0,0,0
GUIDED_NOGPS,2.0184547901153600,30.14145479109480,30.14145479109480,30.14145479109480,30.14145479109480,-19.27458487483200,61.90650615705810,69.29326157590130,-2.9753127892810400,-12.22536678428060,44.54433484619040,49.47506582910430,-1.5912170046634100,-0.4075317745652730,1.250782340461700,-1.4951254454801100,-0.8453555601414140,-0.8733620974406710,0.45947905216241700,-18.592278750009300,62.07122199816570,69.0538173808935,-2.196626178920270,-16.843771934509300,3.915354609489440,-68.94407272338870,8.291637897491460,23.413029313087500,-2.222503011105780,-0.022899916739760300,FALSE,0,0,0,0,0
GUIDED_NOGPS,2.052802801132200,29.1182138790925,29.1182138790925,29.1182138790925,29.1182138790925,-19.129230219774100,61.58818926367900,69.34761737552610,-2.9257755963417300,-12.049370508388200,44.1876180716615,48.746968088792300,-1.4553517354671600,-0.3020485741794180,1.2873303625453200,-1.4274102168486500,-0.6358221778441940,-1.1769009601270000,0.4578577020194030,-18.87188825263920,61.927117326391700,68.97546937336700,5.2593328058719600,-17.59447604417800,-0.12473969254642700,-47.98344373703000,-15.297314524650600,-62.495458126068100,-2.1792075939369500,-1.8035712144971000,FALSE,0,0,0,0,0
GUIDED_NOGPS,2.0865554809570300,29.631463309525300,29.631463309525300,29.631463309525300,29.631463309525300,-18.92196694037730,61.22965005155650,69.43037046598660,-2.8596252205598100,-11.8796335555459,43.84317146130660,48.00345553613550,-1.4339160405307300,-0.3352355028611580,1.2808584381416200,-1.3191777223174300,-0.499139635254369,-0.9325687252460030,0.45614725911399400,-17.403871330375000,60.93750805851770,69.31770930610810,5.447087436914440,-17.523913085460700,1.0503525845706500,-68.69258880615230,4.003778845071790,-53.998374938964800,-2.3602826721138000,0.05485687776236900,FALSE,0,0,0,0,0
GUIDED_NOGPS,2.121166944503780,28.895545420725600,28.895545420725600,28.895545420725600,28.895545420725600,-18.708535844401800,60.78131371472650,69.4837473786851,-2.764575435311050,-11.716469477103000,43.51168113882530,47.24524061163870,-1.3615851909939400,-0.2857951785540200,1.2678247296579400,-1.117013519522460,-0.48295222080323200,-0.5616356391160080,0.45446242208428000,-17.654078475771700,58.923802810480300,68.73853595806970,6.983655691146850,-18.2126447558403,1.141311228275300,-34.33683514595030,-2.6997260749340100,-59.554994106292700,-2.44733674379678,2.551764010002050,FALSE,0,0,0,0,0
GUIDED_NOGPS,2.154193639755250,30.28115975511150,30.28115975511150,30.28115975511150,30.28115975511150,-18.44860699746690,60.29401363650050,69.54535040883970,-2.7205972178862600,-11.560165639977900,43.19377882322090,46.47304850439990,-1.3107879001977900,-0.23456555812775100,1.299736974285830,-0.9847643202276100,-0.36298455815394800,-1.1003190654948200,0.4527338030079920,-15.901218974398200,57.645214248333900,69.32978633583870,5.684104561805730,-17.93028861284260,0.5137921776622530,-25.655949115753200,15.104281902313200,2.2883061319589600,-2.2962848893172600,-0.9502097274732390,FALSE,0,0,0,0,0
GUIDED_NOGPS,2.204313278198240,19.954537020738100,19.954537020738100,19.954537020738100,19.954537020738100,-18.19972930821420,59.82177890759270,69.59879250343520,-2.6825793546728900,-11.410981655607200,42.89003849281360,45.68761627649220,-1.2490655083807900,-0.17034342379623700,1.3040223843814800,-1.090328478722870,-0.4301888418850020,-1.30594440700941,0.4509602396353710,-15.901218974398200,57.645214248333900,69.32978633583870,5.684104561805730,-17.93028861284260,0.5137921776622530,-25.655949115753200,15.104281902313200,2.2883061319589600,-2.2962848893172600,-0.9502097274732390,FALSE,0,0,0,0,0
GUIDED_NOGPS,2.221781015396120,57.263249870300100,57.263249870300100,57.263249870300100,57.263249870300100,-17.854029963587700,59.23023773315820,69.667291262353,-2.6108883547309300,-11.269147808894600,42.60097304925360,44.889691987345300,-1.2822223415415000,-0.16873672851569700,1.301122755635400,-0.1252039136974960,0.2242680122302400,0.08157862377233130,0.449192904014067,-16.084105277870100,58.004402173642600,69.47740174130520,7.819277048110960,-18.319952487945600,-2.669501304626470,-18.355269730091100,1.8973715603351600,-161.8416428565980,-2.205471371961110,-1.2990138280074500,FALSE,0,0,0,0,0
GUIDED_NOGPS,2.255476474761960,29.681159420289900,29.681159420289900,29.681159420289900,29.681159420289900,-17.700377176822400,58.87463793056240,69.60659908650080,-2.6038407094480800,-11.13486348716010,42.327030981535100,44.0800338181273,-1.2317774458178400,-0.17643691303124000,1.281436229456720,-1.126109738282180,-0.5093534955896100,-1.4784499321000200,0.44762631894234700,-16.55451950825930,57.268035524259600,69.0611295557909,7.386364787817000,-19.64966505765920,-1.832471415400510,-77.75965332984920,-5.6824807077646300,16.654451191425300,-2.275020911139950,-0.13623586031957300,FALSE,0,0,0,0,0
GUIDED_NOGPS,2.2914161682128900,27.83158928488480,27.83158928488480,27.83158928488480,27.83158928488480,-17.446892416619800,58.39212159393520,69.61444781679680,-2.5945842180908300,-11.008295609089000,42.06859303000890,43.259409196126300,-1.037774673623510,0.04600089717321280,1.3102595210324600,-0.8525534549113190,-0.30348377699466600,-1.4536610251969300,0.44589364613992200,-16.16097523846830,57.21809310219870,69.37089426206230,8.329054713249210,-19.783538579940800,-1.6756350174546200,16.197261214256300,-16.01535528898240,-67.43822693824770,-2.174955628735160,-2.4669759626362200,FALSE,0,0,0,0,0
GUIDED_NOGPS,2.3222410678863500,32.442309626020000,32.442309626020000,32.442309626020000,32.442309626020000,-17.15511593403940,57.87545497705890,69.59598936262530,-2.5557971983682200,-10.889577053681000,41.82596885039630,42.42859391913200,-0.994735090342317,0.10827957588159400,1.2765865817026000,-0.6554907787971310,-0.15334071848398300,-1.0322974840901800,0.44420165188148800,-15.277108290591400,56.35303008065080,68.57970185312730,8.657392859458920,-19.96215283870700,-1.0726540349423900,-104.88911867141700,1.4427333138883100,13.751271367073100,-2.436961088625320,0.39833492484785100,FALSE,0,0,0,0,0
GUIDED_NOGPS,2.355325222015380,30.230089516094200,30.230089516094200,30.230089516094200,30.230089516094200,-16.96241935912470,57.39450583002440,69.54646775056590,-2.5009858446059500,-10.778805089199300,41.599393677802500,41.5883712798176,-0.9155009472670550,0.14529125041598200,1.2608420351703600,-0.7218765755687060,-0.36218294212077000,-0.8382880040900980,0.4425462090352260,-15.277108290591400,56.35303008065080,68.57970185312730,3.657238557934760,-20.518863201141400,-2.488655410707000,-176.1896014213560,15.582005679607400,-109.07267332077000,-2.436961088625320,2.0051499471414600,FALSE,0,0,0,0,0
GUIDED_NOGPS,2.3993449211120600,22.71980932777210,22.71980932777210,22.71980932777210,22.71980932777210,-16.736392768728400,56.89355691036010,69.50293650423180,-2.468299482259270,-10.67603980211980,41.389024990729600,40.73953119012110,-0.8305284847936310,0.2297850126781240,1.2818679187566000,-0.768667331015082,-0.3265792299021650,-1.1834224112026800,0.44083448316853600,-15.352629336742500,56.19372957109050,68.62896998954160,5.636510252952580,-20.244373381137800,-2.5732185691595100,-17.551910877227800,10.990537703037300,8.046665787696840,-2.4932616153769000,0.4704841340414000,FALSE,0,0,0,0,0
GUIDED_NOGPS,2.425410032272340,38.378800772278500,38.378800772278500,38.378800772278500,38.378800772278500,-16.38877347754020,56.343698990951600,69.48136479601540,-2.4315840915628100,-10.58130252607980,41.194939175090300,39.88286930562730,-0.8381859806268610,0.19008966076930300,1.2575622637082900,-0.26757371575620300,0.15469691176696900,-0.8978241247390680,0.4391023291594990,-14.502091518119000,55.00813063550320,68.653516792919,11.797208338975900,-20.752938091754900,-1.0555393993854500,49.299561977386500,6.132697686553000,38.402894139289900,-2.474250718120790,0.8006996613060100,FALSE,0,0,0,0,0
GUIDED_NOGPS,2.455730438232420,32.98420113084990,32.98420113084990,32.98420113084990,32.98420113084990,-16.132967933917200,55.86345839687540,69.36886421242520,-2.454190175976450,-10.494574270827600,41.01712818822120,39.019186149949400,-0.7852864856702300,0.2327725267489170,1.268438913074710,-0.49101087088695200,-0.10629240412031000,-1.771147314081740,0.43752644641691200,-13.967337153330000,53.381267832430300,68.1778177677797,8.872570097446440,-20.888730883598300,-4.647215083241460,1.495175063610080,5.380216613411900,-30.43684959411620,-2.48481992565699,-1.9469477707896600,FALSE,0,0,0,0,0
GUIDED_NOGPS,2.4919021129608200,27.649768613129100,27.649768613129100,27.649768613129100,27.649768613129100,-15.795275969692900,55.255589067497000,69.26420142617460,-2.462838529018230,-10.415794151171000,40.85549622289610,38.14928623911060,-0.7023785545951470,0.14878510561985500,1.231754607372810,-0.2566772065559540,0.043427909185129200,-1.5783567888754000,0.4359104216998830,-12.793943635420800,51.987769670681000,68.02432288362620,8.872570097446440,-20.888730883598300,-4.647215083241460,1.495175063610080,5.380216613411900,-30.43684959411620,-2.4146950999206600,-1.9469477707896600,FALSE,0,0,0,0,0
GUIDED_NOGPS,2.5324203968048100,24.68253986935800,24.68253986935800,24.68253986935800,24.68253986935800,-15.359029884093300,54.59289437219170,69.22119742047630,-2.4312844646910100,-10.344857815926800,40.7098563713394,37.273977205925700,-0.6343229232311110,0.21146324367297700,1.2392242730038600,-0.26424520918309300,0.15283962935723700,-1.1607464643411900,0.434137571887975,-12.705654237286500,51.4410248957705,67.83579098596450,14.670191705226900,-21.40357494354250,-0.09178861510008570,32.13890194892880,3.0304258689284300,63.48249912261960,-2.4028994024479400,0.6152260878377250,FALSE,0,0,0,0,0
GUIDED_NOGPS,2.5719125270843500,25.324405426782500,25.324405426782500,25.324405426782500,25.324405426782500,-14.931652038700200,53.94699512022220,69.17332549895620,-2.402392665193150,-10.281615876869900,40.57992728923960,36.394068924382800,-0.5123593835125130,0.13584285763803300,1.2176696900871800,-0.1666675205541700,0.22347823016930200,-1.1485368724074400,0.4323700311364460,-12.562161680705500,51.15110587050950,67.74191464742850,14.670191705226900,-21.40357494354250,-0.09178861510008570,32.13890194892880,3.0304258689284300,63.48249912261960,-2.3976662745767300,0.6152260878377250,FALSE,0,0,0,0,0
GUIDED_NOGPS,2.6051292419433600,30.109215164066800,30.109215164066800,30.109215164066800,30.109215164066800,-14.596645365255700,53.25753756864190,69.07116993469910,-2.3544460620497800,-10.225872337681800,40.46532985976240,35.51037263402540,-0.438696220200749,0.24557859783416200,1.253835755185810,0.14766638081179100,0.17710567498776900,-0.8360292735003840,0.4307176527477630,-12.591952263012800,50.86205606817040,67.67039100021340,6.992797553539280,-20.69655805826190,-3.773628920316700,1.2946166098117800,14.897024631500200,10.683757066726700,-2.4324357463124100,1.762539706831900,FALSE,0,0,0,0,0
GUIDED_NOGPS,2.6375746726989700,30.824151919572000,30.824151919572000,30.824151919572000,30.824151919572000,-14.215640593800100,52.637050474661600,68.91777830478280,-2.3221898759961200,-10.177383022900500,40.36558385756440,34.62370006433320,-0.2801994393547820,0.35778099681601800,1.2686184189838400,0.11246686546763200,0.3381633047085230,-0.9956528527930250,0.429162074668726,-11.929647730210500,49.92421941523610,66.92081448705270,11.959395557642000,-20.355677604675300,-4.8223186284303700,57.85641670227050,19.433356821537000,5.719530209898950,-2.5120585933867900,1.532034909609130,FALSE,0,0,0,0,0
GUIDED_NOGPS,2.674814224243160,26.859188391319100,26.859188391319100,26.859188391319100,26.859188391319100,-13.837323943070700,52.01766020057530,68.76320292546880,-2.2906081493168500,-10.1358540068691,40.28010461280630,33.734862559104600,-0.247855718870421,0.31870361694452400,1.2442902456556000,0.09782321519516700,0.32391949936508500,-1.0140992730928100,0.42759528909673100,-11.783562883511000,49.594586778867200,66.84298059849720,11.959395557642000,-20.355677604675300,-4.8223186284303700,57.85641670227050,19.433356821537000,5.719530209898950,-2.509746330372280,1.532034909609130,FALSE,0,0,0,0,0
GUIDED_NOGPS,2.711759567260740,27.069281754406300,27.069281754406300,27.069281754406300,27.069281754406300,-13.529253377186900,51.39498815796640,68.6093847700674,-2.2678245146238100,-10.100940042684700,40.20819967516630,32.84467020083790,-0.1665221463990270,0.40629044104447600,1.2314278255097000,0.05844186569550760,0.16666987567972500,-1.1275510880353000,0.4260106988741410,-11.783562883511000,49.594586778867200,66.84298059849720,6.999995559453960,-20.05171924829480,-4.858897626399990,44.32292878627780,14.331644773483300,14.257395267486600,-2.509746330372280,0.8664368703336500,FALSE,0,0,0,0,0
GUIDED_NOGPS,2.7404980659484900,34.804902538399600,34.804902538399600,34.804902538399600,34.804902538399600,-13.202619906120900,50.706304471225700,68.43636290048010,-2.2417524767102100,-10.07224299114790,40.14906547785340,31.953930935113200,-0.21614688581375400,0.39429588180999400,1.2134688035825100,0.6275420391195150,0.4100526923547490,-0.9810808991210870,0.4244916378651460,-11.629793781026300,48.66736157133740,66.4120344647159,6.999995559453960,-20.05171924829480,-4.858897626399990,44.32292878627780,14.331644773483300,14.257395267486600,-2.4839249111905900,0.8664368703336500,FALSE,0,0,0,0,0
GUIDED_NOGPS,2.7747621536254900,29.186497526216500,29.186497526216500,29.186497526216500,29.186497526216500,-12.904245551697800,50.15444074129690,68.24971723127160,-2.236239059705200,-10.049310249711800,40.101784001621100,31.063449694973900,-0.12043186979722200,0.45793366144150100,1.2387636621217100,0.1858985116901300,0.28505789064427600,-1.2775774307098400,0.42298172023339300,-10.792703454123300,47.78755122319310,66.25134223856970,8.697210997343060,-19.89170014858250,-6.01198747754097,31.242311000824000,8.167557418346410,19.444647431373600,-2.4990805891435700,0.3881639194000560,FALSE,0,0,0,0,0
GUIDED_NOGPS,2.8075079917907700,30.54534861703830,30.54534861703830,30.54534861703830,30.54534861703830,-12.62483062558920,49.51572411618940,68.03073503960320,-2.2379581663318100,-10.031633181430700,40.06531943878010,30.174027525308300,-0.09698836604906370,0.47860053320949100,1.236207570546540,0.4800717134132230,0.2990077729882210,-1.363903202317310,0.4215422733937510,-10.792703454123300,47.78755122319310,66.25134223856970,4.232441261410710,-19.27011013031010,-7.911163568496700,-77.57542729377750,17.153145372867600,-68.81563067436220,-2.4990805891435700,-0.6050180499580240,FALSE,0,0,0,0,0
GUIDED_NOGPS,2.842923641204830,28.23876657914230,28.23876657914230,28.23876657914230,28.23876657914230,-12.356469679281900,48.874426510988500,67.8204198124788,-2.2447139463071300,-10.018645543909600,40.03851485721250,29.286460707231600,-0.016637166879387500,0.5165503982594040,1.1852791187739800,0.446563632309075,0.26364041194921800,-1.4229338810788100,0.4200783108308270,-10.088572604108200,45.863689837163900,66.26761233230180,4.232441261410710,-19.27011013031010,-7.911163568496700,-77.57542729377750,17.153145372867600,-68.81563067436220,-2.499437917897910,-0.6050180499580240,FALSE,0,0,0,0,0
GUIDED_NOGPS,2.87589168548584,30.3356935695016,30.3356935695016,30.3356935695016,30.3356935695016,-12.035931890237700,48.20337933589400,67.55102157844680,-2.2417439327715800,-10.009721918253100,40.020088864384600,28.401539882467500,0.05173377376438060,0.5695652060191320,1.1591565266847400,0.6902044029930350,0.453582497657419,-1.3082961117713800,0.4187460205173990,-9.229582399364640,44.911633121661300,65.23507026369770,5.646173655986790,-19.096040725708000,-9.117823839187620,-18.919770419597600,15.31003713607790,-61.48747205734250,-2.483879654432960,0.002694723070981590,FALSE,0,0,0,0,0
GUIDED_NOGPS,2.9100406169891400,29.288605226038000,29.288605226038000,29.288605226038000,29.288605226038000,-11.77474277919870,47.57463091892870,67.28899407969240,-2.2310423630076600,-10.00417613801450,40.008632271360600,27.520049177729300,0.11722504262104800,0.6719358678558720,1.1549292799187400,0.5724869798970190,0.32096949185440200,-1.2155279727785100,0.4173964591168430,-9.229582399364640,44.911633121661300,65.23507026369770,2.916506491601470,-18.675589561462400,-9.091053158044820,-47.22250699996950,12.657874822616600,-7.387848198413850,-2.483879654432960,0.6232556155373100,FALSE,0,0,0,0,0
GUIDED_NOGPS,2.942638874053960,30.680525788353400,30.680525788353400,30.680525788353400,30.680525788353400,-11.436992068275900,46.919110105657000,66.99884766788380,-2.2344396873195000,-10.00125971814480,40.00260475681560,26.64276532910240,0.16840578450606900,0.6658481415929800,1.0533677820552300,0.7678556019145060,0.5461506549692360,-1.3822448650936300,0.41611667257132600,-9.246462247269790,44.27193981023680,64.8686964519056,7.929336279630660,-17.992259562015500,-9.908563643693920,9.718640148639680,18.7600314617157,-7.571098208427430,-2.477026235397320,-0.40304412683716300,FALSE,0,0,0,0,0
GUIDED_NOGPS,2.98010516166687,26.696607472471500,26.696607472471500,26.696607472471500,26.696607472471500,-11.125350390621700,46.237439708762800,66.66571465437950,-2.2162917513015500,-10.000160283942100,40.00033153104960,25.77045680642550,0.1494905360950710,0.7294589739937790,1.0091979091881100,0.7122810235772450,0.44477528313528700,-1.1342247344499300,0.4149168731954570,-8.264164180472530,42.505904325992900,64.17612822773750,5.015356466174130,-18.099145591259000,-11.528660356998400,-69.74186897277830,33.68821442127230,-34.31369960308080,-2.449736074502460,1.1063467846826700,FALSE,0,0,0,0,0
GUIDED_NOGPS,3.0109663009643600,32.40846855200120,32.40846855200120,32.40846855200120,32.40846855200120,-10.77662948771830,45.49890281451570,66.29831575142980,-2.1920566697117000,-9.999999999999960,40.00000000000000,24.90388293767240,0.1943047946217000,0.6540036330768260,0.9663775322905990,1.1288793940630300,0.6595093743505490,-1.003562570926080,0.4138155227465470,-8.117801083127250,42.21874757816610,64.04805024841170,5.573297291994100,-17.488430440425900,-12.619341909885400,17.903266847133600,19.130535423755600,-72.04082012176510,-2.443612665586000,1.2974210065486600,FALSE,0,0,0,0,0
GUIDED_NOGPS,3.0433719158172600,30.86634384704830,30.86634384704830,30.86634384704830,30.86634384704830,-10.560542947405900,44.92645939741160,65.977011993512,-2.137192787036360,-10.0,40.0,24.04379303333330,0.14402723853270700,0.6867323521147940,0.9127382424694910,0.7646140601406370,0.37527957198980500,-0.605708465392343,0.41262914313710500,-7.826682994802470,42.036722482557200,64.02009504329870,0.6879871711134910,-16.31394624710080,-12.054303288459800,-94.43938732147220,25.40542483329770,92.54755973815920,-2.400142396794200,3.6754238301268300,FALSE,0,0,0,0,0
GUIDED_NOGPS,3.0820086002349900,25.883895015520600,25.883895015520600,25.883895015520600,25.883895015520600,-10.337931597249100,44.284758299950600,65.62477031438960,-2.1627211933952200,-10.0,40.0,23.190925510797200,0.26107106769733800,0.7103307090580400,0.8726333460147330,0.7435549535305980,0.3327135739326800,-1.561937658842540,0.4114967376795440,-7.80916824151552,41.03790864845570,63.326544150732000,0.5434440448880200,-16.671238839626300,-11.922069638967500,-69.29468512535100,14.87516164779660,-13.964560627937300,-2.336150380125120,-1.9897472302328400,FALSE,0,0,0,0,0
GUIDED_NOGPS,3.1155881881713900,29.783802591869300,29.783802591869300,29.783802591869300,29.783802591869300,-10.12807869767000,43.53840141459300,65.2795466171656,-2.111629856319370,-10.0,40.0,22.34600701873300,0.40947933897407900,0.727125077010044,0.7599514997696540,1.1657073485300700,0.3707859863213190,-0.6584557551739650,0.4103819981043330,-7.06964469294692,39.96050365154020,63.422163582430300,-4.239307343959810,-15.587112307548500,-10.171657800674400,-132.09282159805300,27.8933584690094,-53.93586754798890,-2.252180149416580,2.6403923312287300,FALSE,0,0,0,0,0
GUIDED_NOGPS,3.14888072013855,30.039993124391200,30.039993124391200,30.039993124391200,30.039993124391200,-9.904454821397600,42.911235172649000,64.9270389550153,-2.0190876249114300,-10.0,40.0,21.509751561471200,0.49690757461924000,0.6745365691040600,0.6773426562750240,0.9909146264014140,0.4306010048036550,-0.10230925262471400,0.4092985807550020,-7.358828161275360,39.777597238841600,63.18511872378240,0.8056212216615680,-14.835314452648200,-12.306414544582400,-4.377269744873050,33.375054597854600,-3.1111791729927100,-2.216476515350160,5.586103936753960,FALSE,0,0,0,0,0
GUIDED_NOGPS,3.187272787094120,26.050121421783900,26.050121421783900,26.050121421783900,26.050121421783900,-9.650560229909080,42.25751200902320,64.55732371938580,-1.9228055782091800,-10.0,40.0,20.68285962338570,0.5656596184743540,0.6382732805314640,0.6353739719504990,0.9272907297740540,0.45206647495011700,-0.14853441474098300,0.4082497414663490,-6.380592623549890,38.58422108321150,62.59007829164170,0.8056212216615680,-14.835314452648200,-12.306414544582400,-4.377269744873050,33.375054597854600,-3.1111791729927100,-2.117643562599530,5.586103936753960,FALSE,0,0,0,0,0
GUIDED_NOGPS,3.2165791988372800,34.12583498092050,34.12583498092050,34.12583498092050,34.12583498092050,-9.375566705343830,41.62275103169970,64.14786929843800,-1.8866996482034400,-10.0,40.0,19.866017293275900,0.5668473243379960,0.5912532977897440,0.5690751399461840,1.2772083802561600,0.6575166414317970,-0.6403179588406790,0.40733091316084900,-6.025146753941620,38.27848794149780,62.442298025535100,2.124614827334880,-14.738655090332000,-15.23047536611560,-74.25584197044370,28.136911988258400,-68.3603823184967,-2.0819983575203700,1.6045947839265300,FALSE,0,0,0,0,0
GUIDED_NOGPS,3.250168561935430,29.775979327284900,29.775979327284900,29.775979327284900,29.775979327284900,-9.156413286007910,41.07206273744270,63.76232672444340,-1.8544679102219800,-10.0,40.0,19.059895388747300,0.6176500579411390,0.5992061993045780,0.5241661659056740,0.9734781741107250,0.4890898920154230,-0.728826271154843,0.40636963922503100,-6.470230440524190,38.048732570685500,62.10699325167360,2.124614827334880,-14.738655090332000,-15.23047536611560,-74.25584197044370,28.136911988258400,-68.3603823184967,-2.018753859723030,1.6045947839265300,FALSE,0,0,0,0,0
GUIDED_NOGPS,3.283498525619510,30.006037973415700,30.006037973415700,30.006037973415700,30.006037973415700,-8.939248114692350,40.49255987851150,63.3745499444202,-1.8076847085172700,-10.0,40.0,18.265148580594300,0.6298197474948090,0.5441721101497580,0.4632706005042200,1.0819705029932900,0.5055797620302640,-0.5229226084681930,0.40543546949485600,-6.384986722447020,37.59625438208360,61.69879890131170,0.9319497272372250,-12.716831266880000,-13.186787068843800,-35.290443897247300,29.928410053253200,-89.69646692276000,-1.9462441225975500,2.128570398226530,FALSE,0,0,0,0,0
GUIDED_NOGPS,3.316633462905880,30.183969256897800,30.183969256897800,30.183969256897800,30.183969256897800,-8.746592976597840,39.963300869826300,62.964595614087000,-1.7911226942083600,-10.0,40.0,17.482414517181100,0.6298197474948090,0.5441721101497580,0.4632706005042200,1.0273157344985100,0.4753470847786900,-0.8749018904926550,0.4045692480633070,-6.726805432598530,37.913197219513200,61.10531562450810,1.0206904262304300,-12.003269791603100,-13.737627863884000,-6.265826523303990,31.916320323944100,2.027132362127300,-1.9488218421951900,0.2275139214182420,FALSE,0,0,0,0,0
GUIDED_NOGPS,3.350876569747930,29.208448526800300,29.208448526800300,29.208448526800300,29.208448526800300,-8.586100135327300,39.4191121074053,62.54173398220630,-1.7347078993459000,-10.0,40.0,16.712312948823600,0.632393341429729,0.6015501281286560,0.352943622058062,1.0651983102034500,0.4122980581882500,-0.3793739254437890,0.4037496876332070,-6.234198917204630,36.85557807541550,60.76737833962000,-1.8457040190696700,-11.552958190441100,-14.376108348369600,-29.139068722724900,29.557037353515600,-28.08750569820400,-1.8254859341296300,2.6258709221664600,FALSE,0,0,0,0,0
