Mode,Time,Freq,time2delay,actualDelay,North-Desired,East-Desired,Down-Desired,Roll-UAV,Pitch-UAV,Yaw-UAV,Roll-Control,Pitch-Control,Yaw-Control,Thrust-Control,North-Pos,East-Pos,Down-Pos,Yaw-Ang,North-Vel,East-Vel,Down-Vel,Yaw-Vel,North-Acc,East-Acc,Down-Acc,North-Raw,East-Raw,Down-Raw,Yaw-Raw,North-Dif,East-Dif,Down-Dif,Yaw-Dif,Landing-State,Q-Size,Kalman-Time,Kalman-Dt
STABILIZE,0.034311771392822266,29.152619653307756,0.03331569035847982,0.03344249725341797,0,0,0.0,4.818680530197424,-35.24818841946962,116.57839275382966,0,0,0,0.0,0.025355164603503386,0.02675671971023614,0.030444551060152893,0.025156580816739136,0.1589247607626021,0.7417171727865934,2.8569653630256653,-0.1976781877001719,5.08885383605957,3.2112881541252136,26.68013572692871,0.0,0.0,0.0,0.0,0,0,0,0,False,0,0.05862784385681152,0.03492626953125
STABILIZE,0.06768107414245605,29.96830477714743,0.03236559232076009,0.03251218795776367,0,0,0.0,4.8187966434133145,-35.24760443829559,116.59362407567879,0,0,0,0.0,0.051333880156824135,0.05544728418454742,0.06756374912203607,0.05014198695475743,0.1589247607626021,0.7417171727865934,2.8569653630256653,-0.1976781877001719,5.08885383605957,3.2112881541252136,26.68013572692871,0.0,0.0,0.0,0.0,0,0,0,0,False,1,0.0871734619140625,0.03492626953125
STABILIZE,0.10865187644958496,24.409898270363385,0.03249624570210775,0.040097951889038086,0,0,0.0,4.819825013770225,-35.248574325157726,116.62013887003677,0,0,0,0.0,0.09348254412584237,0.10554073655541757,0.14470125376099446,0.09013196968020375,0.3603855613619089,0.41113956831395626,2.670425921678543,-0.0045439701083361,0.9590544737875462,1.7088178545236588,22.760747373104095,0.0,0.0,0.0,0.0,0,0,0,0,False,0,0.1444554328918457,0.029935791015625
STABILIZE,0.14207839965820312,29.914229268744965,0.03243735631306966,0.03255820274353027,0,0,0.0,4.818975082105381,-35.24879289121117,116.63517894658914,0,0,0,0.0,0.10764225053623554,0.12432506697431223,0.17767726960425076,0.10107041050604179,0.324586289934814,0.8860567584633827,2.481098100543022,-0.20691939362655948,1.7283767461776733,2.5141434744000435,23.17439764738083,0.0,0.0,0.0,0.0,0,0,0,0,False,0,0.1741471290588379,0.034926025390625
STABILIZE,0.17568039894104004,29.76097862104688,0.03246787389119466,0.032582759857177734,0,0,0.0,4.819337935905038,-35.24778543830859,116.66342860899631,0,0,0,0.0,0.12483491428210472,0.14605752332112742,0.2176667142195365,0.11633128227495304,0.4690551199018955,0.7994628511369228,2.4412890896201134,0.3356159123814157,7.621795684099197,2.295057475566864,24.87640678882599,0.0,0.0,0.0,0.0,0,0,0,0,False,0,0.20290517807006836,0.0349248046875
STABILIZE,0.20894551277160645,30.059153617371987,0.032283814748128255,0.03240847587585449,0,0,0.0,4.819221395802325,-35.24767274018729,116.67663819485112,0,0,0,0.0,0.13731889307813538,0.16582741189529887,0.25857588336248055,0.12702084676595232,0.0006366099114529788,0.6989018060266972,2.508745528757572,-0.10279520745244476,-2.260420098900795,4.056394472718239,28.543147444725037,0.0,0.0,0.0,0.0,0,0,0,0,False,0,0.23173999786376953,0.029937255859375
STABILIZE,0.24361777305603027,28.84229346316238,0.03247192700703939,0.03372359275817871,0,0,0.0,4.818915317950144,-35.24705802316198,116.69186951670025,0,0,0,0.0,0.1549431152666695,0.19580938015227847,0.3396618492719488,0.1362920949806263,0.10680113919079304,0.5906245671212673,2.8018757700920105,-0.2966649443704197,2.1452687680721283,1.470551174134016,24.76346641778946,0.0,0.0,0.0,0.0,0,0,0,0,False,0,0.28884196281433105,0.034925048828125
STABILIZE,0.2769310474395752,30.016774969226805,0.0323670228322347,0.032507896423339844,0,0,0.0,4.81969865527058,-35.24679847597353,116.71998257532402,0,0,0,0.0,0.1609418279116877,0.21210489929940668,0.38233701143977644,0.14146229608046434,-0.13046902604401112,0.7041899487376213,2.5276178494095802,-0.07638680796501277,-4.609647020697594,1.4179405756294727,23.31404685974121,0.0,0.0,0.0,0.0,0,0,0,0,False,0,0.3182394504547119,0.03492578125
STABILIZE,0.3104255199432373,29.85545993579477,0.032511027654012044,0.032639503479003906,0,0,0.0,4.81978744772979,-35.24763517414685,116.7341757084193,0,0,0,0.0,0.16955021269659626,0.22771845831318444,0.4252352407978344,0.14410393456567078,0.3130368422716856,0.7389257661998272,2.5594595819711685,-0.18411415238004059,1.1458221822977066,2.1042995154857635,32.99132287502289,0.0,0.0,0.0,0.0,0,0,0,0,False,0,0.34679651260375977,0.034926025390625
STABILIZE,0.34389543533325195,29.87842910976713,0.032467158635457356,0.03260517120361328,0,0,0.0,4.8190408226761425,-35.24733464582337,116.76159208774774,0,0,0,0.0,0.1772092285098679,0.24241651014335552,0.46792519258908066,0.1452894005237401,0.3130368422716856,0.7389257661998272,2.5594595819711685,-0.18411415238004059,1.1458221822977066,2.1042995154857635,32.99132287502289,0.0,0.0,0.0,0.0,0,0,0,0,False,0,0.37539076805114746,0.034926025390625
STABILIZE,0.37735438346862793,29.889500951349348,0.03245285352071126,0.03257560729980469,0,0,0.0,4.819496737803241,-35.2470785137295,116.77590816424808,0,0,0,0.0,0.1816250925957859,0.2543727039819214,0.5062689999719302,0.1485837623568343,0.10303306626155972,0.5733557045459747,2.2079717367887497,0.1161470600111627,-4.4681645929813385,0.8625240065157413,21.046748757362366,0.0,0.0,0.0,0.0,0,0,0,0,False,0,0.40410637855529785,0.029936279296875
STABILIZE,0.41076087951660156,29.933015993091782,0.03242519696553548,0.03255796432495117,0,0,0.0,4.819355438264786,-35.246450136325855,116.78866695761766,0,0,0,0.0,0.1850884407197694,0.2591633805193713,0.5394275299425686,0.14603271440671323,0.3163504647091031,0.36292814183980227,2.5482475757598877,-0.16426582275518187,3.825043886899948,0.4279979970306158,21.040882170200348,0.0,0.0,0.0,0.0,0,0,0,0,False,0,0.4328479766845703,0.034926025390625
STABILIZE,0.4481992721557617,26.70986805237149,0.03248170216878255,0.036635637283325195,0,0,0.0,4.817349070196095,-35.24671651370348,116.81653412943132,0,0,0,0.0,0.1845536343782239,0.27030416805265667,0.6120751267054876,0.1443036585441448,-0.022030255058780313,0.380349182523787,2.5292452424764633,-0.021250205941683996,-5.8443911373615265,1.1332640424370766,31.30514621734619,0.0,0.0,0.0,0.0,0,0,0,0,False,0,0.4902632236480713,0.02993603515625
STABILIZE,0.48174214363098145,29.813229461353654,0.03252604802449544,0.03265690803527832,0,0,0.0,4.8177093626748135,-35.24637500424498,116.83102779085009,0,0,0,0.0,0.1839433506802032,0.2741181418113981,0.6444228767677245,0.14155330634943758,0.10872466955333948,0.4563103895634413,2.6216167956590652,-0.058277188370745414,-0.5097822286188602,2.5576144456863403,24.404919147491455,0.0,0.0,0.0,0.0,0,0,0,0,False,0,0.5189166069030762,0.034926025390625
STABILIZE,0.515172004699707,29.91230922835544,0.032429011662801106,0.03258800506591797,0,0,0.0,4.817123247066662,-35.24792204209199,116.86005609482264,0,0,0,0.0,0.1861170578556375,0.2815000149588727,0.6850322243531636,0.14289172768467695,0.20462223328649998,0.5254457239061594,2.6322228834033012,0.1765840289026602,-1.5653550624847412,0.3710980527102947,21.012477576732635,0.0,0.0,0.0,0.0,0,0,0,0,False,0,0.5475945472717285,0.0399150390625
STABILIZE,0.54866623878479,29.856097491529283,0.032482417424519856,0.03265380859375,0,0,0.0,4.816484624379266,-35.24834209872595,116.87363451089263,0,0,0,0.0,0.18464418476991687,0.29077661902050783,0.7287250891748769,0.1424031506228881,-0.14462692197412252,0.4999099764972925,2.3012403398752213,-0.020506035487269952,-7.1738556027412415,0.4271448589861393,22.38694280385971,0.0,0.0,0.0,0.0,0,0,0,0,False,0,0.5762624740600586,0.02494677734375
STABILIZE,0.582085132598877,29.9229792394949,0.03248027165730794,0.0326230525970459,0,0,0.0,4.815791787065332,-35.24787764586239,116.90163828648967,0,0,0,0.0,0.18323973850976055,0.29049040341648685,0.7503848940393494,0.13717361995112615,0.2747771330177784,0.5153718870133162,2.7254177257418633,-0.07286922052181652,-0.7723953574895859,2.8834840282797813,29.598268866539,0.0,0.0,0.0,0.0,0,0,0,0,False,0,0.6064310073852539,0.034925048828125
STABILIZE,0.6160991191864014,29.400288794493278,0.03252437909444173,0.033179283142089844,0,0,0.0,4.816616105520788,-35.2492641742639,116.91581775920662,0,0,0,0.0,0.1850433953090263,0.29591854266224704,0.7894855712489844,0.134024895672512,0.2747771330177784,0.5153718870133162,2.7254177257418633,-0.07286922052181652,-0.7723953574895859,2.8834840282797813,29.598268866539,0.0,0.0,0.0,0.0,0,0,0,0,False,0,0.6350715160369873,0.034925048828125
STABILIZE,0.6496191024780273,29.832950431387054,0.03248551686604818,0.032649993896484375,0,0,0.0,4.816053895574732,-35.24960909881698,116.92947813754665,0,0,0,0.0,0.18766468004733763,0.3059725636562694,0.8635768850965654,0.13145175671570852,0.37953315768390894,0.421232171356678,2.2825732827186584,-0.006255859640243271,3.742053359746933,0.3210521303117275,23.382441699504852,0.0,0.0,0.0,0.0,0,0,0,0,False,0,0.696162223815918,0.025080810546875
STABILIZE,0.6829969882965088,29.959314285714285,0.03245666821797689,0.032578468322753906,0,0,0.0,4.816576831933061,-35.250240891315215,116.95709942255019,0,0,0,0.0,0.1860816819684491,0.3027992652447995,0.8746855664863928,0.12619386717946934,0.2983885584399104,0.40959306061267853,2.313901111483574,-0.04641696508341495,2.3083385080099106,0.319901667535305,23.699913918972015,0.0,0.0,0.0,0.0,0,0,0,0,False,0,0.7247836589813232,0.034926025390625
STABILIZE,0.716444730758667,29.896957773786102,0.03252080281575521,0.032651662826538086,0,0,0.0,4.816671173920971,-35.25013160828849,116.9713062160238,0,0,0,0.0,0.18453760406216965,0.3011384891563109,0.9129625345044127,0.12060147481251801,0.11971800122410059,0.18531185341998935,2.9790978878736496,-0.16632380410883169,0.4021909087896347,0.2972611924633384,26.861900091171265,0.0,0.0,0.0,0.0,0,0,0,0,False,0,0.7533636093139648,0.03492626953125
STABILIZE,0.7499651908874512,29.835921439190777,0.032526286443074544,0.03265047073364258,0,0,0.0,4.815592857805756,-35.24898413650793,116.99956953880933,0,0,0,0.0,0.1840402583450942,0.3020102758334427,0.9394141537008364,0.11582689767836897,0.20794058218598366,0.39043037686496973,2.289474196732044,-0.09588424996147529,1.9883668050169945,1.8633397296071053,18.693247437477112,0.0,0.0,0.0,0.0,0,0,0,0,False,0,0.7821047306060791,0.029935791015625
STABILIZE,0.7834262847900391,29.88332525862806,0.03243568738301595,0.03255939483642578,0,0,0.0,4.815608652618211,-35.24856749496856,117.01395391720136,0,0,0,0.0,0.18155665614509095,0.30479217021991484,0.9519672961376704,0.11504975985891812,0.17000274965539575,0.6804294884204865,2.050676569342613,0.20135676483653944,-0.2112315036356449,2.7900518849492073,27.881768345832825,0.0,0.0,0.0,0.0,0,0,0,0,False,0,0.8107178211212158,0.034926025390625
STABILIZE,0.8168461322784424,29.92191189584448,0.032431634267171223,0.03256511688232422,0,0,0.0,4.816702763545883,-35.248478702509345,117.02593406900557,0,0,0,0.0,0.17851989526349554,0.3060038280660097,0.9731641929082159,0.11402813650793006,0.06599435582756996,0.44538509100675583,2.1110745146870613,0.14873825479101735,1.4776499941945076,0.5055802874267101,25.920531153678894,0.0,0.0,0.0,0.0,0,0,0,0,False,0,0.8394904136657715,0.034926025390625
STABILIZE,0.8514525890350342,28.896938965324807,0.03246477444966634,0.03375434875488281,0,0,0.0,4.816453888528001,-35.248816796873264,117.05401980687266,0,0,0,0.0,0.1773827734622445,0.3060063890963399,0.9969621085171114,0.11330355749880891,0.20092378836125135,0.3939247690141201,2.372230589389801,0.16832512957692475,-4.194551706314087,2.2275088354945183,24.537256360054016,0.0,0.0,0.0,0.0,0,0,0,0,False,1,0.8681976795196533,0.02993603515625
STABILIZE,0.8848505020141602,29.94134947602867,0.0324738343556722,0.03259873390197754,0,0,0.0,4.817399442841224,-35.24872117422488,117.06677860024224,0,0,0,0.0,0.1670404709349022,0.30450711516858164,1.0326431414417085,0.10392689278873503,-0.07725027971901,0.42662108317017555,2.2437479346990585,-0.2965394396444207,-5.1298461854457855,0.020328117534518242,21.55057042837143,0.0,0.0,0.0,0.0,0,0,0,0,False,0,0.9290664196014404,0.034925048828125
STABILIZE,0.9183394908905029,29.861411515104052,0.03252437909444173,0.03264904022216797,0,0,0.0,4.818242117430074,-35.2479425326595,117.09393543238222,0,0,0,0.0,0.16100321855167365,0.3042720252875241,1.0509840905616623,0.0955658127281571,-0.07725027971901,0.42662108317017555,2.2437479346990585,-0.2965394396444207,-5.1298461854457855,0.020328117534518242,21.55057042837143,0.0,0.0,0.0,0.0,0,0,0,0,False,0,0.9574694633483887,0.034925048828125
STABILIZE,0.9517683982849121,29.91316254920979,0.03247693379720052,0.03258991241455078,0,0,0.0,4.817899327311104,-35.24874166479239,117.10853837682771,0,0,0,0.0,0.1550512794058627,0.3025364901985194,1.076932444389717,0.08933811689610607,-0.061610061675310135,0.3519471734762192,2.788088098168373,-0.15837325047152526,-2.8901198878884315,2.3827118799090385,27.33455002307892,0.0,0.0,0.0,0.0,0,0,0,0,False,0,0.985992431640625,0.03492578125
STABILIZE,0.9853463172912598,29.78528313141786,0.03248742421468099,0.03262758255004883,0,0,0.0,4.817535619737801,-35.24886119310287,117.12308667975984,0,0,0,0.0,0.15161294678710896,0.30063418455170127,1.0960998928595709,0.0851591690440017,0.09728141594678164,0.35818873438984156,2.4442829191684723,-0.03271105659566044,-3.87783944606781,0.5679931491613388,28.749078512191772,0.0,0.0,0.0,0.0,0,0,0,0,False,0,1.0146253108978271,0.029936279296875
STABILIZE,1.0187397003173828,29.945838658318042,0.03234055836995443,0.03248405456542969,0,0,0.0,4.818427813198134,-35.24779909868693,117.15025717227815,0,0,0,0.0,0.14586007012686303,0.2974792431445895,1.0997435833318572,0.07824920115039949,-0.009911722736433148,0.3942579962313175,2.059435099363327,-0.19659752370742895,-0.10431897826492786,2.2368667647242546,24.288907647132874,0.0,0.0,0.0,0.0,0,0,0,0,False,0,1.0433049201965332,0.03492578125
STABILIZE,1.054401159286499,28.040165260526,0.0323970635732015,0.033776283264160156,0,0,0.0,4.818004768356416,-35.24757711753891,117.16315256943113,0,0,0,0.0,0.14585114056129883,0.29416822009153665,1.1129852881540305,0.07567324039685998,0.3019202733412385,0.28600129298865795,2.190679870545864,0.057327805416326864,2.9879137873649597,0.26657453272491693,23.978225886821747,0.0,0.0,0.0,0.0,0,0,0,0,False,1,1.072054386138916,0.034926025390625
STABILIZE,1.0867729187011719,30.88816554974593,0.03146818478902181,0.031599998474121094,0,0,0.0,4.817273938115225,-35.247498570363454,117.19224917529539,0,0,0,0.0,0.13329339483230057,0.2934669489613447,1.1324280482687912,0.07107588129942574,-0.06559663452208042,0.5240114405751228,2.3111747577786446,0.06550192101692558,2.7632853016257286,0.6898514926433563,28.250586986541748,0.0,0.0,0.0,0.0,0,0,0,0,False,0,1.1294078826904297,0.02993603515625
STABILIZE,1.1203293800354004,29.801367040400166,0.03256109555562337,0.03267335891723633,0,0,0.0,4.817778091453337,-35.247433683566335,117.20476208185484,0,0,0,0.0,0.13207533130338425,0.28979173078563064,1.135854693134805,0.06859486003696731,0.2446780214086175,0.36603736225515604,2.206012047827244,0.04483874448799905,-3.1649038195610046,0.6624122150242329,30.173727869987488,0.0,0.0,0.0,0.0,0,0,0,0,False,0,1.1582789421081543,0.034926025390625
STABILIZE,1.154569149017334,29.20478773404263,0.03243115743001302,0.03339862823486328,0,0,0.0,4.8163894286177085,-35.24807572134832,117.22022563013576,0,0,0,0.0,0.13291907815479648,0.28754008024411776,1.1527221337162106,0.0653880497111041,0.33966838382184505,0.3615729045122862,2.584270015358925,-0.006734266366835062,1.3731238432228565,-1.7400920391082764,23.627309501171112,0.0,0.0,0.0,0.0,0,0,0,0,False,0,1.1869242191314697,0.0400107421875
STABILIZE,1.193232774734497,25.864581534742605,0.03247836430867513,0.037816524505615234,0,0,0.0,4.815559133746729,-35.24732440053962,117.24757370757249,0,0,0,0.0,0.13200150675410036,0.28568648171542144,1.1710348014730654,0.06248466928246139,0.20268342923372984,0.3119787201285362,2.2744711488485336,0.008020546401032507,-1.3186774216592312,2.171112224459648,24.102404713630676,0.0,0.0,0.0,0.0,0,0,0,0,False,0,1.215672254562378,0.02494677734375
STABILIZE,1.2274203300476074,29.251633690641412,0.03247645696004232,0.0333409309387207,0,0,0.0,4.817031039512867,-35.24899779688627,117.27530427560274,0,0,0,0.0,0.12154835470260524,0.27506510048682103,1.184751197665087,0.060698755681203316,-0.1393313053995371,0.3808251116424799,2.7409039437770844,-0.08389877541219708,-1.9635684788227081,2.4144094437360764,28.287911415100098,0.0,0.0,0.0,0.0,0,0,0,0,False,0,1.273134469985962,0.034926025390625
STABILIZE,1.2609353065490723,29.837407165011523,0.03248027165730794,0.03262734413146973,0,0,0.0,4.815700006398361,-35.2496739856141,117.2897296351298,0,0,0,0.0,0.12360498255144814,0.27124606523699213,1.1922082802524647,0.05943090487708037,0.39794291369616985,0.28332972433418036,2.18999944627285,0.08829263477124495,0.04274677485227585,-0.11507414747029543,21.719637513160706,0.0,0.0,0.0,0.0,0,0,0,0,False,0,1.3020644187927246,0.029935791015625
STABILIZE,1.2943382263183594,29.938357435509428,0.0324278195699056,0.0325620174407959,0,0,0.0,4.814948685589659,-35.24797326851077,117.30352661725323,0,0,0,0.0,0.12354561227295649,0.2681163522902898,1.1911724128351686,0.05626054886051696,0.2868214622139931,0.39516142569482327,2.163814753293991,-0.029866196094964183,1.325241383165121,2.299140766263008,26.672205328941345,0.0,0.0,0.0,0.0,0,0,0,0,False,0,1.3307650089263916,0.034926025390625
STABILIZE,1.3278427124023438,29.844413294530344,0.03248098691304525,0.03261113166809082,0,0,0.0,4.818244678751013,-35.25188696690518,117.32963160026102,0,0,0,0.0,0.12397812272869402,0.2662285335966716,1.1971792636297676,0.05318547536110794,0.2868214622139931,0.39516142569482327,2.163814753293991,-0.029866196094964183,1.325241383165121,2.299140766263008,26.672205328941345,0.0,0.0,0.0,0.0,0,0,0,0,False,0,1.3596081733703613,0.034926025390625
STABILIZE,1.3612337112426758,29.947335351573656,0.032424004872639973,0.032578229904174805,0,0,0.0,4.817689298994126,-35.25071900455711,117.34386571449133,0,0,0,0.0,0.12204174765306591,0.2641712844345636,1.2068574467982596,0.05255858773608235,0.14116981765255332,0.3861501580104232,2.432740479707718,0.11305877396968557,2.8472021222114563,-1.4589169062674046,29.860079288482666,0.0,0.0,0.0,0.0,0,0,0,0,False,0,1.388010025024414,0.03492626953125
STABILIZE,1.395620584487915,29.083082555575587,0.03251841862996419,0.03352975845336914,0,0,0.0,4.816892728182173,-35.24934613653394,117.371090848523,0,0,0,0.0,0.12185528348221228,0.26079350651250205,1.210463490079179,0.04959124756332696,0.2439067466184497,0.3083368297666311,2.113181911408901,-0.031959308900135916,1.5374964103102684,-0.0778496207203716,21.462492644786835,0.0,0.0,0.0,0.0,0,0,0,0,False,0,1.4170873165130615,0.029935791015625
STABILIZE,1.429072380065918,29.892057157110788,0.032456429799397786,0.03260922431945801,0,0,0.0,4.817967629202805,-35.24952030635777,117.38473756648467,0,0,0,0.0,0.12129335861183885,0.256393070628427,1.206562670107148,0.04671244065317999,0.2439067466184497,0.3083368297666311,2.113181911408901,-0.031959308900135916,1.5374964103102684,-0.0778496207203716,21.462492644786835,0.0,0.0,0.0,0.0,0,0,0,0,False,0,1.4455175399780273,0.029935791015625
STABILIZE,1.4629006385803223,29.56254273007281,0.03247645696004232,0.033011436462402344,0,0,0.0,4.818078619776817,-35.250787306448814,117.40025575627895,0,0,0,0.0,0.11346863502356111,0.24844997520004902,1.2188555358552362,0.04005863950802395,-0.007769842341076583,0.20490973256528378,2.452453598380089,-0.21390770434390066,-1.9731318578124046,-3.991261124610901,23.018506169319153,0.0,0.0,0.0,0.0,0,0,0,0,False,0,1.5094115734100342,0.034925048828125
STABILIZE,1.496412754058838,29.839954467842915,0.03249505360921224,0.03262019157409668,0,0,0.0,4.815993704532671,-35.250049646018454,117.42910647533309,0,0,0,0.0,0.10927020242236476,0.24358472670937434,1.226942755494791,0.03432437521203283,-0.007769842341076583,0.20490973256528378,2.452453598380089,-0.21390770434390066,-1.9731318578124046,-3.991261124610901,23.018506169319153,0.0,0.0,0.0,0.0,0,0,0,0,False,0,1.5382137298583984,0.034925048828125
STABILIZE,1.529794692993164,29.95567681067299,0.032441171010335286,0.032572031021118164,0,0,0.0,4.815628716298898,-35.24920953275054,117.44222043853951,0,0,0,0.0,0.11070156245838436,0.23794083194131757,1.235453382934056,0.03216418917754211,0.3276914358139038,0.15913188690319657,2.5116439908742905,-0.0026656680865825935,3.9276454597711563,-0.3120587673038244,19.236625730991364,0.0,0.0,0.0,0.0,0,0,0,0,False,0,1.566819429397583,0.06985205078125
STABILIZE,1.5633225440979004,29.826798082803545,0.03251198132832845,0.03264808654785156,0,0,0.0,4.8164897470211425,-35.25089658947553,117.45594911877123,0,0,0,0.0,0.11313749990012975,0.23733076782062046,1.2842143640063393,0.028370481764466538,0.23765056394040585,0.15136292204260826,2.200448513031006,-0.04010551677467277,2.9314596205949783,-0.6248531397432089,14.6523118019104,0.0,0.0,0.0,0.0,0,0,0,0,True,0,1.5959994792938232,0.02993603515625
STABILIZE,1.5967624187469482,29.90420510773004,0.032436402638753255,0.03257870674133301,0,0,0.0,4.815861796504325,-35.25169230651384,117.48357040377476,0,0,0,0.0,0.11087617435017719,0.2324867942109334,1.274395370083137,0.0261426337337198,0.14267859514802694,0.29762638732790947,2.1935949102044106,-0.025918193342244752,2.5344902649521828,-0.03268657310400158,21.506507694721222,0.0,0.0,0.0,0.0,0,0,0,0,True,0,1.624769926071167,0.029936767578125
STABILIZE,1.630183219909668,29.920844628334997,0.0324588139851888,0.03259706497192383,0,0,0.0,4.814692980382606,-35.24962617428991,117.49728542362816,0,0,0,0.0,0.10796660130361035,0.22894074462489217,1.2641168462524015,0.02174173702133168,0.09872016962617636,0.35381310153752565,2.1239647641777992,-0.15391284345881603,0.6504448596388102,4.006178677082062,22.979027032852173,0.0,0.0,0.0,0.0,0,0,0,0,True,0,1.6532435417175293,0.034925048828125
STABILIZE,1.663787841796875,29.75738914508691,0.03250125249226888,0.032822370529174805,0,0,0.0,4.814176447326624,-35.250855608340515,117.5245378784165,0,0,0,0.0,0.09848534044723453,0.22243142313953895,1.2587620619037134,0.015670789503042123,-0.16036303713917732,0.2704094396904111,2.1909628063440323,0.002522821083394124,-3.9037972688674927,-2.303948998451233,18.531519174575806,0.0,0.0,0.0,0.0,0,0,0,0,True,0,1.7105786800384521,0.034926025390625
STABILIZE,1.6972472667694092,29.88779705704208,0.03254440625508626,0.03266143798828125,0,0,0.0,4.813909216175348,-35.250671193232925,117.53892225680855,0,0,0,0.0,0.09148817918235841,0.21862047828662073,1.2564773957711879,0.014203678487431934,-0.16036303713917732,0.2704094396904111,2.1909628063440323,0.002522821083394124,-3.9037972688674927,-2.303948998451233,18.531519174575806,0.0,0.0,0.0,0.0,0,0,0,0,True,0,1.7402334213256836,0.034926025390625
STABILIZE,1.7307112216949463,29.88247363921345,0.03252247174580892,0.03265786170959473,0,0,0.0,4.81321723263506,-35.25078389135423,117.55241871060849,0,0,0,0.0,0.08773925140602762,0.21711344867659374,1.2547308027860218,0.012539109106951284,0.017329445108771324,0.39221919141709805,2.22783163189888,-0.014728459176646162,-6.929139047861099,0.3692343831062317,26.34902596473694,0.0,0.0,0.0,0.0,0,0,0,0,True,0,1.7681725025177002,0.064862060546875
STABILIZE,1.7641942501068115,29.86715278568987,0.032515796025594075,0.03266286849975586,0,0,0.0,4.811403817410422,-35.251162966853165,117.5815699579861,0,0,0,0.0,0.08850255901074597,0.21788923329763898,1.284698218592759,0.004580810360736905,0.21940453443676233,0.2864843001589179,2.0035820081830025,-0.28159567943152036,-6.361773610115051,2.127312868833542,24.231456220149994,0.0,0.0,0.0,0.0,0,0,0,0,True,0,1.798532247543335,0.03492578125
STABILIZE,1.7976419925689697,29.895039949822166,0.03249362309773763,0.03262591361999512,0,0,0.0,4.811438395243095,-35.25222164617452,117.59462927967917,0,0,0,0.0,0.08719545275403487,0.2154604969481046,1.2763654276889072,0.004807696748634054,0.14836639165878296,0.3588483901694417,2.125764451920986,0.06898335648228834,1.1481891386210918,2.029559947550297,22.254769504070282,0.0,0.0,0.0,0.0,0,0,0,0,True,0,1.8276071548461914,0.03492626953125
STABILIZE,1.8311121463775635,29.879280498664293,0.03250101407368978,0.03264188766479492,0,0,0.0,4.811808506118745,-35.253191533036656,117.6093824882864,0,0,0,0.0,0.08383369526335442,0.2112660248553379,1.2691379648275376,0.0075897889460584626,0.03486470668576658,0.25719471741467714,2.1645335480570793,0.1971757819299925,-3.620198741555214,2.0731791853904724,23.550987243652344,0.0,0.0,0.0,0.0,0,0,0,0,True,0,1.8558721542358398,0.029935791015625
STABILIZE,1.8645944595336914,29.866089420879113,0.03249171574910482,0.03262186050415039,0,0,0.0,4.810995713607514,-35.25280221225397,117.63632075437293,0,0,0,0.0,0.08199647214665222,0.2062329771278698,1.2558087269160119,0.006118338317130051,0.11645203921943903,0.2379115903750062,2.1315844729542732,-0.03926336245413813,-1.1500686407089233,0.028717794339172542,22.090591490268707,0.0,0.0,0.0,0.0,0,0,0,0,True,0,1.8846094608306885,0.034926025390625
STABILIZE,1.8980073928833008,29.92789000121301,0.03246310551961263,0.03259682655334473,0,0,0.0,4.8102388432701115,-35.253526212305985,117.64973524590283,0,0,0,0.0,0.07675595573264586,0.19745578396666355,1.247077875587046,0.00025296314693980585,0.00956901058088988,0.1530212815850973,2.1995386108756065,-0.02831544299857378,-1.3697446323931217,-0.04697841650340706,22.63772338628769,0.0,0.0,0.0,0.0,0,0,0,0,True,0,1.9433033466339111,0.02993603515625
STABILIZE,1.9316282272338867,29.746414944468874,0.032505067189534505,0.03262495994567871,0,0,0.0,4.810436918756042,-35.25437998595224,117.67741117241972,0,0,0,0.0,0.07654956847097018,0.1939723816883662,1.23859279606322,0.0003214302332822472,0.18718322971835732,0.2867340575903654,2.3120947182178497,0.03015101631737504,0.49533373676240444,0.36265719681978226,26.93389654159546,0.0,0.0,0.0,0.0,0,0,0,0,True,0,1.9715228080749512,0.034926025390625
STABILIZE,1.9649076461791992,30.04537281785686,0.032314570744832356,0.03244924545288086,0,0,0.0,4.809350491791187,-35.25360817457603,117.69124913567818,0,0,0,0.0,0.07572233789978391,0.19571191077457187,1.2411226473688657,-0.0012773819390462181,0.1396642648614943,0.5291522480547428,2.5554364547133446,-0.05330769547608554,5.4758042097091675,2.631017379462719,29.95539903640747,0.0,0.0,0.0,0.0,0,0,0,0,True,0,2.0004935264587402,0.034926025390625
STABILIZE,1.9983410835266113,29.91145595618439,0.032500298817952473,0.03263354301452637,0,0,0.0,4.808210703973441,-35.25407945762876,117.7186655150066,0,0,0,0.0,0.07497604876253072,0.1975769704355733,1.2437708288874831,-0.0028048474627944213,0.1396642648614943,0.5291522480547428,2.5554364547133446,-0.05330769547608554,5.4758042097091675,2.631017379462719,29.95539903640747,0.0,0.0,0.0,0.0,0,0,0,0,True,0,2.029170274734497,0.034926025390625
STABILIZE,2.0319244861602783,29.775556565197636,0.03251317342122396,0.032662391662597656,0,0,0.0,4.807747958657173,-35.2539565142237,117.73314551604703,0,0,0,0.0,0.06965043938004861,0.19489734855049062,1.2384054455419022,-0.0060042928658868705,-0.11846430134028196,0.27132448740303516,2.1058110520243645,-0.14988780764484225,-3.9065971970558167,1.851227506995201,21.142372488975525,0.0,0.0,0.0,0.0,0,0,0,0,True,0,2.0591111183166504,0.02993603515625
STABILIZE,2.065358877182007,29.911242645747905,0.03240207036336263,0.03252124786376953,0,0,0.0,4.807090126062736,-35.25356719344101,117.74843147940952,0,0,0,0.0,0.06822218069449805,0.19229381676690793,1.2291738688909648,-0.006049516683011419,0.10061081266030669,0.3096857341006398,2.2091494873166084,0.00986228623339595,-1.874772273004055,-0.3582724370062351,18.000826239585876,0.0,0.0,0.0,0.0,0,0,0,0,True,0,2.0875802040100098,0.034926025390625
STABILIZE,2.098947048187256,29.769427863697985,0.0323975404103597,0.03280282020568848,0,0,0.0,4.806350331198259,-35.254970797315444,117.77694068900516,0,0,0,0.0,0.06715590975801836,0.18830917481153295,1.2276054094262001,-0.009117921493502476,0.10869293473660946,0.18152303528040648,2.271338924765587,-0.1513876077968286,-0.12518763542175293,1.8028315156698227,20.903895795345306,0.0,0.0,0.0,0.0,0,0,0,0,True,1,2.1173899173736572,0.034925048828125
GUIDED_NOGPS,2.1324846744537354,29.818952217774903,0.03255656560262044,0.03268861770629883,0,0,0.0,4.8064160717690205,-35.255093740720504,117.78976778426643,0,0,0,0.0,0.07317476900457726,0.18414590334314204,1.2115435712400586,-0.003596527367395277,0.46247742138803005,0.31598396599292755,2.1329032257199287,0.2808730134008213,1.2271745130419731,2.154596522450447,26.063236594200134,0.0,0.0,0.0,0.0,0,0,0,0,True,0,2.174696683883667,0.035170654296875
GUIDED_NOGPS,2.1721413135528564,25.21539747142883,0.03145578702290853,0.03783535957336426,0,0,0.5,4.805708720303101,-35.254909325612914,117.80416582303683,0,0,0,0.5,0.0744817346776055,0.1817447653510022,1.205428955330926,-0.0019518344082117885,0.22910991683602333,0.24967074859887362,1.9497718662023544,0.10633536653641378,0.09891227819025517,1.689683459699154,20.484158396720886,0.0,0.0,0.0,0.0,0,0,0,0,False,0,2.203347682952881,0.03492578125
GUIDED_NOGPS,2.2056379318237305,29.85439740341087,0.032511266072591145,0.0326533317565918,0,0,0.5104643201391647,4.805847458520617,-35.25553770301656,117.8315275608519,0,0,0,0.5104643201391647,0.07402320305698297,0.17894000826770765,1.2054032066513487,-0.0011236574451907776,0.1262541743926704,0.22445342037826777,2.3165347054600716,0.056546896014697555,-1.9049022346735,-0.008364961831830442,24.084973335266113,0.0,0.0,0.0,0.0,0,0,0,0,False,0,2.232144594192505,0.039914306640625
GUIDED_NOGPS,2.239070415496826,29.91166926966332,0.0324738343556722,0.032591819763183594,0,0,0.5204651627040617,4.804584727297811,-35.2554591558411,117.85966794023234,0,0,0,0.5204651627040617,0.07087651948689963,0.17853424802654635,1.2109473733123979,-0.0005266669265160942,-0.04419770557433367,0.3217783523723483,2.3114383220672607,0.04393636577487062,-1.8431544303894043,3.5882122814655304,20.1928049325943,0.0,0.0,0.0,0.0,0,0,0,0,False,0,2.2607409954071045,0.024947998046875
GUIDED_NOGPS,2.2725026607513428,29.909962847016708,0.03247502644856771,0.03259778022766113,0,0,0.5295595781106793,4.8046333923956475,-35.25496055203169,117.87387473370597,0,0,0,0.5295595781106793,0.06265645769476921,0.17496158095762213,1.1924923771765588,0.0013521645986363886,-0.0859233143273741,0.3744020126760006,2.5494012981653214,0.07195246772894065,-1.5146614983677864,2.5481875985860825,32.31711685657501,0.0,0.0,0.0,0.0,0,0,0,0,False,0,2.318319320678711,0.0349248046875
GUIDED_NOGPS,2.306061029434204,29.798826321099224,0.0324890931447347,0.032735347747802734,0,0,0.5373447635456492,4.803306201262549,-35.25563674075952,117.88894213101503,0,0,0,0.5373447635456492,0.0638235530013724,0.17623670696320493,1.1928119104808477,0.0015158570509783127,0.21587437950074673,0.43320045806467533,2.2155150771141052,0.014250154169180193,2.6842841878533363,1.9637838006019592,24.05935823917389,0.0,0.0,0.0,0.0,0,0,0,0,False,0,2.3470113277435303,0.02993701171875
GUIDED_NOGPS,2.3396921157836914,29.737978758100425,0.032497676213582356,0.03265380859375,0,0,0.5434759035969201,4.801859908705799,-35.25479662749161,117.91689126509871,0,0,0,0.5434759035969201,0.06484603572464803,0.17684460649451833,1.1873473396504233,0.0016816674726275222,0.21587437950074673,0.43320045806467533,2.2155150771141052,0.014250154169180193,2.6842841878533363,1.9637838006019592,24.05935823917389,0.0,0.0,0.0,0.0,0,0,0,0,False,0,2.3755695819854736,0.02993701171875
GUIDED_NOGPS,2.373079538345337,29.952040218804004,0.03233221371968587,0.032456159591674805,0,0,0.5476814425513002,4.802265451187768,-35.255039099207146,117.93111171895067,0,0,0,0.5476814425513002,0.0651647038032385,0.17474344130402739,1.1806285921353405,-0.005607300917800456,0.17106488812714815,0.26288002263754606,2.106955088675022,-0.44073671253486385,1.0188721120357513,0.13396042631939054,26.48964822292328,0.0,0.0,0.0,0.0,0,0,0,0,False,0,2.405954360961914,0.034926025390625
GUIDED_NOGPS,2.406510829925537,29.91081603400201,0.0323820432027181,0.032514095306396484,0,0,0.549775111930079,4.8011487152584715,-35.25501860863964,117.95774945671373,0,0,0,0.549775111930079,0.06575914219162488,0.1735281474646236,1.176350160552012,-0.008218196395111524,0.17021825769916177,0.2659666119143367,1.8816867843270302,-0.15044863020872376,-2.7204476296901703,-0.47307806089520454,18.728171288967133,0.0,0.0,0.0,0.0,0,0,0,0,False,0,2.4334726333618164,0.064862060546875
GUIDED_NOGPS,2.439999580383301,29.860348559061396,0.03240230878194173,0.0325930118560791,0,0,0.5496641805484215,4.800948505338425,-35.255592344529916,117.97048092932664,0,0,0,0.5496641805484215,0.06797308795968457,0.17654261484591663,1.2044642763120519,-0.01183043374952509,0.17021825769916177,0.2659666119143367,1.8816867843270302,-0.15044863020872376,-2.7204476296901703,-0.47307806089520454,18.728171288967133,0.0,0.0,0.0,0.0,0,0,0,0,False,0,2.4628303050994873,0.064862060546875
GUIDED_NOGPS,2.4737205505371094,29.6530407363941,0.032439502080281575,0.0328214168548584,0,0,0.5473535616932873,4.799761333083312,-35.25571187284039,117.98575323231078,0,0,0,0.5473535616932873,0.06282549909727699,0.1765878149131391,1.2203812716082707,-0.01072343419739531,-0.10111767333000898,0.21736754570156336,2.0532554015517235,0.07333089195092046,3.1777799129486084,1.7063381150364876,20.9674671292305,0.0,0.0,0.0,0.0,0,0,0,0,False,0,2.520207643508911,0.034925048828125
GUIDED_NOGPS,2.5070791244506836,29.978371965034913,0.03241995175679525,0.03254818916320801,0,0,0.5429455955079245,4.8004921633245035,-35.254175080277136,118.01198115872363,0,0,0,0.5429455955079245,0.06327548631985558,0.17476452908304635,1.208161495963654,-0.0072981159792490456,0.16814699629321694,0.28184030670672655,1.8724046647548676,0.16608287985803005,1.6872629523277283,2.051582559943199,25.416210293769836,0.0,0.0,0.0,0.0,0,0,0,0,False,0,2.5490100383758545,0.034926025390625
GUIDED_NOGPS,2.5406811237335205,29.763935310355595,0.0325196107228597,0.03265500068664551,0,0,0.5366355162213967,4.800446913321252,-35.25399749535872,118.02583278236041,0,0,0,0.5366355162213967,0.0586510410670218,0.1736753781100435,1.2021958481184682,-0.014165269290440177,-0.10038262698799372,0.3143199719488621,2.1696964278817177,-0.37235139114124166,-2.817435748875141,-0.06774663925170898,22.951321303844452,0.0,0.0,0.0,0.0,0,0,0,0,False,0,2.5780651569366455,0.02993701171875
GUIDED_NOGPS,2.574106216430664,29.91316254920979,0.032349618275960286,0.03260064125061035,0,0,0.5287028049851082,4.798869993396625,-35.2524743631738,118.05436931271274,0,0,0,0.5287028049851082,0.061493556325956704,0.17285517116306037,1.1832167766015693,-0.01413257994794676,0.2988008316606283,0.3604352008551359,1.72992292791605,-0.019749091778695188,-0.2977547934278846,-0.4376598633825779,17.564159631729126,0.0,0.0,0.0,0.0,0,0,0,0,False,0,2.606318235397339,0.034925048828125
GUIDED_NOGPS,2.6076016426086426,29.855672451347466,0.03251841862996419,0.03264760971069336,0,0,0.5194988113098026,4.7985784296964304,-35.25172645745969,118.06727837024405,0,0,0,0.5194988113098026,0.06016508260128347,0.1722113514288594,1.179043044578726,-0.009876822148340517,0.0638576690107584,0.3238373436033726,2.1832820028066635,0.2145039451738884,-6.306536495685577,1.8930431455373764,23.141726851463318,0.0,0.0,0.0,0.0,0,0,0,0,False,0,2.6350433826446533,0.034926025390625
GUIDED_NOGPS,2.6411921977996826,29.771329604497318,0.032470019658406575,0.03261137008666992,0,0,0.5094311913647744,4.797947064085028,-35.25130640082573,118.08137588069096,0,0,0,0.5094311913647744,0.060645519558397094,0.16755481882524384,1.1744011566451475,-0.007016210361296829,0.15889581991359591,0.10388912633061409,2.137644775211811,0.13887914352836842,-0.4403315018862486,1.5687871724367142,19.154220819473267,0.0,0.0,0.0,0.0,0,0,0,0,False,0,2.664146900177002,0.02993701171875
GUIDED_NOGPS,2.674422264099121,30.090422555420044,0.032323392232259114,0.03243279457092285,0,0,0.49894585238610945,4.799167960399167,-35.250643872476246,118.1073579202937,0,0,0,0.49894585238610945,0.06093012338171784,0.16236575594219682,1.1649137933345919,-0.004178111686169911,0.15889581991359591,0.10388912633061409,2.137644775211811,0.13887914352836842,-0.4403315018862486,1.5687871724367142,19.154220819473267,0.0,0.0,0.0,0.0,0,0,0,0,False,1,2.692915201187134,0.02993701171875
GUIDED_NOGPS,2.7079336643218994,29.840379060601318,0.0325496514638265,0.03269052505493164,0,0,0.48850720289825783,4.800127601977554,-35.251682061230085,118.12111392128209,0,0,0,0.48850720289825783,0.05310732956401133,0.15714261156806172,1.15012686835273,-0.0002286014953565745,-0.02718408068176359,0.2882210537791252,2.0292390137910843,0.09906278254540386,1.6525350511074066,-0.32724286429584026,20.256666839122772,0.0,0.0,0.0,0.0,0,0,0,0,False,0,2.753911256790161,0.034926025390625
GUIDED_NOGPS,2.741471767425537,29.819164213908913,0.032498868306477864,0.032697439193725586,0,0,0.4785775834908535,4.7983662669453375,-35.2519074574727,118.14907671574413,0,0,0,0.4785775834908535,0.05422057020398852,0.155939784004678,1.148564651436945,-0.001949608547622537,0.18653982551768422,0.26595834642648697,2.1840590983629227,-0.1108299978661458,3.565264865756035,-0.12185202213004231,23.340263962745667,0.0,0.0,0.0,0.0,0,0,0,0,False,0,2.7826485633850098,0.03492578125
GUIDED_NOGPS,2.7833805084228516,23.86123484602825,0.03247502644856771,0.040987491607666016,0,0,0.4695967891869022,4.797095424872892,-35.251258589501546,118.1649364149969,0,0,0,0.4695967891869022,0.05374704637737641,0.15354970337927396,1.1396656809189387,0.0006468226335074022,0.0946194282732904,0.19521082285791636,1.761060394346714,0.13356917837678595,-3.2775558531284332,-0.4190093372017145,19.69112753868103,0.0,0.0,0.0,0.0,0,0,0,0,False,0,2.8113627433776855,0.029936279296875
GUIDED_NOGPS,2.816740036010742,29.97622944375755,0.032375605901082356,0.03249931335449219,0,0,0.46196259038176996,4.7978744933250965,-35.250541419638694,118.19246207735205,0,0,0,0.46196259038176996,0.05258574066008964,0.15074549406152174,1.1340533681178637,0.0023682461217043984,0.06305952556431293,0.1990628894418478,2.225414849817753,0.09032462938953698,-3.8792990148067474,1.7495118081569672,21.93029373884201,0.0,0.0,0.0,0.0,0,0,0,0,False,0,2.841002941131592,0.034926025390625
GUIDED_NOGPS,2.8505613803863525,29.566919031707766,0.03248289426167806,0.03298473358154297,0,0,0.4560131151044756,4.7976320216095605,-35.25059606115205,118.20612245569207,0,0,0,0.4560131151044756,0.059089076448216524,0.14825259513610223,1.1329423873105353,0.004970765306568389,0.48839892260730267,0.1770050381310284,2.148802950978279,0.1374126672290123,4.782385379076004,-0.24304387625306845,21.631552278995514,0.0,0.0,0.0,0.0,0,0,0,0,False,1,2.868936777114868,0.039914794921875
GUIDED_NOGPS,2.8854477405548096,28.66351850965974,0.03248718579610189,0.03412890434265137,0,0,0.4520118729125457,4.7994129934356415,-35.250766815881306,118.23390766523569,0,0,0,0.4520118729125457,0.0635284506194017,0.14484331987786048,1.1392227657820566,0.005596425892062589,-0.04650467890314758,0.20324112847447395,2.0588217303156853,-0.13305428616703013,-1.2897093780338764,-0.02900345134548843,24.484167993068695,0.0,0.0,0.0,0.0,0,0,0,0,False,0,2.9261112213134766,0.024947021484375
GUIDED_NOGPS,2.919034242630005,29.77386563689023,0.03257349332173665,0.03269815444946289,0,0,0.45013608373049596,4.799752368460027,-35.24966032523576,118.2486881945996,0,0,0,0.45013608373049596,0.06528716968357896,0.1420780122803836,1.1275430580968187,0.005609035642200666,0.25656421203166246,0.2149784006178379,2.176552824676037,0.00851485132673243,4.740357398986816,0.21390931215137243,27.674368023872375,0.0,0.0,0.0,0.0,0,0,0,0,False,0,2.9560084342956543,0.034926025390625
GUIDED_NOGPS,2.952557325363159,29.832738239185172,0.03243425687154134,0.03257250785827637,0,0,0.450468828562001,4.799491540611097,-35.24936662710145,118.26247151634468,0,0,0,0.450468828562001,0.0665783806705995,0.1412388835240363,1.1231740821780505,0.0067989131098576995,0.18725594272837043,0.25641927495598793,1.9280076026916504,0.06489408087154072,1.66223905980587,1.7239933833479881,21.943126618862152,0.0,0.0,0.0,0.0,0,0,0,0,False,0,2.9844911098480225,0.02993701171875
GUIDED_NOGPS,2.985978364944458,29.92041774264884,0.03235891660054525,0.03251242637634277,0,0,0.452995369730336,4.7981835593850395,-35.24979009882999,118.28994253718648,0,0,0,0.452995369730336,0.06845097978873728,0.13948006804768276,1.112842495818106,0.005193122081916843,0.24495550896972418,0.22844260092824697,1.8727507442235947,-0.08980687570404489,6.404174119234085,1.7265968024730682,21.004439890384674,0.0,0.0,0.0,0.0,0,0,0,0,False,0,3.013251543045044,0.03492578125
GUIDED_NOGPS,3.019747018814087,29.613889418426496,0.03240660031636556,0.03254365921020508,0,0,0.4576038036281558,4.797930415498926,-35.25068143851668,118.30516019865726,0,0,0,0.4576038036281558,0.07005376869071349,0.1395107956019157,1.1111372643196373,0.008246945733344245,0.20528766326606274,0.2960245590656996,2.0391004160046577,0.17709539929612525,5.116698145866394,-0.24508603382855654,19.957076013088226,0.0,0.0,0.0,0.0,0,0,0,0,False,0,3.0418970584869385,0.034925048828125
GUIDED_NOGPS,3.0534958839416504,29.628323585092254,0.032091649373372395,0.03296661376953125,0,0,0.46409001706552266,4.798370535813569,-35.250203325274775,118.33257657798569,0,0,0,0.46409001706552266,0.07001681423122819,0.13780837770211948,1.1069708157244906,0.004769252001976083,0.11125701712444425,0.19146775593981147,1.8917432054877281,-0.20288043062998118,3.7446200847625732,-0.003394100349396467,23.056937754154205,0.0,0.0,0.0,0.0,0,0,0,0,False,1,3.0705177783966064,0.029937255859375
GUIDED_NOGPS,3.086986541748047,29.858647986787403,0.032552274068196614,0.03267478942871094,0,0,0.47216672769344964,4.7976738565182275,-35.24991987242422,118.34601839027228,0,0,0,0.47216672769344964,0.06016895240534717,0.1325829466759075,1.0964146974313254,0.0005361735840440319,-0.13315798714756966,0.07271819631569088,1.9449163228273392,-0.1233965187425511,6.024356186389923,-0.16709835035726428,21.0735946893692,0.0,0.0,0.0,0.0,0,0,0,0,False,0,3.128854513168335,0.034926025390625
GUIDED_NOGPS,3.1205203533172607,29.821072314769392,0.03251508076985677,0.03269147872924805,0,0,0.48147620809151076,4.799699007607136,-35.24975594788414,118.35958314596392,0,0,0,0.48147620809151076,0.05586848226370288,0.12904433830130627,1.0938806580939497,-0.001648053052986519,-0.13315798714756966,0.07271819631569088,1.9449163228273392,-0.1233965187425511,6.024356186389923,-0.16709835035726428,21.0735946893692,0.0,0.0,0.0,0.0,0,0,0,0,False,0,3.1567022800445557,0.034926025390625
GUIDED_NOGPS,3.153982639312744,29.884602778767366,0.0324735959370931,0.0326385498046875,0,0,0.491606129954073,4.800358547748865,-35.250609721530395,118.37370797716751,0,0,0,0.491606129954073,0.05243031782148977,0.1297139556944908,1.08894857131516,-0.0024527776188577625,-0.08115196833387017,0.31729480251669884,1.8021659925580025,-0.041930254505283905,-1.5618860721588135,-0.5910845939069986,15.68586379289627,0.0,0.0,0.0,0.0,0,0,0,0,False,0,3.1853411197662354,0.029937255859375
GUIDED_NOGPS,3.187530517578125,29.80920365303294,0.032500537236531575,0.03264331817626953,0,0,0.5021078266167048,4.798110988625108,-35.25165815556799,118.40251771508662,0,0,0,0.5021078266167048,0.05592729412524382,0.12872879140118829,1.080673435277221,-0.0012227124435269742,0.33594192937016487,0.24335591588169336,1.8909510225057602,0.07428565768137436,3.069111332297325,-0.016618112567812204,23.905065655708313,0.0,0.0,0.0,0.0,0,0,0,0,False,0,3.2142488956451416,0.03492578125
GUIDED_NOGPS,3.2209322452545166,29.937288994525456,0.0324132760365804,0.032660722732543945,0,0,0.5125161650530693,4.797610677268405,-35.2512005328936,118.4294423207948,0,0,0,0.5125161650530693,0.05966685380753076,0.12831701887072552,1.07788218207641,-2.2204994717512413e-05,0.33594192937016487,0.24335591588169336,1.8909510225057602,0.07428565768137436,3.069111332297325,-0.016618112567812204,23.905065655708313,0.0,0.0,0.0,0.0,0,0,0,0,False,0,3.243173360824585,0.03492578125
GUIDED_NOGPS,3.255157709121704,29.218825758631258,0.0325653870900472,0.03338885307312012,0,0,0.5223701471871817,4.797115488553579,-35.25130640082573,118.44468730302228,0,0,0,0.5223701471871817,0.06264121299345668,0.12642620947287653,1.0702162812906764,0.005266598538017372,0.027524749748408794,0.1979893771931529,1.939011923968792,0.30673261652659206,0.9924263693392277,1.8305759876966476,21.66660726070404,0.0,0.0,0.0,0.0,0,0,0,0,False,0,3.3002238273620605,0.064863037109375
GUIDED_NOGPS,3.2886900901794434,29.82086029150373,0.03249839146931966,0.032698631286621094,0,0,0.5312333280636453,4.7970787762867895,-35.25139177819036,118.45801983228215,0,0,0,0.5312333280636453,0.06926662969667614,0.12807227966708157,1.0915110980670915,0.0054527543585870565,0.3703620983287692,0.1930574420839548,1.6606178134679794,-0.013925675160384962,1.7772626131772995,-0.36769090220332146,18.984533846378326,0.0,0.0,0.0,0.0,0,0,0,0,False,0,3.3322126865386963,0.034925048828125
GUIDED_NOGPS,3.3221206665039062,29.913589227894505,0.03249672253926595,0.0326237678527832,0,0,0.5387131465300596,4.796491806904992,-35.25071900455711,118.48543621161058,0,0,0,0.5387131465300596,0.07290435364952046,0.12605605551698995,1.0846816650520958,0.004872025642263068,0.32170850317925215,0.16420544125139713,1.848118007183075,-0.027673365195952912,-3.1208982691168785,1.5327338129281998,18.49488914012909,0.0,0.0,0.0,0.0,0,0,0,0,False,0,3.3594629764556885,0.034926025390625
GUIDED_NOGPS,3.355686902999878,29.7918415762819,0.032512935002644856,0.032721519470214844,0,0,0.5444783122519672,4.794181922305058,-35.249971098843,118.5016237599435,0,0,0,0.5444783122519672,0.07653829778195552,0.1241153041512243,1.078260453804707,0.004276152626995171,0.32170850317925215,0.16420544125139713,1.848118007183075,-0.027673365195952912,-3.1208982691168785,1.5327338129281998,18.49488914012909,0.0,0.0,0.0,0.0,0,0,0,0,False,0,3.3882107734680176,0.034926025390625
GUIDED_NOGPS,3.3900957107543945,29.06152087302962,0.03247788747151693,0.0336611270904541,0,0,0.5482734789681195,4.795163761998247,-35.25179817444597,118.52776972408631,0,0,0,0.5482734789681195,0.07816127745357385,0.12336381412232368,1.0747573186108819,0.0025985761753066867,0.21310898009687662,0.22522802464663982,1.9877254962921143,-0.08624774683687322,2.3346025496721268,1.975981518626213,24.187108874320984,0.0,0.0,0.0,0.0,0,0,0,0,False,0,3.4174001216888428,0.029936767578125
GUIDED_NOGPS,3.4236199855804443,29.829767865270824,0.03257635434468587,0.0326993465423584,0,0,0.5499305540895907,4.794923424716828,-35.251716212175936,118.54287810253038,0,0,0,0.5499305540895907,0.07460310716499939,0.12113251946557553,1.0731361358440168,0.0024468659981464755,-0.0432924774941057,0.16452636336907744,2.33448538929224,-0.002032174711170522,-0.05453014746308327,0.5390370264649391,32.65901505947113,0.0,0.0,0.0,0.0,0,0,0,0,False,0,3.445469379425049,0.03492626953125
GUIDED_NOGPS,3.4582712650299072,28.859956100816746,0.03249481519063314,0.03373432159423828,0,0,0.549376143726719,4.794097398714079,-35.25209187258029,118.55616965065522,0,0,0,0.549376143726719,0.07526244514642433,0.12314338157379444,1.0698500816546743,0.0008200702991665312,0.1627944177016616,0.3688163822516799,1.9351610913872719,-0.0846798715768115,-0.7111473940312862,0.17821970395743847,26.902100443840027,0.0,0.0,0.0,0.0,0,0,0,0,False,1,3.4763567447662354,0.0349248046875
GUIDED_NOGPS,3.4917047023773193,29.909322988718856,0.032401355107625325,0.03253912925720215,0,0,0.5466348033945034,4.79362910386911,-35.251002457407665,118.5855804452213,0,0,0,0.5466348033945034,0.07407585973287366,0.11699232763403539,1.0536527647021,0.001516254384633329,-0.009603719809092581,0.03569058608263731,1.7760498449206352,-0.10820018827270576,-1.2798747047781944,1.3394922018051147,17.475610971450806,0.0,0.0,0.0,0.0,0,0,0,0,False,0,3.5335614681243896,0.034926025390625
GUIDED_NOGPS,3.5250720977783203,29.96958957356808,0.0324285348256429,0.03255462646484375,0,0,0.5418279504187254,4.792750143900294,-35.25166840085174,118.60006044626174,0,0,0,0.5418279504187254,0.07163885218303818,0.11326593362272418,1.048613629075528,-0.000490428185960108,-0.009603719809092581,0.03569058608263731,1.7760498449206352,-0.10820018827270576,-1.2798747047781944,1.3394922018051147,17.475610971450806,0.0,0.0,0.0,0.0,0,0,0,0,False,0,3.5625264644622803,0.034926025390625
GUIDED_NOGPS,3.558583974838257,29.839954467842915,0.03251174290974935,0.03261232376098633,0,0,0.535168486213662,4.790796709797671,-35.251873306526846,118.62891116531587,0,0,0,0.535168486213662,0.07099099325235232,0.10920893187703981,1.0491994876879525,-0.005663628900980888,0.09365251753479242,0.01467367255827412,2.087809331715107,-0.287675401566478,-0.25078868493437767,0.18338175723329186,28.035995364189148,0.0,0.0,0.0,0.0,0,0,0,0,False,0,3.591280698776245,0.034926025390625
GUIDED_NOGPS,3.591989278793335,29.93472504728259,0.03241709073384603,0.03255200386047363,0,0,0.5269513666173068,4.791723054203853,-35.25194160841855,118.64310429841115,0,0,0,0.5269513666173068,0.06959921051506762,0.10844234661587136,1.045114023795586,-0.008043080162301382,0.05214547272771597,0.19863038323819637,1.8143083900213242,-0.12892191499746664,-8.759348094463348,0.2344784326851368,29.657593369483948,0.0,0.0,0.0,0.0,0,0,0,0,False,0,3.6200006008148193,0.02993603515625
GUIDED_NOGPS,3.6255621910095215,29.789937214125402,0.032473357518514,0.03261876106262207,0,0,0.5175405379355201,4.79167609665331,-35.251559117825025,118.65653245031939,0,0,0,0.5175405379355201,0.06788158004916843,0.10739291706770117,1.0364695786319178,-0.010228786643964984,0.05214547272771597,0.19863038323819637,1.8143083900213242,-0.12892191499746664,-8.759348094463348,0.2344784326851368,29.657593369483948,0.0,0.0,0.0,0.0,0,0,0,0,False,0,3.6488497257232666,0.02993603515625
GUIDED_NOGPS,3.6627542972564697,26.883979104573278,0.03234699567159017,0.03641200065612793,0,0,0.5073528173137328,4.791183896146245,-35.25108783477229,118.68457720705146,0,0,0,0.5073528173137328,0.06369603200609088,0.10670741100332606,1.0302504029848412,-0.01631471816825185,-0.09587981621734798,0.21433737128973007,1.9169118255376816,-0.36036520956066265,1.6748962923884392,1.8301388248801231,24.32425320148468,0.0,0.0,0.0,0.0,0,0,0,0,False,1,3.677438259124756,0.03492578125
GUIDED_NOGPS,3.696335554122925,29.781687790677033,0.032551081975301106,0.03266596794128418,0,0,0.4968394313943169,4.791735007034901,-35.251012702691426,118.69704913247591,0,0,0,0.4968394313943169,0.06388485353819252,0.10535456458056033,1.0219036282613272,-0.025500774290558303,0.13436218723654747,0.18665356328710914,1.728462241590023,-0.2640288597730707,0.09888894855976105,1.7739510163664818,22.38241583108902,0.0,0.0,0.0,0.0,0,0,0,0,True,0,3.736412763595581,0.034926025390625
GUIDED_NOGPS,3.729795217514038,29.884815709410113,0.03240660031636556,0.03253889083862305,0,0,0.4864660309351303,4.793482681688778,-35.25089317438095,118.72598181380009,0,0,0,0.4864660309351303,0.062084111292688815,0.10679789970235087,1.0235332506126813,-0.020676712366391833,0.02259432221762836,0.30591904651373625,2.0629923790693283,0.279546889484781,-0.8775238879024982,1.6305137425661087,19.794128835201263,0.0,0.0,0.0,0.0,0,0,0,0,True,0,3.772416591644287,0.069851318359375
GUIDED_NOGPS,3.7632479667663574,29.895466111661523,0.03240540822347005,0.03254890441894531,0,0,0.4766920665662944,4.793591110941852,-35.250695098895015,118.73901381473647,0,0,0,0.4766920665662944,0.06067069189924737,0.11198763838096105,1.0528932242302793,-0.021794013142846718,-0.038209749618545175,0.34083034843206406,1.81632861495018,0.020689950336864445,-1.029627863317728,1.4486202038824558,17.472219467163086,0.0,0.0,0.0,0.0,0,0,0,0,True,0,3.8075404167175293,0.029936767578125
GUIDED_NOGPS,3.7965567111968994,30.01827876185364,0.03234985669453939,0.0324702262878418,0,0,0.46795043915823376,4.793985127479597,-35.2516786461355,118.76569253363454,0,0,0,0.46795043915823376,0.06459998426066371,0.11399319380818743,1.0455701743913546,-0.019881921540132668,0.3606107784435153,0.3678875742480159,2.0122168585658073,0.06825802907905133,1.6960801556706429,1.8865561112761497,23.63746464252472,0.0,0.0,0.0,0.0,0,0,0,0,True,0,3.8355863094329834,0.069850830078125
GUIDED_NOGPS,3.830048084259033,29.860135976933755,0.03255894978841146,0.03268885612487793,0,0,0.4606283261111384,4.793237221765481,-35.25192111785103,118.78074627056525,0,0,0,0.4606283261111384,0.07117464045362622,0.12047783180795243,1.0761962909867344,-0.019173857325675628,0.3606107784435153,0.3678875742480159,2.0122168585658073,0.06825802907905133,1.6960801556706429,1.8865561112761497,23.63746464252472,0.0,0.0,0.0,0.0,0,0,0,0,True,0,3.8646199703216553,0.069850830078125
GUIDED_NOGPS,3.863560676574707,29.83889303880767,0.03251818021138509,0.03266000747680664,0,0,0.4550500327930064,4.792998592031354,-35.25126541969071,118.79620981884615,0,0,0,0.4550500327930064,0.07045161123697129,0.12290725422885128,1.1003514537571537,-0.019676850620573023,-0.006378218677127734,0.17373214941471815,1.8716514110565186,-0.017078554514286318,1.1878956109285355,1.486274041235447,19.788359105587006,0.0,0.0,0.0,0.0,0,0,0,0,True,0,3.8939807415008545,0.029937255859375
GUIDED_NOGPS,3.8969860076904297,29.91913715867264,0.032471450169881184,0.032602787017822266,0,0,0.4514626286571092,4.79351427131369,-35.2508590234351,118.8233256698511,0,0,0,0.4514626286571092,0.0678338701431057,0.12018030178156752,1.0811511407380734,-0.016037938529270483,0.04574449849314988,0.16471068374812603,1.7413649708032608,0.12573503144006068,0.8386390283703804,1.588253676891327,21.58188223838806,0.0,0.0,0.0,0.0,0,0,0,0,True,0,3.922468662261963,0.029935791015625
GUIDED_NOGPS,3.9304585456848145,29.873747337981925,0.032488377888997395,0.03262782096862793,0,0,0.4500250042328563,4.7929857854266595,-35.250606306435806,118.83680846327272,0,0,0,0.4500250042328563,0.06500093223600066,0.12171129479567903,1.062169963881202,-0.01679988413884719,0.02582062443252653,0.3591064130887389,1.6638023778796196,-0.07627987281581974,-6.792578101158142,-0.5590992048382759,19.04280185699463,0.0,0.0,0.0,0.0,0,0,0,0,True,0,3.9510815143585205,0.034926025390625
GUIDED_NOGPS,3.9639265537261963,29.878003433513083,0.032479079564412434,0.03263068199157715,0,0,0.45080083366935636,4.793307231204474,-35.25015892904517,118.8518212190684,0,0,0,0.45080083366935636,0.06528874830019882,0.12216921803085631,1.0494266914991535,-0.01906410506748044,0.15833379002287984,0.2756065921857953,1.6653697937726974,-0.14703522983079667,3.152235224843025,1.2568592093884945,17.094889283180237,0.0,0.0,0.0,0.0,0,0,0,0,True,0,3.979785680770874,0.03492626953125
GUIDED_NOGPS,3.9974513053894043,29.831252978286074,0.032485040028889973,0.03261399269104004,0,0,0.4537557545292515,4.793797724164245,-35.25150106121708,118.87903269272174,0,0,0,0.4537557545292515,0.06412402584673879,0.12763708911465796,1.0324382019554654,-0.015703509547112443,0.08436710922978818,0.5222199484705925,1.4123810455203056,0.13023511224689416,2.1881792694330215,-0.47244448214769363,18.98622214794159,0.0,0.0,0.0,0.0,0,0,0,0,True,0,4.020475387573242,0.029936767578125
GUIDED_NOGPS,4.030841112136841,29.94883219444623,0.032406123479207356,0.03254508972167969,0,0,0.4587588897432162,4.79552875023202,-35.251989419742735,118.89348537300548,0,0,0,0.4587588897432162,0.05795846279362275,0.12352317357329634,1.006397078938777,-0.011827914213914784,0.07573951734229922,0.05874090129509568,1.5306288376450539,0.10174572620810983,2.166113257408142,1.241150125861168,17.55266934633255,0.0,0.0,0.0,0.0,0,0,0,0,True,0,4.0761613845825195,0.034926025390625
GUIDED_NOGPS,4.06430721282959,29.879493353470014,0.032476218541463216,0.032623291015625,0,0,0.465588644315889,4.795986372906411,-35.251497646122495,118.9202870353086,0,0,0,0.465588644315889,0.05880919659373765,0.1216352403273321,0.9975349500353003,-0.012733764166493706,0.17694728448987007,0.14595197280868888,1.680409163236618,-0.07982292005595147,-1.8274374306201935,1.5383252874016762,21.991774439811707,0.0,0.0,0.0,0.0,0,0,0,0,True,0,4.104983329772949,0.034926025390625
GUIDED_NOGPS,4.097700357437134,29.945197264146902,0.03247717221577962,0.032591819763183594,0,0,0.47394252004001985,4.796941318729743,-35.2516342499059,118.93432990424215,0,0,0,0.47394252004001985,0.0590078148709768,0.12315100369866645,0.9881318532873401,-0.013910443637354773,0.1410328783094883,0.32223465386778116,1.6218563541769981,-0.0936811137477495,-0.24598827585577965,1.5868792310357094,21.633608639240265,0.0,0.0,0.0,0.0,0,0,0,0,True,0,4.133754253387451,0.02993701171875
GUIDED_NOGPS,4.131347894668579,29.72449080832849,0.0325043519337972,0.03264212608337402,0,0,0.48345051351310775,4.798064884848211,-35.25207138201277,118.94652862209979,0,0,0,0.48345051351310775,0.05512632667128613,0.12168227789838691,0.9774077872699283,-0.014127560730110157,-0.06721282261423767,0.19722594879567623,1.7450306564569473,-0.04568135237578326,0.37407446652650833,-0.17101910198107362,24.20400381088257,0.0,0.0,0.0,0.0,0,0,0,0,True,0,4.1625800132751465,0.0349248046875
GUIDED_NOGPS,4.164722442626953,29.962310516765964,0.03224161465962728,0.032385826110839844,0,0,0.4936915040419346,4.797747707938628,-35.2525665707276,118.97569352985575,0,0,0,0.4936915040419346,0.051566464468156714,0.12094888460354832,0.9718736866713147,-0.014405477399859631,-0.06721282261423767,0.19722594879567623,1.7450306564569473,-0.04568135237578326,0.37407446652650833,-0.17101910198107362,24.20400381088257,0.0,0.0,0.0,0.0,0,0,0,0,True,0,4.191604852676392,0.0349248046875
GUIDED_NOGPS,4.198108434677124,29.9503291869582,0.03240254720052083,0.032533884048461914,0,0,0.504211905594606,4.797122745629572,-35.252604136768035,118.98796054960509,0,0,0,0.504211905594606,0.04423697663562689,0.11897408020504784,0.9665336521982919,-0.012392787341231497,-0.2762007527053356,0.12861276045441628,1.7329979687929153,0.0793203475331068,-4.697710275650024,-0.4656837321817875,20.48743963241577,0.0,0.0,0.0,0.0,0,0,0,0,True,0,4.220366477966309,0.034926025390625
GUIDED_NOGPS,4.231878757476807,29.61117151207941,0.032486947377522786,0.03295087814331055,0,0,0.514545756682262,4.798384623078731,-35.253498891549306,119.01428409866632,0,0,0,0.514545756682262,0.04908704967735356,0.12122770010435331,0.9483409185115755,-0.010257517743470909,0.2809399040415883,0.2140826778486371,1.2830580584704876,-0.024949213614602086,0.9960707277059555,-0.341839506290853,21.14558070898056,0.0,0.0,0.0,0.0,0,0,0,0,True,0,4.277788877487183,0.029936767578125
GUIDED_NOGPS,4.2654197216033936,29.815984588371613,0.032503398259480794,0.03263258934020996,0,0,0.5242353583649567,4.798791019334347,-35.254110193480024,119.02918757143529,0,0,0,0.5242353583649567,0.052876148873515924,0.117789748917488,0.9345901436592523,-0.009215487908289617,0.3344449447467923,0.07555099437013268,1.4274273999035358,0.029844951805407065,4.537751525640488,-0.42143259197473526,20.10936588048935,0.0,0.0,0.0,0.0,0,0,0,0,True,0,4.3061206340789795,0.034926025390625
GUIDED_NOGPS,4.2987916469573975,29.964236981789867,0.032406123479207356,0.032531023025512695,0,0,0.5328515462991121,4.798613007529104,-35.254028231209986,119.04202832707492,0,0,0,0.5328515462991121,0.05686465836186183,0.11505171297330488,0.9257351679548921,-0.008201210474369393,0.3344449447467923,0.07555099437013268,1.4274273999035358,0.029844951805407065,4.537751525640488,-0.42143259197473526,20.10936588048935,0.0,0.0,0.0,0.0,0,0,0,0,True,0,4.335381746292114,0.034926025390625
GUIDED_NOGPS,4.332230091094971,29.90420510773004,0.03248170216878255,0.032613515853881836,0,0,0.5400126989526988,4.800487894456272,-35.25477272182952,119.06921247997157,0,0,0,0.5400126989526988,0.05520916170899093,0.11221972644821239,0.9203868756782458,-0.009443465700629167,0.014821421063970774,0.06924265762791038,1.6071904450654984,-0.09646702384621472,0.07364945486187935,-0.22975609172135592,22.56440818309784,0.0,0.0,0.0,0.0,0,0,0,0,True,0,4.363685846328735,0.02993603515625
GUIDED_NOGPS,4.365707159042358,29.872470745760538,0.03250244458516439,0.0326380729675293,0,0,0.5454016400909776,4.800790557213869,-35.2543663255739,119.08153414123427,0,0,0,0.5454016400909776,0.05114299203225614,0.10581833231863827,0.9121301485797578,-0.007689937172286094,-0.1099723856896162,-0.11087141465395689,1.6459370031952858,0.0749521280638729,-0.2704206854104996,2.0221062004566193,27.120530605316162,0.0,0.0,0.0,0.0,0,0,0,0,True,0,4.393008470535278,0.034926025390625
