Mode,Time,Freq,time2delay,actualDelay,North-Desired,East-Desired,Down-Desired,Roll-UAV,Pitch-UAV,Yaw-UAV,Roll-Control,Pitch-Control,Yaw-Control,Thrust-Control,North-Pos,East-Pos,Down-Pos,Yaw-Ang,North-Vel,East-Vel,Down-Vel,Yaw-Vel,North-Acc,East-Acc,Down-Acc,North-Raw,East-Raw,Down-Raw,Yaw-Raw,North-Dif,East-Dif,Down-Dif,Yaw-Dif,Landing-State,Q-Size,Kalman-Time,Kalman-Dt
STABILIZE,0.0343632698059082,29.108514004941288,0.03331616719563802,0.03342866897583008,0,0,0.0,5.894554852784908,-36.03711283464653,8.232147822634044,0,0,0.0,0.0,0.02537531519068308,0.024993385752502963,0.02889236948656839,0.025432853498259342,-0.27473042719066143,-0.08049229509197176,1.7917752265930176,0.22488205743196577,-3.452138602733612,-0.16329949721693993,19.29769515991211,0.0,0.0,0.0,0.0,0,0,0,0,False,0,0.05854058265686035,0.034927978515625
STABILIZE,0.06801390647888184,29.720488928255094,0.03229406674702962,0.032723426818847656,0,0,0.0,5.8946218740161385,-36.03705819313317,8.25075752680139,0,0,0.0,0.0,0.05040879880290764,0.05007265815884344,0.062073731281621136,0.05163505540113336,-0.27473042719066143,-0.08049229509197176,1.7917752265930176,0.22488205743196577,-3.452138602733612,-0.16329949721693993,19.29769515991211,0.0,0.0,0.0,0.0,0,0,0,0,False,0,0.08734393119812012,0.034927978515625
STABILIZE,0.10160589218139648,29.764780186637335,0.03241446812947591,0.03274178504943848,0,0,0.0,5.894390928244828,-36.036737174242184,8.286298416147552,0,0,0.0,0.0,0.07202691572182711,0.07170017879852812,0.095744590458095,0.07465394733461074,0.036939120036549866,0.0708710344042629,2.1001577377319336,0.2752874661244847,1.5201030299067497,-1.178759802132845,24.169178307056427,0.0,0.0,0.0,0.0,0,0,0,0,False,1,0.11601138114929199,0.034928955078125
STABILIZE,0.13608646392822266,29.004245902772976,0.03249338467915853,0.03369474411010742,0,0,0.0,5.892990739464975,-36.03658691008044,8.323761149971425,0,0,0.0,0.0,0.10311980081414093,0.1007478245659169,0.15464742898914913,0.10735782210993396,0.06729526212438941,-0.3581223078072071,1.6193024814128876,0.08586452253162526,2.7083756402134895,-0.6134052760899067,19.742533564567566,0.0,0.0,0.0,0.0,0,0,0,0,False,0,0.17340731620788574,0.0348515625
STABILIZE,0.16962146759033203,29.81958821522011,0.032533915837605794,0.032666683197021484,0,0,0.0,5.894033623973871,-36.03626589118945,8.341952505052108,0,0,0.0,0.0,0.11603826134690291,0.11240629475113334,0.18743876187513728,0.12135020251152087,-0.10843889322131872,-0.24838759563863277,1.8641036003828049,-0.03551522277592091,-4.364505782723427,-0.06409090128727257,24.030078947544098,0.0,0.0,0.0,0.0,0,0,0,0,False,0,0.20208144187927246,0.03492822265625
STABILIZE,0.20317649841308594,29.80263756252842,0.03244975407918294,0.0326228141784668,0,0,0.0,5.896698251523823,-36.03524819300312,8.359336190263438,0,0,0.0,0.0,0.1265814128121033,0.12149287513259038,0.2202818566879185,0.13300332433241369,-0.10843889322131872,-0.24838759563863277,1.8641036003828049,-0.03551522277592091,-4.364505782723427,-0.06409090128727257,24.030078947544098,0.0,0.0,0.0,0.0,0,0,0,0,False,0,0.2306690216064453,0.03492822265625
STABILIZE,0.23658180236816406,29.934084129091193,0.032376797993977864,0.0325009822845459,0,0,0.0,5.896569758590061,-36.035227702435606,8.394895862629816,0,0,0.0,0.0,0.13656946578038628,0.13123030813551398,0.25250741718470215,0.14306038083454808,0.09869490750133991,0.13560503721237183,1.795758493244648,0.03423408205886751,-4.908497259020805,0.746329128742218,25.604137778282166,0.0,0.0,0.0,0.0,0,0,0,0,False,0,0.25963735580444336,0.02993896484375
STABILIZE,0.2699744701385498,29.9477630056978,0.03241566022237142,0.0325167179107666,0,0,0.0,5.895239579249202,-36.03581509870423,8.413031722423492,0,0,0.0,0.0,0.14303709462478675,0.13727876661460528,0.278447903906447,0.14693198758725085,0.20357230678200722,0.18706844421103597,1.8005287274718285,-0.13800378541712252,0.502706877887249,-1.284071896225214,23.938004672527313,0.0,0.0,0.0,0.0,0,0,0,0,False,0,0.2883434295654297,0.034927734375
STABILIZE,0.3043782711029053,29.070383487777324,0.03244665463765462,0.03291893005371094,0,0,0.0,5.895156763205516,-36.03510134393596,8.43261814364215,0,0,0.0,0.0,0.15796755445861463,0.14997153157065674,0.34535677186705505,0.15871799225011377,0.1541053527034819,0.12182274367660284,2.0188648253679276,0.025656978627131434,0.9869009256362915,0.6904681213200092,24.053560197353363,0.0,0.0,0.0,0.0,0,0,0,0,False,0,0.34564876556396484,0.034928955078125
STABILIZE,0.3424537181854248,26.261013298605025,0.031824620564778645,0.03706526756286621,0,0,0.0,5.892234722901219,-36.034428570302715,8.470008306706092,0,0,0.0,0.0,0.1619128152654988,0.15457389819388384,0.3735846693029943,0.16240166034196832,-0.004774716217070818,0.08838067296892405,1.5139322727918625,-0.009720186282147951,-8.227720111608505,2.4350738152861595,22.937841713428497,0.0,0.0,0.0,0.0,0,0,0,0,False,0,0.37415075302124023,0.02993798828125
STABILIZE,0.3759734630584717,29.831465149359886,0.032331021626790364,0.03271770477294922,0,0,0.0,5.895582369368172,-36.03310009850915,8.504724450709974,0,0,0.0,0.0,0.16438859753334129,0.15635333681690314,0.40126550493635976,0.16211314895150883,0.17535720253363252,0.11895026545971632,2.1280625835061073,-0.06093353831839197,1.7476936802268028,0.4426254890859127,23.426184058189392,0.0,0.0,0.0,0.0,0,0,0,0,False,0,0.4028794765472412,0.03991796875
STABILIZE,0.4095010757446289,29.824677171625236,0.032517464955647786,0.03266572952270508,0,0,0.0,5.895831244386054,-36.032369268267956,8.524078645496852,0,0,0.0,0.0,0.16829975929138236,0.16266044474479677,0.43810123067664974,0.16757375784328246,-0.030215844162739813,0.19665099680423737,1.797194592654705,0.1351293696740314,-6.900693476200104,2.453499473631382,23.93984943628311,0.0,0.0,0.0,0.0,0,0,0,0,False,0,0.43170738220214844,0.024948974609375
STABILIZE,0.44299769401550293,29.854184906009554,0.03246811230977376,0.032645225524902344,0,0,0.0,5.894141626340122,-36.03214728711993,8.543451623303946,0,0,0.0,0.0,0.16458805126201698,0.16063226414959247,0.4578234322946944,0.1654413918305162,-0.0516930827870965,0.07715075043961406,2.1022379398345947,0.08627329334519465,2.772219106554985,0.5768885370343924,26.0868638753891,0.0,0.0,0.0,0.0,0,0,0,0,False,0,0.46064066886901855,0.034927978515625
STABILIZE,0.47646522521972656,29.879280498664293,0.03246930440266927,0.03260350227355957,0,0,0.0,5.892474206408993,-36.031505249337954,8.578014088051503,0,0,0.0,0.0,0.16795642765009433,0.16197978851337003,0.5192844989142132,0.16750768934638072,0.2951898379251361,-0.007577752694487572,1.7780909314751625,0.06539149740197484,-2.5617633014917374,0.311550498008728,24.9472513794899,0.0,0.0,0.0,0.0,0,0,0,0,False,0,0.5180685520172119,0.034928955078125
STABILIZE,0.5099697113037109,29.847598986649967,0.0324590524037679,0.032593488693237305,0,0,0.0,5.892648803119651,-36.03055585304332,8.595443877039731,0,0,0.0,0.0,0.169304664017529,0.15913856781128527,0.5491136687091828,0.1675144318960257,0.16211577458307147,-0.14893542975187302,1.9658157601952553,0.07126692084153367,-1.8155340105295181,0.2522206399589777,24.87320601940155,0.0,0.0,0.0,0.0,0,0,0,0,False,0,0.5465612411499023,0.03492822265625
STABILIZE,0.5529062747955322,23.290561176326865,0.03239157994588216,0.03251194953918457,0,0,0.0,5.893432994213733,-36.02933324918189,8.613628401931242,0,0,0.0,0.0,0.1736574359402162,0.15819262649921484,0.57518953862143,0.16803343159220457,0.4119579214602709,0.04057968035340309,1.7597241327166557,0.1474316742873483,5.15393540263176,0.38277157582342625,23.430387675762177,0.0,0.0,0.0,0.0,0,0,0,0,False,0,0.5752341747283936,0.034927734375
STABILIZE,0.576958417892456,41.5763367102159,0.022899421056111653,0.023019790649414062,0,0,0.0,5.894944173567599,-36.02828823023887,8.647342215674426,0,0,0.0,0.0,0.1724127575599041,0.1559091070158984,0.6036448772435844,0.16727916390897224,0.037007321952842176,-0.01936402404680848,2.0028939470648766,0.08787784085140551,2.399684675037861,0.4943947773426771,26.127859950065613,0.0,0.0,0.0,0.0,0,0,0,0,False,0,0.6041064262390137,0.029938232421875
STABILIZE,0.6103756427764893,29.923833169242183,0.03229978879292806,0.03241419792175293,0,0,0.0,5.894203524929475,-36.027219305633764,8.667350401074332,0,0,0.0,0.0,0.16817616967056143,0.15295016620849622,0.6223395174180937,0.16711886675593554,-0.03834021626971662,0.045330190914683044,1.8619585782289505,0.24787210065225845,-2.831583097577095,-0.3222196130082011,16.368062794208527,0.0,0.0,0.0,0.0,0,0,0,0,False,0,0.6325521469116211,0.034928955078125
STABILIZE,0.6477444171905518,26.7625300689752,0.032320292790730794,0.03609752655029297,0,0,0.0,5.892788395110814,-36.02665581502724,8.705007795289552,0,0,0.0,0.0,0.16637548710821035,0.15129563744214478,0.6429575652851676,0.16288049849249814,0.05274064023979008,0.06655747420154512,1.5744023025035858,-0.11099808455275158,0.4957771860063076,0.0021448024199344218,19.842436909675598,0.0,0.0,0.0,0.0,0,0,0,0,False,0,0.6613903045654297,0.029943603515625
STABILIZE,0.6807944774627686,30.255384837336795,0.032042535146077473,0.03217673301696777,0,0,0.0,5.892955734745478,-36.02699390939116,8.722934480539896,0,0,0.0,0.0,0.16384025661959206,0.14638225322718507,0.6716510068793057,0.15340811049470934,0.3348782891407609,0.1349699217826128,1.827319897711277,0.03564641043275276,-1.7582882195711136,-1.189785823225975,27.508294582366943,0.0,0.0,0.0,0.0,0,0,0,0,False,0,0.7186779975891113,0.034927978515625
STABILIZE,0.7141752243041992,29.95546286905969,0.03245237668355306,0.03256797790527344,0,0,0.0,5.894264996632006,-36.02662166408139,8.758714426507007,0,0,0.0,0.0,0.1617457151665439,0.14363658328190773,0.694635558915407,0.1492817643743901,0.070029532071203,0.025348537019453943,1.8986398354172707,-0.05078036540062215,-0.14983955770730972,0.8717232383787632,29.128816723823547,0.0,0.0,0.0,0.0,0,0,0,0,False,0,0.7474968433380127,0.034928955078125
STABILIZE,0.7477047443389893,29.825949682135594,0.03251484235127767,0.03262948989868164,0,0,0.0,5.895472232567806,-36.027318343376734,8.775602069229864,0,0,0.0,0.0,0.15767018390665488,0.14099263337482662,0.7175693248579978,0.14625031490241533,-0.03991646517533809,0.04705215978901833,1.9621873274445534,0.038221631873685574,-1.5192617662250996,2.66258604824543,27.476543188095093,0.0,0.0,0.0,0.0,0,0,0,0,False,0,0.7760953903198242,0.03492822265625
STABILIZE,0.781196117401123,29.858860547728714,0.03241613705952962,0.03255772590637207,0,0,0.0,5.895947357601944,-36.0262562489608,8.7935193629701,0,0,0.0,0.0,0.15687118709946105,0.13406402414792806,0.7337685301028637,0.14336634329206283,0.1876110676676035,-0.21382379345595837,1.597464643418789,0.05926166942615284,-2.112666890025139,-2.2945888340473175,18.559877574443817,0.0,0.0,0.0,0.0,0,0,0,0,False,0,0.8049447536468506,0.02993896484375
STABILIZE,0.8145954608917236,29.940922005054038,0.032386096318562825,0.03250837326049805,0,0,0.0,5.8949629565878165,-36.02554249419253,8.829920002378037,0,0,0.0,0.0,0.15136227581687195,0.13100642655821834,0.7493596663513675,0.14191727998863748,-0.04842523776460439,0.08537667454220355,2.0368237048387527,0.20241880589162353,-1.4115646481513977,0.16015851870179176,21.740907430648804,0.0,0.0,0.0,0.0,0,0,0,0,False,0,0.8334403038024902,0.034927734375
STABILIZE,0.8484594821929932,29.529865667858854,0.032427104314168294,0.03253912925720215,0,0,0.0,5.893794140466098,-36.0246613997896,8.8496874236097,0,0,0.0,0.0,0.1480189554722134,0.12453860105648552,0.7645995290351136,0.1386218873862727,0.04029882838949561,-0.16876652371138334,1.6394371166825294,0.0393183975037883,-4.636777937412262,-1.4229094609618187,27.832844853401184,0.0,0.0,0.0,0.0,0,0,0,0,False,0,0.8621304035186768,0.029938232421875
STABILIZE,0.8853294849395752,27.121968883773263,0.0320008118947347,0.03594231605529785,0,0,0.0,5.893841098016642,-36.024890211126795,8.86549248134911,0,0,0.0,0.0,0.1354043717752384,0.11298269562270181,0.7844856542106319,0.12999024259597214,-0.23372250143438578,-0.012896460248157382,1.9279411062598228,-0.004331607254044239,-0.9683139622211456,1.966443844139576,20.804400742053986,0.0,0.0,0.0,0.0,0,0,0,0,False,0,0.9194972515106201,0.034928955078125
STABILIZE,0.9186687469482422,29.99402165362777,0.03239134152730306,0.032511234283447266,0,0,0.0,5.898320421451701,-36.02576789043514,8.900772115959517,0,0,0.0,0.0,0.1303965991124875,0.11105651785871212,0.8023422807395908,0.1275966769443252,-0.050765095511451364,0.12314699124544859,1.9317727535963058,0.10117700623800048,-1.8897676840424538,1.7771244049072266,18.569792807102203,0.0,0.0,0.0,0.0,0,0,0,0,False,0,0.9507095813751221,0.034927978515625
STABILIZE,0.9540927410125732,28.23097374319349,0.03249934514363607,0.03457808494567871,0,0,0.0,5.896643183123639,-36.02599328667775,8.936325811910374,0,0,0.0,0.0,0.13252332839786932,0.10486545233410274,0.8200464712762595,0.1257328895677885,0.3967583645135164,-0.14282973716035485,1.980450563132763,0.13599957846297334,-1.9853617995977402,-0.04797899455297738,22.446072101593018,0.0,0.0,0.0,0.0,0,0,0,0,False,0,0.9769721031188965,0.034927978515625
STABILIZE,0.9960277080535889,23.845092041978873,0.032462390263875325,0.04111456871032715,0,0,0.0,5.895316418877364,-36.025662022503006,8.954167119796093,0,0,0.0,0.0,0.12715065330517397,0.10580515019919041,0.8382441830002444,0.12142775987272052,0.122511712834239,0.34139121416956186,1.6812073066830635,0.08477506733836855,2.464294247329235,0.652281753718853,25.38430392742157,0.0,0.0,0.0,0.0,0,0,0,0,False,0,1.0343916416168213,0.034927978515625
STABILIZE,1.0295305252075195,29.84908587573034,0.032518895467122395,0.03263592720031738,0,0,0.0,5.8933745107189655,-36.0232031544018,8.993559382060495,0,0,0.0,0.0,0.12429712188063122,0.10351246877778056,0.852962208281105,0.11854775135107982,0.08189624059014022,0.08633857360109687,1.9344214349985123,0.0701147199553841,2.7641555294394493,0.42072185315191746,25.48714578151703,0.0,0.0,0.0,0.0,0,0,0,0,False,0,1.0631351470947266,0.034927978515625
STABILIZE,1.063047170639038,29.836345917184175,0.03242948849995931,0.032559871673583984,0,0,0.0,5.892395232346715,-36.02309045628049,9.0104017747801,0,0,0.0,0.0,0.12142960957155635,0.10123904437668335,0.8668409623666157,0.11565418684031341,0.08189624059014022,0.08633857360109687,1.9344214349985123,0.0701147199553841,2.7641555294394493,0.42072185315191746,25.48714578151703,0.0,0.0,0.0,0.0,0,0,0,0,False,0,1.091792106628418,0.034927978515625
STABILIZE,1.0983107089996338,28.35713609627476,0.032387765248616536,0.0344085693359375,0,0,0.0,5.895870091086959,-36.02296751287543,9.044521984778898,0,0,0.0,0.0,0.11872886899382466,0.0936635136997347,0.8761574997575037,0.1098257107121815,0.09199843625538051,-0.23435556795448065,1.708921417593956,-0.10650455379061043,-0.32743674237281084,0.41222888976335526,27.94940173625946,0.0,0.0,0.0,0.0,0,0,0,0,False,0,1.1206905841827393,0.029939208984375
STABILIZE,1.1317903995513916,29.87183249056335,0.03246477444966634,0.032590627670288086,0,0,0.0,5.8968331477599305,-36.02275577701116,9.063331471979467,0,0,0.0,0.0,0.11494161052388334,0.0931607810359042,0.8782206967501569,0.10692069905309957,0.046169120469130576,0.20421270746737719,1.6724836081266403,0.08694568678236406,-0.010179495438933372,0.23291928227990866,22.63280898332596,0.0,0.0,0.0,0.0,0,0,0,0,False,0,1.1541719436645508,0.034927734375
STABILIZE,1.1685192584991455,27.230258843998936,0.0324125607808431,0.03458356857299805,0,0,0.0,5.895531996723043,-36.02198055054037,9.08305791207611,0,0,0.0,0.0,0.11158948408882843,0.08933684729118574,0.8840693561049829,0.10238647377707917,0.04718694253824651,-0.01449538831366226,1.566094160079956,-0.033303348722534265,-1.2830542400479317,0.2833648584783077,23.746906220912933,0.0,0.0,0.0,0.0,0,0,0,0,False,0,1.1828274726867676,0.034876708984375
STABILIZE,1.2006568908691406,31.10647670891521,0.031172784169514973,0.03130769729614258,0,0,0.0,5.891116706311453,-36.02117458821831,9.122411754526432,0,0,0.0,0.0,0.10319185680195689,0.07841281251068488,0.8938970796533766,0.0995857771876648,-0.05346445832401514,-0.1202875399030745,1.766258291900158,0.1268843174896211,-6.432295590639114,-0.35461336374282837,17.995885014533997,0.0,0.0,0.0,0.0,0,0,0,0,False,0,1.2409956455230713,0.034927978515625
STABILIZE,1.2342529296875,29.76668133365506,0.0325198491414388,0.03267526626586914,0,0,0.0,5.890726958641939,-36.02120873916416,9.140884854910377,0,0,0.0,0.0,0.10212998347422038,0.07397278104813206,0.904447372254815,0.10048109887501022,0.1770405564457178,-0.0593639793805778,1.9472427666187286,0.2807643707043358,0.02339244820177555,0.09441180154681206,22.485384345054626,0.0,0.0,0.0,0.0,0,0,0,0,False,0,1.270442247390747,0.034928955078125
STABILIZE,1.268218755722046,29.441356703143974,0.03239563306172689,0.03316187858581543,0,0,0.0,5.890695369017028,-36.021775644865265,9.16006914874165,0,0,0.0,0.0,0.10115218620115339,0.06959032005002092,0.9143893633606923,0.10147682605612228,0.1770405564457178,-0.0593639793805778,1.9472427666187286,0.2807643707043358,0.02339244820177555,0.09441180154681206,22.485384345054626,0.0,0.0,0.0,0.0,0,0,0,0,False,0,1.2983896732330322,0.034928955078125
STABILIZE,1.3018670082092285,29.72154195011338,0.0325191338857015,0.032678842544555664,0,0,0.0,5.890434541168098,-36.021061890097,9.194542821029998,0,0,0.0,0.0,0.09887714509455285,0.0645387890002176,0.9198977256087038,0.1046728542464286,0.0953346025198698,-0.1032299711368978,1.7189223319292068,0.40642005455614794,-0.49899620935320854,0.021706765983253717,21.98108583688736,0.0,0.0,0.0,0.0,0,0,0,0,False,0,1.3300681114196777,0.02993798828125
STABILIZE,1.3357443809509277,29.51760441957845,0.032343419392903645,0.03290748596191406,0,0,0.0,5.888582279242555,-36.01951485224999,9.232439271866166,0,0,0.0,0.0,0.09380561653122055,0.060062124288880935,0.9190732756692793,0.09758867278091257,-0.06249373545870185,-0.07885863306000829,1.6993002966046333,-0.18984959029214724,-5.451584234833717,-2.242678962647915,18.46148371696472,0.0,0.0,0.0,0.0,0,0,0,0,False,0,1.3587541580200195,0.034928955078125
STABILIZE,1.3690686225891113,30.00711132732853,0.03235629399617513,0.03247404098510742,0,0,0.0,5.888259552804272,-36.01977098434387,9.252291216688809,0,0,0.0,0.0,0.09175635461146227,0.05359897735864835,0.9251473549569523,0.09291353455077575,0.1011993270367384,-0.19923609215766191,1.7914405092597008,-0.06732534140148097,-1.204355526715517,0.2158797811716795,24.313649535179138,0.0,0.0,0.0,0.0,0,0,0,0,False,0,1.387479305267334,0.034927978515625
STABILIZE,1.4030733108520508,29.40750348811936,0.032451899846394856,0.03311562538146973,0,0,0.0,5.889207668438434,-36.01994173907312,9.270795906697666,0,0,0.0,0.0,0.09150290898497622,0.045415741542729246,0.9283020802358725,0.08754174092511782,0.44500590302050114,0.024911414948292077,1.9233861938118935,-0.021170664920343762,9.834413975477219,0.15684759709984064,21.330229938030243,0.0,0.0,0.0,0.0,0,0,0,0,False,0,1.4448416233062744,0.03492919921875
STABILIZE,1.4364604949951172,29.951184678444424,0.0324585755666097,0.032585859298706055,0,0,0.0,5.8908315459136045,-36.01988709755976,9.305182494074096,0,0,0.0,0.0,0.08653160576431998,0.04262348301274154,0.9304674183317939,0.08663928579405884,-0.0902355124708265,0.00039688111428404227,1.6196539625525475,0.14998475097433148,-4.704200476408005,0.21370099857449532,22.801175713539124,0.0,0.0,0.0,0.0,0,0,0,0,False,0,1.4741771221160889,0.034927978515625
STABILIZE,1.4699501991271973,29.859923397832926,0.03253177007039388,0.03263521194458008,0,0,0.0,5.891518406812014,-36.0197641541547,9.321447735808833,0,0,0.0,0.0,0.08156259363124675,0.03996394053939561,0.9321160222461565,0.08580608520577955,-0.0902355124708265,0.00039688111428404227,1.6196539625525475,0.14998475097433148,-4.704200476408005,0.21370099857449532,22.801175713539124,0.0,0.0,0.0,0.0,0,0,0,0,False,0,1.5022077560424805,0.034927978515625
STABILIZE,1.503497838973999,29.810262970859984,0.032436641057332356,0.03262758255004883,0,0,0.0,5.890429845413044,-36.01941581450703,9.3407020390791,0,0,0.0,0.0,0.08243720160671515,0.03915217191975572,0.9357622117545256,0.08314515725723937,0.25405031628906727,0.10203495621681213,1.7655009403824806,0.03803613620882419,-2.0775794982910156,0.552362622693181,24.791738390922546,0.0,0.0,0.0,0.0,0,0,0,0,False,0,1.5310561656951904,0.029938720703125
STABILIZE,1.5368726253509521,29.961454389599258,0.03242162068684896,0.03256630897521973,0,0,0.0,5.890644569485076,-36.018268342726465,9.377342588881634,0,0,0.0,0.0,0.07219079430691834,0.03762883986458454,0.936021319241681,0.08256079399603011,-0.4055726807564497,0.042438574018888175,1.8838906660676003,0.16981284349573136,-8.140765875577927,0.6691279821097851,26.42199695110321,0.0,0.0,0.0,0.0,0,0,0,0,False,0,1.5595898628234863,0.03492822265625
STABILIZE,1.5704855918884277,29.751267919335504,0.03251674969991048,0.0326387882232666,0,0,0.0,5.890433687394451,-36.01905381448102,9.396301486470296,0,0,0.0,0.0,0.07216911968376917,0.03585498541860202,0.9411632289587558,0.08339742005932438,0.19455289002507925,0.02989043714478612,1.8681356683373451,0.2373683636062631,6.137889996170998,0.08375042816624045,19.419512152671814,0.0,0.0,0.0,0.0,0,0,0,0,True,0,1.588315486907959,0.034927978515625
STABILIZE,1.6037864685058594,30.028164577352356,0.0323367436726888,0.03245258331298828,0,0,0.0,5.890080225104904,-36.0188079276709,9.434121097678304,0,0,0.0,0.0,0.06951176650426073,0.03280418442806782,0.9427812371947561,0.07942219543371014,0.19884989596903324,-0.040779958362691104,2.004832774400711,0.03279497987704433,3.501388803124428,-1.3143666088581085,26.334473490715027,0.0,0.0,0.0,0.0,0,0,0,0,True,0,1.6456408500671387,0.039917724609375
STABILIZE,1.6372590065002441,29.874598460081057,0.03248265584309896,0.03259992599487305,0,0,0.0,5.891291303022111,-36.0196719466009,9.45276239147056,0,0,0.0,0.0,0.06591498034318734,0.02770296936956918,0.9528006169264354,0.07894042926648502,-0.04025522503070533,-0.17698482843115926,1.8967580050230026,0.13638153544796516,-2.9598675668239594,0.4144713282585144,24.783137440681458,0.0,0.0,0.0,0.0,0,0,0,0,True,0,1.6744318008422852,0.02993701171875
STABILIZE,1.6706876754760742,29.915296064362437,0.03244975407918294,0.03258085250854492,0,0,0.0,5.891096642630766,-36.019163097507736,9.469783222882233,0,0,0.0,0.0,0.06545711008239188,0.02497957470751531,0.9493306842408589,0.07637692726112831,0.1501808175817132,-0.05899167153984308,1.7304390668869019,0.036843854652047064,3.976839780807495,0.6142678670585155,26.35292112827301,0.0,0.0,0.0,0.0,0,0,0,0,True,0,1.7031099796295166,0.029938720703125
STABILIZE,1.7041206359863281,29.909322988718856,0.03246930440266927,0.032598257064819336,0,0,0.0,5.888719309912778,-36.019313361669475,9.508711032283074,0,0,0.0,0.0,0.06958694310721232,0.02515832619341133,0.9467406151069966,0.07348928038620886,0.42078220285475254,0.10854339925572276,1.7678219825029373,0.011700437548402493,11.435835063457489,0.5639390088617802,24.9255433678627,0.0,0.0,0.0,0.0,0,0,0,0,True,0,1.7316327095031738,0.034927978515625
STABILIZE,1.737607717514038,29.862687162253565,0.0324895699818929,0.03262495994567871,0,0,0.0,5.888478118857712,-36.01917334279149,9.527679321381845,0,0,0.0,0.0,0.06906773325647703,0.025389103927935905,0.9511404245959372,0.07239175525865384,0.12864163145422935,0.11522095883265138,1.881721243262291,0.10397756389058421,-5.285909399390221,0.7836923934519291,28.610050678253174,0.0,0.0,0.0,0.0,0,0,0,0,True,0,1.760392665863037,0.03492822265625
STABILIZE,1.7710464000701904,29.90505796626121,0.032457860310872395,0.032579898834228516,0,0,0.0,5.891294291229873,-36.02069989007099,9.561997606866575,0,0,0.0,0.0,0.06864113028345313,0.023972045861615218,0.9519460147574756,0.06981268157695909,0.13101117219775915,0.010316971020074561,1.6849713400006294,0.012894813518655582,-0.19683288410305977,0.22122806403785944,22.57463186979294,0.0,0.0,0.0,0.0,0,0,0,0,True,0,1.7891483306884766,0.02993896484375
STABILIZE,1.8046157360076904,29.790148797897654,0.03246143658955892,0.03270101547241211,0,0,0.0,5.891549142663279,-36.02187809770282,9.581032490309754,0,0,0.0,0.0,0.06680288895395772,0.022119990011557643,0.942220402668846,0.06357323395557891,0.08489933097735047,0.042753780144266784,1.5996389091014862,-0.04644515295395448,2.6642628014087677,0.0502775888890028,20.279864966869354,0.0,0.0,0.0,0.0,0,0,0,0,True,0,1.8466558456420898,0.034927978515625
STABILIZE,1.8380837440490723,29.88077054599339,0.0324588139851888,0.03257632255554199,0,0,0.0,5.891451385580783,-36.0222913241476,9.59786805284019,0,0,0.0,0.0,0.06338892856643624,0.025670201328121107,0.9425674416457422,0.060545748848817804,-0.05913185887038708,0.29603082221001387,1.6502691432833672,-0.02442152814036571,4.398889094591141,0.7929909974336624,26.535195112228394,0.0,0.0,0.0,0.0,0,0,0,0,True,0,1.8750555515289307,0.034928955078125
STABILIZE,1.8714313507080078,29.98694511371192,0.03241613705952962,0.03253436088562012,0,0,0.0,5.89048406003958,-36.02115751274538,9.636082107472765,0,0,0.0,0.0,0.06405452805432009,0.02144330170585315,0.9444206122893178,0.060407845010185854,0.1860051415860653,-0.1787226996384561,1.7583096399903297,0.14679530609598673,-0.29381527565419674,-1.8459625542163849,21.738500893115997,0.0,0.0,0.0,0.0,0,0,0,0,True,0,1.9108405113220215,0.02993798828125
STABILIZE,1.9049365520477295,29.845262745935177,0.03250125249226888,0.032633304595947266,0,0,0.0,5.888638628303208,-36.0211301919887,9.65417015594225,0,0,0.0,0.0,0.06459151668675388,0.017322074364731425,0.9413984201355596,0.060249611648206816,0.1860051415860653,-0.1787226996384561,1.7583096399903297,0.14679530609598673,-0.29381527565419674,-1.8459625542163849,21.738500893115997,0.0,0.0,0.0,0.0,0,0,0,0,True,0,1.9396414756774902,0.02993798828125
STABILIZE,1.9383563995361328,29.92233882416728,0.03244903882344564,0.03255867958068848,0,0,0.0,5.889765609516259,-36.020918456124434,9.690424800056679,0,0,0.0,0.0,0.06580778163693396,0.012755219193013995,0.9356796348633318,0.05783384004099209,0.2252131002023816,-0.21176508162170649,1.5773583203554153,0.005349802363318684,0.8368968963623047,0.0064573410782031715,19.698844850063324,0.0,0.0,0.0,0.0,0,0,0,0,True,0,1.9682466983795166,0.034928955078125
STABILIZE,1.9781577587127686,25.12401763465593,0.03247812589009603,0.038945674896240234,0,0,0.0,5.890862708651693,-36.02093553159735,9.709101952342078,0,0,0.0,0.0,0.0641691961694444,0.010205660301609337,0.9409939258077812,0.054699151240657086,0.03473339602351189,-0.08266118820756674,1.9548682495951653,-0.04787669123488039,-1.4731267467141151,0.20152959041297436,21.89331352710724,0.0,0.0,0.0,0.0,0,0,0,0,True,0,1.9969851970672607,0.069856201171875
STABILIZE,2.011552572250366,29.94498347219545,0.03247073491414388,0.03258967399597168,0,0,0.0,5.893265227692245,-36.0205837768551,9.744570270928309,0,0,0.0,0.0,0.06388918050252505,0.006352947725427233,0.9782142140736976,0.051819399185788324,0.03473339602351189,-0.08266118820756674,1.9548682495951653,-0.04787669123488039,-1.4731267467141151,0.20152959041297436,21.89331352710724,0.0,0.0,0.0,0.0,0,0,0,0,True,1,2.025766372680664,0.069856201171875
STABILIZE,2.0450618267059326,29.84250220565216,0.03250125249226888,0.03262472152709961,0,0,0.0,5.892801628602331,-36.019344097520744,9.764578456328215,0,0,0.0,0.0,0.05826974671059894,0.006565992860047697,0.9943351794726931,0.04210546960484826,-0.08291371050290763,0.1704826601780951,1.517894584685564,0.025945480748391748,-1.503586396574974,-1.2831521220505238,24.471162259578705,0.0,0.0,0.0,0.0,0,0,0,0,True,0,2.0840518474578857,0.034927734375
STABILIZE,2.078559398651123,29.85439740341087,0.03241995175679525,0.03257036209106445,0,0,0.0,5.890992482245923,-36.019227984304855,9.78250258025762,0,0,0.0,0.0,0.05630659883759046,0.004091065483013563,0.9878262679207952,0.03999974480994363,0.04016526218038052,-0.09286784334108233,1.663973368704319,0.017923606996143582,-0.6747971288859844,1.3971906155347824,12.271563708782196,0.0,0.0,0.0,0.0,0,0,0,0,True,0,2.1128218173980713,0.03492822265625
STABILIZE,2.1125240325927734,29.44115004492363,0.032407315572102864,0.03304004669189453,0,0,0.0,5.890088762841366,-36.01991441831644,9.821602851935005,0,0,0.0,0.0,0.05587989119991335,0.0030106993396952684,0.9795833586871191,0.03691211580499664,0.11535880621522665,-0.02395454212091863,1.5555722638964653,-0.03909597612872654,5.314815416932106,0.1364865805953741,18.767324090003967,0.0,0.0,0.0,0.0,0,0,0,0,True,0,2.1416702270507812,0.02993896484375
STABILIZE,2.145885467529297,29.9743014364325,0.03240779240926107,0.03253006935119629,0,0,0.0,5.8895794868613764,-36.01973000320885,9.838642466366894,0,0,0.0,0.0,0.05115949295077142,0.0032350210638013,0.9714308289265494,0.03481726629052206,-0.10876118903979659,0.03461731830611825,1.7737576737999916,0.000928198695820932,-8.051136136054993,0.4004247020930052,23.126760125160217,0.0,0.0,0.0,0.0,0,0,0,0,True,0,2.1701509952545166,0.034927978515625
STABILIZE,2.1794300079345703,29.810686719072056,0.03249100049336751,0.03264307975769043,0,0,0.0,5.890679147317749,-36.01876694653588,9.873360317918069,0,0,0.0,0.0,0.047687163931647104,0.0019621337134788975,0.9668021382045677,0.03395213955092289,-0.05395358894020319,-0.03996555751655251,1.6833914443850517,0.06552493955484132,-0.15202779322862625,1.9958393648266792,19.28744465112686,0.0,0.0,0.0,0.0,0,0,0,0,True,0,2.1989734172821045,0.034928955078125
STABILIZE,2.21284818649292,29.926181727373265,0.032427342732747395,0.03254389762878418,0,0,0.0,5.888325293375034,-36.016827172811595,9.894802843043678,0,0,0.0,0.0,0.048736654725025336,0.0016155656671270396,0.9657255200393935,0.03290160038602076,0.18259091302752495,0.006722368561895564,1.8611952662467957,0.05031773014111287,2.1012548357248306,-1.0228435508906841,29.139354825019836,0.0,0.0,0.0,0.0,0,0,0,0,True,1,2.2275516986846924,0.02993798828125
STABILIZE,2.2478742599487305,28.550159961881423,0.032431634267171223,0.032561540603637695,0,0,0.0,5.888463604705726,-36.018852323900504,9.930785987138597,0,0,0.0,0.0,0.044755927654739756,0.001028890735208567,0.9487105329821127,0.021485517635532633,0.014806605759076774,0.0034916942240670323,1.550842821598053,-0.21210586842433957,-0.11410843580961227,2.347872219979763,22.90089875459671,0.0,0.0,0.0,0.0,0,0,0,0,True,0,2.2850687503814697,0.03492919921875
STABILIZE,2.279710531234741,31.40883187682999,0.030866416295369466,0.030981779098510742,0,0,0.0,5.887535552752251,-36.01656421052855,9.951052865953317,0,0,0.0,0.0,0.04973912082792819,0.005222477576262624,0.9465293995485791,0.021875420431358573,0.3890592372044921,0.2492103260010481,1.7492419108748436,0.11508880757663385,-6.446083635091782,0.6810123566538095,25.321948528289795,0.0,0.0,0.0,0.0,0,0,0,0,True,0,2.3139028549194336,0.034927734375
STABILIZE,2.3138411045074463,29.300062871114214,0.03246453603108724,0.03310441970825195,0,0,0.0,5.888101604679715,-36.01668032374444,9.96827604171915,0,0,0.0,0.0,0.04400561570950107,0.002897542134430662,0.9449015884225768,0.02470956773150779,-0.20291900727897882,-0.11055896757170558,1.772267185151577,0.24371585050102634,1.2568963691592216,0.2947791013866663,21.679700911045074,0.0,0.0,0.0,0.0,0,0,0,0,True,0,2.343977212905884,0.02993896484375
STABILIZE,2.347067356109619,30.09560437983439,0.03229883511861165,0.03241372108459473,0,0,0.0,5.892335468191477,-36.017537512485276,10.001416973345698,0,0,0.0,0.0,0.038321803669259524,0.0006673860372040548,0.9390640494912407,0.027650238719343856,-0.20291900727897882,-0.11055896757170558,1.772267185151577,0.24371585050102634,1.2568963691592216,0.2947791013866663,21.679700911045074,0.0,0.0,0.0,0.0,0,0,0,0,True,0,2.372792959213257,0.02993896484375
GUIDED_NOGPS,2.380557060241699,29.860348559061396,0.03251317342122396,0.032642364501953125,0,0,0.0,5.890529310042832,-36.01617147465127,10.019711635037577,0,0,0.0,0.0,0.03593683745210847,0.0014313227117180478,0.9351826077314404,0.025602515064559676,-0.026670488296076655,0.05555794341489673,1.8504513427615166,-0.03723566338450382,3.589491918683052,-1.1579983867704868,27.6661217212677,0.0,0.0,0.0,0.0,0,0,0,0,True,0,2.4025726318359375,0.06985595703125
GUIDED_NOGPS,2.414016008377075,29.887158146759965,0.031439812978108723,0.03155875205993652,0,0,0.5,5.889211083533019,-36.01498302173569,10.039742872325933,0,0,0.0,0.5,0.03609734595478574,0.0005026210777285516,0.9632172022206069,0.02523802147101569,0.11727198725566268,-0.014588922203984112,1.6772987321019173,0.06347869758882747,-0.6861935835331678,2.3318173363804817,22.84656912088394,0.0,0.0,0.0,0.0,0,0,0,0,False,0,2.4313406944274902,0.029939208984375
GUIDED_NOGPS,2.4475042819976807,29.861624115393926,0.032454522450764973,0.032596588134765625,0,0,0.5,5.887750703711106,-36.013910682036,10.07717060143031,0,0,2.0928640278329307,0.5,0.03490322015014361,0.0006336840940839368,0.9444274362121338,0.027216224065067296,0.015154189895838499,0.036966727930121124,1.690560020506382,0.18538310014220846,-0.33534495159983635,0.2896323800086975,21.9230055809021,0.0,0.0,0.0,0.0,0,0,0,0,False,0,2.488738536834717,0.034927978515625
GUIDED_NOGPS,2.4809257984161377,29.9212715262024,0.03242376645406087,0.03255128860473633,0,0,0.5,5.890915215730938,-36.01387994618473,10.095061428187512,0,0,4.093032540812346,0.5,0.033489520382263105,0.0011433105484419475,0.9407804448139703,0.029404087691801698,0.015154189895838499,0.036966727930121124,1.690560020506382,0.18538310014220846,-0.33534495159983635,0.2896323800086975,21.9230055809021,0.0,0.0,0.0,0.0,0,0,0,0,False,0,2.517566204071045,0.034927978515625
GUIDED_NOGPS,2.514329433441162,29.93707531547993,0.032449992497762044,0.03255510330200195,0,0,0.5,5.891228977545935,-36.0149352104115,10.128059779615135,0,0,5.911915622135862,0.5,0.03076617618622704,0.0028739510844558087,0.9381705126230577,0.02789275086235482,-0.059601163957268,0.10278908303007483,1.7329230904579163,-0.018454824291830662,-4.962124675512314,0.10722370352596045,19.894802570343018,0.0,0.0,0.0,0.0,0,0,0,0,False,0,2.547910690307617,0.064866943359375
GUIDED_NOGPS,2.5479354858398438,29.759500496665247,0.03247836430867513,0.03260612487792969,0,0,0.5,5.8876380055898005,-36.01462785189885,10.149441686811862,0,0,7.468952709129846,0.5,0.03421015731777095,0.002375047629154636,0.9613494785904485,0.02533186438179915,0.2587218303233385,-0.01940082001965493,1.7309339717030525,-0.09312055798813243,-0.09138872846961021,0.07050401763990521,19.41283941268921,0.0,0.0,0.0,0.0,0,0,0,0,False,0,2.576451301574707,0.034927978515625
GUIDED_NOGPS,2.581291437149048,29.976872167984105,0.03229502042134603,0.032433509826660156,0,0,0.5,5.886403875784144,-36.014576625480075,10.168332282508825,0,0,8.695180719384028,0.5,0.036435300717905336,0.003510304071378763,0.9541589328008542,0.02356502337614088,0.19629851449280977,0.06517955916933715,1.6353065147995949,-0.026250171218397785,2.8604306280612946,2.104143053293228,20.074626803398132,0.0,0.0,0.0,0.0,0,0,0,0,False,0,2.605234146118164,0.03492919921875
GUIDED_NOGPS,2.6146912574768066,29.940067099721606,0.03241995175679525,0.03253769874572754,0,0,0.5,5.889072345315504,-36.01399947449521,10.200996808440763,0,0,9.536288510260055,0.5,0.035360806266432315,0.004721298606289302,0.943945749661124,0.020203130349698242,0.025421142345294356,0.06944916094653308,1.4530442655086517,-0.1113207042693289,-0.06870022043585777,0.29678207356482744,22.040197253227234,0.0,0.0,0.0,0.0,0,0,0,0,False,0,2.634045124053955,0.029937744140625
GUIDED_NOGPS,2.648221731185913,29.824677171625236,0.032459529240926106,0.032602787017822266,0,0,0.5,5.89079952940187,-36.01512645570826,10.220668607024047,0,0,9.95502238601579,0.5,0.02940280428564499,0.00805014853888245,0.932887746560513,0.01694865898411192,-0.2283600391820073,0.18469333881512284,1.600024662911892,-0.112728590352211,0.6228230427950621,0.5074315704405308,23.913288116455078,0.0,0.0,0.0,0.0,0,0,0,0,False,1,2.6629462242126465,0.034912841796875
GUIDED_NOGPS,2.6815474033355713,30.004320766864584,0.032378228505452473,0.0325014591217041,0,0,0.5,5.889921850093524,-36.01498302173569,10.257351845508893,0,0,9.932836109684285,0.5,0.024672935864940872,0.01067622695805339,0.9241200749252193,0.013898547386640772,0.12865400640293956,-0.029617015388794243,1.7476953566074371,0.06272576261432612,-1.7289325594902039,1.9923791289329529,18.923117220401764,0.0,0.0,0.0,0.0,0,0,0,0,False,0,2.7204413414001465,0.034927978515625
GUIDED_NOGPS,2.7150301933288574,29.866514757717095,0.03251603444417318,0.032647132873535156,0,0,0.5,5.890134866618263,-36.01437854999414,10.277987554538793,0,0,9.470712338657458,0.5,0.02595415055348072,0.009010329976188874,0.9199370755344467,0.01655760244924943,0.13999869115650654,-0.0797677377704531,1.6570180654525757,0.19443196687435144,-0.7155467756092548,0.05575526738539338,18.792083859443665,0.0,0.0,0.0,0.0,0,0,0,0,False,0,2.748717784881592,0.029938720703125
GUIDED_NOGPS,2.7484965324401855,29.88077054599339,0.03248313268025716,0.032607078552246094,0,0,0.5,5.889466361853248,-36.013897021657655,10.295828862424512,0,0,8.589119101584899,0.5,0.03496177032015435,0.01101460689060325,0.9098996075139298,0.016803051956463276,0.5644745193421841,0.12521087191998959,1.547748874872923,0.06203825471557542,-0.7113904692232609,0.4356835037469864,21.8706876039505,0.0,0.0,0.0,0.0,0,0,0,0,False,0,2.7776505947113037,0.03492822265625
GUIDED_NOGPS,2.7819106578826904,29.926822307209317,0.032459290822347005,0.03256845474243164,0,0,0.5,5.891325027081138,-36.014890814181896,10.329382166722201,0,0,7.327103244279351,0.5,0.029564335582750643,0.012240603267824113,0.9084636675500278,0.016035258255076876,-0.23101435508579016,0.07839322788640857,1.7508521676063538,0.005026092084310409,-0.2654394367709756,0.4687830340117216,22.70464152097702,0.0,0.0,0.0,0.0,0,0,0,0,False,0,2.806002140045166,0.034928955078125
GUIDED_NOGPS,2.8153786659240723,29.880344803020588,0.0324583371480306,0.032570600509643555,0,0,0.5,5.892448166312782,-36.01594607840866,10.34857414451629,0,0,5.740560997021648,0.5,0.019989803983761954,0.010059245627609313,0.9083058981899701,0.015562353038472209,-0.463167205452919,-0.10879819747060537,1.8095055595040321,0.019508954600473704,0.9371735155582428,0.3331241197884083,21.703924238681793,0.0,0.0,0.0,0.0,0,0,0,0,False,0,2.834747791290283,0.034927978515625
GUIDED_NOGPS,2.8494184017181396,29.380312274532603,0.03243830998738607,0.03304147720336914,0,0,0.5,5.891799298341631,-36.01818296536184,10.384868915992092,0,0,3.8997622619605226,0.5,0.017212694527788966,0.008066366722624285,0.9031250558941621,0.0154904446677181,-0.08833667379803956,-0.09745419956743717,1.5197711065411568,0.04003670795487018,1.319293212145567,0.33576986752450466,21.711458265781403,0.0,0.0,0.0,0.0,0,0,0,0,False,1,2.863438129425049,0.02993798828125
GUIDED_NOGPS,2.8827967643737793,29.95738845359941,0.03231504758199056,0.032457590103149414,0,0,0.5,5.889763475082144,-36.01790975779504,10.404715738172857,0,0,1.8862382729548939,0.5,0.018315356808813063,0.006523060737315215,0.8898761843934373,0.015857041467183815,0.2691600937396288,0.042479028343223035,1.7632465809583664,0.06646329682303131,-0.10714859236031771,0.28373594395816326,20.30189037322998,0.0,0.0,0.0,0.0,0,0,0,0,False,0,2.921318531036377,0.03492822265625
GUIDED_NOGPS,2.916212320327759,29.924900649966823,0.03240993817647298,0.03254508972167969,0,0,0.5,5.8885050127275695,-36.018579116333704,10.422679989463637,0,0,-0.21082952277810635,0.5,0.02200161046789125,0.00702475798326743,0.8904292134007424,0.016323172407501297,0.2691600937396288,0.042479028343223035,1.7632465809583664,0.06646329682303131,-0.10714859236031771,0.28373594395816326,20.30189037322998,0.0,0.0,0.0,0.0,0,0,0,0,False,0,2.9495832920074463,0.03492822265625
GUIDED_NOGPS,2.949784755706787,29.787821541695667,0.03245118459065755,0.03258514404296875,0,0,0.5,5.8907359232652245,-36.01866107860374,10.461290195068072,0,0,-2.298559420348432,0.5,0.02059657429795037,0.007719353246265239,0.888116060612256,0.016569604119397393,-0.027046052855439484,0.053329492220655084,1.592344418168068,0.052622972346845064,-2.4064283818006516,-1.4376726932823658,22.715406119823456,0.0,0.0,0.0,0.0,0,0,0,0,False,0,2.986467123031616,0.029938720703125
GUIDED_NOGPS,2.9830362796783447,30.07165339088165,0.03232315381368001,0.03243255615234375,0,0,0.5,5.891679343144332,-36.01941581450703,10.476874979206748,0,0,-4.284483301829301,0.5,0.0212193730025516,0.007046028512342347,0.8806385635893562,0.01553527682264963,0.09118674206547439,-0.023519645037595183,1.5269193798303604,-0.019814618906045,1.6933169215917587,2.8479715809226036,27.400502562522888,0.0,0.0,0.0,0.0,0,0,0,0,False,0,3.0151517391204834,0.03492822265625
GUIDED_NOGPS,3.0165011882781982,29.882260741943988,0.0325193723042806,0.03264594078063965,0,0,0.5,5.889693892529975,-36.01900258806224,10.513156944077856,0,0,-6.080642162619563,0.5,0.01737584738981573,0.010189187913990184,0.8757859359164755,0.013244505569688831,-0.17333778087049723,0.1965895527973771,1.4082321897149086,-0.09677484259622149,-3.340095654129982,0.3049831837415695,19.951115548610687,0.0,0.0,0.0,0.0,0,0,0,0,False,0,3.0436675548553467,0.034927978515625
GUIDED_NOGPS,3.0533969402313232,27.10654413380382,0.032503636678059895,0.03582644462585449,0,0,0.5,5.888281750919075,-36.01852447482034,10.533898521039893,0,0,-7.607481923646012,0.5,0.01611006139994181,0.008905896308162294,0.8787530296091107,0.015134923205749782,-0.022951120627112687,-0.06257379427552223,1.8619809299707413,0.14689335666317344,0.4439604002982378,-1.6558991745114326,20.585890114307404,0.0,0.0,0.0,0.0,0,0,0,0,False,0,3.0724523067474365,0.02993896484375
GUIDED_NOGPS,3.0880022048950195,28.89614263766698,0.032231839497884114,0.032881736755371094,0,0,0.5,5.887358821607476,-36.01785853137626,10.56870687259757,0,0,-8.79737697910487,0.5,0.016413434627918232,0.0068135251794827385,0.8742116271988959,0.012437223180790456,0.0665506930090487,-0.10665156878530979,1.658107154071331,-0.12196543402887476,1.0841891169548035,0.29332584235817194,20.144498348236084,0.0,0.0,0.0,0.0,0,0,0,0,False,1,3.1009960174560547,0.034927978515625
GUIDED_NOGPS,3.120699167251587,30.583657814528006,0.03161481221516927,0.03176760673522949,0,0,0.5,5.885923628108127,-36.018671323887496,10.588828609892428,0,0,-9.597625417490859,0.5,0.0240088228707533,0.003700824730349583,0.8670713633712356,0.012143623227637646,0.26897310744971037,-0.07716408581472933,1.4445381239056587,0.025505780650465566,3.2378636300563812,0.009042717283591628,17.105716466903687,0.0,0.0,0.0,0.0,0,0,0,0,False,0,3.158569812774658,0.034928955078125
GUIDED_NOGPS,3.1540565490722656,29.976015208473292,0.0323820432027181,0.032500267028808594,0,0,0.5,5.886098651705609,-36.0178517011871,10.605866516777025,0,0,-9.972783253900806,0.5,0.023956636960653685,0.004369845572283949,0.8660581647158863,0.01122853418477957,0.03834304225165397,0.05403743707574904,1.5944551676511765,-0.021432306522280207,0.6334848701953888,0.1766438246704638,18.62017810344696,0.0,0.0,0.0,0.0,0,0,0,0,False,0,3.1877434253692627,0.03492822265625
GUIDED_NOGPS,3.187621593475342,29.79586269606729,0.03247574170430501,0.03261208534240723,0,0,0.5,5.884730479437491,-36.017933663457136,10.644206076135598,0,0,-9.9062342875998,0.5,0.023171133241748798,0.006778837978135846,0.8660675801869009,0.012044668263032935,-0.0041648912883829325,0.15474363462999463,1.6519717872142792,0.07936092846173019,0.34031737595796585,0.053317181300371885,17.34912097454071,0.0,0.0,0.0,0.0,0,0,0,0,False,0,3.216003179550171,0.029900146484375
GUIDED_NOGPS,3.2209725379943848,29.981157700610446,0.0323520024617513,0.0324556827545166,0,0,0.5,5.883822918051526,-36.017346267188515,10.661799789663906,0,0,-9.4009260539328,0.5,0.023809286775297266,0.004747519026964733,0.8609052434911687,0.010189036493508663,0.0872741686180234,-0.10641496628522873,1.5827609226107597,-0.07869725952400841,1.515563577413559,-1.5344548970460892,22.338378429412842,0.0,0.0,0.0,0.0,0,0,0,0,False,0,3.244499683380127,0.034927978515625
GUIDED_NOGPS,3.2547554969787598,29.600931578390206,0.032392056783040364,0.03294730186462402,0,0,0.5,5.886985295637241,-36.01881475786006,10.695611787376407,0,0,-8.479239274368842,0.5,0.024580994444891452,0.0027339616618750314,0.8602466598592667,0.008354686010712334,0.0872741686180234,-0.10641496628522873,1.5827609226107597,-0.07869725952400841,1.515563577413559,-1.5344548970460892,22.338378429412842,0.0,0.0,0.0,0.0,0,0,0,0,False,0,3.2733914852142334,0.034927978515625
GUIDED_NOGPS,3.288774013519287,29.39637372880762,0.03251031239827474,0.03318357467651367,0,0,0.5,5.885407948825792,-36.01726772001306,10.715903425626868,0,0,-7.181996586895462,0.5,0.022442363797740363,0.0009527598718925188,0.8566934380146591,0.011126683626619869,-0.12616210151463747,-0.15162668423727155,1.7473576590418816,0.1718847787124121,-5.333729460835457,-1.735842414200306,20.075306296348572,0.0,0.0,0.0,0.0,0,0,0,0,False,0,3.3309218883514404,0.06985693359375
GUIDED_NOGPS,3.3222246170043945,29.89418766259221,0.032483847935994466,0.032601118087768555,0,0,0.5,5.882523901448754,-36.017291625675156,10.73611566292823,0,0,-5.566654461310076,0.5,0.02003670175388692,-0.0023559941084045494,0.8872314091092429,0.014035055266211972,-0.12616210151463747,-0.15162668423727155,1.7473576590418816,0.1718847787124121,-5.333729460835457,-1.735842414200306,20.075306296348572,0.0,0.0,0.0,0.0,0,0,0,0,False,0,3.359448194503784,0.06985693359375
GUIDED_NOGPS,3.3578941822052,28.034917452041977,0.03247550328572591,0.03483724594116211,0,0,0.5,5.882222519351627,-36.0175101917286,10.77167277397367,0,0,-3.7047583816978453,0.5,0.022798094795973292,-0.004038744657117737,0.9117786259608701,0.01281518900936154,0.16815289855003357,-0.04416967858560383,1.5853248536586761,-0.06330715578699701,-3.1432677060365677,0.33170348033308983,20.442917943000793,0.0,0.0,0.0,0.0,0,0,0,0,False,0,3.388162612915039,0.02993798828125
GUIDED_NOGPS,3.39136004447937,29.88140918320094,0.032486708958943684,0.03260612487792969,0,0,0.5,5.883658139737799,-36.017622889849896,10.78826330346763,0,0,-1.6787740091854046,0.5,0.025058650040018483,-0.004877094308682892,0.9012032008241057,0.01096299635749911,0.16815289855003357,-0.04416967858560383,1.5853248536586761,-0.06330715578699701,-3.1432677060365677,0.33170348033308983,20.442917943000793,0.0,0.0,0.0,0.0,0,0,0,0,False,0,3.4182841777801514,0.02993798828125
GUIDED_NOGPS,3.4248831272125244,29.830828645192494,0.032457621892293294,0.03269457817077637,0,0,0.5,5.885762691775809,-36.018083927618875,10.825674810872728,0,0,0.42156532334096364,0.5,0.03675798091025577,-0.0019232088660129268,0.8917911899098916,0.009043267634915085,0.6619378458708525,0.15076611889526248,1.5909576788544655,-0.07111208765676463,5.1933616399765015,0.3129619639366865,20.486384630203247,0.0,0.0,0.0,0.0,0,0,0,0,False,0,3.4468092918395996,0.06985693359375
GUIDED_NOGPS,3.4584052562713623,29.831465149359886,0.03249934514363607,0.03262042999267578,0,0,0.5,5.884701024246695,-36.01744872002607,10.843264255532803,0,0,2.5032330106138545,0.5,0.04434370994779429,-0.0008532823837747469,0.9158509779741526,0.006083128501354591,0.2954167081043124,0.06727687432430685,1.622283086180687,-0.11183066060019232,4.934437572956085,0.6339184008538723,24.34580773115158,0.0,0.0,0.0,0.0,0,0,0,0,False,0,3.475555658340454,0.02993798828125
GUIDED_NOGPS,3.4919538497924805,29.809839234694604,0.03241923650105794,0.03254246711730957,0,0,0.5,5.882888889682526,-36.01664617279859,10.864187686281491,0,0,4.474029437436339,0.5,0.02972080581317535,-0.004229088744102733,0.8969247321910737,0.008190754376475531,-0.31195213086903095,-0.08244686760008335,1.4611173421144485,0.08769794807609767,-7.492116838693619,-0.20103827118873596,16.128267347812653,0.0,0.0,0.0,0.0,0,0,0,0,False,0,3.532930374145508,0.034927978515625
GUIDED_NOGPS,3.525261640548706,30.01956784689269,0.03230479558308919,0.032433271408081055,0,0,0.5,5.883075866111056,-36.01684083318993,10.900425254922995,0,0,6.246665612729069,0.5,0.022247850380106522,-0.005844149157367171,0.8883915309249756,0.009498674933363385,-0.31195213086903095,-0.08244686760008335,1.4611173421144485,0.08769794807609767,-7.492116838693619,-0.20103827118873596,16.128267347812653,0.0,0.0,0.0,0.0,0,0,0,0,False,0,3.561691999435425,0.034927978515625
GUIDED_NOGPS,3.558779239654541,29.836345917184175,0.03246000607808431,0.032587289810180664,0,0,0.5,5.884706573775396,-36.016799852054916,10.918243510920265,0,0,7.742629306011935,0.5,0.02257929646020292,-0.004227632466030804,0.8812345764197882,0.009313929225190976,0.07540854858234525,0.07883523940108716,1.502859778702259,0.012706486393537686,2.664696052670479,0.18959339940920472,19.587065279483795,0.0,0.0,0.0,0.0,0,0,0,0,False,0,3.590463638305664,0.029938232421875
GUIDED_NOGPS,3.5938103199005127,28.54666231079168,0.032383235295613606,0.033911705017089844,0,0,0.5,5.886356491346777,-36.01740090870187,10.95386123989459,0,0,8.895662450393434,0.5,0.02380330351204291,-0.002212489773402702,0.8672572848310218,0.005576919895653901,0.12270226143300533,0.09842114523053169,1.3274162076413631,-0.17049061970893614,-5.325530841946602,0.21610604599118233,20.37610113620758,0.0,0.0,0.0,0.0,0,0,0,0,False,0,3.619098424911499,0.0349287109375
GUIDED_NOGPS,3.627026081085205,30.10532511250996,0.03220656712849935,0.03235173225402832,0,0,0.5,5.8837473590838325,-36.01691938036539,10.972517901612479,0,0,9.654695793623906,0.5,0.02508206604577797,-0.0002748153174103765,0.8581877943685691,0.0019262853785042022,0.12270226143300533,0.09842114523053169,1.3274162076413631,-0.17049061970893614,-5.325530841946602,0.21610604599118233,20.37610113620758,0.0,0.0,0.0,0.0,0,0,0,0,False,0,3.6480939388275146,0.0349287109375
GUIDED_NOGPS,3.6604702472686768,29.899941544647056,0.0324585755666097,0.032590389251708984,0,0,0.5,5.883404568964862,-36.01569336140937,10.992005285088172,0,0,9.986110817918139,0.5,0.020656322194249545,-0.00023411252866266358,0.8547202814322599,0.002725023889684421,-0.17824394162744284,-0.000475366414320888,1.6004623845219612,0.060732221160648484,7.015442848205566,0.1761620631441474,19.627434015274048,0.0,0.0,0.0,0.0,0,0,0,0,False,0,3.676687002182007,0.039918212890625
GUIDED_NOGPS,3.6939306259155273,29.88651926379319,0.0324580987294515,0.032604217529296875,0,0,0.5,5.886322340400927,-36.015532851963876,11.028142962213064,0,0,9.875228745343794,0.5,0.018150347717111045,0.0013822459127232508,0.8484875033454145,0.004940349524749622,0.02396698109805584,0.0977942836470902,1.8775859847664833,0.0050617954974742614,2.3069877177476883,0.3115978557616472,20.98955363035202,0.0,0.0,0.0,0.0,0,0,0,0,False,0,3.7346279621124268,0.034927978515625
GUIDED_NOGPS,3.727389097213745,29.88588040814,0.03247884114583333,0.03260159492492676,0,0,0.5,5.888280897145428,-36.016458342596415,11.045968048399503,0,0,9.32696067890069,0.5,0.01766890138735944,0.003208093881936315,0.8514918782435632,0.004746571251706073,0.02396698109805584,0.0977942836470902,1.8775859847664833,0.0050617954974742614,2.3069877177476883,0.3115978557616472,20.98955363035202,0.0,0.0,0.0,0.0,0,0,0,0,False,0,3.7631149291992188,0.034927978515625
GUIDED_NOGPS,3.7614338397979736,29.374962355989776,0.03246191342671712,0.033156394958496094,0,0,0.5,5.890872100161801,-36.01662909732566,11.081096565074526,0,0,8.365590083745087,0.5,0.021089137284006163,0.0033432758025078355,0.8462008452381029,0.005036784228423581,0.2366087632253766,0.005893601701245643,1.4108206145465374,0.03093871588753469,1.1441032402217388,0.20906073041260242,19.70244199037552,0.0,0.0,0.0,0.0,0,0,0,0,False,0,3.791592836380005,0.02993896484375
GUIDED_NOGPS,3.79559063911438,29.2785871348295,0.032434733708699544,0.032540321350097656,0,0,0.5,5.889941486887388,-36.01572751235522,11.101071453302227,0,0,7.033697242732391,0.5,0.02440116275530881,0.0034076811157420076,0.8372048532962906,0.005331423417067458,0.2366087632253766,0.005893601701245643,1.4108206145465374,0.03093871588753469,1.1441032402217388,0.20906073041260242,19.70244199037552,0.0,0.0,0.0,0.0,0,0,0,0,False,0,3.82027268409729,0.02993896484375
GUIDED_NOGPS,3.8282878398895264,30.582542819019007,0.031699450810750325,0.03183889389038086,0,0,0.5,5.887093724890315,-36.01482592738478,11.119150964035251,0,0,5.390273323461356,0.5,0.025388333878619388,0.0025419743727227006,0.8319236709470901,0.008499694256602588,0.109073705971241,-0.04678424447774887,1.5819305554032326,0.19483191980698064,5.72640597820282,0.4398888908326626,22.341808676719666,0.0,0.0,0.0,0.0,0,0,0,0,False,0,3.849073648452759,0.034928955078125
GUIDED_NOGPS,3.861738681793213,29.89397459837783,0.032467158635457356,0.03258848190307617,0,0,0.5,5.887949632970683,-36.01538600289672,11.155252782667,0,0,3.508107587104019,0.5,0.024291551778922896,0.0020322614097804314,0.8305174635093326,0.007410326259878403,-0.01801769540179521,-0.028996082255616784,1.5468785539269447,-0.04929491598301007,2.6810305193066597,0.3744342364370823,21.360677480697632,0.0,0.0,0.0,0.0,0,0,0,0,False,0,3.877639055252075,0.034927978515625
GUIDED_NOGPS,3.895251512527466,29.838256217631326,0.03246048291524251,0.03259682655334473,0,0,0.5,5.890811482232918,-36.01692962564914,11.171769033853737,0,0,1.4705634627465556,0.5,0.022998377127078088,0.0011621706493018119,0.8280315431706525,0.004194759403244717,-0.028770664357580245,-0.04902341170236468,1.47882467135787,-0.1703963310818782,-3.843715786933899,0.3121676854789257,21.01099044084549,0.0,0.0,0.0,0.0,0,0,0,0,False,0,3.9062962532043457,0.02993798828125
GUIDED_NOGPS,3.92856764793396,30.01570092387843,0.03240373929341634,0.03254866600036621,0,0,0.5,5.891283192172472,-36.01656421052855,11.20718185715296,0,0,-0.6321137211366181,0.5,0.02064700558725449,0.004710108695561069,0.8166867591434638,0.002320376212724381,-0.08486880687996745,0.20777573809027672,1.183187309652567,-0.0951431677664223,2.5931816548109055,2.3078061640262604,19.88094002008438,0.0,0.0,0.0,0.0,0,0,0,0,True,1,3.9420299530029297,0.03492919921875
GUIDED_NOGPS,3.9621028900146484,29.82022423979581,0.03255966504414876,0.03267407417297363,0,0,0.5,5.88943647977563,-36.01655055015021,11.226991967066937,0,0,-2.706793812973938,0.5,0.022660253059748,0.003367609805072093,0.8150788486020585,0.005008768194993947,0.18356649670749903,-0.07007764070294797,1.2506110593676567,0.1069119038714716,-4.455080628395081,1.9876692444086075,17.021657526493073,0.0,0.0,0.0,0.0,0,0,0,0,True,0,3.9993958473205566,0.029938720703125
GUIDED_NOGPS,3.9955379962921143,29.908683157797157,0.032454760869344075,0.03257322311401367,0,0,0.5,5.888042694298124,-36.016827172811595,11.245174784411157,0,0,-4.661586686741114,0.5,0.025015710861869357,0.0044566109984695915,0.8096951344118268,0.007312607466305427,0.18814989598467946,0.06862332811579108,1.4848600141704082,0.14789204504566303,-0.39317458868026733,-0.026722694747149944,16.03379249572754,0.0,0.0,0.0,0.0,0,0,0,0,True,0,4.027937173843384,0.03492822265625
GUIDED_NOGPS,4.029038667678833,29.850572912959933,0.032465489705403645,0.032607078552246094,0,0,0.5,5.888257845256979,-36.01732577662101,11.283034522980538,0,0,-6.409912168353249,0.5,0.027511204534818704,0.005584917580914865,0.8085844136830213,0.009654430051815037,0.18814989598467946,0.06862332811579108,1.4848600141704082,0.14789204504566303,-0.39317458868026733,-0.026722694747149944,16.03379249572754,0.0,0.0,0.0,0.0,0,0,0,0,True,0,4.056613206863403,0.03492822265625
GUIDED_NOGPS,4.062489032745361,29.89397459837783,0.03237632115681966,0.03250432014465332,0,0,0.5,5.889221328816775,-36.0188079276709,11.299019726959306,0,0,-7.874334777772317,0.5,0.026658606748562495,0.007123898103861078,0.8106751474379019,0.010632011579465679,-0.008789057028479874,0.09292723843827844,1.6697769984602928,0.06718947799991458,-2.1850645542144775,0.36620786413550377,20.375050604343414,0.0,0.0,0.0,0.0,0,0,0,0,True,0,4.085902452468872,0.034928955078125
GUIDED_NOGPS,4.095982074737549,29.856522543813444,0.032424004872639973,0.03270101547241211,0,0,0.5,5.890474668529472,-36.017653625701165,11.334336927610149,0,0,-8.989993441398719,0.5,0.02710871929294354,0.007083084998004524,0.8099275884820696,0.009896402487678415,0.06917131249792874,0.0005940177288721316,1.4990907162427902,-0.03264881116076341,-1.9208922982215881,0.4945044405758381,22.184431552886963,0.0,0.0,0.0,0.0,0,0,0,0,True,0,4.114152193069458,0.034927978515625
GUIDED_NOGPS,4.129536390304565,29.803696413725476,0.032508166631062825,0.03262209892272949,0,0,0.5,5.888743642461696,-36.01733602190476,11.354795905495276,0,0,-9.707474268578167,0.5,0.02629315606912761,0.006684913559711702,0.8064620240914592,0.006867786488876279,-0.029050506418570876,-0.014266149082686752,1.377865020185709,-0.11951642434524173,-1.9647737964987755,-0.13805520720779896,15.349909663200378,0.0,0.0,0.0,0.0,0,0,0,0,True,0,4.17144513130188,0.02993896484375
GUIDED_NOGPS,4.16303014755249,29.85673507449406,0.032414944966634114,0.0325467586517334,0,0,0.5,5.8866997083525705,-36.016082682192064,11.375704822091977,0,0,-9.994999153428735,0.5,0.025298897207409604,0.008115294636989375,0.8039424095911585,0.006856100972175279,-0.004718934360425919,0.09456612751819193,1.6115030273795128,0.015181216008264045,-0.5281588062644005,2.5325926020741463,22.812126576900482,0.0,0.0,0.0,0.0,0,0,0,0,True,0,4.200128555297852,0.03492822265625
GUIDED_NOGPS,4.1963512897491455,30.009043557895943,0.032364877065022786,0.03249549865722656,0,0,0.5,5.887456151803149,-36.01572068216605,11.410280947217876,0,0,-9.839833266128725,0.5,0.03279757537564103,0.00979666921073493,0.803277692662304,0.005733760764437804,0.48791184090077877,0.1052656676620245,1.4719827100634575,-0.05224363671375151,3.263341635465622,0.21254655439406633,18.25898438692093,0.0,0.0,0.0,0.0,0,0,0,0,True,0,4.228894948959351,0.02993896484375
GUIDED_NOGPS,4.230025768280029,29.698813266491065,0.03250149091084798,0.032631874084472656,0,0,0.5,5.888516965558617,-36.01619879540795,11.427033693704624,0,0,-9.248849094149707,0.5,0.02763313536004512,0.005878368764878135,0.7954979519484402,0.006737170793130044,-0.2513655461370945,-0.22145328111946583,1.2728972360491753,0.07487865016944238,0.9769991040229797,-0.0116768351290375,15.937550365924835,0.0,0.0,0.0,0.0,0,0,0,0,True,0,4.257776737213135,0.06985693359375
GUIDED_NOGPS,4.263355731964111,30.00238914441448,0.03226760228474935,0.03239750862121582,0,0,0.5,5.887130010270281,-36.017134531324245,11.445888430908443,0,0,-8.24822205135675,0.5,0.023285867619837218,0.0019137165516735846,0.8172396801718906,0.008056966611102745,-0.2513655461370945,-0.22145328111946583,1.2728972360491753,0.07487865016944238,0.9769991040229797,-0.0116768351290375,15.937550365924835,0.0,0.0,0.0,0.0,0,0,0,0,True,0,4.286899089813232,0.06985693359375
GUIDED_NOGPS,4.2967376708984375,29.95375144616,0.0323217233022054,0.03246188163757324,0,0,0.5,5.886128533783228,-36.017161852080925,11.48214563634381,0,0,-6.882271136822208,0.5,0.02178010056185823,0.0008606513230308976,0.8445494057640646,0.008254808732298979,-0.041146972216665745,-0.02792148443404585,1.7442621290683746,0.007543650453588184,5.221918225288391,0.8093945682048798,24.073350429534912,0.0,0.0,0.0,0.0,0,0,0,0,True,0,4.316213846206665,0.034927978515625
GUIDED_NOGPS,4.331118106842041,29.087116326162636,0.03247717221577962,0.03311347961425781,0,0,0.5,5.884170830812373,-36.0165061539206,11.504353142656461,0,0,-5.211495991996031,0.5,0.02122647761148643,0.0002295120961803255,0.8369245117196752,0.011124724773488956,0.027364780544303358,-0.022649153834208846,1.395208202302456,0.1597645546693716,-3.470803052186966,0.43962784111499786,20.485152304172516,0.0,0.0,0.0,0.0,0,0,0,0,True,0,4.344935894012451,0.02993896484375
GUIDED_NOGPS,4.3643410205841064,30.100571969887255,0.032062800725301106,0.0323028564453125,0,0,0.5,5.882734356652555,-36.01654030486645,11.538452008314103,0,0,-3.309897297378446,0.5,0.022183818456771205,0.002302054651976709,0.8248571229774139,0.013616191803828556,0.08908874006010592,0.054793187882751226,1.523231528699398,0.2065709205767566,-2.1689193323254585,0.12052529491484165,15.9317746758461,0.0,0.0,0.0,0.0,0,0,0,0,True,0,4.40235710144043,0.034927734375
GUIDED_NOGPS,4.397764205932617,29.918923738667086,0.031967910130818684,0.03209424018859863,0,0,0.5,5.884872632749592,-36.01810441818638,11.556499075648569,0,0,-1.2616991916130784,0.5,0.02336318125479253,0.003159115377080726,0.8224988490382841,0.01793954522055971,0.11176713742315769,0.05166636547073722,1.569102331995964,0.2413119974391521,0.09114216081798077,0.7113062776625156,22.029060125350952,0.0,0.0,0.0,0.0,0,0,0,0,True,0,4.4310691356658936,0.029938232421875
