Mode,Time,Freq,time2delay,actualDelay,North-Desired,East-Desired,Down-Desired,Roll-UAV,Pitch-UAV,Yaw-UAV,Roll-Control,Pitch-Control,Yaw-Control,Thrust-Control,North-Pos,East-Pos,Down-Pos,Yaw-Ang,North-Vel,East-Vel,Down-Vel,Yaw-Vel,North-Acc,East-Acc,Down-Acc,North-Raw,East-Raw,Down-Raw,Yaw-Raw,North-Dif,East-Dif,Down-Dif,Yaw-Dif,Landing-State,Q-Size,Kalman-Time,Kalman-Dt
STABILIZE,0.03435492515563965,29.1182138790925,0.03331497510274251,0.03343462944030762,0,0,0.0,4.6198426244009525,-35.2440254191705,66.53583017700483,0,0,0.0,0.0,0.02565189833312228,0.02587774279668957,0.030032438952023715,0.024916886400748132,0.24801541585475206,0.349951907992363,2.2380225360393524,-0.23339087231221492,6.356553733348846,1.4590863138437271,23.271316289901733,0.0,0.0,0.0,0.0,0,0,0,0,False,0,0.05849194526672363,0.029934814453125
STABILIZE,0.06779718399047852,29.901859997576086,0.03229668935139974,0.03241777420043945,0,0,0.0,4.620000572525509,-35.24391955123836,66.5464511211642,0,0,0.0,0.0,0.06723125648766007,0.06898940577943787,0.09077592629651592,0.06390232035277682,0.1481286366470158,0.45630517415702343,2.373947761952877,0.15161423133905552,2.1384477615356445,1.434051524847746,22.33809232711792,0.0,0.0,0.0,0.0,0,0,0,0,False,0,0.11590147018432617,0.034923828125
STABILIZE,0.10111618041992188,30.0126940057674,0.03234079678853353,0.03250861167907715,0,0,0.0,4.620891058438549,-35.24513874000521,66.56797987742807,0,0,0.0,0.0,0.08856919231748088,0.09145630103392709,0.12834101642971849,0.08286357674066243,0.3070799168199301,0.44486247934401035,2.517218701541424,-0.03655201080737447,4.729688912630081,1.9664201885461807,30.842188000679016,0.0,0.0,0.0,0.0,0,0,0,0,False,0,0.1445903778076172,0.034924072265625
STABILIZE,0.13469243049621582,29.786552282475924,0.03250840504964193,0.03263115882873535,0,0,0.0,4.621037480618881,-35.24516947585648,66.58041765190667,0,0,0.0,0.0,0.1075339189212185,0.11173865226072711,0.16683602039125192,0.09891658568925804,0.3070799168199301,0.44486247934401035,2.517218701541424,-0.03655201080737447,4.729688912630081,1.9664201885461807,30.842188000679016,0.0,0.0,0.0,0.0,0,0,0,0,False,0,0.1731858253479004,0.034924072265625
STABILIZE,0.1680302619934082,29.9910190773103,0.03233006795247396,0.032470703125,0,0,0.0,4.621869483037154,-35.24470160789833,66.60308021957277,0,0,0.0,0.0,0.1255747673412822,0.12932743181937978,0.20425664044282382,0.11298009578659206,0.5076122470200062,0.31112784054130316,2.180328778922558,0.06310270367914621,7.128927111625671,1.0073217563331127,24.632343649864197,0.0,0.0,0.0,0.0,0,0,0,0,False,0,0.20192527770996094,0.06485986328125
STABILIZE,0.20349955558776855,28.19567482538637,0.03249958356221517,0.03457021713256836,0,0,0.0,4.621619754245625,-35.24449670222323,66.61581169218567,0,0,0.0,0.0,0.16411859767034653,0.16733041521953546,0.2808068721283898,0.14394384468826307,0.5076122470200062,0.31112784054130316,2.180328778922558,0.06310270367914621,7.128927111625671,1.0073217563331127,24.632343649864197,0.0,0.0,0.0,0.0,0,0,0,0,False,0,0.23143625259399414,0.06485986328125
STABILIZE,0.23720550537109375,29.667722951561792,0.03239587148030599,0.03281140327453613,0,0,0.0,4.622826136407778,-35.24350632479358,66.63938950520055,0,0,0.0,0.0,0.19436088028968895,0.20045753642676137,0.3583883239276423,0.16987331618159698,0.10880465852096677,0.3556513227522373,2.2995607927441597,0.12186967797836236,5.0851523876190186,3.0783280730247498,27.122852206230164,0.0,0.0,0.0,0.0,0,0,0,0,False,1,0.25936055183410645,0.034924072265625
STABILIZE,0.27067995071411133,29.87289626437805,0.03244522412618001,0.032595157623291016,0,0,0.0,4.62257640761625,-35.24324336251053,66.65128086454556,0,0,0.0,0.0,0.20055945650045626,0.21042885055046442,0.4186500555290711,0.17783147233631796,0.04929432179778814,0.27115093544125557,2.3812035098671913,0.3918397617927128,0.9644724428653717,1.2208465486764908,31.759163737297058,0.0,0.0,0.0,0.0,0,0,0,0,False,0,0.31673741340637207,0.0698486328125
STABILIZE,0.3042111396789551,29.826373876436456,0.032442839940389,0.032582998275756836,0,0,0.0,4.621384966492905,-35.24193196618989,66.66399184659095,0,0,0.0,0.0,0.22159157987468195,0.23631713231171442,0.5064418656232618,0.20149957447515696,0.04929432179778814,0.27115093544125557,2.3812035098671913,0.3918397617927128,0.9644724428653717,1.2208465486764908,31.759163737297058,0.0,0.0,0.0,0.0,0,0,0,0,False,0,0.3455543518066406,0.0698486328125
STABILIZE,0.33758091926574707,29.963380744529616,0.032347710927327473,0.03250432014465332,0,0,0.0,4.622769360460302,-35.2425227775531,66.68571184815158,0,0,0.0,0.0,0.23752483567952884,0.2572184654806415,0.5937983456216149,0.2165279336786068,0.10585220297798514,0.2849486656486988,2.449292875826359,0.08472726935439169,0.07297825068235397,1.1064479127526283,31.32655620574951,0.0,0.0,0.0,0.0,0,0,0,0,False,0,0.37399744987487793,0.029935302734375
STABILIZE,0.3710825443267822,29.848236206687968,0.032480510075887044,0.03273129463195801,0,0,0.0,4.624482884168329,-35.24292575871413,66.69689969801206,0,0,0.0,0.0,0.2316657229566216,0.2517531704761639,0.6147311183461984,0.21037056595940404,0.14958303654566407,0.19727726466953754,2.238043025135994,0.0811868834867979,3.3074308186769485,-1.2580638751387596,26.7917662858963,0.0,0.0,0.0,0.0,0,0,0,0,False,0,0.4028458595275879,0.034923828125
STABILIZE,0.4045522212982178,29.878641952442692,0.03255203564961751,0.032714128494262695,0,0,0.0,4.624228886508569,-35.24236909829677,66.7213995865649,0,0,0.0,0.0,0.22766038192940868,0.24960802270506519,0.6442960590820073,0.20388569282199626,0.1256666029803455,0.24226333480328321,2.29925699532032,-0.056686501346072914,0.7548116147518158,0.6612530909478664,26.559865474700928,0.0,0.0,0.0,0.0,0,0,0,0,False,0,0.4315183162689209,0.034924072265625
STABILIZE,0.4384725093841553,29.481917802441888,0.03256967862447103,0.03305935859680176,0,0,0.0,4.623846395915049,-35.24209247563539,66.73427449315038,0,0,0.0,0.0,0.22089862123368909,0.24816878311725565,0.673504719592002,0.1936181193117129,-0.018445034220349044,0.29726247303187847,2.3160288110375404,-0.2552241856439689,-7.033693790435791,0.7429561577737331,26.736566424369812,0.0,0.0,0.0,0.0,0,0,0,0,False,1,0.46015429496765137,0.034925048828125
STABILIZE,0.4718930721282959,29.91999086914341,0.03235987027486165,0.03248763084411621,0,0,0.0,4.6238109643087295,-35.24240666433721,66.7446085693646,0,0,0.0,0.0,0.21130253202967303,0.24228209228125547,0.7250178102839849,0.17869458062739393,0.23329472169280052,0.15571032417938113,2.059534937143326,0.09881897680854614,2.8599390760064125,0.46919104643166065,23.691539466381073,0.0,0.0,0.0,0.0,0,0,0,0,False,0,0.5175065994262695,0.029934814453125
STABILIZE,0.5053930282592773,29.852485035693697,0.03248742421468099,0.032624244689941406,0,0,0.0,4.622400103358299,-35.2434790040369,66.77109604296591,0,0,0.0,0.0,0.20243765439116884,0.23702857735099983,0.7402798722093789,0.1724786279466626,-0.04234635271131992,0.207234057597816,2.108095958828926,0.05315215859506899,-1.4361649751663208,0.6270559038966894,24.684813618659973,0.0,0.0,0.0,0.0,0,0,0,0,False,0,0.5461592674255371,0.034924072265625
STABILIZE,0.5387992858886719,29.93258876003568,0.03244450887044271,0.03257131576538086,0,0,0.0,4.621856249545637,-35.24341753233437,66.78290544004086,0,0,0.0,0.0,0.19906560344473004,0.2335182633501024,0.7610774655243248,0.1679714416712123,0.18300533993169665,0.196658237837255,1.9996579736471176,0.07992495267678515,2.7458738535642624,0.7239146158099174,26.1621356010437,0.0,0.0,0.0,0.0,0,0,0,0,False,0,0.5748369693756104,0.034924072265625
STABILIZE,0.5723996162414551,29.761189793659355,0.032499106725056966,0.03285360336303711,0,0,0.0,4.622738624609037,-35.244185928616,66.80446834725059,0,0,0.0,0.0,0.19867563190358994,0.23068047244323117,0.7822496514138095,0.16002404754276608,0.35201285500079393,0.24014627560973167,2.077353559434414,-0.11688051827435894,5.774403735995293,0.7380741182714701,26.89414918422699,0.0,0.0,0.0,0.0,0,0,0,0,False,0,0.6037473678588867,0.02993505859375
STABILIZE,0.6059165000915527,29.83698265682132,0.0325503667195638,0.03267192840576172,0,0,0.0,4.6226365986583104,-35.24367366442824,66.81729544251188,0,0,0.0,0.0,0.19245372628816906,0.22830356730948823,0.7985353952080922,0.15487373129708942,0.08189912186935544,0.3542248858138919,2.284744009375572,0.08186616714409682,-0.6199728697538376,0.45461179688572884,21.131330728530884,0.0,0.0,0.0,0.0,0,0,0,0,False,0,0.6323895454406738,0.0349248046875
STABILIZE,0.6393885612487793,29.87736494187372,0.032494576772054036,0.032651662826538086,0,0,0.0,4.624074780365421,-35.24443181542612,66.82982883963885,0,0,0.0,0.0,0.18385120769978708,0.22517044271567796,0.8500420669447226,0.14080060287543852,0.1153660356067121,0.30439288821071386,2.417595684528351,-0.08231965435238864,-3.7698663771152496,1.1490553617477417,31.254374980926514,0.0,0.0,0.0,0.0,0,0,0,0,False,0,0.6897611618041992,0.035360595703125
STABILIZE,0.6728959083557129,29.844413294530344,0.03248408635457357,0.03261566162109375,0,0,0.0,4.624882877121598,-35.24439766448027,66.85344080359958,0,0,0.0,0.0,0.1798251425185174,0.22227342928822505,0.871156514014949,0.1355588391237404,0.12880914146080613,0.22988147102296352,2.2173915058374405,0.015183297081526782,1.3561383821070194,-0.855163112282753,30.326423048973083,0.0,0.0,0.0,0.0,0,0,0,0,False,0,0.7184844017028809,0.02993505859375
STABILIZE,0.7063143253326416,29.92169843625157,0.032431872685750325,0.03258037567138672,0,0,0.0,4.62339859163759,-35.245350475869486,66.86473793648679,0,0,0.0,0.0,0.17404856199548596,0.21814378373254825,0.8829410523480026,0.1307654067649567,0.07765908958390355,0.23975383955985308,2.213411033153534,0.06129545830312331,-1.5807481482625008,0.9177234023809433,27.72001624107361,0.0,0.0,0.0,0.0,0,0,0,0,False,0,0.7470993995666504,0.034924072265625
STABILIZE,0.7397651672363281,29.89567919713752,0.03249243100484212,0.03260660171508789,0,0,0.0,4.622577688276719,-35.24454792864201,66.87802265442247,0,0,0.0,0.0,0.1678625046913898,0.2164109841535382,0.9020771328952161,0.12513960219836684,-0.003172794822603464,0.29796306043863297,2.2164037451148033,-0.022051137335833897,-2.491138130426407,2.791767567396164,26.051226258277893,0.0,0.0,0.0,0.0,0,0,0,0,False,0,0.7760827541351318,0.0349248046875
STABILIZE,0.7732069492340088,29.902925911138993,0.03246906598409017,0.03259086608886719,0,0,0.0,4.624156315748638,-35.24415519276473,66.90065790133188,0,0,0.0,0.0,0.16170462197650892,0.21465974649210745,0.9202592684556052,0.11960674169642418,-0.003172794822603464,0.29796306043863297,2.2164037451148033,-0.022051137335833897,-2.491138130426407,2.791767567396164,26.051226258277893,0.0,0.0,0.0,0.0,0,0,0,0,False,0,0.8043599128723145,0.0349248046875
STABILIZE,0.806682825088501,29.870981526058657,0.032476218541463216,0.032611846923828125,0,0,0.0,4.623061351047321,-35.24358145687445,66.91366941170075,0,0,0.0,0.0,0.15564234133983346,0.21042541948198304,0.9327860993349126,0.11217379777279647,-0.0004293193342164159,0.15544096240773797,1.9437847658991814,-0.13758637014538483,2.4052774533629417,0.8464542217552662,27.779504656791687,0.0,0.0,0.0,0.0,0,0,0,0,False,0,0.8330895900726318,0.02993505859375
STABILIZE,0.8401672840118408,29.866514757717095,0.03245738347371419,0.03258919715881348,0,0,0.0,4.624319386515072,-35.24290185305203,66.93577873404409,0,0,0.0,0.0,0.1491203097130221,0.21448080282302495,1.0084763334758036,0.10701281251368197,-0.15839554835110903,0.3206629538908601,2.1812884137034416,0.2433502219370191,-9.19254943728447,0.5019588395953178,23.585714399814606,0.0,0.0,0.0,0.0,0,0,0,0,False,0,0.8906450271606445,0.029934814453125
STABILIZE,0.8735795021057129,29.92660877755025,0.032421143849690755,0.03260493278503418,0,0,0.0,4.6251116884587935,-35.2435473059286,66.94639967820346,0,0,0.0,0.0,0.13927662576530503,0.21130461403164344,1.010988447220279,0.10628898971600635,-0.15839554835110903,0.3206629538908601,2.1812884137034416,0.2433502219370191,-9.19254943728447,0.5019588395953178,23.585714399814606,0.0,0.0,0.0,0.0,0,0,0,0,False,0,0.9193930625915527,0.029934814453125
STABILIZE,0.907095193862915,29.836345917184175,0.03252104123433431,0.032651424407958984,0,0,0.0,4.624470504450459,-35.24387515500876,66.9594863206532,0,0,0.0,0.0,0.13628044336982967,0.20630583905586253,1.0110779842170696,0.10443588708927543,0.19615725614130497,0.20607877522706985,2.028762549161911,0.17297868953688517,-2.1579615771770477,-1.6410844400525093,21.42687439918518,0.0,0.0,0.0,0.0,0,0,0,0,False,0,0.948113203048706,0.034925048828125
STABILIZE,0.9405303001403809,29.91060273269247,0.032462390263875325,0.03258776664733887,0,0,0.0,4.624994721469258,-35.24230421149966,66.98199179396839,0,0,0.0,0.0,0.13330381923977616,0.203496444576817,1.0218241290139074,0.09780089093521098,0.1674474566243589,0.2619332168251276,2.2141382098197937,-0.11460270354701257,1.1061402037739754,0.7491386029869318,25.22962987422943,0.0,0.0,0.0,0.0,0,0,0,0,False,0,0.9765546321868896,0.034924072265625
STABILIZE,0.9754724502563477,28.61716905694363,0.032471688588460286,0.034171342849731445,0,0,0.0,4.6259108205916855,-35.242478381323494,66.99353481366572,0,0,0.0,0.0,0.12670457413552155,0.20073118050697358,1.0287978478372266,0.08988292951431004,-0.04245828895363957,0.2604464069008827,2.033986523747444,-0.19180705313916413,-2.122141793370247,0.49381027929484844,22.193728387355804,0.0,0.0,0.0,0.0,0,0,0,0,False,0,1.0053472518920898,0.02993505859375
STABILIZE,1.0089428424835205,29.879067646891208,0.032555611928304036,0.0326685905456543,0,0,0.0,4.625497167260076,-35.242939419092465,67.0178639474893,0,0,0.0,0.0,0.12073130158657341,0.1974326873308878,1.028648669633544,0.0853769935825256,-0.0052981111366534606,0.2744432771578431,2.0461902022361755,-0.006873278058722011,-3.2524902373552322,2.7640758082270622,27.27673351764679,0.0,0.0,0.0,0.0,0,0,0,0,False,0,1.0341641902923584,0.034924072265625
STABILIZE,1.0424294471740723,29.86098632360584,0.032489808400472005,0.032625675201416016,0,0,0.0,4.625383188478302,-35.24262181529606,67.0305749295347,0,0,0.0,0.0,0.11317060593214476,0.1943756542386189,1.0422866704727087,0.08201331794795506,0.08931978372856975,0.31330001074820757,2.0572394132614136,0.13420868151825485,0.39088837802410126,2.562323212623596,24.392247200012207,0.0,0.0,0.0,0.0,0,0,0,0,False,0,1.09151291847229,0.0349248046875
STABILIZE,1.0772736072540283,28.70235610513854,0.03249076207478841,0.0340118408203125,0,0,0.0,4.625096747419985,-35.242659381336495,67.05394783687449,0,0,0.0,0.0,0.1085112174420913,0.19324563660127195,1.048956321792567,0.0742520464706636,0.026617577532306314,0.3305397229269147,2.0918119698762894,-0.22051339106558893,-1.267919223755598,2.583640068769455,25.93401074409485,0.0,0.0,0.0,0.0,0,0,0,0,False,0,1.120948076248169,0.02993505859375
STABILIZE,1.1107802391052246,29.841865230414584,0.03247812589009603,0.032610416412353516,0,0,0.0,4.625077110626121,-35.2425227775531,67.06653587551482,0,0,0.0,0.0,0.10630222541831547,0.19195463516005218,1.0525264053532088,0.07255002675842653,0.16466730739921331,0.3653494641184807,2.3147951811552048,0.1153511562098711,2.3569971323013306,0.4056971054524183,22.73348867893219,0.0,0.0,0.0,0.0,0,0,0,0,False,0,1.1491665840148926,0.034924072265625
STABILIZE,1.1442530155181885,29.87715211739146,0.03243378003438314,0.03256487846374512,0,0,0.0,4.6260871248496365,-35.24227689074298,67.0770816875933,0,0,0.0,0.0,0.10441469690210002,0.19164662189511134,1.0628588469044644,0.07099890225433762,0.16466730739921331,0.3653494641184807,2.3147951811552048,0.1153511562098711,2.3569971323013306,0.4056971054524183,22.73348867893219,0.0,0.0,0.0,0.0,0,0,0,0,False,0,1.177478313446045,0.034924072265625
STABILIZE,1.177628517150879,29.959314285714285,0.032402785619099934,0.03253459930419922,0,0,0.0,4.6263202050550625,-35.241983192608664,67.09938225523341,0,0,0.0,0.0,0.10127058892830765,0.18932899731568206,1.0668012520270636,0.06527927815033219,0.08465071441605687,0.24775096680969,1.9759686663746834,-0.13080381887679027,0.28361156582832336,0.11564779561012983,20.645922422409058,0.0,0.0,0.0,0.0,0,0,0,0,False,0,1.2062299251556396,0.029935791015625
STABILIZE,1.2111313343048096,29.849935593147965,0.032491238911946614,0.032642364501953125,0,0,0.0,4.626670252250026,-35.24150507936677,67.11100723720077,0,0,0.0,0.0,0.09629788741964289,0.18451730674051436,1.0596519584513266,0.060540953071922914,-0.020666045020334423,0.14733131974935532,1.7314191907644272,-0.08435107534151208,-1.494738832116127,-0.1742969616316259,17.81781017780304,0.0,0.0,0.0,0.0,0,0,0,0,False,0,1.2436692714691162,0.034924072265625
STABILIZE,1.2445571422576904,29.91486933698505,0.03245690663655599,0.03264164924621582,0,0,0.0,4.627358820695728,-35.24168949447436,67.13246769157294,0,0,0.0,0.0,0.0949268683323525,0.18155238307907004,1.0709450034083479,0.058904521402251275,0.17135669477283955,0.20057805813848972,2.4183109402656555,0.09024702936922063,-0.8955391123890877,0.47749122604727745,27.080878615379333,0.0,0.0,0.0,0.0,0,0,0,0,False,0,1.272559404373169,0.034924072265625
STABILIZE,1.2789037227630615,29.11841602854703,0.032546075185139973,0.03342294692993164,0,0,0.0,4.628014518856049,-35.24163826805558,67.14486448491652,0,0,0.0,0.0,0.0936898777252418,0.17862031104177264,1.0818451155181197,0.05740341305155947,0.17135669477283955,0.20057805813848972,2.4183109402656555,0.09024702936922063,-0.8955391123890877,0.47749122604727745,27.080878615379333,0.0,0.0,0.0,0.0,0,0,0,0,False,1,1.3012919425964355,0.034924072265625
STABILIZE,1.3123466968536377,29.899941544647056,0.03238824208577474,0.03252911567687988,0,0,0.0,4.628073002350818,-35.2417475510823,67.15463165542964,0,0,0.0,0.0,0.09208447829694241,0.174716301029953,1.0874904768187024,0.05059427054479218,0.2632584422826767,0.27022704016417265,2.156388573348522,-0.07639419844313812,1.9827395677566528,0.4902150947600603,26.686060428619385,0.0,0.0,0.0,0.0,0,0,0,0,False,0,1.358661413192749,0.06984912109375
STABILIZE,1.3457269668579102,29.957174487536605,0.032408746083577473,0.03254199028015137,0,0,0.0,4.629283226494379,-35.241313834070006,67.17848950620049,0,0,0.0,0.0,0.09431455790008135,0.17788777613740517,1.1366691703963407,0.04586062259040061,0.2632584422826767,0.27022704016417265,2.156388573348522,-0.07639419844313812,1.9827395677566528,0.4902150947600603,26.686060428619385,0.0,0.0,0.0,0.0,0,0,0,0,False,0,1.3873567581176758,0.06984912109375
STABILIZE,1.3793103694915771,29.77661349292555,0.03248337109883626,0.03271079063415527,0,0,0.0,4.629868915215708,-35.24065130572051,67.1896500353043,0,0,0.0,0.0,0.09175755477437847,0.18035445147587986,1.1833092047000577,0.04290135354800379,0.008072018681559712,0.26864781975746155,2.316308580338955,0.027343606797774804,0.30096955597400665,2.383597008883953,26.054000854492188,0.0,0.0,0.0,0.0,0,0,0,0,False,0,1.4162094593048096,0.039913818359375
STABILIZE,1.4127075672149658,29.941776959209605,0.03244784673055013,0.032621145248413086,0,0,0.0,4.629422391598718,-35.240726437801385,67.20066713043552,0,0,0.0,0.0,0.09280124433109416,0.17889783286979932,1.188358630069883,0.041828272256048474,0.2626293106004596,0.2959436271339655,2.321324124932289,0.08118945147784326,2.263609692454338,0.3581252181902528,24.95228946208954,0.0,0.0,0.0,0.0,0,0,0,0,False,0,1.4446098804473877,0.02993505859375
GUIDED_NOGPS,1.446282148361206,29.786129220105956,0.032547982533772786,0.03268742561340332,0,0,0.0,4.629242245359359,-35.24130017369166,67.22414249061286,0,0,0.0,0.0,0.08940196880502135,0.1747547703707383,1.1743220386422777,0.03580504459305835,0.06199938943609595,0.22373641841113567,2.001882530748844,-0.17985368848311292,-0.46761399134993553,0.23943905252963305,24.415700137615204,0.0,0.0,0.0,0.0,0,0,0,0,False,0,1.4733519554138184,0.02993505859375
GUIDED_NOGPS,1.4797070026397705,29.915722803914296,0.03133371671040853,0.03151750564575195,0,0,0.5,4.629079601479748,-35.24172706051479,67.23464732155634,0,0,0.0,0.5,0.09153877340026921,0.1711491778066269,1.1582739736563725,0.03700739278137008,0.3341264557093382,0.23535655345767736,1.8292760476469994,0.1741440905640186,8.457918465137482,1.7160333693027496,17.486728727817535,0.0,0.0,0.0,0.0,0,0,0,0,False,1,1.5021328926086426,0.034923828125
GUIDED_NOGPS,1.5191874504089355,25.330217109037655,0.03251531918843587,0.03860354423522949,0,0,0.5,4.6281417311293405,-35.24267987190401,67.25937260635179,0,0,2.0928640278329307,0.5,0.08698734652746079,0.16800063583916477,1.154901878558599,0.03368494265788821,-0.028413714608177543,0.21310437005013227,2.111680805683136,-0.05712494746395617,-3.296520560979843,0.47282809391617775,27.195006608963013,0.0,0.0,0.0,0.0,0,0,0,0,False,1,1.5307409763336182,0.029935302734375
GUIDED_NOGPS,1.5541131496429443,28.63279767349781,0.032439502080281575,0.034026145935058594,0,0,0.5,4.628304801895775,-35.24233153225634,67.27041019205052,0,0,4.093032540812346,0.5,0.0867966391457176,0.16305167417887229,1.1454016116523507,0.02931928702166474,0.20158549305051565,0.2507338998839259,2.156473882496357,-0.010525801758665666,0.8441372774541378,-0.20543253049254417,18.62274557352066,0.0,0.0,0.0,0.0,0,0,0,0,False,0,1.5882809162139893,0.034923828125
GUIDED_NOGPS,1.5874624252319336,29.983515265893185,0.03241756757100423,0.03253173828125,0,0,0.5,4.630634323289573,-35.241990022797836,67.29277223139314,0,0,5.911915622135862,0.5,0.08757972316857829,0.16081190597831715,1.1444083456165641,0.025313155306180914,0.23531990591436625,0.2352542243897915,2.1675514057278633,-0.11409592218689614,1.8232153728604317,-0.2142481505870819,17.712175846099854,0.0,0.0,0.0,0.0,0,0,0,0,False,0,1.6167807579040527,0.034925048828125
GUIDED_NOGPS,1.6245720386505127,26.949965624257068,0.032509597142537434,0.03610539436340332,0,0,0.5,4.6310923728507865,-35.242112966202896,67.30331804347165,0,0,7.468952709129846,0.5,0.08664019661236251,0.1559309336355267,1.1407221530662723,0.027257165440549475,0.13979660579934716,0.08723295177333057,2.016020566225052,0.19975028299941128,-0.298753147944808,-1.9267473369836807,22.049112617969513,0.0,0.0,0.0,0.0,0,0,0,0,False,0,1.6455252170562744,0.034923828125
GUIDED_NOGPS,1.6578543186187744,30.04451193742255,0.03230884869893392,0.0324244499206543,0,0,0.5,4.631040292658365,-35.241313834070006,67.32480581860051,0,0,8.695180719384028,0.5,0.08254994418160182,0.14873719451687234,1.1279705006569902,0.028008390465068176,0.08972940850071609,0.1956786261871457,2.0519431680440903,-0.1259511428942681,-0.34463703632354736,0.20414828322827816,22.661785781383514,0.0,0.0,0.0,0.0,0,0,0,0,False,0,1.7068121433258057,0.03525390625
GUIDED_NOGPS,1.6913857460021973,29.824889249169814,0.032460959752400716,0.03259015083312988,0,0,0.5,4.630901127554026,-35.24175096617689,67.3371069892957,0,0,9.536288510260055,0.5,0.08092351606601633,0.14632106193105,1.126328594989939,0.02421874240962129,0.08972940850071609,0.1956786261871457,2.0519431680440903,-0.1259511428942681,-0.34463703632354736,0.20414828322827816,22.661785781383514,0.0,0.0,0.0,0.0,0,0,0,0,False,0,1.735652208328247,0.03525390625
GUIDED_NOGPS,1.7249150276184082,29.821072314769392,0.03237942059834798,0.03277468681335449,0,0,0.5,4.629604245385369,-35.24184317373068,67.36150442501098,0,0,9.95502238601579,0.5,0.08116523650245153,0.14504948630928957,1.1308617225855302,0.024400588962556296,0.1907629193738103,0.25375785771757364,2.393937297165394,0.09095532132017228,-0.19359461730346084,0.6065322086215019,27.782145142555237,0.0,0.0,0.0,0.0,0,0,0,0,False,0,1.7641470432281494,0.039912841796875
GUIDED_NOGPS,1.7586650848388672,29.633138101327532,0.0325804074605306,0.03278326988220215,0,0,0.5,4.630313731285405,-35.24153581521803,67.37261714279059,0,0,9.932836109684285,0.5,0.07877216414145138,0.14385134739266106,1.1313151371007657,0.02278067089393115,0.027441716520115733,0.22737628314644098,1.8746787682175636,-0.010655602033322354,-3.105495497584343,0.1451078918762505,21.596474945545197,0.0,0.0,0.0,0.0,0,0,0,0,False,0,1.7928283214569092,0.024946044921875
GUIDED_NOGPS,1.7920162677764893,29.982229275231784,0.032344849904378255,0.03248167037963867,0,0,0.5,4.630243721846412,-35.24221200394586,67.3832312567608,0,0,9.470712338657458,0.5,0.07513747465788417,0.14052169899227857,1.1154599767487745,0.020941220855550627,-0.00016394187696278095,0.187252601608634,1.9295992329716682,-0.035518771272638146,-3.854101151227951,0.1977988751605153,21.64570838212967,0.0,0.0,0.0,0.0,0,0,0,0,False,0,1.821706771850586,0.034924072265625
GUIDED_NOGPS,1.8254609107971191,29.899088977915913,0.03244212468465169,0.032584190368652344,0,0,0.5,4.629670839729777,-35.24203441902744,67.4083731830956,0,0,8.589119101584899,0.5,0.07369789946494759,0.13910689361915146,1.1141655641172008,0.024171222511733367,0.08802551892586052,0.2283134963363409,2.0471788942813873,0.2550571394939945,-2.5803200900554657,0.41567394509911537,24.45565164089203,0.0,0.0,0.0,0.0,0,0,0,0,False,0,1.85038161277771,0.02993603515625
GUIDED_NOGPS,1.8665034770965576,24.364665082749045,0.032462390263875325,0.040164947509765625,0,0,0.5,4.631408695986722,-35.24062398496383,67.41816084417624,0,0,7.327103244279351,0.5,0.07276639194211051,0.13531452333606211,1.0998221910625123,0.02175813755313063,0.14478600351139903,0.20544712897390127,1.8461566418409348,-0.0031881775580885692,-1.0151514783501625,0.13081298675388098,20.613883435726166,0.0,0.0,0.0,0.0,0,0,0,0,False,0,1.9085443019866943,0.034923828125
GUIDED_NOGPS,1.9000067710876465,29.848873453934726,0.03227070172627767,0.032408952713012695,0,0,0.5,4.630954488406917,-35.239954626425174,67.44168401567777,0,0,5.740560997021648,0.5,0.07328112701058734,0.13452590143769871,1.1013268824572087,0.018823920849422488,0.189739721827209,0.24753098841756582,2.172037586569786,-0.10680346794829104,4.1063956916332245,0.5965540185570717,25.61405897140503,0.0,0.0,0.0,0.0,0,0,0,0,False,0,1.93668794631958,0.06984912109375
GUIDED_NOGPS,1.9333932399749756,29.951398558952278,0.032399924596150716,0.03252983093261719,0,0,0.5,4.630246710054174,-35.23996828680351,67.45535805439613,0,0,3.8997622619605226,0.5,0.0740693354102933,0.13631734600585543,1.1377522315205986,0.018507419110978987,0.1006038160994649,0.20398416090756655,2.053873799741268,0.055015332815027976,0.24324990808963776,-0.14778273180127144,16.20398759841919,0.0,0.0,0.0,0.0,0,0,0,0,False,0,1.9654128551483154,0.034923828125
GUIDED_NOGPS,1.9775965213775635,22.624585326910733,0.03246477444966634,0.03262042999267578,0,0,0.5,4.630764096883802,-35.24024832455948,67.477569829577,0,0,1.8862382729548939,0.5,0.0728551510082758,0.1344471551926381,1.1329480499291313,0.018502699423719852,0.1006038160994649,0.20398416090756655,2.053873799741268,0.055015332815027976,0.24324990808963776,-0.14778273180127144,16.20398759841919,0.0,0.0,0.0,0.0,0,0,0,0,False,0,1.9952752590179443,0.034923828125
GUIDED_NOGPS,2.00044322013855,43.760866389833694,0.02173617680867513,0.022051095962524414,0,0,0.5,4.631649460154965,-35.23967117357462,67.48920164173354,0,0,-0.21082952277810635,0.5,0.07330794367351907,0.13269030450056166,1.1264223103640831,0.02146765675769565,0.18622871721163392,0.20374814048409462,1.9372699782252312,0.21127237190218645,1.8944045528769493,0.3225537249818444,22.64845222234726,0.0,0.0,0.0,0.0,0,0,0,0,False,1,2.0227246284484863,0.029934814453125
GUIDED_NOGPS,2.034475326538086,29.385870022139393,0.03253057797749837,0.033147573471069336,0,0,0.5,4.630752144052755,-35.23935015468363,67.50077198218754,0,0,-2.298559420348432,0.5,0.07412051692027984,0.13034910856089774,1.1161308706442155,0.027387897255320263,0.18686891999095678,0.23808740079402924,2.106344886124134,0.2128184625940555,-1.9427184015512466,0.7805709727108479,28.900688886642456,0.0,0.0,0.0,0.0,0,0,0,0,False,0,2.080169439315796,0.034925048828125
GUIDED_NOGPS,2.067915439605713,29.90484474706784,0.032364877065022786,0.03248095512390137,0,0,0.5,4.632329063977382,-35.24018343776237,67.52280617245,0,0,-4.284483301829301,0.5,0.07635022407010177,0.13062998414851437,1.1114559567009543,0.027826808163176404,0.27510744985193014,0.29588162433356047,1.9472075626254082,0.07220214315961636,4.685107618570328,2.541014179587364,25.240278244018555,0.0,0.0,0.0,0.0,0,0,0,0,False,0,2.108752727508545,0.034924072265625
GUIDED_NOGPS,2.1013479232788086,29.910176139199887,0.0324278195699056,0.032560110092163086,0,0,0.5,4.632333759732436,-35.24116698500285,67.53393255060796,0,0,-6.080642162619563,0.5,0.07559078413528816,0.13037230772348135,1.1108660189712551,0.032604333119472445,0.10939926141873002,0.262239808216691,2.1591641008853912,0.31115020145485645,-1.677122339606285,0.3409458324313164,22.69536554813385,0.0,0.0,0.0,0.0,0,0,0,0,False,0,2.137495279312134,0.034924072265625
GUIDED_NOGPS,2.134788990020752,29.903139102970847,0.032451661427815755,0.03258657455444336,0,0,0.5,4.632808457879752,-35.2406103245855,67.55772892967629,0,0,-7.607481923646012,0.5,0.07431347353691165,0.12924114057096264,1.1099275996730773,0.03216504537121127,0.07991833845153451,0.21058251149952412,2.1285487338900566,0.02426036168936919,0.19848709926009178,0.7419208995997906,28.691479563713074,0.0,0.0,0.0,0.0,0,0,0,0,False,0,2.1664016246795654,0.029934814453125
GUIDED_NOGPS,2.168193817138672,29.935579647565145,0.03246572812398275,0.03258037567138672,0,0,0.5,4.632316684259511,-35.24047372080209,67.56975689280468,0,0,-8.79737697910487,0.5,0.07273727701121696,0.1276504982191704,1.1038551568926969,0.031486490705096716,0.07991833845153451,0.21058251149952412,2.1285487338900566,0.02426036168936919,0.19848709926009178,0.7419208995997906,28.691479563713074,0.0,0.0,0.0,0.0,0,0,0,0,False,0,2.195094585418701,0.029934814453125
GUIDED_NOGPS,2.201803207397461,29.753378402343778,0.03249791463216146,0.032828569412231445,0,0,0.5,4.6315760356213875,-35.240938173665654,67.58168923328469,0,0,-9.597625417490859,0.5,0.07223669930689443,0.12673637790349282,1.0977374087393235,0.026888920852418483,0.14097766252234578,0.2719670068472624,2.1037690341472626,-0.17747347427906926,-0.40602926164865494,0.6571296136826277,27.79916226863861,0.0,0.0,0.0,0.0,0,0,0,0,False,0,2.2523937225341797,0.034924072265625
GUIDED_NOGPS,2.235326051712036,29.831252978286074,0.032540114720662434,0.032640933990478516,0,0,0.5,4.630624504892641,-35.24037809815371,67.60582712181152,0,0,-9.972783253900806,0.5,0.06903566633627263,0.12617584207524613,1.0935519884721003,0.028522757099672696,-0.03974136780016124,0.22445155773311853,1.8516242504119873,0.1448180463725474,-2.2580627351999283,0.1049665967002511,20.497632026672363,0.0,0.0,0.0,0.0,0,0,0,0,False,0,2.2809019088745117,0.02993505859375
GUIDED_NOGPS,2.26871919631958,29.94541105915111,0.03243234952290853,0.03255772590637207,0,0,0.5,4.630680000179646,-35.23979070188509,67.61704229242868,0,0,-9.9062342875998,0.5,0.06813285073635618,0.12635968081864216,1.0888468431424183,0.0270208026844377,0.10686673922464252,0.2966354601085186,2.1211467683315277,-0.0270984887174413,0.6779493764042854,2.6974981650710106,28.61534059047699,0.0,0.0,0.0,0.0,0,0,0,0,False,0,2.309664726257324,0.034923828125
GUIDED_NOGPS,2.3031423091888428,29.051255056242034,0.03249958356221517,0.033599853515625,0,0,0.5,4.631329295037621,-35.23940821129157,67.64123482246886,0,0,-9.4009260539328,0.5,0.06739950047850732,0.12660516609832967,1.0916611716093931,0.024475256239999764,0.09768538875505328,0.2634976990520954,2.216782234609127,-0.09666678686911777,-1.561124250292778,0.2959850011393428,23.045915365219116,0.0,0.0,0.0,0.0,0,0,0,0,False,0,2.3383164405822754,0.034925048828125
GUIDED_NOGPS,2.336634397506714,29.85673507449406,0.03249791463216146,0.032633304595947266,0,0,0.5,4.632159589908601,-35.240050249073555,67.65182161568238,0,0,-8.479239274368842,0.5,0.06749088370187942,0.125873415640743,1.091043934424698,0.01992311676427276,0.14429142465814948,0.20551071502268314,2.0167870447039604,-0.21197991013109102,1.9395578652620316,0.47831451520323753,25.164267420768738,0.0,0.0,0.0,0.0,0,0,0,0,False,0,2.367069959640503,0.02993505859375
GUIDED_NOGPS,2.3703911304473877,29.62602154335158,0.032436641057332356,0.032843828201293945,0,0,0.5,4.632482743233707,-35.240514701937116,67.66391105051329,0,0,-7.181996586895462,0.5,0.06571708514319201,0.12314549816802556,1.08416717114739,0.01831199743403083,0.04978142096661031,0.11994373053312302,1.9596362486481667,-0.04056796193614363,-3.470160812139511,2.166377007961273,22.163167595863342,0.0,0.0,0.0,0.0,0,0,0,0,False,0,2.3957784175872803,0.044903076171875
GUIDED_NOGPS,2.403780698776245,29.946266269696775,0.03242305119832357,0.032560110092163086,0,0,0.5,4.633103863561355,-35.239954626425174,67.68695610877292,0,0,-5.566654461310076,0.5,0.06824420309844055,0.12206604942461628,1.100221504161562,0.013507835011188398,0.30521126464009285,0.19382026512175798,1.883057877421379,-0.1288664330506735,1.7749730497598648,0.1589530147612095,20.68447768688202,0.0,0.0,0.0,0.0,0,0,0,0,False,0,2.4530370235443115,0.024946044921875
GUIDED_NOGPS,2.439453363418579,28.03416792546152,0.032514127095540364,0.034783124923706055,0,0,0.5,4.632932681945282,-35.24058983401798,67.69892260019878,0,0,-3.7047583816978453,0.5,0.07057140490551374,0.12003361411766114,1.0852182173974094,0.010514618335646042,0.30521126464009285,0.19382026512175798,1.883057877421379,-0.1288664330506735,1.7749730497598648,0.1589530147612095,20.68447768688202,0.0,0.0,0.0,0.0,0,0,0,0,False,0,2.4818084239959717,0.024946044921875
GUIDED_NOGPS,2.4738166332244873,29.101445253144796,0.03242615063985189,0.03348255157470703,0,0,0.5,4.63143430919611,-35.23900864522513,67.72367520575091,0,0,-1.6787740091854046,0.5,0.0691345035395335,0.12068571431089568,1.0730421679633955,0.006208766240384202,0.08857343345880508,0.3418239299207926,1.967596635222435,-0.21580438917947503,3.0957048758864403,2.1589722484350204,21.47742062807083,0.0,0.0,0.0,0.0,0,0,0,0,False,0,2.5107553005218506,0.06485986328125
GUIDED_NOGPS,2.507333278656006,29.834860297046607,0.03243401845296224,0.0325925350189209,0,0,0.5,4.631051391715766,-35.238141211200535,67.73382486685755,0,0,0.42156532334096364,0.5,0.06856619728551516,0.12396608657561946,1.0985339951147668,0.008126172020228545,-0.011538401304278523,0.24264450185000896,1.7490314319729805,0.19473983231510447,2.780446410179138,2.3405270650982857,23.14310222864151,0.0,0.0,0.0,0.0,0,0,0,0,False,0,2.539726495742798,0.034924072265625
GUIDED_NOGPS,2.540858507156372,29.829343574425717,0.032399686177571614,0.032538414001464844,0,0,0.5,4.630100287873842,-35.2380353432684,67.74644705644373,0,0,2.5032330106138545,0.5,0.06292145207104351,0.12394391976991155,1.096061786714593,0.005807216977698742,-0.1664784154854715,0.2521928632631898,2.0647943019866943,-0.09110222374818044,-6.75569549202919,1.97520200163126,18.838344514369965,0.0,0.0,0.0,0.0,0,0,0,0,False,0,2.5683863162994385,0.034924072265625
GUIDED_NOGPS,2.5741679668426514,30.01956784689269,0.03233364423116048,0.03249001502990723,0,0,0.5,4.6320904342432545,-35.23796362628212,67.76949211470335,0,0,4.474029437436339,0.5,0.057871392212765736,0.12516407966089307,1.0974787979428535,0.008239021621913256,-0.1350058475509286,0.3171209944412112,2.2574681788682938,0.16604112499064305,-5.186184123158455,0.5988712422549725,26.194506883621216,0.0,0.0,0.0,0.0,0,0,0,0,False,0,2.5970914363861084,0.029935791015625
GUIDED_NOGPS,2.6076269149780273,29.888010033206495,0.03250721295674642,0.032625675201416016,0,0,0.5,4.6317395332746445,-35.23759821116152,67.78205966277618,0,0,6.246665612729069,0.5,0.06056974816364192,0.12230950367069156,1.0796100284764623,0.0069499490904224945,0.09077545837499201,0.032838399056345224,1.6214549541473389,-0.11765742561202144,-0.292445276863873,0.12749701272696257,20.157435536384583,0.0,0.0,0.0,0.0,0,0,0,0,False,0,2.6563949584960938,0.034924072265625
GUIDED_NOGPS,2.6411044597625732,29.87183249056335,0.03248551686604818,0.032601118087768555,0,0,0.5,4.632001214897221,-35.235863343112335,67.80480419271233,0,0,7.742629306011935,0.5,0.05983266325308218,0.11853703495155062,1.0707632558394806,0.004334007314008166,0.09077545837499201,0.032838399056345224,1.6214549541473389,-0.11765742561202144,-0.292445276863873,0.12749701272696257,20.157435536384583,0.0,0.0,0.0,0.0,0,0,0,0,False,0,2.685908317565918,0.034924072265625
GUIDED_NOGPS,2.6744978427886963,29.94498347219545,0.032438071568806966,0.03257417678833008,0,0,0.5,4.631575608734565,-35.23653611674558,67.81593057087028,0,0,8.895662450393434,0.5,0.05540761219536997,0.11633977475354812,1.0686390013934166,0.0019468487993976166,-0.11668329825624824,0.11946619488298893,1.9869185984134674,-0.10637662114580491,-1.3659470714628696,0.2833784557878971,21.89711481332779,0.0,0.0,0.0,0.0,0,0,0,0,False,0,2.7148280143737793,0.030141357421875
GUIDED_NOGPS,2.708015203475952,29.835284744846422,0.03247574170430501,0.03262042999267578,0,0,0.5,4.630414903462485,-35.2366693054344,67.82793121324198,0,0,9.654695793623906,0.5,0.05391225282357956,0.11671625270240855,1.0624811029782486,-0.00024001753632295082,0.05246106302365661,0.28721820563077927,2.0141959190368652,-0.10403792168531024,0.6258695386350155,0.028385146288201213,17.10878759622574,0.0,0.0,0.0,0.0,0,0,0,0,False,0,2.743387222290039,0.034925048828125
GUIDED_NOGPS,2.7414157390594482,29.939212243208132,0.032431872685750325,0.03254842758178711,0,0,0.5,4.630318853927283,-35.235651607248066,67.85116751679837,0,0,9.986110817918139,0.5,0.05187737182510074,0.11867813078972773,1.061847768402539,-0.000768520851692882,0.010348187061026692,0.34601499792188406,2.0226920023560524,-0.006117021371128216,-5.860522389411926,0.28882906772196293,20.939363539218903,0.0,0.0,0.0,0.0,0,0,0,0,False,0,2.7720770835876465,0.02993505859375
GUIDED_NOGPS,2.7749202251434326,29.846749402254353,0.032497676213582356,0.03263664245605469,0,0,0.5,4.631147441250969,-35.23600336199032,67.86367359316866,0,0,9.875228745343794,0.5,0.04978190928536588,0.12011233371010745,1.0563807727931014,-0.0011291592407133774,0.010348187061026692,0.34601499792188406,2.0226920023560524,-0.006117021371128216,-5.860522389411926,0.28882906772196293,20.939363539218903,0.0,0.0,0.0,0.0,0,0,0,0,False,0,2.800784111022949,0.02993505859375
GUIDED_NOGPS,2.8083605766296387,29.90505796626121,0.03245094617207845,0.03257179260253906,0,0,0.5,4.63122940352101,-35.23520764495201,67.88569412305279,0,0,9.32696067890069,0.5,0.04963429975945191,0.12604193761375784,1.1024992262746784,0.0006413771762333027,0.09181724744848907,0.2787663834169507,2.314266748726368,0.08239863508477352,-4.374978318810463,0.8702926337718964,29.331541061401367,0.0,0.0,0.0,0.0,0,0,0,0,False,0,2.858055353164673,0.074838134765625
GUIDED_NOGPS,2.8418760299682617,29.838680762061948,0.03244975407918294,0.032595157623291016,0,0,0.5,4.631122681815228,-35.236040928030754,67.89819336923391,0,0,8.365590083745087,0.5,0.05038563565793895,0.13026259800894313,1.134584777612752,-0.0036400012534939436,0.10504313977435231,0.2276032930240035,1.8140623345971107,-0.17554261181721836,-1.6681438311934471,0.6571649108082056,26.718753576278687,0.0,0.0,0.0,0.0,0,0,0,0,False,0,2.8898839950561523,0.029934814453125
GUIDED_NOGPS,2.8752593994140625,29.951826329132004,0.032392056783040364,0.03252553939819336,0,0,0.5,4.630357273741364,-35.23520422985743,67.91016669084894,0,0,7.033697242732391,0.5,0.0460811968879364,0.12895778034560684,1.117309507314758,-0.005026851541029307,-0.08376197656616569,0.24331491440534592,1.8422387540340424,-0.06810547040063675,-3.493252396583557,2.282787300646305,22.45177924633026,0.0,0.0,0.0,0.0,0,0,0,0,False,0,2.915860652923584,0.02993505859375
GUIDED_NOGPS,2.908794641494751,29.820012228589306,0.032473119099934895,0.03262519836425781,0,0,0.5,4.627846752334561,-35.235060795884856,67.93568427758811,0,0,5.390273323461356,0.5,0.0420220333685005,0.12780980183574245,1.1016872659267765,-0.006346042124916782,-0.08376197656616569,0.24331491440534592,1.8422387540340424,-0.06810547040063675,-3.493252396583557,2.282787300646305,22.45177924633026,0.0,0.0,0.0,0.0,0,0,0,0,False,0,2.944098472595215,0.02993505859375
GUIDED_NOGPS,2.9421846866607666,29.9507569265924,0.032398494084676106,0.03251910209655762,0,0,0.5,4.628820908064934,-35.23559355064012,67.9469131085836,0,0,3.508107587104019,0.5,0.036348924626991026,0.12657609961238872,1.0862575798712966,-0.004510225102641695,-0.17780353082343936,0.2317577600479126,1.776723936200142,0.09074645360174476,-7.502622902393341,1.7446709796786308,15.649771690368652,0.0,0.0,0.0,0.0,0,0,0,0,False,0,2.9728691577911377,0.06984912109375
GUIDED_NOGPS,2.9756691455841064,29.862261934427398,0.03244832356770833,0.032608747482299805,0,0,0.5,4.63007680909857,-35.23512909777656,67.96844186484749,0,0,1.4705634627465556,0.5,0.033265761402204885,0.13168965665762997,1.1203470993720648,-0.0067378669741694685,-0.03060990129597485,0.2991739194840193,2.2376354783773422,-0.0711309507182615,0.935123860836029,0.607208302244544,26.31981670856476,0.0,0.0,0.0,0.0,0,0,0,0,False,0,3.0026464462280273,0.029934814453125
GUIDED_NOGPS,3.009077787399292,29.93258876003568,0.03246143658955892,0.03259158134460449,0,0,0.5,4.628862316086777,-35.234849060020586,67.98113235632538,0,0,-0.6321137211366181,0.5,0.032372487752484205,0.1276507472507912,1.0909854390730942,-0.007115465011078144,0.07365611381828785,0.19272684585303068,1.7964938655495644,-0.01567731185758911,0.48463335260748863,1.9673028960824013,18.160660564899445,0.0,0.0,0.0,0.0,0,0,0,0,True,0,3.059236764907837,0.034925048828125
GUIDED_NOGPS,3.0426185131073,29.81640849926424,0.03248194058736165,0.03261733055114746,0,0,0.5,4.628228389154435,-35.2350744562632,67.9930373760487,0,0,-2.706793812973938,0.5,0.03223111406149548,0.1264541710624787,1.0789066263503417,-0.00845434218319741,0.08444397244602442,0.20877094939351082,1.7208607867360115,-0.0714315590830214,0.7238585501909256,0.28404812328517437,21.580493450164795,0.0,0.0,0.0,0.0,0,0,0,0,True,0,3.0888822078704834,0.034924072265625
GUIDED_NOGPS,3.0760982036590576,29.867365467738605,0.03240993817647298,0.03264427185058594,0,0,0.5,4.629501365660996,-35.23471587133177,68.01484617006855,0,0,-4.661586686741114,0.5,0.030421810982243985,0.12600833871099798,1.0694821287525305,-0.009158617941550994,-0.002688739914447069,0.2425739075988531,1.8157349899411201,-0.041546106390270274,-2.6499198749661446,0.6988809444010258,27.081313729286194,0.0,0.0,0.0,0.0,0,0,0,0,True,0,3.125593662261963,0.029934814453125
GUIDED_NOGPS,3.109555244445801,29.889287953936492,0.032485278447469075,0.03261280059814453,0,0,0.5,4.629296459985896,-35.234907116628534,68.02559005763298,0,0,-6.409912168353249,0.5,0.030770550668081344,0.12420350429360828,1.0554249625380812,-0.01328090683738165,0.10368746006861329,0.19993321038782597,1.7867615446448326,-0.22638328498676696,4.661862179636955,0.3298402763903141,22.118371725082397,0.0,0.0,0.0,0.0,0,0,0,0,True,0,3.1464338302612305,0.034925048828125
GUIDED_NOGPS,3.144162893295288,28.89514728981234,0.03248098691304525,0.033796072006225586,0,0,0.5,4.629547896324717,-35.23351034294327,68.05056122923855,0,0,-7.874334777772317,0.5,0.03098654192323897,0.12219182625404197,1.0489254377506472,-0.00950355091621487,0.0941362464800477,0.15113147674128413,1.8694287165999413,0.18876327004899787,0.3033076412975788,0.14208569191396236,20.14702707529068,0.0,0.0,0.0,0.0,0,0,0,0,True,0,3.1751248836517334,0.034924072265625
GUIDED_NOGPS,3.1776421070098877,29.869067033178325,0.03251150449117025,0.032651424407958984,0,0,0.5,4.630004665225462,-35.23371866371295,68.06090896583112,0,0,-8.989993441398719,0.5,0.034090283349595484,0.12116732446310507,1.040152697381831,-0.011768157486530578,0.24387044832110405,0.19952545408159494,1.723300851881504,-0.12845192594541835,2.7925271540880203,-0.1219846773892641,16.389095783233643,0.0,0.0,0.0,0.0,0,0,0,0,True,0,3.204242706298828,0.02993505859375
GUIDED_NOGPS,3.2112505435943604,29.754855918616364,0.03249791463216146,0.03270268440246582,0,0,0.5,4.62924779488806,-35.23381087126675,68.07447372152276,0,0,-9.707474268578167,0.5,0.03612768911694596,0.12087506245348634,1.033881466000272,-0.009879024578594447,0.19451420521363616,0.2652747090905905,2.0804719999432564,0.08411506028917641,3.414294496178627,0.4786900710314512,22.934716939926147,0.0,0.0,0.0,0.0,0,0,0,0,True,1,3.2323832511901855,0.0399140625
GUIDED_NOGPS,3.2447500228881836,29.852909985124448,0.03225544293721517,0.03240966796875,0,0,0.5,4.62894470524364,-35.23390307882054,68.09758025148491,0,0,-9.994999153428735,0.5,0.03641725016520673,0.12188249888302947,1.0361182240298135,-0.010227752544883326,0.08504843572154641,0.27401261031627655,2.1840931847691536,-0.020677093706371087,1.1948145925998688,0.697167543694377,26.947280764579773,0.0,0.0,0.0,0.0,0,0,0,0,True,0,3.289884090423584,0.029934814453125
GUIDED_NOGPS,3.278175115585327,29.918710321706257,0.03237155278523763,0.03250479698181152,0,0,0.5,4.630168162878719,-35.233493267470344,68.10840610131939,0,0,-9.839833266128725,0.5,0.04035353073307397,0.1216699049419726,1.0305493974789919,-0.006978165896687106,0.30358831863850355,0.2633081516250968,2.0459655672311783,0.16370391963402933,5.528344959020615,3.200080990791321,33.39124321937561,0.0,0.0,0.0,0.0,0,0,0,0,True,0,3.318659782409668,0.034924072265625
GUIDED_NOGPS,3.3114702701568604,30.03224974939138,0.032254966100056966,0.032376766204833984,0,0,0.5,4.627565433918121,-35.23347619199742,68.13285817854803,0,0,-9.248849094149707,0.5,0.039849423228642954,0.11989814015757544,1.0223591296283179,-0.007129061658347639,0.04527358687482774,0.13811622047796845,1.5812385827302933,-0.020868585797076063,1.1451702564954758,0.5050862208008766,25.191500782966614,0.0,0.0,0.0,0.0,0,0,0,0,True,0,3.3483450412750244,0.02993603515625
GUIDED_NOGPS,3.3450005054473877,29.823404769692402,0.032555373509724934,0.032675981521606445,0,0,0.5,4.62685509424444,-35.23388258825303,68.14426459446196,0,0,-8.24822205135675,0.5,0.03729211778799663,0.11785516505260306,1.0125172678930128,-0.007517022934726276,-0.05948953912593424,0.15300471568480134,1.7452079802751541,-0.03696639785071061,-1.9003767520189285,-0.3599288174882531,13.923479616641998,0.0,0.0,0.0,0.0,0,0,0,0,True,0,3.377025842666626,0.034924072265625
GUIDED_NOGPS,3.378452777862549,29.893761537200568,0.03247526486714681,0.03260326385498047,0,0,0.5,4.627236731064314,-35.2338211165505,68.15637451986039,0,0,-6.882271136822208,0.5,0.037080383186538474,0.11783517595331944,1.0134045252093442,-0.004654839490708152,0.060867436695843935,0.23097707889974117,2.0407574251294136,0.15097378104244782,-3.073374554514885,0.5197070073336363,25.997230410575867,0.0,0.0,0.0,0.0,0,0,0,0,True,0,3.4059107303619385,0.029934814453125
GUIDED_NOGPS,3.4123663902282715,29.486892149350055,0.03246906598409017,0.03306746482849121,0,0,0.5,4.62682094329859,-35.2324994749461,68.17851799314957,0,0,-5.211495991996031,0.5,0.03609032816813989,0.1167818486766962,1.0080045403260307,-0.0029240398748054683,0.02550734207034111,0.2023183275014162,1.947716623544693,0.0870775748003901,1.223498396575451,0.2503511495888233,21.862037479877472,0.0,0.0,0.0,0.0,0,0,0,0,True,1,3.4349112510681152,0.034925048828125
GUIDED_NOGPS,3.4458892345428467,29.829767865270824,0.03246334393819173,0.032624006271362305,0,0,0.5,4.6267197711215085,-35.23248922966235,68.19072354119638,0,0,-3.309897297378446,0.5,0.033510649561019304,0.11662334180582155,1.0006241694231781,-0.0019641402585854856,-0.00331434712279588,0.22170962765812874,1.7271693795919418,0.015232682550877149,3.6583084613084793,-0.264847744256258,15.434494614601135,0.0,0.0,0.0,0.0,0,0,0,0,True,0,3.491941213607788,0.034924072265625
GUIDED_NOGPS,3.4794387817382812,29.807932571014348,0.03243091901143392,0.03255105018615723,0,0,0.5,4.626790634334148,-35.23190183339373,68.21341342961917,0,0,-1.2616991916130784,0.5,0.034021199248256945,0.11647615940288862,1.0010592286763218,-0.003635831900080061,0.10068512056022882,0.21663177758455276,1.959136500954628,-0.10840039819275177,5.8988891541957855,2.4890417233109474,26.315003633499146,0.0,0.0,0.0,0.0,0,0,0,0,True,0,3.520578145980835,0.029934814453125
GUIDED_NOGPS,3.5126805305480957,30.080711442607665,0.0323212464650472,0.03243517875671387,0,0,0.5,4.6265498701659045,-35.231731078664474,68.22593999655697,0,0,0.8423811189212129,0.5,0.03535932849901053,0.11481720459859221,0.9913190270546863,-4.8355996126060036e-06,0.15693616587668657,0.15946697676554322,1.6346581280231476,0.2031799851178965,7.5565919280052185,-0.12501920573413372,18.126533925533295,0.0,0.0,0.0,0.0,0,0,0,0,True,0,3.549248456954956,0.034925048828125
GUIDED_NOGPS,3.5461690425872803,29.861624115393926,0.03252223332722982,0.03265237808227539,0,0,0.5,4.625712745105755,-35.23094219181534,68.23760595965935,0,0,2.909151336452391,0.5,0.032857728000644945,0.11445757606339503,0.9940375660879827,-0.003939050935074278,-0.0789316720329225,0.1997427549213171,2.054321952164173,-0.2420075561565827,-0.780265312641859,0.484303617849946,26.153457164764404,0.0,0.0,0.0,0.0,0,0,0,0,True,0,3.5783629417419434,0.034924072265625
GUIDED_NOGPS,3.579624652862549,29.890352971358936,0.03248265584309896,0.03261375427246094,0,0,0.5,4.625985952672555,-35.230631418208105,68.26010460278538,0,0,4.847071672991346,0.5,0.034001893578056164,0.11353269042280308,0.9945127233674838,-0.007991612193524459,0.1357567380182445,0.16612419858574867,1.917567104101181,-0.24590986200890783,2.7703026309609413,0.18101588357239962,22.376649081707,0.0,0.0,0.0,0.0,0,0,0,0,True,0,3.6067442893981934,0.0399140625
GUIDED_NOGPS,3.6149327754974365,28.32725946537355,0.032483847935994466,0.03291893005371094,0,0,0.5,4.624398787464174,-35.23069972009981,68.27223501875132,0,0,6.570309259822431,0.5,0.03564240924999571,0.1114873607356614,0.9910326696632401,-0.006400572906010017,0.12633881997317076,0.1915276050567627,2.140416018664837,0.03780449674642555,1.4716703444719315,0.4650716669857502,25.258353352546692,0.0,0.0,0.0,0.0,0,0,0,0,True,0,3.6640031337738037,0.034923828125
GUIDED_NOGPS,3.646778106689453,31.394256031017733,0.03091004689534505,0.03101491928100586,0,0,0.5,4.625757568222183,-35.23128370127384,68.29399600144697,0,0,8.002539790539762,0.5,0.03667901429329493,0.11108137689140052,0.9959418113470103,-0.005617467619822611,0.12633881997317076,0.1915276050567627,2.140416018664837,0.03780449674642555,1.4716703444719315,0.4650716669857502,25.258353352546692,0.0,0.0,0.0,0.0,0,0,0,0,True,0,3.692885398864746,0.034923828125
GUIDED_NOGPS,3.6802239418029785,29.901220485913083,0.032518895467122395,0.032637834548950195,0,0,0.5,4.625599193210803,-35.231526172989376,68.30662502122233,0,0,9.080328018195505,0.5,0.03457574078981488,0.11059750852338579,0.9967960960309715,-0.0049920051349473926,-0.05957735702395439,0.1863245270214975,1.8984735012054443,0.027601381405403323,0.10081585496664047,0.22012037225067616,21.904388070106506,0.0,0.0,0.0,0.0,0,0,0,0,True,0,3.7214019298553467,0.03515576171875
GUIDED_NOGPS,3.713681221008301,29.88694518273609,0.032511266072591145,0.03264904022216797,0,0,0.5,4.625905697949808,-35.23143738053017,68.31784702202866,0,0,9.755937380195567,0.5,0.03244900433567521,0.11014590124409958,0.9978499985931815,-0.004358426978054065,-0.05957735702395439,0.1863245270214975,1.8984735012054443,0.027601381405403323,0.10081585496664047,0.22012037225067616,21.904388070106506,0.0,0.0,0.0,0.0,0,0,0,0,True,0,3.750267744064331,0.03515576171875
GUIDED_NOGPS,3.7472240924835205,29.813653293906913,0.03251531918843587,0.0326542854309082,0,0,0.5,4.625314886586602,-35.231403229584316,68.34138385390852,0,0,9.999444309209432,0.5,0.032405365062054645,0.1094502176010839,1.0003433094728462,-0.004895104607351171,0.06399133708328009,0.17156878020614386,1.986009068787098,-0.04147025393788611,1.0672390460968018,0.8862747810781002,29.61612641811371,0.0,0.0,0.0,0.0,0,0,0,0,True,0,3.7793424129486084,0.064860107421875
GUIDED_NOGPS,3.7806191444396973,29.94455589745054,0.03241613705952962,0.03255414962768555,0,0,0.5,4.625561200283546,-35.231526172989376,68.35265366603905,0,0,9.800063584670868,0.5,0.034523876033418284,0.11215518540151069,1.0278076008203196,-0.0017814569573176239,0.13968300772830844,0.2042918000370264,1.7829468473792076,0.16663141608553347,4.3885789811611176,-0.3127693198621273,13.493150472640991,0.0,0.0,0.0,0.0,0,0,0,0,True,0,3.808051824569702,0.034923828125
GUIDED_NOGPS,3.8141930103302,29.783168119976143,0.03248623212178548,0.03280043601989746,0,0,0.5,4.624163999711454,-35.23150226732728,68.37708525270018,0,0,9.166626023425668,0.5,0.035811126075182546,0.11169015977732177,1.0231395956983376,0.0014839896004377143,0.13968300772830844,0.2042918000370264,1.7829468473792076,0.16663141608553347,4.3885789811611176,-0.3127693198621273,13.493150472640991,0.0,0.0,0.0,0.0,0,0,0,0,True,1,3.836693286895752,0.034923828125
GUIDED_NOGPS,3.8476431369781494,29.896105377202485,0.032556804021199544,0.032669782638549805,0,0,0.5,4.6239646435650545,-35.23169692771863,68.38827993274982,0,0,8.127187352021913,0.5,0.035651801481073254,0.11533306236774767,1.0474096766003587,0.004429779091109436,0.1589396968483925,0.23906740825623274,1.9722707569599152,0.061694230626882306,7.371267676353455,0.3369858954101801,23.33052009344101,0.0,0.0,0.0,0.0,0,0,0,0,True,0,3.8940513134002686,0.034924072265625
GUIDED_NOGPS,3.886176586151123,25.95372725191359,0.032541545232137044,0.037720680236816406,0,0,0.5,4.624023127059823,-35.23100366351787,68.41140012309032,0,0,6.7277855841685845,0.5,0.0373452195744202,0.11530705970184997,1.043639813043214,0.005710753870549423,0.1589396968483925,0.23906740825623274,1.9722707569599152,0.061694230626882306,7.371267676353455,0.3369858954101801,23.33052009344101,0.0,0.0,0.0,0.0,0,0,0,0,True,0,3.9227585792541504,0.034924072265625
GUIDED_NOGPS,3.9201016426086426,29.47404518463863,0.032503636678059895,0.033106088638305664,0,0,0.5,4.623949702526246,-35.23077143708609,68.42244453897824,0,0,5.030401940639225,0.5,0.03765269844663153,0.11403142223481512,1.0361283885558075,0.005641334313432236,0.08817713242024183,0.17228531651198864,1.7557842656970024,-0.005528474509116664,-1.0598015040159225,0.20968480966985226,21.94056212902069,0.0,0.0,0.0,0.0,0,0,0,0,True,0,3.9520535469055176,0.029934814453125
GUIDED_NOGPS,3.9536240100860596,29.83252605000178,0.03251055081685384,0.03263378143310547,0,0,0.5,4.622831259049656,-35.23071338047814,68.43348895486615,0,0,3.1102156249790487,0.5,0.037752742741264556,0.11231136178795108,1.0243506826026179,0.005449050609400802,0.08817713242024183,0.17228531651198864,1.7557842656970024,-0.005528474509116664,-1.0598015040159225,0.20968480966985226,21.94056212902069,0.0,0.0,0.0,0.0,0,0,0,0,True,0,3.9804725646972656,0.029934814453125
GUIDED_NOGPS,3.9872918128967285,29.701757616100387,0.032413752873738606,0.03269314765930176,0,0,0.5,4.622587079786828,-35.231177833341704,68.45892457933527,0,0,1.0522740443667222,0.5,0.03798371016665373,0.11105365859822922,1.0124113119679816,0.007585981308076836,0.09439976420253515,0.19001744221895933,1.6916478052735329,0.11901834080414649,3.5479437559843063,0.03608375845942646,19.610153138637543,0.0,0.0,0.0,0.0,0,0,0,0,True,1,4.009214878082275,0.06984912109375
GUIDED_NOGPS,4.0205957889556885,30.02515516167596,0.032357247670491536,0.032488346099853516,0,0,0.5,4.6228047920666215,-35.23102073899079,68.46963431595385,0,0,-1.0522740443666747,0.5,0.04177689790090523,0.11117437880878779,1.0316250384591379,0.0056484016117847435,0.053457566536962986,0.14122441643849015,1.6988318413496017,-0.08894296349574406,-1.5096504241228104,-0.07946320693008602,18.304407596588135,0.0,0.0,0.0,0.0,0,0,0,0,True,0,4.066622018814087,0.029934814453125
GUIDED_NOGPS,4.054011583328247,29.92596820685522,0.032512935002644856,0.03262972831726074,0,0,0.5,4.622152509000886,-35.23122905976048,68.49230371380912,0,0,-3.110215624979003,0.5,0.04102134478256917,0.10877553730079262,1.0175418300775936,0.00370791959216409,0.053457566536962986,0.14122441643849015,1.6988318413496017,-0.08894296349574406,-1.5096504241228104,-0.07946320693008602,18.304407596588135,0.0,0.0,0.0,0.0,0,0,0,0,True,0,4.095302104949951,0.029934814453125
GUIDED_NOGPS,4.087486743927002,29.875236833482912,0.032534154256184895,0.03264570236206055,0,0,0.5,4.622453891098012,-35.2308841352074,68.50429752599167,0,0,-5.030401940639183,0.5,0.04339200711095251,0.10667921227727023,1.0049797829273819,0.00012931991781534513,0.21417438983917236,0.14781204517930746,1.7121242359280586,-0.179142655118344,3.2018810510635376,-2.043931558728218,17.579206824302673,0.0,0.0,0.0,0.0,0,0,0,0,True,0,4.124154806137085,0.034924072265625
GUIDED_NOGPS,4.120980978012085,29.853972411633237,0.03245285352071126,0.03259420394897461,0,0,0.5,4.622687398190262,-35.229866437021066,68.51662601744354,0,0,-6.727785584168561,0.5,0.04159358932381217,0.10768765947069232,1.0053586664572287,0.004094218558012467,-0.018204908701591194,0.28090006671845913,2.096823789179325,0.21548274329846295,-5.246417969465256,0.2807718235999346,22.774693369865417,0.0,0.0,0.0,0.0,0,0,0,0,True,0,4.15294623374939,0.034925048828125
GUIDED_NOGPS,4.156311750411987,28.3037472416981,0.032456191380818684,0.03438901901245117,0,0,0.5,4.623088244917177,-35.22988692758857,68.52644099928085,0,0,-8.127187352021895,0.5,0.042753218605571866,0.10506343264208401,1.0008149004444413,0.0012735710134595783,0.13847444206476212,0.08563961018808186,1.8156645819544792,-0.1434858126388511,0.13876091688871384,-2.071353793144226,18.69642287492752,0.0,0.0,0.0,0.0,0,0,0,0,True,0,4.1813805103302,0.04490185546875
GUIDED_NOGPS,4.189984083175659,29.69755158106405,0.0323822816212972,0.032500505447387695,0,0,0.5,4.623463905321528,-35.228261342566114,68.55042862364593,0,0,-9.16662602342566,0.5,0.038988291201320566,0.10049906085643945,0.9825682420261428,0.0015918865044679672,0.0519262976013124,0.12123343767598271,1.5431828796863556,-0.12186861076130454,1.939983293414116,1.9362110644578934,18.442371487617493,0.0,0.0,0.0,0.0,0,0,0,0,True,0,4.238870859146118,0.02993603515625
GUIDED_NOGPS,4.22318172454834,30.122405596012698,0.03214577039082845,0.032380104064941406,0,0,0.5,4.621593714149414,-35.22800521047223,68.57650628589704,0,0,-9.800063584670857,0.5,0.03967660781467201,0.09778964579353475,0.9739044603379426,0.001444281782571553,0.1253996044397354,0.08604963077232242,1.7509987577795982,-0.002870787205094539,3.6801863461732864,-1.50363277643919,24.005411565303802,0.0,0.0,0.0,0.0,0,0,0,0,True,0,4.267508506774902,0.044903076171875
GUIDED_NOGPS,4.256864070892334,29.69271611318377,0.03251841862996419,0.032685279846191406,0,0,0.5,4.621628291982088,-35.228537965227495,68.58808345654022,0,0,-9.999444309209434,0.5,0.041018602484543934,0.09571827345786782,0.9771331139471747,0.0006405453847038848,0.1250643515959382,0.055644073290750384,1.6183847561478615,-0.03769158851676209,4.574863612651825,0.2200585324317217,20.291149616241455,0.0,0.0,0.0,0.0,0,0,0,0,True,0,4.29613471031189,0.024945068359375
GUIDED_NOGPS,4.290157318115234,30.03224974939138,0.03229978879292806,0.03243613243103027,0,0,0.5,4.622378759017143,-35.227957399148046,68.59897760826638,0,0,-9.755937380195574,0.5,0.04142815917603934,0.09225318030923865,0.9616864756870688,-8.455442288121066e-05,0.1250643515959382,0.055644073290750384,1.6183847561478615,-0.03769158851676209,4.574863612651825,0.2200585324317217,20.291149616241455,0.0,0.0,0.0,0.0,0,0,0,0,True,0,4.324852228164673,0.024945068359375
GUIDED_NOGPS,4.323662757873535,29.84505037855069,0.032471688588460286,0.0326693058013916,0,0,0.5,4.620301527735812,-35.22584004050534,68.62431077989797,0,0,-9.080328018195518,0.5,0.04164544960399683,0.09092539123396735,0.9516260985156443,0.0013969331272359812,0.11381483636796474,0.16531902365386486,1.8474608659744263,0.08808678861111237,3.9961136877536774,0.35709645599126816,22.352932393550873,0.0,0.0,0.0,0.0,0,0,0,0,True,0,4.353530406951904,0.0349248046875
GUIDED_NOGPS,4.357048273086548,29.953965363327978,0.03249362309773763,0.032622337341308594,0,0,0.5,4.621002902786208,-35.22562488954649,68.63465168630137,0,0,-8.00253979053977,0.5,0.042377713526493097,0.09036351803192384,0.9516367871712591,0.002838329861542405,0.11381483636796474,0.16531902365386486,1.8474608659744263,0.08808678861111237,3.9961136877536774,0.35709645599126816,22.352932393550873,0.0,0.0,0.0,0.0,0,0,0,0,True,0,4.382685899734497,0.0349248046875
GUIDED_NOGPS,4.3928985595703125,27.895635055235207,0.032556804021199544,0.034921884536743164,0,0,0.5,4.619593749383069,-35.224535474373866,68.65919255598922,0,0,-6.5703092598224675,0.5,0.0467107814609404,0.09065344935608306,0.9509570985979998,0.0037171528803539014,0.3231304930523038,0.21160084288567305,1.7993839457631111,0.05470774751875262,7.802841812372208,2.5303326547145844,24.89923983812332,0.0,0.0,0.0,0.0,0,0,0,0,True,1,4.413575649261475,0.064860107421875
